~VERSION INFORMATION
 VERS.                 2.0:   CWLS LOG ASCII STANDARD -VERSION 2.0
 WRAP.                  NO:   ONE LINE PER DEPTH STEP
~WELL INFORMATION BLOCK
#MNEM.UNIT           DATA                    DESCRIPTION OF MNEMONIC
#---------    -------------------            -------------------------------
# Generated from Intellog Unique Number	CC_84_87/WELL/2329
NULL.         -999.25                        : NULL_VALUE
WELL.         SUN CHEECHAM                   : Well_name    - WELL              
LOC .         11-17-084-07W4                 : Location     - LOCATION          
UWI .         AA/11-17-084-07W4/0            : Uwi          - UNIQUE WELL ID    
ENTR.         RJA                            : Entered      - ENTERED BY        
SRVC.         SCHLUMBERGER                   : Scn          - SERVICE COMPANY   
DATE.         02 FEB 80                      : Date         - LOG DATE
STRT.M        215                            : top_depth    - START DEPTH       
STOP.M        478.091                        : bot_depth    - STOP DEPTH        
STEP.M        0.3                            : increment    - STEP LENGTH       
~CURVE INFORMATION BLOCK
#MNEM UNIT       ERCB CURVE CODE    CURVE DESCRIPTION
#-----------   ------------------   ----------------------------------
DEPT.M        00 001 00 00         : DEPTH        - DEPTH                       
DPHI.V/V      00 890 00 00         : PHID         - DENSITY POROSITY (LIMESTONE)
NPHI.V/V      00 330 00 00         : PHIN         - NEUTRON POROSITY (LIMESTONE)
GR  .API      00 310 00 00         : GR           - GAMMA RAY                   
ILD .OHMM     00 120 00 00         : RESD         - DEEP RESISTIVITY (DIL)      
~PARAMETER INFORMATION       
#MNEM.UNIT           DATA             DESCRIPTION OF MNEMONIC
#---------         -----------     ------------------------------
GL  .M        679.4                : gl           - GROUND LEVEL ELEVATION      
EREF.M        682.4                : kb           - ELEVATION OF DEPTH REFERENCE
DATM.M        682.4                : datum        - DATUM ELEVATION             
TDD .M        482                  : tdd          - TOTAL DEPTH DRILLER         
RUN .         ONE                  : Run          - RUN NUMBER                  
ENG .         BILL                 : Engineer     - RECORDING ENGINEER          
WIT .         JIM                  : Witness      - WITNESSED BY                
MUD .         GEL                  : Mud_type     - MUD TYPE                    
MATR.         LIMESTONE            : Logunit      - NEUTRON MATRIX              
TMAX.C        43                   : BHT          - MAXIMUM RECORDED TEMPERATURE
BHTD.M        482                  : BHTDEP       - MAXIMUM RECORDED TEMPERATURE
MATR.         1                    : LOGUNIT      - NEUTRON MATRIX              
RMT .C        25                   : MDTP         - TEMPERATURE OF MUD          
NEUT.         1                    : NEUTRON      - NEUTRON TYPE                
RESI.         0                    : RESIST       - RESISTIVITY TYPE            
RMC .OHMM     0.25                 : RMC          - RESISTIVITY OF MUD CAKE     
RMF .OHMM     0.25                 : RMF          - RESISTIVITY OF MUD FILTRATE 
SUFT.C        4                    : SUFT         - SURFACE TEMPERATURE         
~A  DEPTH     PHID     PHIN       GR     RESD
  215.000    0.272    0.566  112.049    2.693
  215.300    0.280    0.570  106.628    2.786
  215.600    0.268    0.551  102.412    2.831
  215.900    0.278    0.559  109.642    2.721
  216.200    0.290    0.565  112.053    2.715
  216.500    0.301    0.560  110.247    2.859
  216.800    0.296    0.558  109.043    2.907
  217.100    0.309    0.569  106.634    2.898
  217.400    0.302    0.568  107.237    2.943
  217.700    0.286    0.554  107.238    2.935
  218.000    0.291    0.554  104.227    2.927
  218.300    0.299    0.528  101.819    2.919
  218.600    0.285    0.521  101.217    2.858
  218.900    0.315    0.523  100.013    2.852
  219.200    0.307    0.536   97.002    2.793
  219.500    0.329    0.564   95.196    2.733
  219.800    0.310    0.578  100.619    2.725
  220.100    0.314    0.582  103.030    2.668
  220.400    0.328    0.575  107.247    2.660
  220.700    0.328    0.582  112.068    2.653
  221.000    0.315    0.595  110.262    2.649
  221.300    0.305    0.596  108.455    2.691
  221.600    0.313    0.564  106.046    2.682
  221.900    0.309    0.566  108.457    2.626
  222.200    0.309    0.595  110.868    2.525
  222.500    0.326    0.603  110.868    2.472
  222.800    0.327    0.607  109.062    2.421
  223.100    0.296    0.601  104.846    2.370
  223.400    0.305    0.592  103.040    2.407
  223.700    0.260    0.562  102.439    2.492
  224.000    0.286    0.547  100.030    2.624
  224.300    0.292    0.566   99.428    2.768
  224.600    0.220    0.577   97.622    3.141
  224.900    0.213    0.540   84.972    3.767
  225.200    0.216    0.440   76.540    4.274
  225.500    0.232    0.448   71.119    4.591
  225.800    0.160    0.483   84.975    4.751
  226.100    0.242    0.499   95.217    4.482
  226.400    0.251    0.507  104.254    4.150
  226.700    0.244    0.507  110.280    3.914
  227.000    0.255    0.535  111.486    3.766
  227.300    0.261    0.527  113.294    3.554
  227.600    0.261    0.524  104.861    3.479
  227.900    0.256    0.517  107.272    3.535
  228.200    0.228    0.525  107.875    3.722
  228.500    0.226    0.533  102.454    3.921
  228.800    0.238    0.525  103.660    3.989
  229.100    0.249    0.503  104.263    4.128
  229.400    0.267    0.477   98.240    4.114
  229.700    0.271    0.489   97.639    3.954
  230.000    0.269    0.500  101.856    3.801
  230.300    0.243    0.503  107.279    3.723
  230.600    0.220    0.532  107.883    4.074
  230.900    0.191    0.559  101.860    5.161
  231.200    0.239    0.416   90.415    6.190
  231.500    0.299    0.457   92.825    7.703
  231.800    0.320    0.483   82.585    9.762
  232.100    0.311    0.469   74.153   10.681
  232.400    0.295    0.430   72.346   12.112
  232.700    0.291    0.405   77.769   12.777
  233.000    0.295    0.416   81.384   13.206
  233.300    0.304    0.428   81.988   13.430
  233.600    0.310    0.451   81.989   12.898
  233.900    0.314    0.457   75.363   13.343
  234.200    0.315    0.426   72.954   13.557
  234.500    0.311    0.426   88.618   13.028
  234.800    0.280    0.430   95.848   12.770
  235.100    0.261    0.439   84.403   12.502
  235.400    0.277    0.428   75.368   12.933
  235.700    0.297    0.387   75.971   13.892
  236.000    0.295    0.365   78.984   15.191
  236.300    0.296    0.371   80.190   15.722
  236.600    0.285    0.383   90.432   15.099
  236.900    0.319    0.421   92.240   14.253
  237.200    0.338    0.416   84.410   12.965
  237.500    0.345    0.402   82.604   12.237
  237.800    0.337    0.406   81.400   12.893
  238.100    0.304    0.404   77.184   13.341
  238.400    0.293    0.394   85.619   14.060
  238.700    0.274    0.408   86.825   14.550
  239.000    0.303    0.416   85.621   15.059
  239.300    0.307    0.393   74.778   16.463
  239.600    0.314    0.418   68.755   17.679
  239.900    0.329    0.427   61.527   18.983
  240.200    0.347    0.422   55.504   20.744
  240.500    0.360    0.414   51.891   22.282
  240.800    0.367    0.414   50.084   23.080
  241.100    0.370    0.406   50.687   22.574
  241.400    0.346    0.409   48.279   20.895
  241.700    0.313    0.387   53.099   20.095
  242.000    0.309    0.405   63.341   18.971
  242.300    0.332    0.418   69.969   18.220
  242.600    0.321    0.402   66.958   17.855
  242.900    0.301    0.404   60.934   18.481
  243.200    0.338    0.423   53.706   19.843
  243.500    0.368    0.440   59.732   20.899
  243.800    0.364    0.445   63.949   21.258
  244.100    0.347    0.441   67.565   20.416
  244.400    0.314    0.418   68.770   19.253
  244.700    0.131    0.377   67.567   19.230
  245.000    0.225    0.371   70.580   18.809
  245.300    0.292    0.381   79.014   18.092
  245.600    0.310    0.416  108.534   16.154
  245.900    0.315    0.440  117.571   14.418
  246.200    0.274    0.461  116.969   13.363
  246.500    0.233    0.459  109.742   12.148
  246.800    0.231    0.449  115.767   10.841
  247.100    0.254    0.452  103.719   10.238
  247.400    0.279    0.465   87.455    9.652
  247.700    0.308    0.463   75.408    9.457
  248.000    0.295    0.400   72.397   10.531
  248.300    0.316    0.421   73.603   12.401
  248.600    0.319    0.435   78.423   14.337
  248.900    0.303    0.412   80.833   16.267
  249.200    0.275    0.420   88.064   17.799
  249.500    0.248    0.444   91.679   18.410
  249.800    0.275    0.445   96.499   16.738
  250.100    0.275    0.400   98.910   14.948
  250.400    0.253    0.419   95.296   12.181
  250.700    0.274    0.431   84.454   12.416
  251.000    0.293    0.451   80.840   12.892
  251.300    0.315    0.476   80.239   14.689
  251.600    0.321    0.451   80.240   16.124
  251.900    0.291    0.432   80.843   18.033
  252.200    0.289    0.455   91.085   19.798
  252.500    0.292    0.473   83.255   21.734
  252.800    0.328    0.464   77.232   23.861
  253.100    0.331    0.441   73.618   25.714
  253.400    0.346    0.443   76.029   26.214
  253.700    0.351    0.425   79.644   25.740
  254.000    0.347    0.439   86.272   25.282
  254.300    0.331    0.450   86.273   24.374
  254.600    0.344    0.450   85.069   23.065
  254.900    0.334    0.446   85.070   20.267
  255.200    0.319    0.454   91.095   17.479
  255.500    0.291    0.433   97.120   14.000
  255.800    0.266    0.414   97.723   12.764
  256.100    0.281    0.428   97.122   11.426
  256.400    0.283    0.454  100.737   10.813
  256.700    0.290    0.472   94.715   10.818
  257.000    0.317    0.478   90.498   11.444
  257.300    0.340    0.484   85.680   12.332
  257.600    0.327    0.442   92.910   13.291
  257.900    0.289    0.432  106.164   10.842
  258.200    0.283    0.457  108.575    8.683
  258.500    0.171    0.487  109.781    7.628
  258.800    0.176    0.507  110.384    6.828
  259.100    0.209    0.499  101.349    7.091
  259.400    0.231    0.525   89.904    8.229
  259.700    0.308    0.504   77.254   11.081
  260.000    0.340    0.398   48.339   16.070
  260.300    0.339    0.395   42.316   19.356
  260.600    0.341    0.415   48.341   20.098
  260.900    0.327    0.432   56.174   18.330
  261.200    0.297    0.436   60.391   16.109
  261.500    0.305    0.413   67.019   15.530
  261.800    0.310    0.414   71.237   14.971
  262.100    0.313    0.430   74.250   14.977
  262.400    0.317    0.432   71.239   15.264
  262.700    0.303    0.413   70.637   15.853
  263.000    0.302    0.414   76.662   16.160
  263.300    0.326    0.402   68.230   16.472
  263.600    0.343    0.421   61.604   16.784
  263.900    0.335    0.426   57.388   17.428
  264.200    0.347    0.425   54.979   17.119
  264.500    0.329    0.436   59.800   16.201
  264.800    0.351    0.444   61.006   15.620
  265.100    0.346    0.431   60.404   15.339
  265.400    0.344    0.427   65.224   14.791
  265.700    0.325    0.439   65.828   14.523
  266.000    0.331    0.438   65.226   13.492
  266.300    0.327    0.438   67.637   12.769
  266.600    0.333    0.452   70.047   11.863
  266.900    0.339    0.432   72.458   11.649
