~Version : LASO    vs 4.00
VERS.                2.00:   CWLS Log ASCII Standard -VERSION 2.0
WRAP.                  NO:
~Well Information Block
#MNEM.UNIT       Data                        Description of Mnemonic
#----.----      -------------------------- : -----------------------------
STRT.M            21.0000:
STOP.M           215.4000:
STEP.M             0.2000:
NULL.           -999.2500:
COMP.  MOBIL OIL CANADA                 :COMPANY
WELL.  MOBIL CLARKE OV PROG. 2-81       :WELL
FLD.                                    :FIELD
LOC.   13-28-089-07W4                   :LOCATION
CTRY.  CANADA                           :COUNTRY
PROV.  ALBERTA                          :PROVINCE
SRVC.  SCHLUMBERGER                     :SERVICE COMPANY
DATE.  31-JAN-81                        :LOG DATE
UWI.   AA/13-28-089-07W400              :UNIQUE WELL ID
~Parameter Information Block
#MNEM.UNIT       Data                        Description of Mnemonic
#----.----      -------------------------- : -----------------------------
RUN .                   1                 : Run Number
GL  .M           458.5000                 : Ground Level Elevation
DREF.                  GD                 : Depth Reference
EREF.M           458.5000                 : Elevation of Depth Reference
TDL .M           216.0000                 : Total Depth Logger
TDD .M           216.0000                 : Total Depth Driller
CSGL.M            22.0000                 : Casing Bottom Logger
CSGD.M            22.0000                 : Casing Bottom Driller
CSGS.MM          219.0000                 : Casing Size
CSGW.KG/M          0.0000                 : Casing Weight
BHT .DEGC         12.0000                 : Bottom Hole Temperature
BS  .MM          171.0000                 : Bit Size
DFD .           9999.0000                 : Mud Weight (Density)
DFV .             45.0000                 : Mud Viscosity
DFPH.             11.0000                 : Mud pH
RM  .OHMM          5.7400                 : Mud Resistivity
RMT .DEGC         12.0000                 : Mud Resistivity Temperature
~Curve Information Block
#MNEM.UNIT        API CODE    Curve Description
#---------    ------------    -------------------------------------------
DEPT.M                    :   DEPTH
CALI.MM       42 280  1  1:   3 DENSITY CALIPER
DPHI.V/V                  :   DPHI
DT  .US/M     60 520  0  1:   2 SONIC INTERVAL TRANSIT TIME (COMPENSATED)
GR  .GAPI     42 310  1  1:   4 GAMMA RAY
ILD .OHMM      5 120 46  1:   7 DEEP INDUCTION
ILM .OHMM      5 120 44  1:   8 MEDIUM INDUCTION
NPHI.V/V      42 890  3  1:   5 NEUTRON POROSITY (SANDSTONE)
RHOB.K/M3     42 350  1  1:   6 BULK DENSITY
SFLU.OHMM      5 220  1  1:   9 FOCUSSED RESISTIVITY
SP  .MV        5  10  1  1:   10 SPONTANEOUS POTENTIAL
~A  Depth           CALI        DPHI          DT          GR         ILD         ILM        NPHI        RHOB        SFLU          SP
# ...
106.4000        207.1750      0.2216    522.0800    100.5750      4.6114      4.3195      0.5100   2319.5000      4.3755    -75.6300
106.6000        199.0000      0.2262    516.9600    100.2900      4.5691      4.2799      0.5102   2299.5000      3.9905    -75.1350
106.8000        193.5000      0.2321    511.6400    100.0950      4.5272      4.2799      0.5082   2272.8999      4.2957    -75.1350
107.0000        192.9750      0.2402    513.5600    100.2900      4.6114      4.3594      0.5141   2278.3000      4.3354    -74.8950
107.2000        194.6000      0.2468    517.4000     99.5400      4.6971      4.4816      0.5180   2302.1001      4.2957    -74.8950
107.4000        200.9750      0.2490    518.2400     93.2400      4.9640      4.9139      0.5236   2296.1001      4.8869    -78.3750
107.6000        195.0250      0.2525    514.4000     91.9200      5.1031      5.0516      0.5167   2259.6001      6.3304    -82.0950
107.8000        186.2000      0.2573    508.6800     90.3750      5.1979      5.1931      0.4999   2248.3999      7.0702    -85.0950
108.0000        181.1250      0.2645    501.8000     88.0650      5.2460      5.1455      0.4867   2225.8999      6.4481    -87.3300
108.2000        180.4250      0.2697    500.3200     88.6050      5.1503      4.9139      0.4842   2219.1001      7.3355    -85.5900
108.4000        180.3000      0.2527    498.2400     90.2400      4.9640      4.6928      0.4823   2217.2000      7.0702    -81.8550
108.6000        180.1750      0.2354    496.3200     94.0200      4.6971      4.4405      0.4810   2232.6001      5.3092    -77.8800
108.8000        187.1250      0.2247    498.6400     97.9350      4.2056      3.9394      0.5147   2322.8000      3.7725    -75.1350
109.0000        189.7000      0.2152    506.5200     99.6750      3.9795      3.7276      0.5272   2334.0000      3.4724    -74.6400
109.2000        191.0500      0.2154    515.2800    103.4850      3.8004      3.5598      0.5396   2324.5000      3.2556    -74.3850
109.4000        192.1750      0.2294    526.3600    106.0050      3.4660      3.3070      0.5647   2306.6001      3.1669    -73.6500
109.6000        192.5750      0.2419    526.3600    105.9600      3.3406      3.1874      0.5750   2298.8999      3.2556    -73.3950
109.8000        193.0000      0.2483    526.3600    105.1950      3.2198      3.0721      0.5802   2288.3000      3.3161    -73.3950
110.0000        198.5000      0.2425    527.8400    102.7650      3.0188      2.8802      0.5796   2266.5000      3.1962    -72.9000
110.2000        202.5750      0.2370    531.0400    102.4650      2.9365      2.8018      0.5775   2279.7000      2.9966    -72.9000
110.4000        200.3250      0.2317    535.2800    103.2150      2.8829      2.7004      0.5767   2282.3999      2.7079    -72.6450
110.6000        184.1750      0.2253    542.1200    105.2250      2.7532      2.6027      0.5766   2258.5000      2.5860    -72.1500
110.8000        182.2000      0.2211    545.0800    106.4250      2.7532      2.5789      0.5740   2250.6001      2.5155    -72.1500
111.0000        181.6500      0.2314    548.0800    107.2650      2.7532      2.6027      0.5725   2251.1001      2.2921    -72.1500
111.2000        181.6500      0.2378    548.2800    106.8600      2.8829      2.7004      0.5674   2241.6001      2.7582    -73.1400
111.4000        181.5250      0.2425    546.1600    105.0900      2.9911      2.8277      0.5643   2233.7000      2.9966    -73.6500
111.6000        181.3750      0.2493    545.0800    103.3050      3.1321      2.9883      0.5682   2263.8999      2.9691    -73.8900
111.8000        181.4500      0.2537    541.2400    101.6250      3.2797      3.1874      0.5718   2256.1001      2.9419    -74.3850
112.0000        183.0750      0.2566    527.8400     98.2200      3.6968      3.5598      0.5386   2259.2000      4.3755    -75.1350
112.2000        185.4750      0.2485    520.8000     97.2450      3.8711      3.7276      0.5275   2280.5000      4.4569    -75.3900
112.4000        193.0750      0.2371    513.5600     96.7650      4.0910      3.9033      0.5200   2360.3000      4.1786    -75.3900
112.6000        194.8250      0.2228    508.0400     97.1700      4.4038      4.2406      0.5210   2330.6001      4.5817    -75.6300
112.8000        192.9000      0.2148    507.6000     97.4700      4.4857      4.2799      0.5142   2316.2000      5.1645    -75.3900
113.0000        187.8000      0.2129    504.6000     97.7850      4.6114      4.3594      0.5068   2311.7000      5.0703    -74.6400
113.2000        187.1250      0.2165    499.0800     97.8300      4.8287      4.6498      0.5066   2289.2000      4.3755    -74.6400
113.4000        193.4000      0.2139    497.1600     97.3500      4.9185      4.7800      0.5095   2277.1001      4.8869    -75.3900
113.6000        197.2750      0.2232    496.0800     96.4350      4.9640      4.8689      0.5083   2263.0000      5.6109    -76.1250
113.8000        187.7000      0.2221    492.6800     99.6750      5.0099      4.9594      0.4827   2236.3999      5.5594    -76.3800
114.0000        185.4750      0.2344    490.3600    102.9300      5.0099      4.9594      0.4747   2275.0000      5.4079    -76.6350
114.2000        186.2250      0.2376    486.5200    106.1250      5.0563      4.8689      0.4763   2299.1001      5.4580    -77.3700
114.4000        185.0000      0.2291    485.4400    108.6300      5.0563      4.8243      0.4756   2313.6001      5.3092    -78.3750
114.6000        190.9750      0.2211    488.0000    109.4850      5.1031      5.0053      0.4688   2320.0000      4.8421    -79.6200
114.8000        199.4250      0.2142    488.8400    108.8250      5.1031      5.1455      0.4615   2321.0000      4.7977    -79.8600
115.0000        206.6750      0.2097    484.3600    107.4000      5.1979      5.2412      0.4484   2326.5000      4.9777    -79.8600
115.2000        195.9750      0.1952    465.8400     99.2100      5.5441      5.5390      0.4219   2393.0000      4.7977    -79.1100
115.4000        192.0750      0.1822    452.2000     93.7200      5.9133      5.8537      0.4112   2411.6001      4.6669    -79.1100
115.6000        188.5750      0.1720    442.8400     87.6900      6.3071      6.5378      0.4010   2434.7000      4.8869    -78.6150
115.8000        189.7000      0.1615    398.0800     74.6250      7.3085      8.5316      0.3443   2506.3999     14.7853    -75.6300
116.0000        185.0000      0.1464    344.0000     69.8700      7.9402      9.4413      0.3085   2536.1001     64.7187    -73.8900
116.2000        183.5000      0.1903    283.9200     67.3500      8.7868     10.5446      0.2210   2599.3000    273.0423    -72.6450
116.4000        181.9000      0.1460    191.0000     72.1800      9.8136     13.0326      0.2023   2749.0000    260.7534    -75.3900
116.6000        181.6500      0.1332    185.6800     75.7500      9.2860     12.6774      0.2163   2753.3000    172.1194    -78.6150
116.8000        181.3750      0.0994    186.7600     80.2200      8.4690     10.6422      0.2402   2752.7000     87.7869    -81.8550
117.0000        180.8000      0.1052    211.6800     88.5900      6.9156      6.7831      0.2833   2675.3000     10.4191    -83.3400
117.2000        180.8000      0.1220    265.3600     92.5350      6.3071      5.9079      0.3568   2514.8999      5.3583    -82.6050
117.4000        181.2250      0.1401    342.9200     95.3100      5.7521      5.4379      0.3998   2482.8999      4.1786    -81.8550
117.6000        181.6500      0.1725    419.4000     92.9100      5.2946      5.0984      0.4664   2283.8000      3.8818    -81.6000
117.8000        181.3750      0.1951    493.3200     90.7950      4.7844      4.6928      0.4826   2251.0000      4.2563    -81.8550
118.0000        181.1750      0.2210    491.8400     90.8400      4.6971      4.6071      0.4858   2256.0000      4.5817    -83.8500
118.2000        181.0000      0.2357    487.8000     90.9000      4.6971      4.5230      0.4942   2284.8999      5.1645    -86.3250
118.4000        180.7250      0.2391    493.9600     93.1200      4.7406      4.5230      0.5042   2290.2000      5.0703    -88.8150
