~VERSION INFORMATION
 VERS.                 2.0:   CWLS LOG ASCII STANDARD -VERSION 2.0
 WRAP.                  NO:   ONE LINE PER DEPTH STEP
~WELL INFORMATION BLOCK
#MNEM.UNIT           DATA                    DESCRIPTION OF MNEMONIC
#---------    -------------------            -------------------------------
# Generated from Intellog Unique Number	CC_84_87/WELL/2327
NULL.         -999.25                        : NULL_VALUE
WELL.         SUN CHEECHAM                   : Well_name    - WELL              
LOC .         11-15-084-07W4                 : Location     - LOCATION          
UWI .         AA/11-15-084-07W4/0            : Uwi          - UNIQUE WELL ID    
ENTR.         DW                             : Entered      - ENTERED BY        
SRVC.         SCHLUMBERGER                   : Scn          - SERVICE COMPANY   
DATE.         15 JAN 80                      : Date         - LOG DATE
STRT.M        140                            : top_depth    - START DEPTH       
STOP.M        430.094                        : bot_depth    - STOP DEPTH        
STEP.M        0.3                            : increment    - STEP LENGTH       
~CURVE INFORMATION BLOCK
#MNEM UNIT       ERCB CURVE CODE    CURVE DESCRIPTION
#-----------   ------------------   ----------------------------------
DEPT.M        00 001 00 00         : DEPTH        - DEPTH                       
DPHI.V/V      00 890 00 00         : PHID         - DENSITY POROSITY (LIMESTONE)
NPHI.V/V      00 330 00 00         : PHIN         - NEUTRON POROSITY (LIMESTONE)
GR  .API      00 310 00 00         : GR           - GAMMA RAY                   
ILD .OHMM     00 120 00 00         : RESD         - DEEP RESISTIVITY (DIL)      
~PARAMETER INFORMATION       
#MNEM.UNIT           DATA             DESCRIPTION OF MNEMONIC
#---------         -----------     ------------------------------
GL  .M        591                  : gl           - GROUND LEVEL ELEVATION      
EREF.M        594.35               : kb           - ELEVATION OF DEPTH REFERENCE
DATM.M        594.35               : datum        - DATUM ELEVATION             
TDD .M        435                  : tdd          - TOTAL DEPTH DRILLER         
RUN .         ONE                  : Run          - RUN NUMBER                  
ENG .         BILL                 : Engineer     - RECORDING ENGINEER          
WIT .         JIM                  : Witness      - WITNESSED BY                
MUD .         GEL                  : Mud_type     - MUD TYPE                    
MATR.         LIMESTONE            : Logunit      - NEUTRON MATRIX              
TMAX.C        20.5                 : BHT          - MAXIMUM RECORDED TEMPERATURE
BHTD.M        435                  : BHTDEP       - MAXIMUM RECORDED TEMPERATURE
MATR.         1                    : LOGUNIT      - NEUTRON MATRIX              
RMT .C        25                   : MDTP         - TEMPERATURE OF MUD          
NEUT.         1                    : NEUTRON      - NEUTRON TYPE                
RESI.         0                    : RESIST       - RESISTIVITY TYPE            
RMC .OHMM     0.25                 : RMC          - RESISTIVITY OF MUD CAKE     
RMF .OHMM     0.25                 : RMF          - RESISTIVITY OF MUD FILTRATE 
SUFT.C        4                    : SUFT         - SURFACE TEMPERATURE         
~A  DEPTH     PHID     PHIN       GR     RESD
# ...
  348.797    0.221    0.430   87.112    5.364
  349.097    0.213    0.443   85.319    5.451
  349.397    0.212    0.442   88.344    5.438
  349.697    0.230    0.465   93.176    5.425
  349.997    0.246    0.477   91.984    5.410
  350.297    0.266    0.471   89.591    5.400
  350.597    0.275    0.456   85.391    5.382
  350.897    0.258    0.443   86.009    5.375
  351.197    0.288    0.455   88.429    5.561
  351.497    0.223    0.409   83.626    5.651
  351.797    0.213    0.401   83.641    5.535
  352.097    0.220    0.415   87.267    5.420
  352.397    0.224    0.416   90.292    5.209
  352.697    0.217    0.411   95.725    5.202
  352.997    0.209    0.415   96.945    5.093
  353.297    0.210    0.438   93.345    5.175
  353.597    0.225    0.434   88.544    5.453
  353.897    0.219    0.434   86.751    5.547
  354.197    0.213    0.435   87.972    5.637
  354.497    0.207    0.447   92.801    5.522
  354.797    0.207    0.438   94.022    5.212
  355.097    0.209    0.444   92.831    4.917
  355.397    0.211    0.441   88.629    4.906
  355.697    0.236    0.446   71.183    5.887
  355.997    0.226    0.412   62.168    6.205
  356.297    0.157    0.361   69.407    5.858
  356.597    0.191    0.389   78.452    5.039
  356.897    0.229    0.416   81.476    4.756
  357.197    0.208    0.422   85.104    4.575
  357.497    0.214    0.430   83.912    4.477
  357.797    0.194    0.406   79.714    4.554
  358.097    0.188    0.428   82.136    4.798
  358.397    0.223    0.417   72.517    4.969
  358.697    0.243    0.396   68.918    5.051
  358.997    0.240    0.411   73.147    5.524
  359.297    0.255    0.400   70.753    5.828
  359.597    0.267    0.380   61.737    5.924
  359.897    0.275    0.386   57.537    5.691
  360.197    0.287    0.408   56.346    5.579
  360.497    0.246    0.401   62.983    5.169
  360.797    0.229    0.409   75.641    4.612
  361.097    0.216    0.444   73.247    4.196
  361.397    0.264    0.447   68.446    3.889
  361.697    0.283    0.426   56.418    3.672
  361.997    0.298    0.394   50.412    3.463
  362.297    0.219    0.383   61.264    3.455
  362.597    0.218    0.398   78.737    3.513
  362.897    0.220    0.425   86.578    3.705
  363.197    0.230    0.445   86.592    3.977
  363.497    0.243    0.434   79.985    4.118
  363.797    0.253    0.418   69.764    4.183
  364.097    0.268    0.405   67.972    4.252
  364.397    0.219    0.398   78.822    4.088
  364.697    0.248    0.421   81.848    3.931
  364.997    0.242    0.404   72.231    3.920
  365.297    0.235    0.382   70.437    4.057
  365.597    0.226    0.388   72.258    4.121
  365.897    0.230    0.398   72.874    4.117
  366.197    0.233    0.380   66.266    4.031
  366.497    0.219    0.375   75.913    3.947
  366.797    0.172    0.385   82.550    4.012
  367.097    0.185    0.405   84.371    4.231
  367.397    0.204    0.432   82.578    4.713
  367.697    0.236    0.490   66.939    5.255
  367.997    0.280    0.463   54.913    6.424
  368.297    0.312    0.447   53.122    7.854
  368.597    0.312    0.439   58.556    8.277
  368.897    0.300    0.416   60.977    8.110
  369.197    0.286    0.405   59.184    6.133
  369.497    0.282    0.407   59.802    5.181
  369.797    0.236    0.393   65.234    3.773
  370.097    0.196    0.366   68.861    3.432
  370.397    0.193    0.371   67.672    3.240
  370.697    0.194    0.369   68.891    3.112
  370.996    0.205    0.361   65.291    3.105
  371.296    0.212    0.358   64.100    3.156
  371.596    0.192    0.361   66.523    3.152
  371.896    0.204    0.382   69.548    3.262
  372.196    0.216    0.408   71.970    3.375
  372.496    0.227    0.429   66.566    3.495
  372.796    0.245    0.385   61.765    3.551
  373.096    0.259    0.360   64.186    3.543
  373.396    0.222    0.367   79.253    3.405
  373.696    0.194    0.367   85.889    3.214
  373.996    0.205    0.392   86.505    3.090
  374.296    0.213    0.404   83.510    3.142
  374.596    0.212    0.419   78.708    3.250
  374.896    0.229    0.436   67.885    3.306
  375.196    0.271    0.445   52.847    3.177
  375.496    0.292    0.390   49.853    3.056
  375.796    0.253    0.363   59.498    2.937
  376.096    0.218    0.369   76.373    3.042
  376.396    0.224    0.402   71.569    3.453
  376.696    0.246    0.437   60.746    4.220
  376.996    0.290    0.419   53.536    4.534
  377.296    0.278    0.386   59.570    4.276
  377.596    0.217    0.362   70.422    3.963
  377.896    0.208    0.362   78.867    3.675
  378.196    0.204    0.365   77.676    3.340
  378.496    0.225    0.371   72.872    3.334
  378.796    0.217    0.379   69.276    3.516
  379.096    0.225    0.435   63.871    4.298
  379.396    0.262    0.462   45.823    6.319
  379.696    0.336    0.444   35.002   17.097
  379.996    0.336    0.411   34.418   22.503
  380.296    0.307    0.383   35.030   19.013
  380.596    0.282    0.363   39.262    8.109
  380.896    0.268    0.337   42.284    5.801
  381.196    0.250    0.345   48.317    4.810
  381.496    0.253    0.351   59.771    3.571
  381.796    0.224    0.386   64.001    2.802
  382.096    0.231    0.396   68.831    2.454
  382.396    0.193    0.389   76.670    2.448
  382.696    0.198    0.412   76.685    2.490
  382.996    0.221    0.422   64.056    2.483
  383.296    0.232    0.395   66.479    2.388
  383.596    0.212    0.407   73.718    2.295
  383.896    0.202    0.433   70.724    2.125
  384.196    0.214    0.426   71.941    2.006
  384.496    0.212    0.430   74.363    1.966
  384.796    0.229    0.441   65.948    1.925
  385.096    0.256    0.419   62.350    1.922
  385.396    0.239    0.389   78.018    1.953
  385.696    0.177    0.441   88.267    1.984
  385.996    0.187    0.448   94.904    2.016
  386.296    0.195    0.448   90.707    2.049
  386.596    0.206    0.437   85.300    1.970
  386.896    0.218    0.420   76.886    1.759
  387.196    0.223    0.412   69.073    1.513
  387.496    0.254    0.408   63.669    1.377
  387.796    0.245    0.414   80.541    1.299
  388.096    0.208    0.421   78.750    1.396
  388.396    0.201    0.424   81.173    1.644
  388.696    0.197    0.407   86.604    1.800
  388.996    0.191    0.419   87.221    2.042
  389.296    0.193    0.443   81.816    2.153
  389.596    0.206    0.431   73.404    2.109
  389.896    0.228    0.396   73.417    1.686
  390.196    0.217    0.387   76.442    1.451
  390.496    0.232    0.404   69.231    1.369
  390.796    0.243    0.420   55.399    1.293
  391.096    0.221    0.391   49.994    1.176
  391.396    0.231    0.386   36.763    1.011
  391.696    0.271    0.369   34.973    0.937
  391.996    0.271    0.368   43.414    0.918
  392.296    0.256    0.354   56.071    1.081
  392.596    0.221    0.358   74.148    1.347
  392.896    0.193    0.368   65.131    1.420
  393.196    0.215    0.376   38.655    1.074
  393.496    0.262    0.384   24.822    0.827
  393.796    0.308    0.391   19.418    0.592
  394.096    0.323    0.393   20.640    0.491
  394.396    0.335    0.406   20.050    0.446
  394.696    0.330    0.406   20.667    0.429
  394.996    0.315    0.394   20.081    0.420
  395.296    0.315    0.404   20.694    0.412
  395.595    0.331    0.408   20.709    0.418
  395.895    0.324    0.412   20.723    0.433
  396.195    0.301    0.399   21.342    0.448
  396.495    0.304    0.400   22.559    0.464
  396.795    0.304    0.395   27.990    0.471
  397.095    0.303    0.387   39.444    0.479
  397.395    0.306    0.378   47.886    0.505
  397.695    0.295    0.401   61.145    0.553
  397.995    0.262    0.443   77.415    0.639
  398.295    0.178    0.453  106.929    0.768
  398.595    0.172    0.434  105.137    1.068
  398.895    0.183    0.426  106.961    2.110
  399.195    0.178    0.419  106.371    2.533
  399.495    0.184    0.421  100.363    2.719
  399.795    0.170    0.423  101.584    2.662
  400.095    0.158    0.412   96.782    2.658
  400.395    0.175    0.417   93.785    2.601
  400.695    0.166    0.438   90.788    2.549
