~VERSION INFORMATION
 VERS.                 2.0:   CWLS LOG ASCII STANDARD -VERSION 2.0
 WRAP.                  NO:   ONE LINE PER DEPTH STEP
~WELL INFORMATION BLOCK
#MNEM.UNIT           DATA                    DESCRIPTION OF MNEMONIC
#---------    -------------------            -------------------------------
# Generated from Intellog Unique Number	CC_84_87/WELL/2300
NULL.         -999.25                        : NULL_VALUE
WELL.         PEX PCEJ HANGST OV             : Well_name    - WELL              
LOC .         10-09-084-11W4                 : Location     - LOCATION          
UWI .         AA/10-09-084-11W400            : Uwi          - UNIQUE WELL ID    
ENTR.         JHS                            : Entered      - ENTERED BY        
SRVC.         DRESSER ATLAS                  : Scn          - SERVICE COMPANY   
DATE.         05 MAR 80                      : Date         - LOG DATE
STRT.M        125                            : top_depth    - START DEPTH       
STOP.M        366.797                        : bot_depth    - STOP DEPTH        
STEP.M        0.3                            : increment    - STEP LENGTH       
~CURVE INFORMATION BLOCK
#MNEM UNIT       ERCB CURVE CODE    CURVE DESCRIPTION
#-----------   ------------------   ----------------------------------
DEPT.M        00 001 00 00         : DEPTH        - DEPTH                       
DPHI.V/V      00 890 00 00         : PHID         - DENSITY POROSITY (LIMESTONE)
NPHI.V/V      00 330 00 00         : PHIN         - NEUTRON POROSITY (LIMESTONE)
GR  .API      00 310 00 00         : GR           - GAMMA RAY                   
ILD .OHMM     00 120 00 00         : RESD         - DEEP RESISTIVITY (DIL)      
~PARAMETER INFORMATION       
#MNEM.UNIT           DATA             DESCRIPTION OF MNEMONIC
#---------         -----------     ------------------------------
GL  .M        603.7                : gl           - GROUND LEVEL ELEVATION      
EREF.M        607.35               : kb           - ELEVATION OF DEPTH REFERENCE
DATM.M        607.35               : datum        - DATUM ELEVATION             
TDD .M        376                  : tdd          - TOTAL DEPTH DRILLER         
RUN .         ONE                  : Run          - RUN NUMBER                  
ENG .         BILL                 : Engineer     - RECORDING ENGINEER          
WIT .         JIM                  : Witness      - WITNESSED BY                
MUD .         GEL                  : Mud_type     - MUD TYPE                    
MATR.         LIMESTONE            : Logunit      - NEUTRON MATRIX              
TMAX.C        60                   : BHT          - MAXIMUM RECORDED TEMPERATURE
BHTD.M        376                  : BHTDEP       - MAXIMUM RECORDED TEMPERATURE
MATR.         1                    : LOGUNIT      - NEUTRON MATRIX              
RMT .C        25                   : MDTP         - TEMPERATURE OF MUD          
NEUT.         1                    : NEUTRON      - NEUTRON TYPE                
RESI.         0                    : RESIST       - RESISTIVITY TYPE            
RMC .OHMM     0.25                 : RMC          - RESISTIVITY OF MUD CAKE     
RMF .OHMM     0.25                 : RMF          - RESISTIVITY OF MUD FILTRATE 
SUFT.C        15                   : SUFT         - SURFACE TEMPERATURE         
~A  DEPTH     PHID     PHIN       GR     RESD
# ...
  281.600    0.204    0.322   87.316    9.938
  281.900    0.205    0.329   88.508    9.938
  282.200    0.201    0.322   84.187    9.754
  282.500    0.204    0.330   84.764    9.754
  282.800    0.203    0.324   83.499    9.754
  283.100    0.202    0.322   78.568    9.754
  283.400    0.191    0.337   83.434    9.754
  283.700    0.187    0.346   87.682    9.754
  284.000    0.196    0.342   88.259    9.574
  284.300    0.209    0.351   94.957    9.223
  284.600    0.235    0.356   93.082    8.885
  284.900    0.235    0.361   89.987    8.885
  285.200    0.253    0.363   91.791    8.885
  285.500    0.263    0.369   94.203    9.223
  285.800    0.248    0.371   94.778    9.574
  286.100    0.206    0.366   86.170    9.938
  286.400    0.211    0.360   82.465   10.511
  286.700    0.210    0.352   78.755   10.511
  287.000    0.204    0.341   75.048   10.125
  287.300    0.209    0.357   72.560    9.397
  287.600    0.259    0.374   79.873    8.245
  287.900    0.290    0.395   87.182    7.102
  288.200    0.304    0.411   91.434    6.232
  288.500    0.299    0.427   90.785    5.170
  288.800    0.286    0.440   96.871    4.537
  289.100    0.256    0.451  102.343    4.133
  289.400    0.216    0.454  101.698    4.290
  289.700    0.185    0.421  105.942    5.075
  290.000    0.183    0.375  102.238    6.232
  290.300    0.181    0.366   91.796    7.372
  290.600    0.184    0.351   85.641    8.720
  290.900    0.184    0.335   85.603    9.754
  291.200    0.175    0.329   94.752   10.125
  291.500    0.161    0.351   89.818   10.316
  291.800    0.159    0.348   78.766   10.316
  292.100    0.177    0.351   80.565   10.316
  292.400    0.175    0.350   89.704   10.125
  292.700    0.170    0.352   88.452    9.938
  293.000    0.177    0.341   91.475    9.938
  293.300    0.167    0.332   89.603    9.938
  293.600    0.159    0.329   87.730    9.754
  293.900    0.154    0.343   93.815    9.397
  294.200    0.147    0.344   90.111    8.885
  294.500    0.141    0.356   91.298    8.401
  294.800    0.187    0.369  101.671    7.511
  295.100    0.195    0.367   96.737    6.116
  295.400    0.215    0.365   94.252    4.889
  295.700    0.241    0.360   92.376    4.056
  296.000    0.261    0.410   91.119    3.764
  296.300    0.280    0.413   86.799    3.764
  296.600    0.283    0.407   74.521    4.133
  296.900    0.235    0.365   77.549    5.170
  297.200    0.228    0.358   75.672    6.232
  297.500    0.231    0.375   65.841    7.235
  297.800    0.255    0.392   67.645    7.235
  298.100    0.259    0.378   66.385    6.715
  298.400    0.251    0.383   76.752    5.268
  298.700    0.231    0.394   83.454    4.709
  299.000    0.236    0.383   90.759    4.537
  299.300    0.232    0.393   85.833    4.709
  299.600    0.226    0.386   85.797    5.170
  299.900    0.180    0.355   81.764    6.498
  300.200    0.230    0.369   76.854    6.022
  300.500    0.265    0.381   77.476    5.083
  300.799    0.268    0.393   80.558    4.455
  301.099    0.234    0.400   99.010    3.690
  301.399    0.227    0.393   95.944    3.485
  301.699    0.223    0.397   97.182    3.481
  301.999    0.210    0.408   92.272    3.818
  302.299    0.202    0.409   94.739    4.188
  302.599    0.192    0.417   95.978    4.344
  302.899    0.190    0.399   90.452    4.258
  303.199    0.179    0.387   92.919    4.253
  303.499    0.170    0.392   97.846    4.494
  303.799    0.159    0.372   98.469    4.489
  304.099    0.165    0.367   97.248    4.401
  304.399    0.203    0.395   91.109    4.235
  304.699    0.201    0.398   95.420    4.152
  304.999    0.199    0.390  100.962    4.307
  305.299    0.201    0.366  102.200    4.724
  305.599    0.194    0.343   95.445    5.182
  305.899    0.197    0.331   86.231    5.579
  306.199    0.239    0.353   86.239    6.472
  306.499    0.239    0.364   77.641    7.370
  306.799    0.231    0.357   80.723    8.393
  307.099    0.228    0.321   73.355    9.739
  307.399    0.232    0.323   72.133   10.681
  307.699    0.233    0.332   65.379   10.871
  307.999    0.220    0.335   69.076   10.267
  308.299    0.217    0.340   79.536    9.697
  308.599    0.210    0.334   83.231    8.820
  308.899    0.208    0.328   70.945    8.486
  309.199    0.205    0.324   66.650    8.637
  309.499    0.205    0.341   73.420    8.957
  309.799    0.209    0.339   84.494    9.288
  310.099    0.210    0.327   74.667    9.633
  310.399    0.211    0.333   84.510   10.178
  310.699    0.249    0.341   91.898   10.555
  310.999    0.242    0.346   90.060   10.743
  311.299    0.226    0.316   93.142   10.935
  311.599    0.229    0.299   97.454   12.452
  311.899    0.233    0.284   93.774   14.449
  312.199    0.245    0.250   87.633   18.066
  312.499    0.254    0.229   76.576   22.174
  312.799    0.263    0.209   60.601   28.785
  313.099    0.260    0.201   63.068   28.222
  313.399    0.282    0.205   64.920   21.690
  313.699    0.284    0.234   49.560   18.308
  313.999    0.244    0.273   52.643   16.043
  314.299    0.198    0.291   58.799   14.325
  314.599    0.238    0.301   57.577   12.790
  314.899    0.249    0.290   47.134   12.303
  315.199    0.251    0.286   48.371   12.292
  315.499    0.254    0.289   46.536   12.746
  315.799    0.257    0.295   45.315   14.245
  316.099    0.256    0.299   43.477   16.842
  316.399    0.260    0.296   48.405   20.669
  316.699    0.262    0.305   50.257   25.849
  316.999    0.262    0.300   62.561   32.323
  317.299    0.258    0.307   61.339   30.521
  317.599    0.240    0.290   58.888   26.253
  317.899    0.190    0.289   76.724   23.002
  318.199    0.182    0.295   76.733   20.538
  318.499    0.180    0.283   69.979   17.994
  318.799    0.184    0.286   69.373   16.680
  319.099    0.191    0.311   77.987   15.750
  319.399    0.203    0.331   75.537   15.733
  319.699    0.230    0.343   78.618   16.626
  319.999    0.230    0.351   75.553   21.181
  320.299    0.251    0.341   67.569   28.016
  320.599    0.268    0.334   47.905   35.038
  320.899    0.273    0.318   42.380   54.843
  321.199    0.273    0.316   41.158   69.878
  321.499    0.274    0.323   43.627   67.235
  321.799    0.279    0.327   38.717   58.915
  322.099    0.269    0.330   45.487   49.723
  322.399    0.256    0.327   46.110   41.198
  322.699    0.251    0.336   51.036   34.774
  322.999    0.237    0.348   62.725   28.271
  323.299    0.234    0.341   67.036   25.712
  323.599    0.243    0.333   63.971   25.213
  323.899    0.242    0.324   54.758   25.662
  324.199    0.219    0.319   57.839   23.786
  324.499    0.195    0.310   64.610   20.457
  324.799    0.170    0.322   77.528   17.591
  325.099    0.163    0.319   85.528   15.707
  325.398    0.164    0.315   94.758   13.764
  325.698    0.164    0.313   91.078   12.288
  325.998    0.154    0.325   91.701   11.605
  326.298    0.148    0.319   93.553   11.810
  326.598    0.140    0.316  104.628   12.479
  326.898    0.092    0.304  102.791   13.183
  327.198    0.076    0.289   95.422   14.197
  327.498    0.191    0.328   85.594   15.866
  327.798    0.243    0.332   89.906   19.473
  328.098    0.265    0.316   62.249   24.809
  328.398    0.263    0.303   56.725   32.815
  328.698    0.266    0.316   64.111   45.058
  328.998    0.276    0.317   64.734   52.282
  329.298    0.283    0.316   53.676   59.533
  329.598    0.284    0.321   46.307   60.595
  329.898    0.281    0.322   47.545   61.674
  330.198    0.278    0.328   42.636   63.953
  330.498    0.279    0.320   41.413   67.563
  330.798    0.282    0.333   43.881   72.740
  331.098    0.278    0.331   40.200   75.429
  331.398    0.278    0.324   47.586   71.237
  331.698    0.276    0.332   55.586   68.558
  331.998    0.270    0.328   54.981   67.210
  332.298    0.267    0.328   50.685   62.301
  332.598    0.266    0.327   46.389   55.614
  332.898    0.266    0.320   45.168   50.594
  333.198    0.267    0.313   55.012   41.136
  333.498    0.260    0.327   55.636   29.340
