~VERSION INFORMATION
 VERS.                 2.0:   CWLS LOG ASCII STANDARD -VERSION 2.0
 WRAP.                  NO:   ONE LINE PER DEPTH STEP
~WELL INFORMATION BLOCK
#MNEM.UNIT           DATA                    DESCRIPTION OF MNEMONIC
#---------    -------------------            -------------------------------
# Generated from Intellog Unique Number	CC_84_87/WELL/2325
NULL.         -999.25                        : NULL_VALUE
WELL.         ARCO ACI MCMURAY               : Well_name    - WELL
LOC .         11-11-085-09W4                 : Location     - LOCATION          
UWI .         AA/11-11-085-09W400            : Uwi          - UNIQUE WELL ID    
ENTR.         DW                             : Entered      - ENTERED BY        
SRVC.         SCHLUMBERGER                   : Scn          - SERVICE COMPANY   
DATE.         01 JAN 76                      : Date         - LOG DATE
STRT.M        259.08                         : top_depth    - START DEPTH       
STOP.M        499.88                         : bot_depth    - STOP DEPTH        
STEP.M        0.305                          : increment    - STEP LENGTH       
~CURVE INFORMATION BLOCK
#MNEM UNIT       ERCB CURVE CODE    CURVE DESCRIPTION
#-----------   ------------------   ----------------------------------
DEPT.M        00 001 00 00         : DEPTH        - DEPTH                       
ILD .OHMM     00 120 00 00         : RESD         - DEEP RESISTIVITY (DIL)      
DPHI.V/V      00 890 00 00         : PHID         - DENSITY POROSITY (LIMESTONE)
NPHI.V/V      00 330 00 00         : PHIN         - NEUTRON POROSITY (LIMESTONE)
GR  .API      00 310 00 00         : GR           - GAMMA RAY                   
~PARAMETER INFORMATION       
#MNEM.UNIT           DATA             DESCRIPTION OF MNEMONIC
#---------         -----------     ------------------------------
GL  .M        735.482              : gl           - GROUND LEVEL ELEVATION      
EREF.M        738.226              : kb           - ELEVATION OF DEPTH REFERENCE
DATM.M        738.226              : datum        - DATUM ELEVATION             
TDD .M        502.615              : tdd          - TOTAL DEPTH DRILLER         
RUN .         ONE                  : Run          - RUN NUMBER                  
ENG .         BILL                 : Engineer     - RECORDING ENGINEER          
WIT .         JIM                  : Witness      - WITNESSED BY                
MUD .         GEL                  : Mud_type     - MUD TYPE                    
MATR.         LIMESTONE            : Logunit      - NEUTRON MATRIX              
TMAX.C        24.4444              : BHT          - MAXIMUM RECORDED TEMPERATURE
BHTD.M        502.31               : BHTDEP       - MAXIMUM RECORDED TEMPERATURE
MATR.         1                    : LOGUNIT      - NEUTRON MATRIX              
RMT .C        25                   : MDTP         - TEMPERATURE OF MUD          
NEUT.         1                    : NEUTRON      - NEUTRON TYPE                
RESI.         0                    : RESIST       - RESISTIVITY TYPE            
RMC .OHMM     0.25                 : RMC          - RESISTIVITY OF MUD CAKE     
RMF .OHMM     0.25                 : RMF          - RESISTIVITY OF MUD FILTRATE 
SUFT.C        15                   : SUFT         - SURFACE TEMPERATURE         
~A  DEPTH     RESD     PHID     PHIN       GR
# ...
  471.227   23.115    0.264    0.396   85.217
  471.532   19.186    0.277    0.380   76.147
  471.837   18.483    0.266    0.368   79.794
  472.142   21.053    0.252    0.392   83.440
  472.447   25.357    0.267    0.409   84.662
  472.751   28.351    0.287    0.410   81.650
  473.056   32.900    0.299    0.405   80.450
  473.361   34.144    0.258    0.409   78.041
  473.666   32.285    0.256    0.409   76.236
  473.971   29.411    0.282    0.391   86.542
  474.276   24.871    0.277    0.385   98.663
  474.580   18.461    0.266    0.405  108.970
  474.885   14.491    0.226    0.423  110.193
  475.190   14.489    0.200    0.403  104.153
  475.495   16.199    0.280    0.392   75.102
  475.800   17.449    0.292    0.387   75.721
  476.104   15.032    0.269    0.374   82.997
  476.409   14.481    0.239    0.358   98.753
  476.714   16.805    0.220    0.342  107.243
  477.019   24.842    0.216    0.341  109.677
  477.324   36.722    0.261    0.381   90.315
  477.628   41.057    0.312    0.403   79.430
  477.933   41.051    0.318    0.399   73.993
  478.238   34.712    0.310    0.398   64.923
  478.543   31.041    0.301    0.389   65.541
  478.848   25.765    0.285    0.385   76.453
  479.152   20.991    0.271    0.407   84.942
  479.457   17.422    0.282    0.423   76.481
  479.762   15.009    0.284    0.410   77.701
  480.067   12.002    0.275    0.397   86.798
  480.372   10.535    0.265    0.402   97.103
  480.677    9.075    0.209    0.385  109.224
  480.981    8.582    0.146    0.379  123.163
  481.286    8.267    0.142    0.415  140.128
  481.591    8.421    0.154    0.476  140.143
  481.896    9.071    0.139    0.455  134.100
  482.201    9.591    0.271    0.443  120.793
  482.505   11.339    0.284    0.425  101.429
  482.810   13.405    0.283    0.410   86.305
  483.115   13.656    0.281    0.407   86.924
  483.420   12.912    0.267    0.392   94.808
  483.725   11.763    0.250    0.387  104.512
  484.029   10.715    0.222    0.393  109.368
  484.334   10.323    0.198    0.401  111.801
  484.639   10.131    0.188    0.408  114.842
  484.944   10.514    0.181    0.411  112.430
  485.249   10.710    0.157    0.404   99.728
  485.553   10.709    0.134    0.373  105.193
  485.858   10.316    0.208    0.388  109.441
  486.163   10.315    0.172    0.383  111.272
  486.468   10.123    0.202    0.420  106.441
  486.773   10.312    0.257    0.465   84.049
  487.078   11.108    0.272    0.434   70.742
  487.382   11.745    0.288    0.414   64.095
  487.687   12.651    0.324    0.417   54.419
  487.992   13.376    0.325    0.412   47.169
  488.297   13.626    0.324    0.409   50.210
  488.602   14.678    0.332    0.413   52.646
  488.906   17.032    0.347    0.439   52.050
  489.211   20.901    0.352    0.468   50.248
  489.516   32.671    0.345    0.461   50.259
  489.821   47.406    0.337    0.425   49.060
  490.126   61.515    0.331    0.419   41.202
  490.430   63.839    0.330    0.421   39.399
  490.735   62.655    0.331    0.428   40.623
  491.040   57.077    0.342    0.441   44.269
  491.345   47.376    0.348    0.443   49.730
  491.650   24.689    0.345    0.442   58.219
  491.954   17.011    0.327    0.430   72.762
  492.259   12.627    0.299    0.379   83.067
  492.564   10.287    0.243    0.363  108.510
  492.869    9.198    0.184    0.403  119.423
  493.174    8.861    0.180    0.430  113.986
  493.479    8.696    0.173    0.414  119.448
  493.783    8.696    0.167    0.419  119.462
  494.088    8.858    0.158    0.443  110.390
  494.393    9.023    0.169    0.426  105.563
  494.698    9.364    0.186    0.424  104.363
  495.003    9.539    0.176    0.386  101.953
  495.307    9.899    0.184    0.380   80.773
  495.612    9.898    0.188    0.428   19.639
  495.917    9.897    0.197    0.414   19.649
  496.222    9.534    0.197    0.404   19.664
  496.527    9.185    0.181    0.407   19.674
  496.831    8.684    0.170    0.431   18.474
  497.136    8.683    0.166    0.448   17.278
  497.441    8.845    0.171    0.425   18.505
  497.746    9.707    0.183    0.416   18.512
  498.051   10.456    0.174    0.422   17.919
  498.355   11.263    0.248    0.433   19.145
  498.660   10.261    0.277    0.437   21.577
  498.965    9.006    0.232    0.438   93.035
  499.270    8.515    0.159    0.438  119.085
  499.575    8.203    0.138    0.436  123.334
  499.880    7.902    0.150    0.434  125.164
