~VERSION INFORMATION
 VERS.                 2.0:   CWLS LOG ASCII STANDARD -VERSION 2.0
 WRAP.                  NO:   ONE LINE PER DEPTH STEP
~WELL INFORMATION BLOCK
#MNEM.UNIT           DATA                    DESCRIPTION OF MNEMONIC
#---------    -------------------            -------------------------------
# Generated from Intellog Unique Number	CS_77_79/WELL/969
WELL.         PEX PCEJ ALGAR OV              : Well_name    - WELL
LOC .         AA/10-26-079-15W4/0            : Location     - LOCATION
UWI .         AA/10-26-079-15W4/0            : Uwi          - UNIQUE WELL ID
ENTR.         JHS                            : Entered      - ENTERED BY
SRVC.         SCHLUMBERGER                   : Scn          - SERVICE COMPANY
STRT.M        225                            : top_depth    - START DEPTH
STOP.M        470                            : bot_depth    - STOP DEPTH
STEP.M        0.25                           : increment    - STEP LENGTH
 NULL. -999.2500:NULL Value
~CURVE INFORMATION BLOCK
#MNEM UNIT       ERCB CURVE CODE    CURVE DESCRIPTION
#-----------   ------------------   ----------------------------------
DEPT.M        00 001 00 00         : DEPTH        - DEPTH
DPHI.V/V      00 890 00 00         : PHID         - DENSITY POROSITY (LIMESTONE)
NPHI.V/V      00 330 00 00         : PHIN         - NEUTRON POROSITY (LIMESTONE)
GR  .API      00 310 00 00         : GR           - GAMMA RAY
ILD .OHMM     00 120 00 00         : RESD         - DEEP RESISTIVITY (DIL)
RHOB.KG/M3    00 350 00 00         : DENS         - BULK DENSITY
~PARAMETER INFORMATION
#MNEM.UNIT           DATA             DESCRIPTION OF MNEMONIC
#---------         -----------     ------------------------------
GL  .M        640.8                : gl           - GROUND LEVEL ELEVATION
EREF.M        644                  : kb           - ELEVATION OF DEPTH REFERENCE
DATM.M        644                  : datum        - DATUM ELEVATION
TDD .M        477                  : tdd          - TOTAL DEPTH DRILLER
RUN .         ONE                  : Run          - RUN NUMBER
ENG .         BILL                 : Engineer     - RECORDING ENGINEER
WIT .         JIM                  : Witness      - WITNESSED BY
MUD .         GEL                  : Mud_type     - MUD TYPE
MATR.         LIMESTONE            : Logunit      - NEUTRON MATRIX
TMAX.C        28                   : BHT          - MAXIMUM RECORDED TEMPERATURE
BHTD.M        477                  : BHTDEP       - MAXIMUM RECORDED TEMPERATURE
MATR.         1                    : LOGUNIT      - NEUTRON MATRIX
RMT .C        25                   : MDTP         - TEMPERATURE OF MUD
NEUT.         1                    : NEUTRON      - NEUTRON TYPE
RESI.         0                    : RESIST       - RESISTIVITY TYPE
RMC .OHMM     0.25                 : RMC          - RESISTIVITY OF MUD CAKE
RMF .OHMM     0.25                 : RMF          - RESISTIVITY OF MUD FILTRATE
SUFT.C        15                   : SUFT         - SURFACE TEMPERATURE
~A  DEPTH     PHID     PHIN       GR     RESD     DENS
  225.000    0.261    0.482   93.814    3.734    0.000
  225.250    0.265    0.469   90.144    3.526    0.000
  225.500    0.270    0.508   87.711    3.395    0.000
  225.750    0.270    0.516   92.069    3.268    0.000
  226.000    0.268    0.525   88.403    3.146    0.000
  226.250    0.270    0.532   88.437    3.085    0.000
  226.500    0.273    0.510   90.947    3.026    0.000
  226.750    0.271    0.496   95.296    2.913    0.000
  227.000    0.273    0.479   93.485    2.858    0.000
  227.250    0.282    0.466   87.345    2.649    0.000
  227.500    0.299    0.471   89.859    2.550    0.000
  227.750    0.322    0.500   92.971    2.409    0.000
  228.000    0.316    0.524   99.798    2.363    0.000
  228.250    0.299    0.529   95.516    2.361    0.000
  228.500    0.297    0.529   96.782    2.405    0.000
  228.750    0.290    0.517  101.142    2.449    0.000
  229.000    0.306    0.498   94.390    2.495    0.000
  229.250    0.317    0.472   89.486    2.494    0.000
  229.500    0.302    0.456   90.137    2.493    0.000
  229.750    0.287    0.475   93.876    2.445    0.000
  230.000    0.288    0.518   88.975    2.444    0.000
  230.250    0.280    0.487   93.334    2.489    0.000
  230.500    0.280    0.488   96.450    2.488    0.000
  230.750    0.283    0.486   91.551    2.534    0.000
  231.000    0.276    0.481   93.439    2.581    0.000
  231.250    0.277    0.488   94.089    2.580    0.000
  231.500    0.287    0.483   86.724    2.578    0.000
  231.750    0.288    0.511   86.758    2.626    0.000
  232.000    0.278    0.526   92.350    2.675    0.000
  232.250    0.269    0.521   95.467    2.724    0.000
  232.500    0.269    0.511   94.888    2.774    0.000
  232.750    0.269    0.521   98.013    2.826    0.000
  233.000    0.267    0.498   96.809    2.878    0.000
  233.250    0.263    0.487   95.613    2.931    0.000
  233.500    0.262    0.482   91.326    2.930    0.000
  233.750    0.264    0.495   96.919    2.984    0.000
  234.000    0.266    0.494   93.249    3.097    0.000
  234.250    0.267    0.474   91.435    3.214    0.000
  234.500    0.266    0.464   96.410    3.336    0.000
  234.750    0.259    0.480   84.716    3.397    0.000
  235.000    0.265    0.475   77.961    3.396    0.000
  235.250    0.308    0.463   79.853    3.394    0.000
  235.500    0.303    0.474   95.314    3.393    0.000
  235.750    0.269    0.450  103.374    3.520    0.000
  236.000    0.255    0.418   99.098    3.519    0.000
  236.250    0.248    0.446  102.212    3.652    0.000
  236.500    0.245    0.474  109.041    3.720    0.000
  236.750    0.243    0.492   87.472    3.789    0.000
  237.000    0.267    0.488   78.865    3.858    0.000
  237.250    0.341    0.487   96.800    3.857    0.000
  237.500    0.301    0.484   93.132    3.855    0.000
  237.750    0.270    0.512  101.193    3.781    0.000
  238.000    0.268    0.484   96.293    3.780    0.000
  238.250    0.275    0.486   92.010    3.638    0.000
  238.500    0.294    0.501   96.985    3.502    0.000
  238.750    0.294    0.481  100.722    3.435    0.000
  239.000    0.288    0.477   98.903    3.433    0.000
  239.250    0.302    0.481  100.799    3.497    0.000
  239.500    0.327    0.488  100.826    3.562    0.000
  239.750    0.322    0.466   99.627    3.627    0.000
  240.000    0.317    0.467   96.576    3.695    0.000
  240.250    0.320    0.466   95.382    3.693    0.000
  240.500    0.327    0.453   99.740    3.691    0.000
  240.750    0.339    0.466   92.364    3.760    0.000
  241.000    0.365    0.453   87.468    4.052    0.000
  241.250    0.360    0.447   84.414    4.708    0.000
  241.500    0.326    0.431   82.594    5.787    0.000
  241.750    0.264    0.398   80.164    7.116    0.000
  242.000    0.263    0.384   85.752    8.114    0.000
  242.250    0.274    0.392   91.960    9.975    0.000
  242.500    0.273    0.387   77.803   10.750    0.000
  242.750    0.272    0.364   72.285   11.805    0.000
  243.000    0.285    0.362   68.616   12.721    0.000
  243.250    0.298    0.383   66.183   13.454    0.000
  243.500    0.300    0.381   65.602   14.228    0.000
  243.750    0.292    0.372   73.046   14.493    0.000
  244.000    0.289    0.363   76.782   14.215    0.000
  244.250    0.288    0.369   72.499   13.427    0.000
  244.500    0.276    0.360   70.687   12.924    0.000
  244.750    0.273    0.355   75.653   12.207    0.000
  245.000    0.272    0.380   80.014   11.976    0.000
  245.250    0.271    0.382   81.283   11.528    0.000
  245.500    0.267    0.391   88.114   10.890    0.000
  245.750    0.263    0.399   94.316   10.287    0.000
  246.000    0.263    0.395   94.970    9.358    0.000
  246.250    0.302    0.414   86.361    8.841    0.000
  246.500    0.309    0.427   81.462    7.892    0.000
  246.750    0.264    0.403   75.325    7.456    0.000
  247.000    0.277    0.387   75.979    6.783    0.000
  247.250    0.293    0.409   80.953    6.056    0.000
  247.500    0.287    0.436   93.332    5.207    0.000
  247.750    0.281    0.439  101.388    4.393    0.000
  248.000    0.272    0.444  100.191    3.849    0.000
  248.250    0.260    0.430  109.487    3.847    0.000
  248.500    0.221    0.405  110.758    4.819    0.000
  248.750    0.170    0.379   94.125    6.269    0.000
  249.000    0.241    0.373   71.946    7.855    0.000
  249.250    0.288    0.379   65.809   10.412    0.000
  249.500    0.296    0.365   55.351   13.043    0.000
  249.750    0.310    0.366   51.072   14.596    0.000
  250.000    0.306    0.376   53.577   15.730    0.000
  250.250    0.302    0.372   54.224   16.324    0.000
  250.500    0.302    0.366   54.879   16.627    0.000
  250.750    0.302    0.379   59.232   15.705    0.000
  251.000    0.300    0.376   56.183   14.287    0.000
  251.250    0.295    0.373   61.779   12.755    0.000
  251.500    0.279    0.387   70.449   11.826    0.000
  251.750    0.270    0.387   79.748    9.610    0.000
  252.000    0.260    0.384   82.864    7.958    0.000
  252.250    0.250    0.356   81.668    8.575    0.000
  252.500    0.222    0.365   97.132    9.595    0.000
  252.750    0.180    0.357   95.317   10.147    0.000
  253.000    0.148    0.353   86.093    9.768    0.000
  253.250    0.148    0.368   91.075    8.398    0.000
  253.500    0.209    0.382   99.125    7.641    0.000
  253.750    0.247    0.414  107.806    6.694    0.000
  254.000    0.253    0.435  105.987    6.443    0.000
  254.250    0.257    0.440  100.466    6.562    0.000
  254.500    0.267    0.429   98.656    6.941    0.000
  254.750    0.281    0.419   89.433    8.531    0.000
  255.000    0.235    0.372   81.443    9.196    0.000
  255.250    0.236    0.373   86.419   10.486    0.000
  255.500    0.249    0.378   88.304   11.734    0.000
  255.750    0.270    0.385   91.429   13.130    0.000
  256.000    0.284    0.366   84.057   14.151    0.000
  256.250    0.280    0.353   74.832   14.963    0.000
  256.500    0.266    0.355   76.723   14.404    0.000
  256.750    0.264    0.364   81.692   13.866    0.000
  257.000    0.262    0.373   90.989   13.345    0.000
  257.250    0.268    0.379   93.491   14.113    0.000
  257.500    0.282    0.373   87.357   14.378    0.000
  257.750    0.286    0.363   82.452   15.786    0.000
  258.000    0.285    0.375   75.087   16.077    0.000
  258.250    0.280    0.371   77.591   16.073    0.000
  258.500    0.269    0.365   83.799   15.763    0.000
  258.750    0.267    0.376   85.072   15.172    0.000
  259.000    0.262    0.375   86.334   15.168    0.000
  259.250    0.251    0.380   91.925   14.597    0.000
  259.500    0.251    0.368   90.108   14.593    0.000
  259.750    0.258    0.379   93.236   14.583    0.000
  260.000    0.263    0.371   87.717   14.857    0.000
  260.250    0.266    0.366   90.219   14.848    0.000
  260.500    0.266    0.367   95.195   14.565    0.000
  260.750    0.263    0.357   93.994   13.757    0.000
  261.000    0.261    0.364   96.496   12.754    0.000
  261.250    0.266    0.363  100.236   11.386    0.000
