~VERSION INFORMATION
 VERS.                 2.0:   CWLS LOG ASCII STANDARD -VERSION 2.0
 WRAP.                  NO:   ONE LINE PER DEPTH STEP
~WELL INFORMATION BLOCK
#MNEM.UNIT           DATA                    DESCRIPTION OF MNEMONIC
#---------    -------------------            -------------------------------
# Generated from Intellog Unique Number	CC_80_83/WELL/2371
NULL.         -999.25                        : NULL_VALUE
WELL.         PEX PCEJ CHARD OV              : Well_name    - WELL
LOC .         10-26-080-09W4                 : Location     - LOCATION          
UWI .         AA/10-26-080-09W400            : Uwi          - UNIQUE WELL ID    
ENTR.         DW                             : Entered      - ENTERED BY        
SRVC.         SCHLUMBERGER                   : Scn          - SERVICE COMPANY   
DATE.         14 JAN 80                      : Date         - LOG DATE
STRT.M        275                            : top_depth    - START DEPTH       
STOP.M        494.891                        : bot_depth    - STOP DEPTH        
STEP.M        0.3                            : increment    - STEP LENGTH       
~CURVE INFORMATION BLOCK
#MNEM UNIT       ERCB CURVE CODE    CURVE DESCRIPTION
#-----------   ------------------   ----------------------------------
DEPT.M        00 001 00 00         : DEPTH        - DEPTH                       
DPHI.V/V      00 890 00 00         : PHID         - DENSITY POROSITY (LIMESTONE)
NPHI.V/V      00 330 00 00         : PHIN         - NEUTRON POROSITY (LIMESTONE)
GR  .API      00 310 00 00         : GR           - GAMMA RAY                   
ILD .OHMM     00 120 00 00         : RESD         - DEEP RESISTIVITY (DIL)      
~PARAMETER INFORMATION       
#MNEM.UNIT           DATA             DESCRIPTION OF MNEMONIC
#---------         -----------     ------------------------------
GL  .M        718.7                : gl           - GROUND LEVEL ELEVATION      
EREF.M        722.4                : kb           - ELEVATION OF DEPTH REFERENCE
DATM.M        722.4                : datum        - DATUM ELEVATION             
TDD .M        505                  : tdd          - TOTAL DEPTH DRILLER         
RUN .         ONE                  : Run          - RUN NUMBER                  
ENG .         BILL                 : Engineer     - RECORDING ENGINEER          
WIT .         JIM                  : Witness      - WITNESSED BY                
MUD .         GEL                  : Mud_type     - MUD TYPE                    
MATR.         LIMESTONE            : Logunit      - NEUTRON MATRIX              
TMAX.C        19                   : BHT          - MAXIMUM RECORDED TEMPERATURE
BHTD.M        505                  : BHTDEP       - MAXIMUM RECORDED TEMPERATURE
MATR.         1                    : LOGUNIT      - NEUTRON MATRIX              
RMT .C        25                   : MDTP         - TEMPERATURE OF MUD          
NEUT.         1                    : NEUTRON      - NEUTRON TYPE                
RESI.         0                    : RESIST       - RESISTIVITY TYPE            
RMC .OHMM     0.25                 : RMC          - RESISTIVITY OF MUD CAKE     
RMF .OHMM     0.25                 : RMF          - RESISTIVITY OF MUD FILTRATE 
SUFT.C        4                    : SUFT         - SURFACE TEMPERATURE         
~A  DEPTH     PHID     PHIN       GR     RESD
# ...
  431.594    0.250    0.505  118.405    3.962
  431.894    0.285    0.606  113.992    2.967
  432.194    0.312    0.623  119.569    2.354
  432.494    0.325    0.635  110.766    2.094
  432.794    0.332    0.635  121.348    1.974
  433.094    0.335    0.629  107.539    2.046
  433.394    0.336    0.644  106.232    2.205
  433.694    0.325    0.621  108.062    2.201
  433.994    0.298    0.566  108.647    2.872
  434.294    0.273    0.535  101.724    3.967
  434.594    0.268    0.509  107.922    4.704
  434.893    0.251    0.489  107.252    5.905
  435.193    0.221    0.463  100.950    7.001
  435.493    0.209    0.431  107.782    7.839
  435.793    0.204    0.404  117.103    7.243
  436.093    0.187    0.401  105.804    6.087
  436.393    0.188    0.388  117.639    5.112
  436.693    0.255    0.479  128.217    4.639
  436.993    0.258    0.544  118.164    4.208
  437.293    0.258    0.536  120.619    3.816
  437.593    0.263    0.528  105.556    3.594
  437.893    0.259    0.536  116.769    3.520
  438.193    0.257    0.552  112.341    3.512
  438.493    0.263    0.565  112.922    3.507
  438.793    0.268    0.596  119.746    3.434
  439.093    0.273    0.602  124.077    3.362
  439.393    0.277    0.607  122.769    3.419
  439.693    0.275    0.586  125.845    3.478
  439.993    0.270    0.564  127.680    3.747
  440.293    0.260    0.564  122.007    4.116
  440.593    0.249    0.563  114.447    4.519
  440.893    0.249    0.544  110.032    4.871
  441.193    0.262    0.551  115.610    5.559
  441.493    0.258    0.550  114.305    5.873
  441.793    0.252    0.524  113.631    5.752
  442.093    0.302    0.503  111.089    5.736
  442.393    0.327    0.479  114.789    5.840
  442.693    0.286    0.493  124.121    6.057
  442.993    0.290    0.518  122.195    6.525
  443.293    0.286    0.496  109.017    7.305
  443.593    0.264    0.466  108.970    8.330
  443.893    0.277    0.435  123.924    8.810
  444.193    0.279    0.410  111.995    9.308
  444.493    0.309    0.386   81.319    9.841
  444.793    0.283    0.353   86.894   10.401
  445.093    0.288    0.386   81.841   10.995
  445.393    0.279    0.375   88.045   12.075
  445.693    0.267    0.362   98.000   13.514
  445.993    0.262    0.397   92.326   14.563
  446.293    0.262    0.394  104.158   17.268
  446.593    0.267    0.392   99.107   20.470
  446.893    0.287    0.400   82.177   23.355
  447.193    0.281    0.401   77.124   23.304
  447.493    0.264    0.394   83.322   20.734
  447.793    0.258    0.408   95.782   18.453
  448.093    0.253    0.408   94.483   16.112
  448.393    0.240    0.412   99.441   13.275
  448.693    0.221    0.394   98.763   11.813
  448.993    0.229    0.381   99.968    9.737
  449.293    0.244    0.411  123.676    8.498
  449.593    0.204    0.408  123.628    7.859
  449.893    0.206    0.421  127.955    7.842
  450.193    0.214    0.428  144.784    8.291
  450.493    0.229    0.443  140.976    9.460
  450.793    0.224    0.435  136.557   11.000
  451.093    0.224    0.420  147.135   11.631
  451.393    0.230    0.431  138.960   12.773
  451.693    0.243    0.435  130.788   16.035
  451.993    0.254    0.400  106.360   20.135
  452.293    0.278    0.383   83.180   22.110
  452.593    0.273    0.370   78.751   17.540
  452.893    0.218    0.332   81.205   14.731
  453.193    0.182    0.313  100.533   12.620
  453.493    0.225    0.341   98.613   11.666
  453.793    0.224    0.358  101.067   11.422
  454.093    0.226    0.399  109.136   11.844
  454.393    0.235    0.411  102.843   13.516
  454.693    0.239    0.409   97.793   15.722
  454.993    0.239    0.410  103.998   20.903
  455.293    0.244    0.377   92.697   24.784
  455.593    0.270    0.368   68.891   26.704
  455.893    0.268    0.371   74.464   22.010
  456.193    0.254    0.377   78.172   17.790
  456.493    0.236    0.383   83.123   16.136
  456.793    0.222    0.380   94.328   14.921
  457.093    0.197    0.390   96.153   14.608
  457.393    0.230    0.402   99.844   16.046
  457.693    0.273    0.428   88.557   19.394
  457.993    0.320    0.457   77.876   23.434
  458.293    0.366    0.466   56.577   23.842
  458.593    0.309    0.402   33.394   19.274
  458.893    0.308    0.374   35.225   15.889
  459.193    0.307    0.363   62.682   15.261
  459.492    0.330    0.379  107.645   15.231
  459.792    0.358    0.425  101.343   17.377
  460.092    0.337    0.409   68.786   21.410
  460.392    0.284    0.377   61.237   30.153
  460.692    0.284    0.393   59.932   27.861
  460.992    0.290    0.396   75.515   24.790
  461.292    0.294    0.428   82.967   22.927
  461.592    0.287    0.439   89.175   21.194
  461.892    0.268    0.448   87.875   21.559
  462.192    0.246    0.452   89.698   21.525
  462.492    0.249    0.451   91.529   20.266
  462.792    0.272    0.441   95.232   19.859
  463.092    0.281    0.430   95.806   19.074
  463.392    0.281    0.413  107.011   18.309
  463.692    0.280    0.413   96.337   17.938
  463.992    0.276    0.419   85.652   16.265
  464.292    0.263    0.434   93.109   14.758
  464.592    0.243    0.471   91.190   13.129
  464.892    0.230    0.444  110.509   11.244
  465.192    0.232    0.453  109.221    9.628
  465.492    0.242    0.470  104.783    8.246
  465.792    0.244    0.447  107.249    7.199
  466.092    0.244    0.467  125.328    7.180
  466.392    0.239    0.450  141.535    7.307
  466.692    0.224    0.427  125.856    7.873
  466.992    0.215    0.398  125.807    8.812
  467.292    0.214    0.384  133.260    9.315
  467.592    0.216    0.367  128.839    9.848
  467.892    0.227    0.360  116.287   10.210
  468.192    0.234    0.347  107.476   10.791
  468.492    0.237    0.340   99.305   11.410
  468.792    0.240    0.346   98.637   12.521
  469.092    0.237    0.361  112.341   14.569
  469.392    0.236    0.376  117.292   16.309
  469.692    0.251    0.378  104.738   18.247
  469.992    0.277    0.379   88.433   18.924
  470.292    0.281    0.391   89.637   19.265
  470.592    0.286    0.398   87.088   17.469
  470.892    0.277    0.405   80.790   16.464
  471.192    0.260    0.395   82.617   16.120
  471.492    0.233    0.358   83.813   15.785
  471.792    0.245    0.347   85.017   16.678
  472.092    0.263    0.349   78.716   18.671
  472.392    0.275    0.383   80.546   21.714
  472.692    0.289    0.406   75.497   24.786
  472.992    0.307    0.402   81.703   29.385
  473.292    0.302    0.401   86.655   33.526
  473.592    0.299    0.401   95.358   38.248
  473.892    0.302    0.405   94.681   41.219
  474.192    0.307    0.411   76.498   43.569
  474.492    0.311    0.411   77.704   44.307
  474.792    0.310    0.410   78.284   40.974
  475.092    0.310    0.413   68.227   37.165
  475.392    0.326    0.433   65.680   34.354
  475.692    0.332    0.446   70.006   32.377
  475.992    0.327    0.450   80.590   31.093
  476.292    0.314    0.444  102.423   29.857
  476.592    0.294    0.408   98.621   28.695
  476.892    0.296    0.395   96.069   27.032
  477.192    0.296    0.446   99.145   25.956
  477.492    0.293    0.430   95.976   25.907
  477.792    0.285    0.411  104.054   25.867
  478.092    0.279    0.395  107.749   26.302
  478.392    0.284    0.398   96.455   26.244
  478.692    0.287    0.429   98.273   26.690
  478.992    0.287    0.454   93.852   26.663
  479.292    0.284    0.451  103.180   27.122
  479.592    0.294    0.445  103.139   27.061
  479.892    0.294    0.437  101.835   26.497
  480.192    0.293    0.435   93.035   25.939
  480.492    0.295    0.431  102.352   24.910
  480.792    0.297    0.425   99.799   23.930
  481.092    0.296    0.420  103.513   23.439
  481.392    0.286    0.416  106.596   22.949
  481.692    0.286    0.422   92.795   23.797
  481.992    0.284    0.430   93.367   24.215
  482.292    0.279    0.439   97.693   23.253
  482.592    0.284    0.441   87.645   22.339
  482.892    0.279    0.423   90.722   21.459
  483.192    0.270    0.407  101.306   20.617
  483.492    0.268    0.422  100.000   19.421
