~VERSION INFORMATION
 VERS.                 2.0:   CWLS LOG ASCII STANDARD -VERSION 2.0
 WRAP.                  NO:   ONE LINE PER DEPTH STEP
~WELL INFORMATION BLOCK
#MNEM.UNIT           DATA                    DESCRIPTION OF MNEMONIC
#---------    -------------------            -------------------------------
# Generated from Intellog Unique Number	CN_94_101/WELL/5043
WELL.         14-35-100-13W4                 : Well_name    - WELL
LOC .         AA/14-35-100-13W4/0            : Location     - LOCATION
UWI .         AA/14-35-100-13W400            : Uwi          - UNIQUE WELL ID
ENTR.         TIM                            : Entered      - ENTERED BY
SRVC.         SCHLUMBERGER                   : Scn          - SERVICE COMPANY
DATE.         08/11/92                       : Date         - LOG DATE
STRT.M        350.52                         : top_depth    - START DEPTH
STOP.M        576.02                         : bot_depth    - STOP DEPTH
STEP.M        0.25                           : increment    - STEP LENGTH
 NULL. -999.2500:NULL Value
~CURVE INFORMATION BLOCK
#MNEM UNIT       ERCB CURVE CODE    CURVE DESCRIPTION
#-----------   ------------------   ----------------------------------
DEPT.M        00 001 00 00         : DEPTH        - DEPTH
GR  .API      00 310 00 00         : GR           - GAMMA RAY
ILD .OHMM     00 120 00 00         : RESD         - DEEP RESISTIVITY (DIL)
NPHI.V/V      00 330 00 00         : PHIN         - NEUTRON POROSITY (SANDSTONE)
~PARAMETER INFORMATION
#MNEM.UNIT           DATA             DESCRIPTION OF MNEMONIC
#---------         -----------     ------------------------------
GL  .M        784.555              : gl           - GROUND LEVEL ELEVATION
EREF.M        787.908              : kb           - ELEVATION OF DEPTH REFERENCE
DATM.M        787.908              : datum        - DATUM ELEVATION
TDD .M        577.596              : tdd          - TOTAL DEPTH DRILLER
RUN .         ONE                  : Run          - RUN NUMBER
ENG .         BILL                 : Engineer     - RECORDING ENGINEER
WIT .         JIM                  : Witness      - WITNESSED BY
MUD .         GEL                  : Mud_type     - MUD TYPE
MATR.         SANDSTONE            : Logunit      - NEUTRON MATRIX
TMAX.C        22.2222              : BHT          - MAXIMUM RECORDED TEMPERATURE
BHTD.M        577.596              : BHTDEP       - MAXIMUM RECORDED TEMPERATURE
RMT .C        22.2222              : MDTP         - TEMPERATURE OF MUD
MUDD.KG/M     9400                 : MWT          - MUD DENSITY
NEUT.         1                    : NEUTRON      - NEUTRON TYPE
RESI.         0                    : RESIST       - RESISTIVITY TYPE
RM  .OHMM     9                    : RM           - RESISTIVITY OF MUD
RMC .OHMM     9                    : RMC          - RESISTIVITY OF MUD CAKE
RMF .OHMM     9                    : RMF          - RESISTIVITY OF MUD FILTRATE
SUFT.C        4                    : SUFT         - SURFACE TEMPERATURE
~A  DEPTH       GR     RESD     PHIN
# ...
  513.270   34.338    8.787    0.333
  513.520   38.090    8.137    0.337
  513.770   38.721    8.141    0.337
  514.020   39.978    8.144    0.336
  514.270   39.989    8.635    0.336
  514.520   38.134    9.157    0.335
  514.770   37.522    9.524    0.335
  515.020   38.157    9.715    0.333
  515.270   38.170    9.720    0.329
  515.520   36.936    9.175    0.322
  515.770   33.830    7.861    0.310
  516.020   28.857    7.000    0.310
  516.270   30.740    6.116    0.324
  516.520   31.374    5.773    0.331
  516.770   27.648    5.775    0.328
  517.020   23.298    6.245    0.324
  517.270   17.706    6.494    0.314
  517.520   17.094    7.299    0.300
  517.770   15.859    8.045    0.295
  518.020   14.624    8.868    0.296
  518.270   13.390    9.404    0.301
  518.520   12.158    9.973    0.307
  518.770   12.795   10.173    0.310
  519.020   13.423   10.177    0.308
  519.270   14.057    9.607    0.299
  519.520   14.071    8.723    0.297
  519.770   14.082    7.769    0.298
  520.020   18.457    6.787    0.301
  520.270   21.580    6.163    0.307
  520.520   27.821    5.817    0.334
  520.770   36.553    5.282    0.349
  521.020   43.422    4.704    0.364
  521.270   45.299    4.441    0.370
  521.520   46.559    4.275    0.370
  521.770   47.816    4.359    0.369
  522.020   49.070    4.535    0.363
  522.270   67.149    4.625    0.355
  522.520   73.390    5.002    0.350
  522.770   75.893    5.201    0.338
  523.020   74.035    5.409    0.326
  523.270   71.554    5.737    0.329
  523.520   69.697    5.850    0.336
  523.770   69.088    5.969    0.336
  524.020   67.853    6.088    0.334
  524.270   62.258    6.091    0.332
  524.520   56.042    6.094    0.327
  524.770   53.559    5.753    0.319
  525.020   52.947    5.536    0.313
  525.270   55.450    5.226    0.301
  525.520   60.448    4.934    0.276
  525.770   66.065    4.841    0.256
  526.020   71.060    4.659    0.328
  526.270   74.811    4.752    0.355
  526.520   77.937    4.942    0.345
  526.770   79.194    5.448    0.342
  527.020   73.599    6.365    0.337
  527.270   66.135    7.582    0.330
  527.520   56.802    9.031    0.322
  527.770   49.961   11.183    0.323
  528.020   41.251   14.396    0.332
  528.270   31.295   16.496    0.338
  528.520   26.323   17.834    0.336
  528.770   28.203   18.194    0.335
  529.020   30.083   18.200    0.332
  529.270   29.480   18.213    0.332
  529.520   28.865   17.869    0.328
  529.770   29.499   16.867    0.324
  530.020   30.133   15.320    0.319
  530.270   31.390   14.741    0.318
  530.520   33.270   13.130    0.318
  530.770   35.153   11.922    0.319
  531.020   36.407   10.618    0.319
  531.270   43.894    9.456    0.319
  531.520   40.790    8.755    0.319
  531.770   35.821    7.951    0.319
  532.020   33.960    7.802    0.319
  532.270   37.712    7.958    0.320
  532.520   47.067    8.439    0.320
  532.770   55.802    8.607    0.320
  533.020   49.581    9.489    0.315
  533.270   43.986   10.259    0.311
  533.520   41.505   11.090    0.309
  533.770   37.161   14.002    0.312
  534.020   34.058   16.681    0.319
  534.270   31.577   19.486    0.320
  534.520   29.720   21.900    0.318
  534.770   29.110   19.506    0.318
  535.020   28.496   17.372    0.318
  535.270   28.504   15.175    0.320
  535.520   27.898   13.515    0.326
  535.770   27.909   12.759    0.331
  536.020   28.541   12.520    0.334
  536.270   31.049   12.285    0.337
  536.520   32.300   12.056    0.337
  536.770   33.558   11.828    0.336
  537.020   33.574   11.834    0.336
  537.270   33.583   11.839    0.334
  537.520   34.217   11.394    0.333
  537.770   36.722   10.757    0.332
  538.020   37.977    9.769    0.328
  538.270   39.857    8.700    0.320
  538.520   39.868    7.599    0.320
  538.770   37.393    6.510    0.321
  539.020   38.650    5.161    0.327
  539.270   41.779    4.508    0.326
  539.520   43.030    3.788    0.323
  539.770   42.418    3.184    0.312
  540.020   39.315    2.891    0.305
  540.270   39.952    2.729    0.302
  540.520   44.323    2.576    0.314
  540.770   49.941    2.432    0.323
  541.020   54.935    2.433    0.330
  541.270   74.258    2.387    0.339
  541.520   92.960    2.435    0.344
  541.770   93.599    2.436    0.345
  542.020   91.736    2.485    0.344
  542.270   89.884    2.486    0.346
  542.520   91.138    2.536    0.353
  542.770   92.392    2.488    0.357
  543.020   93.655    2.442    0.360
  543.270   94.287    2.396    0.369
  543.520   94.923    2.398    0.369
  543.770   94.932    2.398    0.362
  544.020   96.194    2.400    0.356
  544.270   96.826    2.448    0.345
  544.520   98.085    2.596    0.341
  544.770   98.722    2.597    0.341
  545.020   98.105    2.701    0.343
  545.270   93.133    2.809    0.345
  545.520   87.537    2.979    0.345
  545.770   78.828    3.098    0.337
  546.020   68.249    2.982    0.330
  546.270   60.785    2.656    0.322
  546.520   58.930    2.411    0.314
  546.770   60.810    2.189    0.311
  547.020   62.690    1.913    0.311
  547.270   62.701    1.576    0.313
  547.520   61.472    1.351    0.316
  547.770   60.232    1.180    0.318
  548.020   55.259    1.092    0.323
  548.270   40.323    1.072    0.326
  548.520   32.859    1.052    0.331
  548.770   26.018    1.052    0.332
  549.020   23.537    1.053    0.332
  549.270   23.554    1.095    0.330
  549.520   24.805    1.207    0.329
  549.770   29.800    1.330    0.327
  550.020   47.256    1.554    0.323
  550.270   62.840    1.781    0.320
  550.520   77.802    1.963    0.317
  550.770   82.177    2.003    0.314
  551.020   85.305    1.890    0.314
  551.270   86.565    1.855    0.314
  551.520   86.571    1.684    0.314
  551.770   84.096    1.415    0.314
  552.020   81.609    1.236    0.315
  552.270   71.654    1.059    0.315
  552.520   55.468    1.000    0.310
  552.770   39.906    0.908    0.308
  553.020   31.196    0.841    0.306
  553.270   26.227    0.809    0.315
  553.520   23.749    0.779    0.331
  553.770   23.763    0.764    0.336
  554.020   23.771    0.750    0.337
  554.270   23.780    0.750    0.336
  554.520   21.299    0.750    0.333
  554.770   18.819    0.736    0.331
  555.020   18.212    0.723    0.327
  555.270   18.226    0.709    0.322
  555.520   18.855    0.696    0.321
  555.770   18.866    0.696    0.326
  556.020   18.880    0.683    0.329
  556.270   19.514    0.683    0.335
  556.520   18.900    0.684    0.339
  556.770   18.291    0.711    0.338
  557.020   19.550    0.740    0.337
  557.270   21.433    0.754    0.332
  557.520   23.308    0.800    0.314
  557.770   26.433    0.899    0.310
  558.020   30.185    1.050    0.311
  558.270   35.180    1.136    0.315
  558.520   38.308    1.301    0.319
  558.770   40.808    1.380    0.312
  559.020   52.032    1.354    0.310
  559.270   58.899    1.303    0.311
  559.520   60.156    1.161    0.310
  559.770   62.658    1.117    0.305
  560.020   75.128    1.075    0.303
  560.270   86.975    1.015    0.302
  560.520   90.101    0.922    0.304
  560.770   85.132    0.853    0.317
  561.020   77.045    0.806    0.333
  561.270   68.958    0.790    0.341
  561.520   59.002    0.732    0.346
  561.770   45.931    0.704    0.350
  562.020   34.107    0.678    0.348
  562.270   26.643    0.652    0.345
  562.520   24.162    0.653    0.341
  562.770   26.042    0.666    0.336
  563.020   29.794    0.706    0.334
  563.270   29.182    0.734    0.336
  563.520   29.193    0.875    0.343
  563.770   36.056    1.022    0.355
  564.020   82.791    1.194    0.355
  564.270  102.113    1.760    0.357
  564.520  106.484    2.265    0.360
  564.770  107.741    2.973    0.364
  565.020  110.247    3.611    0.375
  565.270  113.996    3.613    0.393
  565.520  115.253    3.477    0.479
  565.770  117.133    3.283    0.460
  566.020  117.770    3.099    0.442
  566.270  117.778    3.040    0.391
  566.520  117.792    2.926    0.368
  566.770  117.180    2.871    0.368
  567.020  116.571    2.818    0.370
  567.270  115.957    2.819    0.371
