~VERSION INFORMATION
 VERS.                 2.0:   CWLS LOG ASCII STANDARD -VERSION 2.0
 WRAP.                  NO:   ONE LINE PER DEPTH STEP
~WELL INFORMATION BLOCK
#MNEM.UNIT           DATA                    DESCRIPTION OF MNEMONIC
#---------    -------------------            -------------------------------
# Generated from Intellog Unique Number	CC_80_83/WELL/2416
NULL.         -999.25                        : NULL_VALUE
WELL.         PEX PCEJ HANGST OV             : Well_name    - WELL              
LOC .         11-29-082-08W4                 : Location     - LOCATION          
UWI .         AA/11-29-082-08W4/0            : Uwi          - UNIQUE WELL ID    
ENTR.         RJA                            : Entered      - ENTERED BY        
SRVC.         DRESSER ATLAS                  : Scn          - SERVICE COMPANY   
DATE.         24 FEB 80                      : Date         - LOG DATE
STRT.M        250                            : top_depth    - START DEPTH       
STOP.M        510.09                         : bot_depth    - STOP DEPTH        
STEP.M        0.3                            : increment    - STEP LENGTH       
~CURVE INFORMATION BLOCK
#MNEM UNIT       ERCB CURVE CODE    CURVE DESCRIPTION
#-----------   ------------------   ----------------------------------
DEPT.M        00 001 00 00         : DEPTH        - DEPTH                       
DPHI.V/V      00 890 00 00         : PHID         - DENSITY POROSITY (LIMESTONE)
NPHI.V/V      00 330 00 00         : PHIN         - NEUTRON POROSITY (LIMESTONE)
GR  .API      00 310 00 00         : GR           - GAMMA RAY                   
ILD .OHMM     00 120 00 00         : RESD         - DEEP RESISTIVITY (DIL)      
~PARAMETER INFORMATION       
#MNEM.UNIT           DATA             DESCRIPTION OF MNEMONIC
#---------         -----------     ------------------------------
GL  .M        735.57               : gl           - GROUND LEVEL ELEVATION      
EREF.M        739.17               : kb           - ELEVATION OF DEPTH REFERENCE
DATM.M        739.17               : datum        - DATUM ELEVATION             
TDD .M        518                  : tdd          - TOTAL DEPTH DRILLER         
RUN .         ONE                  : Run          - RUN NUMBER                  
ENG .         BILL                 : Engineer     - RECORDING ENGINEER          
WIT .         JIM                  : Witness      - WITNESSED BY                
MUD .         GEL                  : Mud_type     - MUD TYPE                    
MATR.         LIMESTONE            : Logunit      - NEUTRON MATRIX              
TMAX.C        15                   : BHT          - MAXIMUM RECORDED TEMPERATURE
BHTD.M        5182                 : BHTDEP       - MAXIMUM RECORDED TEMPERATURE
MATR.         1                    : LOGUNIT      - NEUTRON MATRIX              
RMT .C        25                   : MDTP         - TEMPERATURE OF MUD          
NEUT.         1                    : NEUTRON      - NEUTRON TYPE                
RESI.         0                    : RESIST       - RESISTIVITY TYPE            
RMC .OHMM     0.25                 : RMC          - RESISTIVITY OF MUD CAKE     
RMF .OHMM     0.25                 : RMF          - RESISTIVITY OF MUD FILTRATE 
SUFT.C        15                   : SUFT         - SURFACE TEMPERATURE         
~A  DEPTH     PHID     PHIN       GR     RESD
# ...
  302.198    0.259    0.332   78.503   15.073
  302.498    0.250    0.337   84.195   13.627
  302.798    0.250    0.358   83.707   13.164
  303.098    0.260    0.375   81.164   13.131
  303.398    0.274    0.376   95.665   12.099
  303.698    0.276    0.365   97.156    9.206
  303.998    0.299    0.361   76.329    6.809
  304.298    0.246    0.383   78.253    5.558
  304.598    0.204    0.411  101.310    4.623
  304.898    0.162    0.428  116.438    4.109
  305.198    0.116    0.443  103.663    4.022
  305.498    0.124    0.413   92.623    4.190
  305.798    0.173    0.406   88.296    4.710
  306.098    0.186    0.395   95.852    5.785
  306.398    0.217    0.405  101.810    7.538
  306.698    0.275    0.369   87.925   11.341
  306.998    0.295    0.341   77.638   17.485
  307.298    0.304    0.331  100.632   21.564
  307.598    0.293    0.344  147.418   21.715
  307.898    0.296    0.364  203.090   20.426
  308.198    0.305    0.347  225.778   19.546
  308.498    0.304    0.320   50.241   18.876
  308.798    0.298    0.314   54.328   18.836
  309.098    0.301    0.334   55.568   18.542
  309.398    0.307    0.327   51.110   18.392
  309.698    0.298    0.348   61.957   17.833
  309.998    0.300    0.363   66.483   16.841
  310.298    0.294    0.349   77.268   15.900
  310.598    0.277    0.313   64.060   15.505
  310.898    0.269    0.317   61.831   14.978
  311.198    0.282    0.330   68.344   14.225
  311.498    0.292    0.347   76.027   12.957
  311.798    0.268    0.331   76.145   12.515
  312.098    0.246    0.327   84.893   12.230
  312.398    0.246    0.337   79.561   11.374
  312.698    0.256    0.335   88.175    8.938
  312.998    0.245    0.340   74.537    8.127
  313.298    0.224    0.336   87.931    7.703
  313.598    0.200    0.344  108.758    7.996
  313.898    0.196    0.376  100.762    9.193
  314.198    0.246    0.355  101.071   11.509
  314.498    0.279    0.330  101.939   13.641
  314.798    0.294    0.330   90.471   16.043
  315.098    0.292    0.349   97.908   17.661
  315.398    0.298    0.339   90.536   17.817
  315.698    0.300    0.332   78.570   16.078
  315.998    0.291    0.329   91.337   13.888
  316.298    0.265    0.352   99.698   12.180
  316.598    0.238    0.356   97.909   11.245
  316.898    0.223    0.357   93.137   10.658
  317.198    0.222    0.351  101.383   10.611
  317.498    0.233    0.341   97.228   11.116
  317.798    0.236    0.354   92.763   11.433
  318.098    0.237    0.362   92.454   12.489
  318.398    0.237    0.345   97.603   12.842
  318.698    0.240    0.360   98.592   12.408
  318.997    0.246    0.342   89.045   10.438
  319.297    0.241    0.329   91.586    9.562
  319.597    0.241    0.364   92.829    9.099
  319.897    0.232    0.371   89.293    9.426
  320.197    0.200    0.337   74.733   10.297
  320.497    0.180    0.340   82.725   10.770
  320.797    0.198    0.355   73.736   10.541
  321.097    0.217    0.343   85.519   10.108
  321.397    0.234    0.336  100.638    9.242
  321.697    0.211    0.358   93.823    8.387
  321.997    0.197    0.362   98.340    7.771
  322.297    0.193    0.365  101.630    7.228
  322.597    0.189    0.344   98.534    6.838
  322.897    0.182    0.365  108.886    6.568
  323.197    0.178    0.386  108.074    6.368
  323.497    0.183    0.386  105.226    6.814
  323.797    0.198    0.389  115.516    7.544
  324.097    0.201    0.395  110.559    8.511
  324.397    0.209    0.382  101.381    9.656
  324.697    0.217    0.385   89.422   10.549
  324.997    0.226    0.385   87.939   11.223
  325.297    0.224    0.385   89.300   11.628
  325.597    0.208    0.382   86.946   11.105
  325.897    0.199    0.359   91.529    9.794
  326.197    0.195    0.363  102.130    8.956
  326.497    0.198    0.383  104.115    8.442
  326.797    0.212    0.379  100.584    8.123
  327.097    0.234    0.381  104.117    8.163
  327.397    0.246    0.384  109.943    9.020
  327.697    0.252    0.388   95.248   10.567
  327.997    0.253    0.368   89.669   11.076
  328.297    0.246    0.345   85.455   12.378
  328.597    0.238    0.354   92.025   14.123
  328.897    0.228    0.355   90.293   15.603
  329.197    0.233    0.354   75.729   15.958
  329.497    0.250    0.364   59.301   16.912
  329.797    0.284    0.338   52.103   17.287
  330.097    0.299    0.335   47.282   17.316
  330.397    0.309    0.338   46.038   16.983
  330.697    0.314    0.343   40.213   16.247
  330.997    0.319    0.340   40.584   16.144
  331.297    0.320    0.343   48.952   16.203
  331.597    0.315    0.308   48.584   16.566
  331.897    0.312    0.316   58.924   17.128
  332.197    0.311    0.335   52.674   17.443
  332.497    0.312    0.343   55.711   17.538
  332.797    0.310    0.331   47.216   17.528
  333.097    0.306    0.322   49.137   17.650
  333.397    0.302    0.339   54.033   17.572
  333.697    0.300    0.360   55.832   17.592
  333.997    0.302    0.364   49.446   17.521
  334.297    0.299    0.365   49.140   17.479
  334.597    0.297    0.368   57.753   17.014
  334.897    0.303    0.356   54.156   16.685
  335.197    0.310    0.341   58.066   16.581
  335.497    0.312    0.333   50.996   16.854
  335.797    0.310    0.322   49.756   16.882
  336.097    0.309    0.333   53.478   17.196
  336.397    0.312    0.350   45.977   17.348
  336.697    0.314    0.342   42.695   17.308
  336.997    0.311    0.355   50.321   17.264
  337.297    0.309    0.335   43.503   18.330
  337.597    0.306    0.358   43.003   17.344
  337.897    0.305    0.357   45.543   16.946
  338.197    0.306    0.353   46.348   16.933
  338.497    0.308    0.349   49.206   17.081
  338.797    0.303    0.352   49.021   17.076
  339.097    0.301    0.324   36.868   17.295
  339.397    0.302    0.328   43.072   17.915
  339.697    0.303    0.333   39.032   17.979
  339.997    0.304    0.341   43.748   17.900
  340.297    0.304    0.345   41.646   18.092
  340.597    0.302    0.362   39.292   18.183
  340.897    0.302    0.348   37.922   18.179
  341.197    0.302    0.333   40.408   18.064
  341.497    0.299    0.343   38.172   17.953
  341.797    0.294    0.344   33.092   17.574
  342.097    0.293    0.345   42.197   16.564
  342.397    0.298    0.332   43.116   15.700
  342.697    0.299    0.350   44.867   15.252
  342.997    0.298    0.344   37.742   14.984
  343.297    0.299    0.359   37.610   14.976
  343.596    0.304    0.339   41.644   15.054
  343.896    0.304    0.343   53.302   15.421
  344.196    0.303    0.339   43.066   16.096
  344.496    0.302    0.329   41.028   16.737
  344.796    0.303    0.331   44.684   16.893
  345.096    0.305    0.330   47.724   17.206
  345.396    0.305    0.327   43.385   17.461
  345.696    0.307    0.308   42.388   17.485
  345.996    0.306    0.312   36.628   17.441
  346.296    0.304    0.345   44.190   17.332
  346.596    0.301    0.346   43.137   17.063
  346.896    0.301    0.364   39.730   17.150
  347.196    0.302    0.339   40.341   17.142
  347.496    0.305    0.341   40.153   17.230
  347.796    0.306    0.344   43.627   17.123
  348.096    0.305    0.358   38.610   17.050
  348.396    0.303    0.347   43.820   16.910
  348.696    0.302    0.336   39.234   16.900
  348.996    0.304    0.335   37.370   16.828
  349.296    0.307    0.332   36.008   16.787
  349.596    0.308    0.328   41.707   16.812
  349.896    0.310    0.336   40.819   18.131
  350.196    0.308    0.350   45.475   18.323
  350.496    0.308    0.343   48.636   18.516
  350.796    0.305    0.349   36.905   18.612
  351.096    0.303    0.356   42.992   18.525
  351.396    0.302    0.350   45.658   18.581
  351.696    0.301    0.327   43.645   18.779
  351.996    0.299    0.338   34.157   18.870
  352.296    0.299    0.353   41.618   18.781
  352.596    0.298    0.340   38.732   18.308
  352.896    0.299    0.346   35.353   18.221
  353.196    0.306    0.363   41.131   18.136
  353.496    0.307    0.362   36.253   17.881
  353.796    0.312    0.344   42.219   17.968
  354.096    0.310    0.355   41.953   17.850
