~VERSION INFORMATION
 VERS.                 2.0:   CWLS LOG ASCII STANDARD -VERSION 2.0
 WRAP.                  NO:   ONE LINE PER DEPTH STEP
~WELL INFORMATION BLOCK
#MNEM.UNIT           DATA                    DESCRIPTION OF MNEMONIC
#---------    -------------------            -------------------------------
# Generated from Intellog Unique Number	CN_94_101/WELL/5028
WELL.         12-08-097-12W4                 : Well_name    - WELL
LOC .         AA/12-08-097-12W4/0            : Location     - LOCATION
UWI .         AA/12-08-097-12W400            : Uwi          - UNIQUE WELL ID
ENTR.         T                              : Entered      - ENTERED BY
SRVC.         SCHLUMBERGER                   : Scn          - SERVICE COMPANY
DATE.         08/13/92                       : Date         - LOG DATE
STRT.M        25                             : top_depth    - START DEPTH
STOP.M        180                            : bot_depth    - STOP DEPTH
STEP.M        0.25                           : increment    - STEP LENGTH
 NULL. -999.2500:NULL Value
~CURVE INFORMATION BLOCK
#MNEM UNIT       ERCB CURVE CODE    CURVE DESCRIPTION
#-----------   ------------------   ----------------------------------
DEPT.M        00 001 00 00         : DEPTH        - DEPTH
GR  .API      00 310 00 00         : GR           - GAMMA RAY
ILD .OHMM     00 120 00 00         : RESD         - DEEP RESISTIVITY (DIL)
NPHI.V/V      00 330 00 00         : PHIN         - NEUTRON POROSITY (SANDSTONE)
DPHI.V/V      00 890 00 00         : PHID         - DENSITY POROSITY (SANDSTONE)
~PARAMETER INFORMATION
#MNEM.UNIT           DATA             DESCRIPTION OF MNEMONIC
#---------         -----------     ------------------------------
GL  .M        410                  : gl           - GROUND LEVEL ELEVATION
EREF.M        410                  : kb           - ELEVATION OF DEPTH REFERENCE
DATM.M        410                  : datum        - DATUM ELEVATION
TDD .M        185.5                : tdd          - TOTAL DEPTH DRILLER
RUN .         ONE                  : Run          - RUN NUMBER
ENG .         BILL                 : Engineer     - RECORDING ENGINEER
WIT .         JIM                  : Witness      - WITNESSED BY
MUD .         GEL                  : Mud_type     - MUD TYPE
MATR.         SANDSTONE            : Logunit      - NEUTRON MATRIX
TMAX.C        26.5                 : BHT          - MAXIMUM RECORDED TEMPERATURE
BHTD.M        188                  : BHTDEP       - MAXIMUM RECORDED TEMPERATURE
RMT .C        8                    : MDTP         - TEMPERATURE OF MUD
MUDD.KG/M     1050                 : MWT          - MUD DENSITY
NEUT.         1                    : NEUTRON      - NEUTRON TYPE
RESI.         0                    : RESIST       - RESISTIVITY TYPE
RM  .OHMM     16.4                 : RM           - RESISTIVITY OF MUD
RMC .OHMM     16.4                 : RMC          - RESISTIVITY OF MUD CAKE
RMF .OHMM     16.4                 : RMF          - RESISTIVITY OF MUD FILTRATE
SUFT.C        4                    : SUFT         - SURFACE TEMPERATURE
~A  DEPTH       GR     RESD     PHIN     PHID
   25.000  119.760    5.467    0.545    0.337
   25.250  118.590    5.469    0.556    0.332
   25.500  118.600    5.268    0.539    0.326
   25.750  118.023    5.273    0.529    0.320
   26.000  120.440    5.478    0.533    0.314
   26.250  126.459    5.682    0.559    0.299
   26.500  128.876    5.887    0.585    0.289
   26.750  130.095    5.890    0.605    0.274
   27.000  130.715    5.893    0.618    0.257
   27.250  130.731    5.693    0.583    0.240
   27.500  131.950    5.293    0.580    0.226
   27.750  134.372    5.093    0.600    0.213
   28.000  136.794    4.893    0.619    0.254
   28.250  137.404    4.695    0.608    0.276
   28.500  138.623    4.494    0.581    0.287
   28.750  139.248    4.497    0.575    0.285
   29.000  139.270    4.299    0.582    0.286
   29.250  138.094    4.300    0.591    0.288
   29.500  137.523    4.303    0.608    0.294
   29.750  137.533    4.105    0.633    0.304
   30.000  137.555    4.107    0.645    0.313
   30.250  138.181    3.908    0.648    0.315
   30.500  137.604    3.708    0.658    0.317
   30.750  137.026    3.508    0.650    0.314
   31.000  135.851    3.311    0.638    0.309
   31.250  134.675    3.312    0.631    0.304
   31.500  133.504    3.315    0.589    0.300
   31.750  132.318    3.318    0.587    0.298
   32.000  130.549    3.523    0.595    0.299
   32.250  129.966    3.527    0.593    0.303
   32.500  129.988    3.732    0.601    0.303
   32.750  131.805    3.735    0.581    0.295
   33.000  134.222    3.740    0.589    0.295
   33.250  135.441    3.539    0.601    0.305
   33.500  136.067    3.542    0.626    0.311
   33.750  135.495    3.545    0.642    0.311
   34.000  135.506    3.547    0.646    0.304
   34.250  134.929    3.753    0.620    0.296
   34.500  133.753    3.756    0.610    0.289
   34.750  133.186    3.962    0.611    0.282
   35.000  132.604    3.965    0.613    0.276
   35.250  132.027    3.968    0.611    0.272
   35.500  129.664    3.970    0.603    0.274
   35.750  128.483    3.974    0.593    0.279
   36.000  126.110    3.976    0.595    0.285
   36.250  123.138    3.778    0.601    0.290
   36.500  120.765    3.780    0.606    0.290
   36.750  120.786    3.581    0.611    0.286
   37.000  121.407    3.583    0.608    0.286
   37.250  123.224    3.383    0.603    0.291
   37.500  123.845    3.185    0.606    0.293
   37.750  124.465    3.187    0.607    0.293
   38.000  125.091    2.988    0.597    0.288
   38.250  124.503    2.990    0.583    0.281
   38.500  124.524    2.993    0.573    0.268
   38.750  124.546    2.997    0.573    0.261
   39.000  125.172    3.202    0.578    0.256
   39.250  125.193    3.611    0.585    0.258
   39.500  125.215    4.017    0.592    0.262
   39.750  123.446    4.628    0.594    0.266
   40.000  122.858    5.440    0.588    0.265
   40.250  121.687    5.848    0.577    0.259
   40.500  122.308    5.851    0.570    0.270
   40.750  122.928    5.651    0.565    0.285
   41.000  124.147    4.642    0.554    0.287
   41.250  122.367    4.038    0.519    0.279
   41.500  118.198    4.446    0.523    0.267
   41.750  111.040    5.057    0.515    0.274
   42.000  107.464    5.869    0.497    0.286
   42.250  101.498    6.277    0.479    0.291
   42.500   93.737    6.684    0.472    0.289
   42.750   94.956    6.890    0.495    0.285
   43.000   96.773    6.893    0.500    0.279
   43.250   97.399    6.895    0.513    0.271
   43.500   96.223    6.695    0.520    0.264
   43.750   94.449    6.901    0.518    0.264
   44.000   92.076    7.511    0.484    0.274
   44.250   89.708    8.324    0.481    0.281
   44.500   89.120    8.731    0.483    0.296
   44.750   89.740    9.342    0.479    0.303
   45.000   93.953    9.749    0.479    0.310
   45.250   97.567    9.954    0.484    0.316
   45.500  101.779    9.553    0.491    0.314
   45.750  105.992    8.139    0.499    0.304
   46.000  111.407    6.929    0.512    0.294
   46.250  112.621    6.323    0.527    0.284
   46.500  112.044    5.517    0.545    0.281
   46.750  111.472    5.116    0.568    0.278
   47.000  110.895    4.916    0.581    0.277
   47.250  111.521    4.718    0.591    0.274
   47.500  112.130    4.720    0.594    0.271
   47.750  113.953    4.924    0.558    0.271
   48.000  115.777    5.130    0.547    0.273
   48.250  115.798    5.335    0.542    0.275
   48.500  114.622    5.743    0.533    0.277
   48.750  112.848    5.949    0.522    0.277
   49.000  111.672    5.951    0.508    0.267
   49.250  113.490    5.550    0.493    0.268
   49.500  116.500    4.946    0.488    0.279
   49.750  121.910    4.342    0.486    0.277
   50.000  125.529    3.939    0.515    0.257
   50.250  126.743    3.539    0.558    0.248
   50.500  130.362    3.339    0.596    0.239
   50.750  132.778    3.343    0.594    0.225
   51.000  134.596    3.345    0.559    0.212
   51.250  133.420    3.551    0.541    0.244
   51.500  131.042    3.757    0.525    0.263
   51.750  128.668    3.759    0.505    0.268
   52.000  128.097    3.761    0.501    0.277
   52.250  129.321    3.966    0.508    0.290
   52.500  129.337    3.970    0.519    0.285
   52.750  129.359    4.175    0.526    0.260
   53.000  128.178    4.177    0.527    0.262
   53.250  127.002    4.180    0.536    0.269
   53.500  125.227    4.186    0.545    0.272
   53.750  124.062    4.186    0.541    0.275
   54.000  123.474    4.189    0.532    0.272
   54.250  122.897    4.192    0.542    0.265
   54.500  120.529    4.196    0.561    0.256
   54.750  119.354    4.200    0.571    0.255
   55.000  116.376    4.404    0.581    0.275
   55.250  111.009    5.015    0.587    0.268
   55.500  103.852    5.421    0.592    0.266
   55.750   99.084    6.436    0.599    0.277
   56.000  100.303    7.248    0.522    0.288
   56.250  103.312    8.263    0.529    0.291
   56.500  106.328    8.468    0.538    0.283
   56.750  109.947    7.662    0.551    0.274
   57.000  112.962    6.855    0.498    0.272
   57.250  114.181    6.049    0.519    0.277
   57.500  113.604    5.445    0.524    0.277
   57.750  113.027    5.043    0.521    0.269
   58.000  113.054    4.843    0.509    0.269
   58.250  111.878    4.645    0.518    0.274
   58.500  111.301    4.648    0.539    0.275
   58.750  111.921    4.853    0.548    0.278
   59.000  113.140    5.261    0.558    0.279
   59.250  111.964    5.668    0.530    0.276
   59.500  109.591    5.874    0.513    0.276
   59.750  107.817    5.877    0.503    0.273
   60.000  107.240    5.880    0.505    0.270
   60.250  108.459    5.682    0.511    0.270
   60.500  110.271    5.684    0.513    0.269
   60.750  113.292    5.484    0.514    0.269
   61.000  114.505    5.286    0.514    0.266
   61.250  116.323    5.288    0.514    0.265
   61.500  116.949    5.291    0.515    0.266
   61.750  116.366    5.294    0.520    0.267
   62.000  115.789    5.499    0.531    0.274
   62.250  117.607    5.704    0.550    0.278
   62.500  120.023    5.707    0.550    0.278
   62.750  121.841    5.507    0.529    0.276
   63.000  120.671    5.308    0.511    0.273
   63.250  123.082    4.907    0.517    0.270
   63.500  129.096    4.708    0.532    0.262
   63.750  132.704    4.507    0.543    0.256
   64.000  135.725    4.309    0.520    0.235
   64.250  133.352    4.311    0.531    0.232
   64.500  131.572    4.113    0.549    0.230
   64.750  136.394    4.114    0.556    0.220
   65.000  141.200    4.117    0.547    0.205
   65.250  143.028    3.919    0.549    0.191
   65.500  142.441    3.921    0.561    0.222
   65.750  140.073    3.924    0.569    0.234
   66.000  138.298    3.725    0.572    0.242
   66.250  136.518    3.728    0.577    0.252
   66.500  134.150    3.731    0.585    0.254
   66.750  131.173    3.733    0.577    0.214
   67.000  127.003    3.940    0.550    0.197
   67.250  121.038    3.942    0.527    0.196
   67.500  115.671    4.148    0.502    0.202
   67.750  115.094    4.353    0.484    0.186
   68.000  127.090    4.559    0.456    0.158
   68.250  136.691    4.764    0.437    0.141
