~VERSION INFORMATION
 VERS.                 2.0:   CWLS LOG ASCII STANDARD -VERSION 2.0
 WRAP.                  NO:   ONE LINE PER DEPTH STEP
~WELL INFORMATION BLOCK
#MNEM.UNIT           DATA                    DESCRIPTION OF MNEMONIC
#---------    -------------------            -------------------------------
# Generated from Intellog Unique Number	CW_82_90/WELL/1033
WELL.         14-05-082-21W4                 : Well_name    - WELL
LOC .         AA/14-05-082-21W4/0            : Location     - LOCATION
UWI .         AA/14-05-082-21W4/0            : Uwi          - UNIQUE WELL ID
ENTR.         JAYE                           : Entered      - ENTERED BY
SRVC.         SCHLUMBERGER                   : Scn          - SERVICE COMPANY
DATE.         26 JAN 82                      : Date         - LOG DATE
STRT.M        225                            : top_depth    - START DEPTH
STOP.M        430                            : bot_depth    - STOP DEPTH
STEP.M        0.25                           : increment    - STEP LENGTH
 NULL. -999.2500:NULL Value
~CURVE INFORMATION BLOCK
#MNEM UNIT       ERCB CURVE CODE    CURVE DESCRIPTION
#-----------   ------------------   ----------------------------------
DEPT.M        00 001 00 00         : DEPTH        - DEPTH
CALI.MM       00 280 01 00         : CAL          - CALIPER
GR  .API      00 310 00 00         : GR           - GAMMA RAY
NPHI.V/V      00 330 00 00         : PHIN         - NEUTRON POROSITY (SANDSTONE)
DPHI.V/V      00 890 00 00         : PHID         - DENSITY POROSITY (SANDSTONE)
ILD .OHMM     00 120 00 00         : RESD         - DEEP RESISTIVITY (DIL)
~PARAMETER INFORMATION
#MNEM.UNIT           DATA             DESCRIPTION OF MNEMONIC
#---------         -----------     ------------------------------
GL  .M        615.3                : gl           - GROUND LEVEL ELEVATION
EREF.M        619.8                : kb           - ELEVATION OF DEPTH REFERENCE
DATM.M        615.3                : datum        - DATUM ELEVATION
TDD .M        437                  : tdd          - TOTAL DEPTH DRILLER
RUN .         ONE                  : Run          - RUN NUMBER
ENG .         KUZIO                : Engineer     - RECORDING ENGINEER
WIT .         WALKER               : Witness      - WITNESSED BY
BASE.         EDMONTON             : Branch       - HOME BASE OF LOGGING UNIT
MUD .         GEL CHEM             : Mud_type     - MUD TYPE
MATR.         SANDSTONE            : Logunit      - NEUTRON MATRIX
TMAX.C        24.4                 : BHT          - MAXIMUM RECORDED TEMPERATURE
BHTD.M        437                  : BHTDEP       - MAXIMUM RECORDED TEMPERATURE
RMT .C        14.4                 : MDTP         - TEMPERATURE OF MUD
MUDD.KG/M     1060                 : MWT          - MUD DENSITY
NEUT.         1                    : NEUTRON      - NEUTRON TYPE
RESI.         0                    : RESIST       - RESISTIVITY TYPE
RM  .OHMM     6.58                 : RM           - RESISTIVITY OF MUD
RMC .OHMM     0.25                 : RMC          - RESISTIVITY OF MUD CAKE
RMF .OHMM     5.72                 : RMF          - RESISTIVITY OF MUD FILTRATE
SUFT.C        4                    : SUFT         - SURFACE TEMPERATURE
~A  DEPTH      CAL       GR     PHIN     PHID     RESD
# ...
  371.000  160.999  104.356    0.407    0.215   12.721
  371.250  161.624  107.669    0.425    0.224   12.540
  371.500  162.249  108.857    0.431    0.216   12.383
  371.750  163.499  109.483    0.427    0.213   12.028
  372.000  164.749  113.046    0.435    0.215   11.878
  372.250  165.373  112.422    0.448    0.208   11.772
  372.500  165.268  109.360    0.461    0.199   11.538
  372.750  163.389  109.548    0.472    0.201   11.352
  373.000  162.657  107.361    0.473    0.211   11.087
  373.250  161.195  103.112    0.462    0.210   10.989
  373.500  161.507   99.987    0.447    0.195   10.894
  373.750  163.801  104.988    0.447    0.189   10.898
  374.000  164.842  110.363    0.437    0.189   10.927
  374.250  164.423  111.989    0.436    0.184   10.912
  374.500  163.900  111.927    0.440    0.179   10.917
  374.750  163.378  113.053    0.447    0.171   10.784
  375.000  163.063  108.741    0.432    0.160   10.726
  375.250  163.688  107.929    0.418    0.169   10.713
  375.500  164.938  108.430    0.413    0.208   10.719
  375.750  165.875  111.805    0.416    0.186   10.725
  376.000  166.291  115.868    0.425    0.166   10.592
  376.250  166.290  116.119    0.439    0.161   10.381
  376.500  168.896  111.932    0.444    0.159    9.748
  376.750  166.495  107.058    0.436    0.116    9.901
  377.000  164.408  106.808    0.427    0.084    9.869
  377.250  163.885  110.809    0.430    0.119    9.231
  377.500  166.700  116.434    0.429    0.190    7.732
  377.750  167.324  112.623    0.439    0.199    5.671
  378.000  167.949  112.748    0.457    0.200    5.946
  378.250  166.695  113.061    0.453    0.199    7.322
  378.500  165.547  115.249    0.438    0.191    8.558
  378.750  170.134  118.188    0.463    0.184    8.922
  379.000  171.385  117.813    0.469    0.189    8.778
  379.250  168.358  105.251    0.424    0.199    8.718
  379.500  163.664  101.314    0.402    0.211   10.716
  379.750  159.178  103.065    0.400    0.229   12.406
  380.000  159.906  102.128    0.413    0.246   15.538
  380.250  159.488  101.004    0.445    0.264   16.944
  380.500  158.026  100.504    0.426    0.260   17.732
  380.750  158.129   99.130    0.399    0.211   17.349
  381.000  159.588   97.880    0.403    0.183   15.896
  381.250  161.151   91.819    0.369    0.166   15.876
  381.500  162.610   81.819    0.361    0.169   18.553
  381.750  161.044   78.695    0.324    0.175   22.009
  382.000  159.895   78.070    0.296    0.144   28.031
  382.250  159.477   81.321    0.287    0.128   32.273
  382.500  159.475   81.572    0.311    0.130   33.026
  382.750  159.474   79.573    0.339    0.165   33.044
  383.000  159.681   79.823    0.377    0.210   32.817
  383.250  159.471   80.074    0.420    0.237   32.406
  383.500  159.261   75.949    0.352    0.189   31.234
  383.750  159.260   75.950    0.295    0.082   25.535
  384.000  159.571   78.263    0.320    0.080   22.623
  384.250  160.300   83.763    0.379    0.128   19.970
  384.500  160.820   87.889    0.399    0.187   18.333
  384.750  160.818   89.202    0.360    0.177   17.021
  385.000  160.921   91.390    0.309    0.147   17.484
  385.250  161.337   94.266    0.375    0.137   17.200
  385.500  161.544   68.641    0.352    0.139   16.579
  385.750  162.273   63.017    0.281    0.116   15.220
  386.000  161.854   55.080    0.220    0.057   20.427
  386.250  160.914   50.393    0.209    0.039   26.460
  386.500  159.870   54.831    0.197    0.034   37.353
  386.750  159.973   63.457    0.201    0.034   48.839
  387.000  160.493   77.958    0.256    0.069   37.536
  387.250  161.326   84.208    0.309    0.100   26.972
  387.500  162.159   86.771    0.390    0.151   17.747
  387.750  160.802   88.772    0.398    0.195   13.462
  388.000  160.487   92.960    0.398    0.214   12.616
  388.250  160.799   96.273    0.396    0.216   11.957
  388.500  160.798   95.899    0.390    0.197   11.720
  388.750  161.213   95.025    0.372    0.172   12.128
  389.000  161.525   89.213    0.372    0.139   12.318
  389.250  161.732   89.338    0.392    0.153   12.233
  389.500  161.522   89.651    0.380    0.167   11.746
  389.750  161.416   87.777    0.366    0.140   12.549
  390.000  162.145   88.528    0.388    0.212   12.532
  390.250  162.665   90.466    0.393    0.223   12.125
  390.500  163.290   92.966    0.409    0.228   11.277
  390.750  165.166   96.154    0.406    0.220   10.609
  391.000  165.477   96.592    0.398    0.210   10.301
  391.250  166.727   99.343    0.398    0.209    9.896
  391.500  167.560   98.719    0.401    0.201    9.771
  391.750  168.080  100.157    0.418    0.188    9.683
  392.000  168.079  101.845    0.438    0.181    9.670
  392.250  168.286  100.158    0.427    0.182    9.550
  392.500  168.493   95.471    0.417    0.188    9.431
  392.750  168.179   94.722    0.415    0.198    9.383
  393.000  165.466   93.347    0.412    0.202    9.585
  393.250  164.525   97.910    0.394    0.206    9.993
  393.500  163.794   97.911    0.387    0.204   10.437
  393.750  163.793  101.849    0.408    0.198   10.882
  394.000  164.000  104.537    0.431    0.188   11.474
  394.250  164.103  100.163    0.429    0.188   11.963
  394.500  163.997   97.226    0.416    0.179   11.947
  394.750  163.683  100.102    0.422    0.189   11.711
  395.000  164.829   99.040    0.423    0.214   11.015
  395.250  166.183  102.728    0.421    0.206   10.076
  395.500  167.434  110.978    0.416    0.187    9.621
  395.750  168.684  113.604    0.421    0.178    9.430
  396.000  169.204  107.542    0.446    0.157    9.435
  396.250  167.533  100.918    0.441    0.107    9.529
  396.500  166.906   98.231    0.400    0.076    9.606
  396.750  166.905  106.919    0.393    0.097    9.630
  397.000  167.321  112.670    0.415    0.135    9.403
  397.250  168.467  114.733    0.415    0.168    8.962
  397.500  168.361  116.546    0.410    0.179    7.706
  397.750  168.255  117.296    0.406    0.185    8.922
  398.000  168.566  119.297    0.423    0.187    8.911
  398.250  168.565  121.610    0.429    0.188    8.604
  398.500  168.147  123.361    0.425    0.196    7.943
  398.750  167.728  128.236    0.406    0.202    7.978
  399.000  166.580  121.737    0.407    0.190    8.897
  399.250  165.639  106.488    0.386    0.166   10.754
  399.500  164.699   82.551    0.387    0.144   15.998
  399.750  163.551   81.551    0.394    0.170   21.074
  400.000  162.611   87.864    0.395    0.179   24.673
  400.250  162.505   97.615    0.392    0.169   25.438
  400.500  162.816  106.991    0.383    0.182   25.312
  400.750  163.545  110.991    0.368    0.198   24.950
  401.000  162.814  110.242    0.359    0.199   24.456
  401.250  161.352  109.867    0.367    0.195   24.014
  401.500  160.829  113.180    0.368    0.196   23.539
  401.750  160.828  110.681    0.375    0.195   23.728
  402.000  160.409  104.432    0.373    0.190   24.649
  402.250  159.573   93.370    0.367    0.195   25.648
  402.500  158.112   63.808    0.356    0.216   28.392
  402.750  155.712   49.746    0.370    0.237   32.625
  403.000  155.397   44.622    0.369    0.262   41.014
  403.250  154.978   41.372    0.360    0.276   50.136
  403.500  154.873   40.123    0.361    0.282   60.365
  403.750  154.559   39.561    0.357    0.287   69.909
  404.000  154.349   38.937    0.352    0.289   68.893
  404.250  154.035   41.437    0.345    0.275   65.292
  404.500  153.512   44.813    0.347    0.263   56.563
  404.750  153.302   48.501    0.358    0.256   44.459
  405.000  153.300   49.377    0.357    0.258   38.662
  405.250  153.507   51.065    0.356    0.277   35.361
  405.500  153.714   55.003    0.376    0.272   32.646
  405.750  154.026   54.003    0.397    0.274   30.252
  406.000  153.399   54.879    0.380    0.285   28.995
  406.250  153.502   56.630    0.375    0.290   28.366
  406.500  154.543   62.318    0.375    0.284   28.704
  406.750  155.167   65.818    0.373    0.271   26.901
  407.000  155.375   74.944    0.359    0.227   24.148
  407.250  157.251  102.632    0.356    0.143   15.800
