~VERSION INFORMATION
 VERS.                 2.0:   CWLS LOG ASCII STANDARD -VERSION 2.0
 WRAP.                  NO:   ONE LINE PER DEPTH STEP
~WELL INFORMATION BLOCK
#MNEM.UNIT           DATA                    DESCRIPTION OF MNEMONIC
#---------    -------------------            -------------------------------
# Generated from Intellog Unique Number	CC_80_83/WELL/2371
NULL.         -999.25                        : NULL_VALUE
WELL.         PEX PCEJ CHARD OV              : Well_name    - WELL
LOC .         10-26-080-09W4                 : Location     - LOCATION          
UWI .         AA/10-26-080-09W400            : Uwi          - UNIQUE WELL ID    
ENTR.         DW                             : Entered      - ENTERED BY        
SRVC.         SCHLUMBERGER                   : Scn          - SERVICE COMPANY   
DATE.         14 JAN 80                      : Date         - LOG DATE
STRT.M        275                            : top_depth    - START DEPTH       
STOP.M        494.891                        : bot_depth    - STOP DEPTH        
STEP.M        0.3                            : increment    - STEP LENGTH       
~CURVE INFORMATION BLOCK
#MNEM UNIT       ERCB CURVE CODE    CURVE DESCRIPTION
#-----------   ------------------   ----------------------------------
DEPT.M        00 001 00 00         : DEPTH        - DEPTH                       
DPHI.V/V      00 890 00 00         : PHID         - DENSITY POROSITY (LIMESTONE)
NPHI.V/V      00 330 00 00         : PHIN         - NEUTRON POROSITY (LIMESTONE)
GR  .API      00 310 00 00         : GR           - GAMMA RAY                   
ILD .OHMM     00 120 00 00         : RESD         - DEEP RESISTIVITY (DIL)      
~PARAMETER INFORMATION       
#MNEM.UNIT           DATA             DESCRIPTION OF MNEMONIC
#---------         -----------     ------------------------------
GL  .M        718.7                : gl           - GROUND LEVEL ELEVATION      
EREF.M        722.4                : kb           - ELEVATION OF DEPTH REFERENCE
DATM.M        722.4                : datum        - DATUM ELEVATION             
TDD .M        505                  : tdd          - TOTAL DEPTH DRILLER         
RUN .         ONE                  : Run          - RUN NUMBER                  
ENG .         BILL                 : Engineer     - RECORDING ENGINEER          
WIT .         JIM                  : Witness      - WITNESSED BY                
MUD .         GEL                  : Mud_type     - MUD TYPE                    
MATR.         LIMESTONE            : Logunit      - NEUTRON MATRIX              
TMAX.C        19                   : BHT          - MAXIMUM RECORDED TEMPERATURE
BHTD.M        505                  : BHTDEP       - MAXIMUM RECORDED TEMPERATURE
MATR.         1                    : LOGUNIT      - NEUTRON MATRIX              
RMT .C        25                   : MDTP         - TEMPERATURE OF MUD          
NEUT.         1                    : NEUTRON      - NEUTRON TYPE                
RESI.         0                    : RESIST       - RESISTIVITY TYPE            
RMC .OHMM     0.25                 : RMC          - RESISTIVITY OF MUD CAKE     
RMF .OHMM     0.25                 : RMF          - RESISTIVITY OF MUD FILTRATE 
SUFT.C        4                    : SUFT         - SURFACE TEMPERATURE         
~A  DEPTH     PHID     PHIN       GR     RESD
# ...
  327.198    0.302    0.417  104.071   18.308
  327.498    0.293    0.425  105.899   17.592
  327.798    0.282    0.451  106.471   15.655
  328.098    0.265    0.452  110.793   13.668
  328.398    0.254    0.442  117.003   11.483
  328.698    0.250    0.444  116.324    9.464
  328.998    0.268    0.451  113.782    7.798
  329.298    0.301    0.479  134.988    7.492
  329.598    0.330    0.501  128.683    7.061
  329.898    0.336    0.499  131.136    7.042
  330.198    0.321    0.481  134.207    7.441
  330.498    0.261    0.470  123.535    7.724
  330.798    0.278    0.463  119.737    8.321
  331.098    0.278    0.479  120.313    9.494
  331.398    0.287    0.479  126.521   11.254
  331.698    0.288    0.451  126.471   11.900
  331.998    0.282    0.422  104.540   12.341
  332.298    0.275    0.423  112.617   12.079
  332.598    0.271    0.426  121.326   11.166
  332.898    0.270    0.435  121.274    9.933
  333.198    0.276    0.470   97.471    9.364
  333.498    0.280    0.481   99.293    9.341
  333.798    0.313    0.515  106.749    9.877
  334.098    0.385    0.576   98.576   11.710
  334.398    0.472    0.597   56.017   13.887
  334.698    0.519    0.537   50.339   15.844
  334.998    0.444    0.485   62.798   16.739
  335.298    0.296    0.416   73.377   17.039
  335.598    0.298    0.414   67.073   17.334
  335.898    0.301    0.422   67.648   17.300
  336.198    0.307    0.420   61.352   16.929
  336.497    0.306    0.413   68.805   17.223
  336.797    0.306    0.408   69.379   17.195
  337.097    0.305    0.414   65.579   17.488
  337.397    0.305    0.435   74.284   18.136
  337.697    0.309    0.427   70.485   18.438
  337.997    0.310    0.403   72.313   18.762
  338.297    0.305    0.418   78.511   18.726
  338.597    0.301    0.413   60.965   18.695
  338.897    0.299    0.387   67.788   18.306
  339.197    0.308    0.397   70.868   18.266
  339.497    0.311    0.412   66.436   18.584
  339.797    0.311    0.404   62.645   18.551
  340.097    0.310    0.413   58.220   18.868
  340.397    0.311    0.404   65.665   19.194
  340.697    0.315    0.418   66.871   19.527
  340.997    0.316    0.401   58.700   19.870
  341.297    0.314    0.404   58.026   19.814
  341.597    0.311    0.409   69.228   19.788
  341.897    0.309    0.411   71.683   19.734
  342.197    0.308    0.412   74.125   19.710
  342.497    0.317    0.410   74.709   19.672
  342.797    0.323    0.421   68.410   19.624
  343.097    0.326    0.421   60.233   20.330
  343.397    0.322    0.415   66.424   20.303
  343.697    0.318    0.398   67.640   20.668
  343.997    0.316    0.380   69.467   20.626
  344.297    0.316    0.381   68.790   20.981
  344.597    0.314    0.391   77.493   20.942
  344.897    0.317    0.388   80.568   20.505
  345.197    0.320    0.404   74.894   19.684
  345.497    0.320    0.432   79.845   19.279
  345.797    0.323    0.431   66.671   18.876
  346.097    0.327    0.452   70.368   18.834
  346.397    0.329    0.433   74.697   18.442
  346.697    0.330    0.414   76.532   18.068
  346.997    0.318    0.409   77.104   17.686
  347.297    0.287    0.408   68.928   17.306
  347.597    0.315    0.422   65.752   17.274
  347.897    0.335    0.395   63.833   17.251
  348.197    0.335    0.383   63.154   17.881
  348.497    0.331    0.367   64.352   18.910
  348.797    0.325    0.345   65.558   19.980
  349.097    0.299    0.321   69.255   19.937
  349.397    0.176    0.293   64.216   20.673
  349.697    0.287    0.276   60.410   22.285
  349.997    0.304    0.226   69.120   24.468
  350.297    0.241    0.181   68.447   24.425
  350.597    0.133    0.192   59.018   23.464
  350.897    0.235    0.250   60.848   21.276
  351.197    0.293    0.307   68.921   18.572
  351.497    0.320    0.405   77.004   16.211
  351.797    0.321    0.424   76.950   15.278
  352.097    0.319    0.408   76.282   14.395
  352.397    0.309    0.399   71.854   14.097
  352.697    0.290    0.403   78.061   14.066
  352.997    0.304    0.434   91.140   13.768
  353.297    0.304    0.445   86.713   14.008
  353.597    0.308    0.465   94.159   14.251
  353.897    0.310    0.464   89.114   14.494
  354.197    0.314    0.468   76.567   14.753
  354.497    0.313    0.417   87.769   14.724
  354.797    0.309    0.410   84.597   13.610
  355.097    0.285    0.401   85.795   14.388
  355.397    0.107    0.364   80.749   15.207
  355.697    0.137    0.338   86.323   14.062
  355.997    0.243    0.361   99.401   17.320
  356.297    0.289    0.450  129.358   16.630
  356.597    0.308    0.482  125.565   16.602
  356.897    0.323    0.455   67.999   17.217
  357.197    0.324    0.449   71.705   16.223
  357.497    0.324    0.465   83.533   15.289
  357.797    0.324    0.446   89.111   15.555
  358.097    0.325    0.432   88.435   15.519
  358.397    0.325    0.436   90.259   14.910
  358.697    0.332    0.441   82.714   14.880
  358.997    0.327    0.431   87.036   15.425
  359.297    0.320    0.432   81.366   15.994
  359.597    0.316    0.429   70.690   15.971
  359.897    0.316    0.448   67.508   15.339
  360.197    0.311    0.430   70.590   15.020
  360.497    0.313    0.456   76.795   14.704
  360.797    0.321    0.444   70.492   14.676
  361.096    0.325    0.442   77.322   14.368
  361.396    0.313    0.441   76.026   14.607
  361.696    0.313    0.448   82.224   14.865
  361.996    0.316    0.445   72.801   15.413
  362.296    0.318    0.419   74.003   16.614
  362.596    0.316    0.389   82.705   18.599
  362.896    0.307    0.398   77.031   21.220
  363.196    0.199    0.390   65.728   20.760
  363.496    0.198    0.372   68.177   19.959
  363.796    0.197    0.373   63.754   18.807
  364.096    0.238    0.387   60.578   17.055
  364.396    0.308    0.412   67.405   15.468
  364.696    0.325    0.418   72.984   14.861
  364.996    0.328    0.413   68.555   15.115
  365.296    0.329    0.410   71.007   15.673
  365.596    0.324    0.425   79.718   15.948
  365.896    0.318    0.422   82.169   15.917
  366.196    0.303    0.426   75.868   14.713
  366.496    0.297    0.429   75.189   10.607
  366.796    0.293    0.436   78.275    8.098
  367.096    0.276    0.446   83.227    6.802
  367.396    0.254    0.445   93.807    6.289
  367.696    0.245    0.450  101.884    5.926
  367.996    0.248    0.445  114.965    5.913
  368.296    0.252    0.437  109.905    6.129
  368.596    0.273    0.484  110.493    6.357
  368.896    0.277    0.501  117.319    6.595
  369.196    0.262    0.478  121.023    7.105
  369.496    0.262    0.432  111.589    7.805
  369.796    0.272    0.446  115.925    8.568
  370.096    0.286    0.466  111.500    8.388
  370.396    0.279    0.446   98.946    8.210
  370.696    0.251    0.435  102.649    8.042
  370.996    0.246    0.452  103.849    8.185
  371.296    0.240    0.445  115.680    8.816
  371.596    0.239    0.449  116.877    9.144
  371.896    0.254    0.466  108.082    8.952
  372.196    0.258    0.461  106.784    8.273
  372.496    0.262    0.468   97.982    7.800
  372.796    0.290    0.474  101.678    7.210
  373.096    0.304    0.489  111.639    6.538
  373.396    0.311    0.514  114.089    5.709
  373.696    0.277    0.509  119.028    4.796
  373.996    0.282    0.539  115.854    4.350
  374.296    0.333    0.581  116.445    4.510
  374.596    0.327    0.530  124.524    5.047
  374.896    0.258    0.485  113.223    6.102
  375.196    0.255    0.481  100.046    7.810
  375.496    0.263    0.423  103.744    7.501
  375.796    0.264    0.461  106.822    6.424
  376.096    0.278    0.491  110.524    5.096
  376.396    0.288    0.538  124.850    3.965
  376.696    0.290    0.563  125.435    3.597
  376.996    0.292    0.632  132.262    3.199
  377.296    0.294    0.607  126.588    3.015
  377.596    0.303    0.600  126.539    3.010
  377.896    0.329    0.621  131.489    3.060
  378.196    0.334    0.649  130.817    3.175
  378.496    0.298    0.661  130.764    3.356
  378.796    0.275    0.641  125.718    3.348
  379.096    0.274    0.629  121.282    3.342
