~VERSION INFORMATION
 VERS.                 2.0:   CWLS LOG ASCII STANDARD -VERSION 2.0
 WRAP.                  NO:   ONE LINE PER DEPTH STEP
~WELL INFORMATION BLOCK
#MNEM.UNIT           DATA                    DESCRIPTION OF MNEMONIC
#---------    -------------------            -------------------------------
# Generated from Intellog Unique Number	CW_79_81/WELL/2487
WELL.         13-06-081-21W4                 : Well_name    - WELL
LOC .         AA/13-06-081-21W4/0            : Location     - LOCATION
UWI .         AA/13-06-081-21W4/0            : Uwi          - UNIQUE WELL ID
ENTR.         MAX                            : Entered      - ENTERED BY
SRVC.         SCHLUMBERGER                   : Scn          - SERVICE COMPANY
STRT.M        185                            : top_depth    - START DEPTH
STOP.M        434.75                         : bot_depth    - STOP DEPTH
STEP.M        0.25                           : increment    - STEP LENGTH
 NULL. -999.2500:NULL Value
~CURVE INFORMATION BLOCK
#MNEM UNIT       ERCB CURVE CODE    CURVE DESCRIPTION
#-----------   ------------------   ----------------------------------
DEPT.M        00 001 00 00         : DEPTH        - DEPTH
ILD .OHMM     00 120 00 00         : RESD         - DEEP RESISTIVITY (DIL)
NPHI.V/V      00 330 00 00         : PHIN         - NEUTRON POROSITY (SANDSTONE)
DPHI.V/V      00 890 00 00         : PHID         - DENSITY POROSITY (SANDSTONE)
GR  .API      00 310 00 00         : GR           - GAMMA RAY
CALI.MM       00 280 01 00         : CAL          - CALIPER
~PARAMETER INFORMATION
#MNEM.UNIT           DATA             DESCRIPTION OF MNEMONIC
#---------         -----------     ------------------------------
GL  .M        604.15               : gl           - GROUND LEVEL ELEVATION
EREF.M        608.75               : kb           - ELEVATION OF DEPTH REFERENCE
DATM.M        604.15               : datum        - DATUM ELEVATION
TDD .M        442                  : tdd          - TOTAL DEPTH DRILLER
RUN .         ONE                  : Run          - RUN NUMBER
ENG .         BILL                 : Engineer     - RECORDING ENGINEER
WIT .         JIM                  : Witness      - WITNESSED BY
MUD .         GEL                  : Mud_type     - MUD TYPE
MATR.         SANDSTONE            : Logunit      - NEUTRON MATRIX
TMAX.C        28.9                 : BHT          - MAXIMUM RECORDED TEMPERATURE
BHTD.M        442                  : BHTDEP       - MAXIMUM RECORDED TEMPERATURE
MATR.         1                    : LOGUNIT      - NEUTRON MATRIX
RMT .C        23.9                 : MDTP         - TEMPERATURE OF MUD
NEUT.         1                    : NEUTRON      - NEUTRON TYPE
RESI.         0                    : RESIST       - RESISTIVITY TYPE
RMC .OHMM     5.54                 : RMC          - RESISTIVITY OF MUD CAKE
RMF .OHMM     3.27                 : RMF          - RESISTIVITY OF MUD FILTRATE
SUFT.C        -20                  : SUFT         - SURFACE TEMPERATURE
~A  DEPTH     RESD     PHIN     PHID       GR      CAL
  185.000    4.236    0.494    0.248  121.584  187.429
  185.250    4.117    0.492    0.246  121.316  186.972
  185.500    4.093    0.482    0.250  122.140  186.859
  185.750    4.147    0.469    0.249  120.218  187.026
  186.000    4.313    0.456    0.244  107.592  187.684
  186.250    4.863    0.430    0.255   67.325  190.218
  186.500    6.064    0.381    0.281   43.273  195.140
  186.750    7.709    0.364    0.280   34.929  188.367
  187.000   12.871    0.344    0.263   28.903  181.888
  187.250   22.589    0.325    0.256   24.601  179.477
  187.500   26.528    0.308    0.266   22.083  182.419
  187.750   25.350    0.292    0.286   22.305  191.327
  188.000   23.971    0.310    0.290   23.524  200.374
  188.250   21.938    0.339    0.310   31.113  202.320
  188.500   19.354    0.382    0.338   33.708  196.835
  188.750   15.209    0.398    0.349   35.352  194.620
  189.000   11.977    0.404    0.342   38.960  197.755
  189.250   10.477    0.481    0.341   47.250  199.695
  189.500    8.307    0.507    0.348   51.934  199.658
  189.750    8.304    0.462    0.336   37.405  200.023
  190.000    9.711    0.417    0.322   29.834  200.982
  190.250   12.686    0.371    0.315   25.176  201.541
  190.500   17.496    0.335    0.312   21.943  201.504
  190.750   22.339    0.328    0.306   20.956  201.381
  191.000   24.476    0.321    0.301   19.695  200.924
  191.250   24.964    0.313    0.305   18.963  197.729
  191.500   24.830    0.311    0.303   20.191  197.203
  191.750   24.073    0.324    0.298   22.549  202.521
  192.000   22.963    0.347    0.298   24.730  210.214
  192.250   21.559    0.362    0.319   24.894  209.676
  192.500   19.967    0.365    0.308   24.622  207.166
  192.750   18.400    0.355    0.320   25.316  210.695
  193.000   17.319    0.338    0.311   26.366  213.931
  193.250   16.178    0.334    0.303   27.653  214.890
  193.500   14.980    0.349    0.303   29.118  211.092
  193.750   13.808    0.368    0.307   31.253  199.803
  194.000   12.877    0.362    0.292   33.710  201.001
  194.250   11.705    0.353    0.305   37.734  202.551
  194.500   10.645    0.366    0.322   45.144  203.507
  194.750    9.616    0.402    0.338   51.902  204.068
  195.000    8.624    0.445    0.347   61.158  201.261
  195.250    7.352    0.465    0.334   84.736  187.449
  195.500    5.986    0.462    0.315   92.143  179.981
  195.750    5.042    0.483    0.293   94.027  180.339
  196.000    4.162    0.504    0.300   96.623  181.593
  196.250    3.463    0.519    0.316  101.123  184.138
  196.500    3.002    0.530    0.325  107.107  187.969
  196.750    2.783    0.550    0.321  112.203  193.010
  197.000    2.668    0.565    0.309  110.449  194.628
  197.250    2.650    0.565    0.326  103.769  191.030
  197.500    2.658    0.549    0.334  100.302  189.509
  197.750    2.719    0.540    0.332  100.995  187.490
  198.000    2.857    0.541    0.324  101.449  184.281
  198.250    3.140    0.528    0.315   90.474  180.408
  198.500    3.368    0.511    0.304   83.266  177.068
  198.750    3.647    0.466    0.290   83.007  175.055
  199.000    3.931    0.452    0.295   76.328  173.041
  199.250    4.311    0.432    0.300   69.053  171.420
  199.500    4.877    0.402    0.295   63.563  170.193
  199.750    5.891    0.385    0.284   58.979  168.876
  200.000    7.035    0.388    0.289   59.945  168.434
  200.250    7.516    0.414    0.299   61.831  168.402
  200.500    7.607    0.415    0.298   60.861  168.365
  200.750    7.477    0.398    0.293   59.652  168.132
  201.000    7.276    0.381    0.288   59.988  167.704
  201.250    7.052    0.391    0.286   63.809  167.350
  201.500    6.903    0.413    0.281   68.739  167.723
  201.750    6.762    0.400    0.272   65.391  171.651
  202.000    6.897    0.398    0.286   59.722  172.015
  202.250    7.429    0.400    0.310   55.300  170.594
  202.500    8.376    0.400    0.327   52.960  168.973
  202.750    9.552    0.398    0.318   49.956  168.617
  203.000   10.392    0.386    0.313   45.723  168.993
  203.250   10.957    0.381    0.317   41.893  168.962
  203.500   11.274    0.389    0.314   43.241  169.227
  203.750   11.385    0.394    0.313   45.956  169.588
  204.000   11.343    0.394    0.317   48.550  169.451
  204.250   11.092    0.405    0.315   53.295  167.576
  204.500   10.634    0.416    0.316   60.456  166.305
  204.750    9.733    0.403    0.306   61.860  166.273
  205.000    8.725    0.384    0.297   64.872  166.830
  205.250    7.809    0.391    0.281   67.706  167.786
  205.500    6.963    0.425    0.270   69.231  168.943
  205.750    6.066    0.455    0.292   68.622  170.093
  206.000    5.896    0.435    0.315   66.864  170.057
  206.250    5.776    0.414    0.284   67.085  171.607
  206.500    5.573    0.401    0.264   71.226  174.940
  206.750    5.314    0.406    0.270   75.605  179.465
  207.000    5.044    0.433    0.292   78.795  185.476
  207.250    4.728    0.484    0.295   82.222  194.398
  207.500    4.349    0.478    0.294   85.172  195.603
  207.750    4.147    0.480    0.308   85.149  199.931
  208.000    4.016    0.505    0.311   84.771  199.203
  208.250    3.948    0.534    0.308   84.513  196.788
  208.500    3.960    0.547    0.306   83.780  194.769
  208.750    4.111    0.518    0.311   80.160  194.021
  209.000    4.196    0.494    0.316   76.422  194.401
  209.250    4.223    0.466    0.311   76.875  198.329
  209.500    4.250    0.474    0.299   78.580  200.476
  209.750    4.206    0.495    0.288   82.842  203.416
  210.000    4.093    0.513    0.290   87.934  207.146
  210.250    3.920    0.510    0.323   89.197  208.506
  210.500    3.630    0.491    0.331   89.672  205.575
  210.750    3.533    0.497    0.330   94.169  206.733
  211.000    3.420    0.490    0.332   94.563  202.537
  211.250    3.306    0.488    0.332   93.590  198.342
  211.500    3.191    0.499    0.329   93.215  196.823
  211.750    3.047    0.525    0.320   95.014  198.465
  212.000    2.962    0.529    0.300   96.972  200.910
  212.250    2.863    0.536    0.295   99.093  198.496
  212.500    2.795    0.537    0.290  101.569  192.813
  212.750    2.739    0.532    0.284  100.716  188.218
  213.000    2.683    0.526    0.280   96.892  186.892
  213.250    2.618    0.533    0.277   94.784  189.658
  213.500    2.562    0.548    0.285   96.253  193.758
  213.750    2.494    0.553    0.295   95.278  196.097
  214.000    2.414    0.564    0.288   99.301  193.983
  214.250    2.342    0.574    0.286  100.113  190.186
  214.500    2.287    0.581    0.293   96.763  187.180
  214.750    2.252    0.593    0.290   95.848  187.716
  215.000    2.236    0.593    0.282   97.312  190.569
  215.250    2.235    0.584    0.299  100.858  193.701
  215.500    2.257    0.565    0.313  103.869  193.866
  215.750    2.286    0.550    0.319  103.849  191.454
  216.000    2.316    0.548    0.314  101.629  187.456
  216.250    2.353    0.557    0.302  102.306  183.203
  216.500    2.386    0.541    0.299  106.992  181.931
  216.750    2.401    0.535    0.294  106.022  183.088
  217.000    2.428    0.544    0.299  103.802  184.240
  217.250    2.460    0.541    0.302  103.186  184.003
  217.500    2.497    0.524    0.302  104.652  182.580
  217.750    2.554    0.515    0.312  106.837  181.669
  218.000    2.589    0.520    0.331  109.538  181.220
  218.250    2.623    0.541    0.331  110.706  180.392
  218.500    2.644    0.547    0.306  108.665  179.564
  218.750    2.661    0.550    0.290  104.839  179.134
  219.000    2.683    0.551    0.293  100.001  179.696
  219.250    2.722    0.542    0.301   93.974  181.784
  219.500    2.739    0.531    0.270   92.467  180.513
  219.750    2.776    0.560    0.278  102.434  178.496
  220.000    2.798    0.553    0.292  105.802  179.451
  220.250    2.807    0.543    0.292  106.375  181.002
  220.500    2.801    0.547    0.279  106.235  182.255
  220.750    2.785    0.558    0.281  105.487  184.380
  221.000    2.804    0.560    0.267  104.228  187.233
  221.250    2.803    0.547    0.267  103.731  188.387
