~VERSION INFORMATION
 VERS.                 2.0:   CWLS LOG ASCII STANDARD -VERSION 2.0
 WRAP.                  NO:   ONE LINE PER DEPTH STEP
~WELL INFORMATION BLOCK
#MNEM.UNIT           DATA                    DESCRIPTION OF MNEMONIC
#---------    -------------------            -------------------------------
# Generated from Intellog Unique Number	CN_91_93/WELL/3678
WELL.         10-02-093-08W4                 : Well_name    - WELL
LOC .         AA/10-02-093-08W4/0            : Location     - LOCATION
UWI .         AA/10-02-093-08W400            : Uwi          - UNIQUE WELL ID
ENTR.         JOETTE                         : Entered      - ENTERED BY
SRVC.         SCHLUMBERGER                   : Scn          - SERVICE COMPANY
DATE.         03/22/92                       : Date         - LOG DATE
STRT.M        75                             : top_depth    - START DEPTH
STOP.M        205                            : bot_depth    - STOP DEPTH
STEP.M        0.25                           : increment    - STEP LENGTH
 NULL. -999.2500:NULL Value
~CURVE INFORMATION BLOCK
#MNEM UNIT       ERCB CURVE CODE    CURVE DESCRIPTION
#-----------   ------------------   ----------------------------------
DEPT.M        00 001 00 00         : DEPTH        - DEPTH
CALI.MM       00 280 01 00         : CAL          - CALIPER
GR  .API      00 310 00 00         : GR           - GAMMA RAY
ILD .OHMM     00 120 00 00         : RESD         - DEEP RESISTIVITY (DIL)
NPHI.V/V      00 330 00 00         : PHIN         - NEUTRON POROSITY (SANDSTONE)
DPHI.V/V      00 890 00 00         : PHID         - DENSITY POROSITY (SANDSTONE)
~PARAMETER INFORMATION
#MNEM.UNIT           DATA             DESCRIPTION OF MNEMONIC
#---------         -----------     ------------------------------
GL  .M        454.8                : gl           - GROUND LEVEL ELEVATION
EREF.M        454.8                : kb           - ELEVATION OF DEPTH REFERENCE
DATM.M        454.8                : datum        - DATUM ELEVATION
TDD .M        205.4                : tdd          - TOTAL DEPTH DRILLER
RUN .         ONE                  : Run          - RUN NUMBER
ENG .         BILL                 : Engineer     - RECORDING ENGINEER
WIT .         JIM                  : Witness      - WITNESSED BY
MUD .         GEL                  : Mud_type     - MUD TYPE
MATR.         SANDSTONE            : Logunit      - NEUTRON MATRIX
TMAX.C        16                   : BHT          - MAXIMUM RECORDED TEMPERATURE
BHTD.M        205.4                : BHTDEP       - MAXIMUM RECORDED TEMPERATURE
RMT .C        14                   : MDTP         - TEMPERATURE OF MUD
MUDD.KG/M     9583.33              : MWT          - MUD DENSITY
NEUT.         1                    : NEUTRON      - NEUTRON TYPE
RESI.         0                    : RESIST       - RESISTIVITY TYPE
RM  .OHMM     4.8                  : RM           - RESISTIVITY OF MUD
RMC .OHMM     4.8                  : RMC          - RESISTIVITY OF MUD CAKE
RMF .OHMM     4.8                  : RMF          - RESISTIVITY OF MUD FILTRATE
SUFT.C        4                    : SUFT         - SURFACE TEMPERATURE
~A  DEPTH      CAL       GR     RESD     PHIN     PHID
# ...
  111.500  227.743  149.988    5.878    0.596    0.282
  111.750  198.122  144.489    5.396    0.609    0.278
  112.000  194.079  148.193    5.476    0.611    0.278
  112.250  193.105  148.216    6.507    0.588    0.274
  112.500  193.143  148.244    6.326    0.579    0.237
  112.750  193.171  148.261    5.252    0.571    0.187
  113.000  195.273  148.898    4.890    0.473    0.165
  113.250  196.324  147.086    4.822    0.440    0.165
  113.500  196.352  143.422    4.825    0.413    0.175
  113.750  198.445  137.311    5.112    0.454    0.202
  114.000  199.495  128.745    6.075    0.503    0.230
  114.250  199.552  134.902    9.347    0.533    0.241
  114.500  199.571  147.194    8.458    0.553    0.253
  114.750  199.628  152.136    9.222    0.537    0.245
  115.000  198.635  149.091    8.465    0.531    0.251
  115.250  197.641  146.041    5.916    0.580    0.360
  115.500  196.675  142.383    4.637    0.614    0.401
  115.750  195.681  147.927    4.573    0.611    0.381
  116.000  195.710  143.656    4.641    0.613    0.407
  116.250  194.744  149.200    4.778    0.620    0.429
  116.500  194.773  141.248    4.849    0.595    0.361
  116.750  196.846  133.296    4.921    0.592    0.345
  117.000  195.862  129.638    4.854    0.601    0.369
  117.250  188.743  133.955    4.719    0.613    0.370
  117.500  186.746  138.885    4.654    0.621    0.364
  117.750  187.806  144.429    4.654    0.621    0.338
  118.000  188.857  146.905    4.592    0.583    0.325
  118.250  192.994  145.094    4.527    0.580    0.310
  118.500  195.067  143.276    4.528    0.588    0.311
  118.750  196.147  145.747    4.531    0.598    0.341
  119.000  195.143  149.450    4.532    0.603    0.327
  119.250  197.236  148.246    4.666    0.593    0.299
  119.500  199.318  143.367    5.088    0.584    0.255
  119.750  193.231  140.931    5.792    0.568    0.242
  120.000  189.170  138.500    5.550    0.543    0.228
  120.250  185.119  136.682    5.168    0.482    0.250
  120.500  186.179  135.478    5.716    0.589    0.275
  120.750  191.348  134.274    7.298    0.614    0.352
  121.000  193.421  139.818    6.326    0.644    0.369
  121.250  196.527  146.588    5.482    0.650    0.372
  121.500  192.466  150.905    4.961    0.621    0.338
  121.750  190.459  153.393    4.823    0.615    0.338
  122.000  190.497  155.870    4.689    0.624    0.344
  122.250  191.576  157.120    4.623    0.638    0.355
  122.500  192.618  154.069    4.495    0.646    0.355
  122.750  191.643  149.185    4.432    0.641    0.298
  123.000  187.600  142.465    4.434    0.640    0.302
  123.250  185.584  141.880    4.499    0.646    0.332
  123.500  181.533  144.357    4.768    0.654    0.371
  123.750  182.583  144.982    4.980    0.663    0.380
  124.000  195.913  146.851    5.127    0.670    0.377
  124.250  197.996  149.941    5.056    0.669    0.343
  124.500  197.030  151.804    4.777    0.642    0.315
  124.750  196.027  151.213    4.577    0.637    0.309
  125.000  193.007  150.617    4.449    0.632    0.302
  125.250  190.991  151.253    4.263    0.628    0.306
  125.500  186.958  153.122    4.086    0.614    0.309
  125.750  185.955  150.072    4.029    0.619    0.314
  126.000  184.980  147.641    3.974    0.627    0.304
  126.250  186.040  147.050    3.975    0.618    0.293
  126.500  189.145  145.846    3.920    0.533    0.264
  126.750  193.273  140.967    3.865    0.578    0.264
  127.000  197.410  147.732    3.923    0.597    0.351
  127.250  194.371  153.276    4.098    0.608    0.315
  127.500  184.195  153.912    4.159    0.605    0.301
  127.750  179.111  156.394    4.343    0.589    0.245
  128.000  177.104  152.123    4.536    0.492    0.241
  128.250  176.130  144.779    4.946    0.452    0.236
  128.500  175.136  134.986    6.136    0.446    0.235
  128.750  173.157  126.427    7.613    0.533    0.266
  129.000  173.186  131.357    7.089    0.342    0.291
  129.250  172.192  127.693    6.601    0.342    0.298
  129.500  171.198  116.674    8.428    0.354    0.213
  129.750  171.236  106.882   22.053    0.380    0.159
  130.000  171.274   99.543  119.962    0.392    0.132
  130.250  171.321   94.045  176.801    0.399    0.119
  130.500  171.369   90.387  229.001    0.370    0.164
  130.750  171.397   89.189  239.174    0.369    0.179
  131.000  171.445   89.819  249.825    0.375    0.186
  131.250  171.464   96.590  253.515    0.377    0.194
  131.500  172.534  103.366  253.621    0.371    0.202
  131.750  172.562  100.316  257.420    0.361    0.210
  132.000  172.600   94.205  236.259    0.386    0.217
  132.250  172.638   91.774  204.763    0.403    0.231
  132.500  172.686   97.317  185.291    0.388    0.200
  132.750  172.724   94.273  190.746    0.381    0.198
  133.000  172.752   93.069  217.131    0.384    0.193
  133.250  172.790   94.932  258.039    0.391    0.249
  133.500  172.838   91.274  281.386    0.384    0.225
  133.750  172.866   90.683  258.281    0.355    0.191
  134.000  172.904   92.547  240.500    0.343    0.255
  134.250  172.942   95.642  217.585    0.376    0.294
  134.500  174.012   93.825  180.633    0.384    0.291
  134.750  175.092   96.915  143.638    0.374    0.296
  135.000  176.143  103.078   71.136    0.339    0.290
  135.250  177.212   98.801   49.006    0.415    0.075
  135.500  177.241  102.504   30.975    0.493    0.080
  135.750  178.292  114.796   16.015    0.564    0.161
  136.000  178.330  132.609   16.252    0.609    0.190
  136.250  179.390  150.433   15.353    0.609    0.286
  136.500  179.428  150.456   13.497    0.615    0.301
  136.750  180.489  150.484   10.281    0.641    0.313
  137.000  180.527  150.496    6.314    0.649    0.312
  137.250  181.587  150.530    4.541    0.658    0.324
  137.500  181.625  151.160    3.560    0.650    0.338
  137.750  181.663  151.797    3.085    0.648    0.315
  138.000  181.701  153.046    2.999    0.647    0.298
  138.250  181.739  153.682    3.414    0.647    0.297
  138.500  181.777  154.313    3.515    0.645    0.298
  138.750  180.812  154.336    3.368    0.649    0.290
  139.000  180.831  155.591    3.092    0.664    0.285
  139.250  178.843  156.841    3.005    0.675    0.278
  139.500  178.871  158.704    2.759    0.670    0.273
  139.750  177.896  159.335    2.569    0.665    0.263
  140.000  178.938  159.363    2.533    0.665    0.258
  140.250  180.008  159.380    2.463    0.666    0.279
  140.500  181.059  158.182    2.464    0.647    0.306
  140.750  182.128  157.591    2.573    0.670    0.321
  141.000  182.176  156.995    2.726    0.651    0.297
  141.250  182.214  156.404    2.807    0.662    0.289
  141.500  182.252  156.427    2.932    0.661    0.256
  141.750  179.232  155.853    3.062    0.607    0.259
  142.000  176.193  155.865    3.386    0.507    0.277
  142.250  174.196  155.888    4.083    0.424    0.297
  142.500  173.212  155.303    5.288    0.436    0.292
  142.750  172.208  152.258    7.907    0.461    0.302
  143.000  172.246  149.208   11.993    0.457    0.307
  143.250  171.262  144.937   33.235    0.414    0.319
  143.500  171.309  139.444   33.726    0.409    0.337
  143.750  171.347  137.615   35.737    0.421    0.325
  144.000  171.395  132.731   42.470    0.430    0.313
  144.250  171.414  124.784   42.497    0.426    0.314
  144.500  171.452  120.507   41.303    0.408    0.305
  144.750  171.499  122.370   36.314    0.446    0.278
  145.000  171.547  126.699   31.473    0.473    0.269
  145.250  171.566  125.489   28.072    0.500    0.261
  145.500  171.613  123.058   24.332    0.529    0.160
  145.750  171.642  134.736   22.657    0.515    0.239
  146.000  171.699  140.280   20.797    0.483    0.252
  146.250  171.727  139.695   19.641    0.480    0.245
  146.500  171.775  142.166   17.518    0.537    0.273
  146.750  171.803  141.575   14.336    0.553    0.299
  147.000  171.832  140.371   12.073    0.454    0.296
  147.250  171.870  131.192   18.313    0.415    0.290
  147.500  171.908  125.694   25.122    0.426    0.290
  147.750  171.946  118.355   28.189    0.410    0.299
