~VERSION INFORMATION
 VERS.                 2.0:   CWLS LOG ASCII STANDARD -VERSION 2.0
 WRAP.                  NO:   ONE LINE PER DEPTH STEP
~WELL INFORMATION BLOCK
#MNEM.UNIT           DATA                    DESCRIPTION OF MNEMONIC
#---------    -------------------            -------------------------------
# Generated from Intellog Unique Number	CX_WELLS/WELL/3897
WELL.         PEX POEJ MCMURRAY              : Well_name    - WELL
LOC .         AA/10-08-088-16W4/0            : Location     - LOCATION
UWI .         AA/10-08-088-16W400            : Uwi          - UNIQUE WELL ID
ENTR.         TIM                            : Entered      - ENTERED BY
SRVC.         SCHLUMBERGER                   : Scn          - SERVICE COMPANY
STRT.M        75                             : top_depth    - START DEPTH
STOP.M        270                            : bot_depth    - STOP DEPTH
STEP.M        0.25                           : increment    - STEP LENGTH
 NULL. -999.2500:NULL Value
~CURVE INFORMATION BLOCK
#MNEM UNIT       ERCB CURVE CODE    CURVE DESCRIPTION
#-----------   ------------------   ----------------------------------
DEPT.M        00 001 00 00         : DEPTH        - DEPTH
GR  .API      00 310 00 00         : GR           - GAMMA RAY
NPHI.V/V      00 330 00 00         : PHIN         - NEUTRON POROSITY (SANDSTONE)
DPHI.V/V      00 890 00 00         : PHID         - DENSITY POROSITY (SANDSTONE)
ILD .OHMM     00 120 00 00         : RESD         - DEEP RESISTIVITY (DIL)
~PARAMETER INFORMATION
#MNEM.UNIT           DATA             DESCRIPTION OF MNEMONIC
#---------         -----------     ------------------------------
GL  .M        539                  : gl           - GROUND LEVEL ELEVATION
EREF.M        542.8                : kb           - ELEVATION OF DEPTH REFERENCE
DATM.M        542.8                : datum        - DATUM ELEVATION
TDD .M        279                  : tdd          - TOTAL DEPTH DRILLER
RUN .         ONE                  : Run          - RUN NUMBER
ENG .         BILL                 : Engineer     - RECORDING ENGINEER
WIT .         JIM                  : Witness      - WITNESSED BY
MUD .         GEL                  : Mud_type     - MUD TYPE
MATR.         SANDSTONE            : Logunit      - NEUTRON MATRIX
TMAX.C        13.9                 : BHT          - MAXIMUM RECORDED TEMPERATURE
BHTD.M        278                  : BHTDEP       - MAXIMUM RECORDED TEMPERATURE
MATR.         1                    : LOGUNIT      - NEUTRON MATRIX
RMT .C        9                    : MDTP         - TEMPERATURE OF MUD
NEUT.         1                    : NEUTRON      - NEUTRON TYPE
RESI.         6.98                 : RESIST       - RESISTIVITY TYPE
RMC .OHMM     8.86                 : RMC          - RESISTIVITY OF MUD CAKE
RMF .OHMM     7.09                 : RMF          - RESISTIVITY OF MUD FILTRATE
SUFT.C        4                    : SUFT         - SURFACE TEMPERATURE
~A  DEPTH       GR     PHIN     PHID     RESD
# ...
  118.500   57.745    0.461    0.335   24.455
  118.750   58.412    0.468    0.335   24.479
  119.000   58.440    0.474    0.329   24.503
  119.250   58.508    0.475    0.323   24.534
  119.500   58.550    0.471    0.324   24.552
  119.750   59.203    0.467    0.323   24.577
  120.000   59.870    0.452    0.319   24.601
  120.250   59.911    0.453    0.318   24.620
  120.500   61.177    0.461    0.314   24.195
  120.750   62.443    0.462    0.309   23.783
  121.000   62.498    0.460    0.306   23.379
  121.250   61.940    0.462    0.304   23.402
  121.500   62.009    0.467    0.300   23.425
  121.750   62.078    0.469    0.300   24.334
  122.000   62.119    0.469    0.305   25.259
  122.250   62.160    0.470    0.311   27.728
  122.500   59.836    0.472    0.325   29.323
  122.750   56.300    0.472    0.337   31.026
  123.000   53.349    0.466    0.348   32.230
  123.250   50.426    0.462    0.340   32.254
  123.500   48.686    0.462    0.319   32.886
  123.750   48.156    0.457    0.313   32.918
  124.000   47.599    0.455    0.309   32.951
  124.250   47.654    0.452    0.309   31.792
  124.500   48.307    0.451    0.309   30.130
  124.750   48.974    0.454    0.308   29.602
  125.000   49.016    0.499    0.307   29.632
  125.250   49.710    0.510    0.308   29.654
  125.500   50.336    0.501    0.321   29.683
  125.750   50.378    0.474    0.333   30.280
  126.000   51.031    0.462    0.338   30.310
  126.250   51.698    0.451    0.345   29.802
  126.500   51.753    0.446    0.344   29.817
  126.750   51.822    0.450    0.340   29.295
  127.000   52.462    0.452    0.335   28.279
  127.250   53.727    0.450    0.330   28.293
  127.500   54.367    0.451    0.334   27.805
  127.750   55.619    0.455    0.348   27.832
  128.000   57.483    0.455    0.353   26.854
  128.250   58.136    0.453    0.348   25.909
  128.500   60.000    0.456    0.339   23.230
  128.750   60.640    0.462    0.328   20.064
  129.000   63.116    0.473    0.321   13.157
  129.250   64.340    0.512    0.322   11.575
  129.500   66.816    0.542    0.325    9.122
  129.750   68.653    0.551    0.327    7.737
  130.000   71.115    0.549    0.324    7.467
  130.250   72.965    0.556    0.322    7.472
  130.500   74.815    0.565    0.322    7.482
  130.750   76.666    0.541    0.316    7.493
  131.000   77.918    0.519    0.313    7.360
  131.250   78.571    0.496    0.307    7.235
  131.500   79.224    0.491    0.296    6.980
  131.750   80.504    0.479    0.295    6.735
  132.000   80.545    0.463    0.292    6.617
  132.250   80.600    0.475    0.284    6.503
  132.500   81.267    0.470    0.288    6.509
  132.750   81.294    0.465    0.300    6.637
  133.000   81.363    0.462    0.303    7.022
  133.250   81.418    0.466    0.308    7.707
  133.500   80.875    0.481    0.307    8.775
  133.750   77.952    0.513    0.301   10.366
  134.000   75.001    0.519    0.298   12.704
  134.250   70.867    0.488    0.291   18.044
  134.500   64.938    0.477    0.280   20.927
  134.750   60.790    0.463    0.337   24.270
  135.000   53.664    0.476    0.346   26.150
  135.250   47.735    0.476    0.355   27.662
  135.500   44.200    0.475    0.358   28.203
  135.750   43.086    0.471    0.351   28.239
  136.000   43.127    0.469    0.345   28.281
  136.250   43.780    0.467    0.343   28.302
  136.500   44.434    0.469    0.341   27.814
  136.750   44.502    0.471    0.344   26.346
  137.000   43.959    0.472    0.348   25.413
  137.250   44.000    0.463    0.343   24.519
  137.500   44.055    0.462    0.337   23.237
  137.750   45.321    0.458    0.329   23.254
  138.000   45.960    0.453    0.324   22.847
  138.250   46.029    0.449    0.317   22.870
  138.500   46.070    0.441    0.312   22.899
  138.750   47.350    0.443    0.314   22.922
  139.000   49.785    0.443    0.311   22.944
  139.250   52.233    0.447    0.301   23.394
  139.500   54.682    0.449    0.296   23.429
  139.750   55.335    0.450    0.294   23.876
  140.000   54.792    0.448    0.286   24.343
  140.250   53.664    0.442    0.289   25.764
  140.500   53.719    0.433    0.292   25.776
  140.750   54.971    0.435    0.294   27.273
  141.000   55.651    0.432    0.285   27.808
  141.250   55.679    0.427    0.266   28.352
  141.500   55.734    0.413    0.264   29.452
  141.750   55.789    0.402    0.255   29.489
  142.000   57.055    0.377    0.243   29.503
  142.250   57.708    0.356    0.224   29.002
  142.500   58.361    0.323    0.209   29.023
  142.750   58.430    0.319    0.158   28.522
  143.000   59.084    0.327    0.158   28.030
  143.250   59.751    0.333    0.161   24.235
  143.500   59.778    0.299    0.127   23.371
  143.750   58.052    0.286    0.107   22.968
  144.000   56.896    0.245    0.080   23.002
  144.250   53.973    0.195    0.054   22.594
  144.500   52.246    0.187    0.031   22.204
  144.750   51.675    0.199    0.060   21.423
  145.000   51.744    0.208    0.080   20.293
  145.250   54.791    0.219    0.120   19.222
  145.500   59.633    0.236    0.159   17.876
  145.750   62.694    0.315    0.195   16.027
  146.000   63.960    0.428    0.223   15.178
  146.250   64.600    0.428    0.269   14.384
  146.500   64.641    0.431    0.268   14.129
  146.750   64.723    0.435    0.271   13.885
  147.000   64.792    0.444    0.283   13.902
  147.250   64.820    0.443    0.275   14.175
  147.500   66.085    0.440    0.275   15.276
  147.750   66.140    0.436    0.273   16.155
  148.000   65.012    0.431    0.265   18.059
  148.250   64.455    0.426    0.255   20.193
  148.500   62.701    0.389    0.245   21.360
  148.750   59.791    0.331    0.222   20.997
  149.000   58.636    0.244    0.065   19.884
  149.250   57.494    0.210    0.053   18.154
  149.500   58.147    0.204    0.058   16.277
  149.750   61.222    0.212    0.077   15.700
  150.000   62.446    0.225    0.118   14.879
  150.250   63.698    0.252    0.170   14.887
  150.500   66.160    0.347    0.190   15.182
  150.750   67.398    0.401    0.242   16.060
  151.000   68.079    0.430    0.241   16.674
  151.250   68.107    0.388    0.215   17.638
  151.500   66.394    0.350    0.182   19.367
  151.750   66.449    0.351    0.173   20.482
  152.000   66.504    0.398    0.186   22.489
  152.250   65.961    0.410    0.209   23.344
  152.500   63.024    0.357    0.211   25.158
  152.750   60.073    0.193    0.085   26.121
  153.000   56.551    0.195    0.024   26.633
  153.250   60.197    0.247    0.024   23.443
  153.500   66.222    0.319    0.059   20.254
  153.750   69.881    0.341    0.106   17.180
  154.000   66.944    0.360    0.150   15.115
  154.250   65.802    0.377    0.123   13.807
  154.500   68.251    0.409    0.122   14.077
  154.750   71.312    0.425    0.165   14.623
  155.000   73.176    0.432    0.192   14.634
  155.250   73.829    0.430    0.215   14.917
  155.500   73.870    0.430    0.222   14.659
  155.750   73.953    0.431    0.240   14.674
  156.000   73.980    0.435    0.261   14.689
  156.250   75.260    0.441    0.278   14.703
  156.500   75.899    0.447    0.285   14.725
  156.750   75.954    0.461    0.286   14.736
  157.000   76.608    0.486    0.272   14.486
  157.250   76.677    0.508    0.274   13.973
  157.500   76.119    0.475    0.276   12.997
  157.750   75.576    0.467    0.267   12.084
  158.000   76.243    0.441    0.257   10.637
  158.250   77.495    0.434    0.241    9.892
  158.500   79.944    0.436    0.218    9.029
  158.750   83.575    0.440    0.225    8.097
  159.000   92.022    0.446    0.239    7.528
  159.250   92.077    0.461    0.236    7.129
  159.500   91.533    0.480    0.219    6.509
  159.750   91.602    0.521    0.248    6.166
  160.000   91.643    0.513    0.239    5.950
  160.250   92.310    0.510    0.229    5.846
  160.500   92.365    0.514    0.217    5.962
  160.750   92.407    0.518    0.222    6.080
  161.000   93.074    0.530    0.224    6.316
  161.250   93.170    0.544    0.228    6.437
  161.500   93.211    0.554    0.228    6.685
  161.750   92.654    0.561    0.232    7.071
