~VERSION INFORMATION
 VERS.                 2.0:   CWLS LOG ASCII STANDARD -VERSION 2.0
 WRAP.                  NO:   ONE LINE PER DEPTH STEP
~WELL INFORMATION BLOCK
#MNEM.UNIT           DATA                    DESCRIPTION OF MNEMONIC
#---------    -------------------            -------------------------------
# Generated from Intellog Unique Number	CN_94_101/WELL/1069
WELL.         SUNCOR INC.                    : Well_name    - WELL
LOC .         AA/10-20-094-06W4/0            : Location     - LOCATION
UWI .         AA/10-20-094-06W400            : Uwi          - UNIQUE WELL ID
ENTR.         JOETTE                         : Entered      - ENTERED BY
SRVC.         SCHLUMBERGER                   : Scn          - SERVICE COMPANY
DATE.         04/10/92                       : Date         - LOG DATE
STRT.M        50                             : top_depth    - START DEPTH
STOP.M        300                            : bot_depth    - STOP DEPTH
STEP.M        0.25                           : increment    - STEP LENGTH
 NULL. -999.2500:NULL Value
~CURVE INFORMATION BLOCK
#MNEM UNIT       ERCB CURVE CODE    CURVE DESCRIPTION
#-----------   ------------------   ----------------------------------
DEPT.M        00 001 00 00         : DEPTH        - DEPTH
ILD .OHMM     00 120 00 00         : RESD         - DEEP RESISTIVITY (DIL)
DPHI.V/V      00 890 00 00         : PHID         - DENSITY POROSITY (SANDSTONE)
NPHI.V/V      00 330 00 00         : PHIN         - NEUTRON POROSITY (SANDSTONE)
GR  .API      00 310 00 00         : GR           - GAMMA RAY
CALI.MM       00 280 01 00         : CAL          - CALIPER
~PARAMETER INFORMATION
#MNEM.UNIT           DATA             DESCRIPTION OF MNEMONIC
#---------         -----------     ------------------------------
GL  .M        578.2                : gl           - GROUND LEVEL ELEVATION
EREF.M        581.4                : kb           - ELEVATION OF DEPTH REFERENCE
DATM.M        581.4                : datum        - DATUM ELEVATION
TDD .M        304                  : tdd          - TOTAL DEPTH DRILLER
RUN .         ONE                  : Run          - RUN NUMBER
ENG .         BILL                 : Engineer     - RECORDING ENGINEER
WIT .         JIM                  : Witness      - WITNESSED BY
MUD .         GEL                  : Mud_type     - MUD TYPE
MATR.         SANDSTONE            : Logunit      - NEUTRON MATRIX
TMAX.C        15                   : BHT          - MAXIMUM RECORDED TEMPERATURE
BHTD.M        304                  : BHTDEP       - MAXIMUM RECORDED TEMPERATURE
RMT .C        10                   : MDTP         - TEMPERATURE OF MUD
MUDD.KG/M     1050                 : MWT          - MUD DENSITY
NEUT.         1                    : NEUTRON      - NEUTRON TYPE
RESI.         0                    : RESIST       - RESISTIVITY TYPE
RM  .OHMM     13.1                 : RM           - RESISTIVITY OF MUD
RMC .OHMM     13.1                 : RMC          - RESISTIVITY OF MUD CAKE
RMF .OHMM     13.1                 : RMF          - RESISTIVITY OF MUD FILTRATE
SUFT.C        4                    : SUFT         - SURFACE TEMPERATURE
~A  DEPTH     RESD     PHID     PHIN       GR      CAL
# ...
  159.500   28.915    0.333    0.462   65.016  157.153
  159.750   29.488    0.338    0.457   64.410  157.167
  160.000   34.333    0.344    0.447   62.567  157.196
  160.250   43.110    0.338    0.437   58.871  157.210
  160.500   48.343    0.333    0.438   57.029  157.225
  160.750   47.485    0.333    0.441   56.423  157.253
  161.000   44.073    0.338    0.447   58.909  157.268
  161.250   40.140    0.340    0.452   60.153  157.287
  161.500   38.700    0.341    0.448   63.254  157.301
  161.750   38.719    0.340    0.446   63.883  158.355
  162.000   38.766    0.334    0.442   63.280  158.378
  162.250   38.078    0.330    0.438   61.435  159.423
  162.500   38.107    0.330    0.437   62.064  159.451
  162.750   37.440    0.340    0.438   65.165  159.461
  163.000   37.486    0.338    0.439   67.651  160.514
  163.250   38.229    0.331    0.444   66.424  160.533
  163.500   38.986    0.325    0.449   63.963  160.548
  163.750   40.547    0.330    0.443   60.270  160.567
  164.000   41.371    0.336    0.433   58.425  159.561
  164.250   41.392    0.329    0.416   57.822  159.585
  164.500   44.696    0.315    0.385   58.451  159.594
  164.750   47.336    0.265    0.378   60.316  159.618
  165.000   51.102    0.210    0.368   62.799  159.642
  165.250   51.152    0.160    0.351   68.993  159.656
  165.500   44.021    0.186    0.350   74.562  160.705
  165.750   29.636    0.263    0.382   83.224  161.749
  166.000   22.340    0.268    0.473   98.683  162.803
  166.250    9.740    0.254    0.521  110.434  163.847
  166.500    5.856    0.242    0.553  123.422  181.383
  166.750    5.751    0.244    0.542  132.084  185.516
  167.000    5.869    0.253    0.562  130.859  185.535
  167.250    6.099    0.253    0.577  133.960  185.569
  167.500    6.339    0.258    0.581  136.449  185.574
  167.750    6.589    0.253    0.557  133.986  185.598
  168.000    6.725    0.240    0.551  136.469  185.621
  168.250    6.602    0.230    0.547  138.334  186.665
  168.500    6.129    0.222    0.539  135.256  186.680
  168.750    5.583    0.224    0.532  129.706  187.733
  169.000    5.281    0.229    0.534  128.482  188.787
  169.250    5.285    0.234    0.547  132.201  188.797
  169.500    5.291    0.241    0.570  134.066  188.816
  169.750    5.296    0.250    0.580  133.460  188.835
  170.000    5.401    0.249    0.578  133.471  187.824
  170.250    5.509    0.254    0.567  135.957  187.843
  170.500    5.838    0.262    0.555  135.966  186.837
  170.750    6.067    0.255    0.548  132.270  186.852
  171.000    6.551    0.248    0.549  128.577  186.875
  171.250    6.808    0.245    0.547  124.881  186.894
  171.500    7.492    0.248    0.531  122.421  185.888
  171.750    7.644    0.254    0.518  123.665  185.903
  172.000    7.650    0.249    0.504  121.823  184.902
  172.250    7.375    0.242    0.493  117.509  185.946
  172.500    7.246    0.241    0.493  119.374  186.990
  172.750    7.250    0.244    0.523  121.860  187.009
  173.000    7.680    0.250    0.532  119.397  186.003
  173.250    9.114    0.255    0.525  115.086  184.987
  173.500   10.411    0.257    0.512  112.005  183.981
  173.750   11.674    0.245    0.497  107.073  181.946
  174.000   11.258    0.244    0.484  100.912  179.900
  174.250   11.264    0.240    0.484   96.595  177.860
  174.500   10.854    0.232    0.497   97.845  175.814
  174.750   10.074    0.237    0.503   99.707  177.898
  175.000    9.008    0.245    0.502  104.050  181.002
  175.250    8.518    0.242    0.497  105.291  184.120
  175.500    7.613    0.241    0.494  109.010  185.164
  175.750    6.932    0.241    0.504  113.347  185.178
  176.000    6.810    0.232    0.514  115.215  184.172
  176.250    6.945    0.227    0.521  116.459  183.157
  176.500    7.500    0.238    0.515  120.178  181.116
  176.750    8.096    0.245    0.497  120.189  182.179
  177.000    8.259    0.245    0.484  114.640  184.249
  177.250    8.110    0.248    0.484  111.562  186.327
  177.500    7.529    0.257    0.490  115.283  188.406
  177.750    7.256    0.262    0.485  112.205  188.425
  178.000    6.610    0.254    0.492  110.363  190.509
  178.250    6.136    0.252    0.505  109.757  191.558
  178.500    6.141    0.257    0.524  112.855  192.606
  178.750    6.145    0.268    0.530  118.430  190.566
  179.000    6.764    0.273    0.521  122.149  185.436
  179.250    7.302    0.269    0.510  118.456  181.336
  179.500    7.593    0.243    0.506  115.999  179.295
  179.750    7.598    0.238    0.510  119.097  186.518
  180.000    7.462    0.254    0.503  121.580  190.661
  180.250    7.194    0.265    0.498  120.355  190.680
  180.500    7.064    0.260    0.509  119.128  187.615
  180.750    6.560    0.257    0.543  117.289  185.565
  181.000    6.321    0.262    0.555  117.921  182.494
  181.250    6.208    0.264    0.552  119.780  180.454
  181.500    5.764    0.264    0.540  124.123  185.622
  181.750    5.661    0.270    0.514  124.746  191.829
  182.000    5.665    0.265    0.507  123.522  193.908
  182.250    5.673    0.249    0.499  120.444  192.897
  182.500    5.784    0.254    0.517  119.840  191.891
  182.750    6.364    0.263    0.538  121.085  190.871
  183.000    8.298    0.273    0.509  115.535  183.681
  183.250   10.033    0.271    0.500  106.278  176.497
  183.500    9.671    0.275    0.491  101.347  172.396
  183.750    8.643    0.276    0.486   98.889  171.390
  184.000    7.162    0.263    0.497  100.752  173.464
  184.250    5.824    0.269    0.518  105.709  177.598
  184.500    4.919    0.279    0.527  109.428  189.975
  184.750    4.234    0.291    0.533  113.147  192.054
  185.000    4.005    0.286    0.536  118.722  192.073
  185.250    4.085    0.275    0.532  124.910  193.122
  185.500    4.494    0.271    0.521  123.073  194.175
  185.750    5.133    0.266    0.497  121.843  194.194
  186.000    6.825    0.259    0.481  120.001  194.209
  186.250    7.230    0.246    0.477  116.923  193.198
  186.500    7.516    0.256    0.483  114.463  192.187
  186.750    7.962    0.257    0.486  112.620  189.126
  187.000    8.593    0.252    0.488  109.542  188.111
  187.250    9.817    0.245    0.490  108.321  185.045
  187.500   11.006    0.239    0.481  111.422  184.030
  187.750   12.111    0.231    0.467  115.143  183.024
  188.000   12.833    0.226    0.451  116.385  182.013
  188.250   13.084    0.229    0.450  118.868  181.002
  188.500   12.852    0.239    0.448  119.500  179.996
  188.750   11.060    0.231    0.437  118.899  180.006
  189.000    9.166    0.224    0.432  118.908  180.025
  189.250    7.596    0.221    0.460  119.537  182.108
  189.500    7.184    0.224    0.472  120.167  186.252
  189.750    7.191    0.235    0.477  120.175  187.291
  190.000    7.477    0.242    0.472  118.336  188.340
  190.250    8.224    0.231    0.473  114.019  190.428
  190.500    9.762    0.230    0.472  113.419  191.467
  190.750    9.592    0.235    0.466  115.899  191.491
  191.000    9.243    0.226    0.461  114.674  191.510
  191.250    8.744    0.230    0.478  115.922  190.500
  191.500    8.585    0.241    0.488  119.640  188.459
  191.750    8.762    0.261    0.494  117.801  186.418
  192.000    9.103    0.271    0.487  114.717  181.288
  192.250   10.015    0.271    0.477  107.314  177.188
  192.500   11.228    0.266    0.467   96.203  175.148
  192.750   11.031    0.254    0.463   99.922  175.172
  193.000   10.431    0.241    0.470  106.113  176.216
  193.250    9.866    0.237    0.475  111.067  179.329
  193.500    9.160    0.242    0.480  114.786  181.408
  193.750    8.995    0.243    0.485  116.033  182.457
  194.000    9.175    0.233    0.487  114.815  183.506
  194.250    9.905    0.239    0.478  112.355  183.525
  194.500   12.205    0.247    0.464  108.659  183.539
  194.750   13.686    0.262    0.448  104.963  180.473
  195.000   12.948    0.279    0.452  102.500  177.408
  195.250   12.241    0.273    0.467  106.218  175.362
  195.500   11.361    0.260    0.489  111.176  174.356
  195.750   12.740    0.251    0.503  113.659  174.371
