~Version : LASO    vs 4.00 
VERS.                2.00:   CWLS Log ASCII Standard -VERSION 2.0
WRAP.                  NO:
~Well Information Block
#MNEM.UNIT       Data                        Description of Mnemonic
#----.----      -------------------------- : -----------------------------
STRT.M             1.0000:
STOP.M           202.5000:
STEP.M             0.1000:
NULL.           -999.2500:
COMP.  MOBIL OIL CANADA                    :COMPANY
WELL.  MOBIL 90 CLARKE CREEK 16-31         :WELL
FLD.   CLARKE CREEK                        :FIELD
LOC.   16-31-089-07W4                      :LOCATION
CTRY.  CANADA                              :COUNTRY
PROV.  ALBERTA                             :PROVINCE
SRVC.  BRITISH PLASTERBOARD                :SERVICE COMPANY
DATE.  22-JAN-90                           :LOG DATE
UWI.   AA/16-31-089-07W400                 :UNIQUE WELL ID
~Parameter Information Block
#MNEM.UNIT       Data                        Description of Mnemonic
#----.----      -------------------------- : -----------------------------
RUN .                   1                 : Run Number
GL  .M           453.6000                 : Ground Level Elevation
DREF.                  GD                 : Depth Reference
EREF.M           453.6000                 : Elevation of Depth Reference
TDL .M           204.5000                 : Total Depth Logger
TDD .M           204.5000                 : Total Depth Driller
~Curve Information Block
#MNEM.UNIT        API CODE    Curve Description
#---------    ------------    -------------------------------------------
DEPT.M                    :   DEPTH
CALI.mm                   :   CALI
DPHI.V/V                  :   DPHI
DT  .US/M     60 520  0  1:   2 SONIC INTERVAL TRANSIT TIME (COMPENSATED)
GR  .API                  :   GR
ILD .Ohmm                 :   ILD
NPHI.V/V                  :   NPHI
RHOB.K/M3     45 350  1  1:   3 BULK DENSITY
~A  Depth           CALI        DPHI          DT          GR         ILD        NPHI        RHOB
# ...
175.3000        134.5808      0.2882    387.0800     89.7567    151.6757      0.3671   1213.1001
175.4000        135.7408      0.2699    403.3600     90.2638     64.4291      0.3890   1156.9000
175.5000        136.7911      0.2448    406.6000     90.9513     59.7618      0.4057   1277.0000
175.6000        137.5610      0.2331    406.6000     91.5422     54.6654      0.3974   1319.5000
175.7000        137.6075      0.2300    405.0800     91.6652     50.0962      0.3850   1300.9000
175.8000        137.9564      0.2286    389.6800     89.9002     48.1982      0.3785   1309.5000
175.9000        138.0064      0.2323    377.2400     85.2107     51.1363      0.3847   1342.9000
176.0000        138.3298      0.2440    378.5200     80.4019     56.6437      0.3956   1205.9000
176.1000        139.5319      0.2560    378.0400     73.2501     63.7464      0.4080   1281.4000
176.2000        139.9863      0.2645    377.5600     68.8244     71.2498      0.4140   1307.7000
176.3000        140.0331      0.2663    390.7200     72.0113     75.6679      0.3822   1232.3000
176.4000        140.0542      0.2696    400.7600     78.0089     75.1028      0.3524   1194.7000
176.5000        140.0524      0.2672    413.1200     82.5462     68.2894      0.3427   1257.7000
176.6000        140.4176      0.2584    412.5600     88.0380     58.5648      0.3595   1274.7000
176.7000        140.4516      0.2590    411.6000     92.7450     56.8928      0.3732   1285.9000
176.8000        140.4538      0.2624    406.4400     92.8527     59.0996      0.3726   1258.2000
176.9000        140.4538      0.2711    396.9200     94.4630     61.3845      0.3765   1201.9000
177.0000        140.8337      0.2744    405.9200     94.6569     60.3451      0.3810   1226.3000
177.1000        140.8560      0.2728    416.4800     94.6855     56.4026      0.3823   1223.1001
177.2000        140.8567      0.2694    417.6000     94.2184     52.6214      0.3857   1249.6001
177.3000        140.8552      0.2607    411.0400     86.4027     50.6044      0.3778   1271.0000
177.4000        140.8534      0.2535    409.6800     81.4762     49.3028      0.3907   1282.9000
177.5000        140.8515      0.2507    410.0400     76.6540     50.2147      0.3886   1275.4000
177.6000        140.8497      0.2552    410.4800     71.8373     51.2123      0.3840   1264.7000
177.7000        140.8478      0.2702    415.5600     70.3495     52.2350      0.3721   1200.7000
177.8000        140.8459      0.2824    423.7200     68.6131     53.2787      0.3746   1208.3000
177.9000        140.8440      0.2837    419.1600     64.2685     53.6097      0.3760   1252.5000
178.0000        140.8421      0.2702    412.6400     64.0499     59.6064      0.3728   1297.6001
178.1000        140.5477      0.2622    406.1200     63.9933     65.4656      0.3617   1306.9000
178.2000        140.1022      0.2719    401.3600     69.8340     69.5560      0.3514   1189.3000
178.3000        139.7026      0.2771    396.8000     76.3894     68.2262      0.3431   1213.5000
178.4000        139.3097      0.2655    391.5200     83.5556     62.1764      0.3431   1364.5000
178.5000        138.6090      0.2559    393.4000     89.2687     54.2072      0.3387   1303.1001
178.6000        138.0342      0.2456    395.1200     87.6501     51.5501      0.3331   1281.1001
178.7000        137.6245      0.2479    396.1200     84.4179     50.6541      0.3342   1258.9000
178.8000        137.2305      0.2503    396.6400     80.6135     51.4216      0.3393   1236.7000
178.9000        136.8386      0.2516    397.0800     77.7461     52.4373      0.3406   1269.7000
179.0000        136.3493      0.2556    394.9200     75.8044     53.4840      0.3429   1247.0000
179.1000        135.7277      0.2575    393.4400     76.5365     52.8810      0.3495   1224.3000
179.2000        135.5318      0.2581    392.3600     76.2815     52.8211      0.3629   1224.3000
179.3000        135.5057      0.2598    391.2800     74.2635     53.6693      0.3730   1314.4000
179.4000        135.4998      0.2628    392.5200     73.1882     54.9094      0.3691   1317.7000
179.5000        135.4970      0.2680    393.7600     73.1558     55.1343      0.3725   1217.2000
179.6000        134.7480      0.2751    395.1600     71.5150     55.2512      0.3783   1195.8000
179.7000        135.0392      0.2822    394.0000     68.6854     56.1667      0.3908   1139.3000
179.8000        135.4119      0.2893    392.7200     68.3148     55.5244      0.3922   1145.5000
179.9000        135.4892      0.2933    394.4800     68.2343     55.5594      0.3914   1162.3000
180.0000        135.4875      0.2918    396.2400     65.2670     56.5292      0.3885   1193.7000
180.1000        135.4856      0.2832    398.0400     63.3490     59.0150      0.3843   1217.4000
180.2000        135.4837      0.2852    400.0000     60.5533     64.7347      0.3829   1229.7000
180.3000        135.4818      0.2930    397.8000     57.5966     73.5607      0.3837   1144.6000
180.4000        135.8835      0.3013    399.0400     54.0894     78.2548      0.3868   1090.1000
180.5000        136.2683      0.3170    401.0800     49.9904     82.8244      0.3893   1088.1000
180.6000        136.2911      0.3203    402.5200     45.8090     88.9668      0.3855   1087.1000
180.7000        136.6372      0.3151    397.0000     41.6149     95.7660      0.3799   1129.7000
180.8000        136.6871      0.3082    399.7200     41.8200    103.1503      0.3772   1183.4000
180.9000        136.6947      0.3087    396.0400     45.1107    109.2407      0.3815   1224.7000
181.0000        136.6954      0.3150    396.6800     48.5050    115.5559      0.3603   1177.9000
181.1000        136.9848      0.3240    397.1200     51.6114    130.0884      0.3470   1227.5000
181.2000        136.7386      0.3335    397.4800     54.4623    138.8697      0.3541   1208.4000
181.3000        136.6992      0.3382    390.3200     60.3560    144.2941      0.3683   1143.8000
181.4000        137.6254      0.3384    393.0800     66.8724    124.8068      0.3728   1111.5000
181.5000        138.2547      0.3352    403.1600     72.4733     97.5776      0.3607   1115.7000
181.6000        139.0099      0.2941    413.2400     77.5739     74.5007      0.3502   1169.7000
181.7000        139.0944      0.2601    423.3200     80.4315     57.4210      0.3457   1203.1001
181.8000        138.7292      0.2288    428.3600     80.4490     47.7259      0.3556   1226.1001
181.9000        137.1610      0.2288    409.2800     77.6439     44.9045      0.3651   1225.9000
182.0000        135.8903      0.2333    395.5600     72.4266     44.2299      0.3666   1225.7000
182.1000        135.5013      0.2446    396.4400     65.2893     45.7532      0.3657   1223.3000
182.2000        134.0612      0.2654    397.8800     57.3823     61.8321      0.3728   1227.0000
182.3000        131.1092      0.2806    399.0000     49.9799    129.0633      0.3861   1230.7000
182.4000        128.2867      0.2973    391.0400     46.0207    206.4451      0.3781   1052.7000
182.5000        128.4840      0.3239    387.0400     50.0430    211.2394      0.3690   1030.9000
182.6000        129.9881      0.3140    393.8800     61.4309    166.7297      0.3671   1102.9000
182.7000        130.8126      0.2925    405.4400     82.0851    112.8505      0.3669   1270.3000
182.8000        131.9205      0.2713    428.0000     89.7179     54.2163      0.3688   1222.1001
182.9000        132.5615      0.2538    445.2000     97.8723     41.0939      0.3826   1253.9000
183.0000        133.3278      0.2501    446.8800    104.8927     34.7821      0.4044   1218.9000
183.1000        133.7378      0.2510    447.1600    113.0209     31.6878      0.4530   1245.9000
183.2000        133.7825      0.2563    440.0800    118.8525     29.2198      0.4778   1238.2000
183.3000        134.1157      0.2601    435.1200    118.4765     29.6094      0.4790   1228.5000
183.4000        134.9750      0.2597    438.1200    116.8117     30.2640      0.4596   1185.1001
183.5000        135.3793      0.2586    442.4000    115.0526     30.8770      0.4391   1222.4000
