~VERSION INFORMATION
 VERS.                 2.0:   CWLS LOG ASCII STANDARD -VERSION 2.0
 WRAP.                  NO:   ONE LINE PER DEPTH STEP
~WELL INFORMATION BLOCK
#MNEM.UNIT           DATA                    DESCRIPTION OF MNEMONIC
#---------    -------------------            -------------------------------
# Generated from Intellog Unique Number	CN_94_101/WELL/5023
WELL.         11-27-101-13W4                 : Well_name    - WELL
LOC .         AA/11-27-101-13W4/0            : Location     - LOCATION
UWI .         AA/11-27-101-13W400            : Uwi          - UNIQUE WELL ID
ENTR.         TIM                            : Entered      - ENTERED BY
SRVC.         SCHLUMBERGER                   : Scn          - SERVICE COMPANY
DATE.         08/13/92                       : Date         - LOG DATE
STRT.M        330                            : top_depth    - START DEPTH
STOP.M        550                            : bot_depth    - STOP DEPTH
STEP.M        0.25                           : increment    - STEP LENGTH
NULL. -999.2500:NULL Value
~CURVE INFORMATION BLOCK
#MNEM UNIT       ERCB CURVE CODE    CURVE DESCRIPTION
#-----------   ------------------   ----------------------------------
DEPT.M        00 001 00 00         : DEPTH        - DEPTH
ILD .OHMM     00 120 00 00         : RESD         - DEEP RESISTIVITY (DIL)
NPHI.V/V      00 330 00 00         : PHIN         - NEUTRON POROSITY (SANDSTONE)
DPHI.V/V      00 890 00 00         : PHID         - DENSITY POROSITY (SANDSTONE)
GR  .API      00 310 00 00         : GR           - GAMMA RAY
~PARAMETER INFORMATION
#MNEM.UNIT           DATA             DESCRIPTION OF MNEMONIC
#---------         -----------     ------------------------------
GL  .M        766.7                : gl           - GROUND LEVEL ELEVATION
EREF.M        770.1                : kb           - ELEVATION OF DEPTH REFERENCE
DATM.M        770.1                : datum        - DATUM ELEVATION
TDD .M        555                  : tdd          - TOTAL DEPTH DRILLER
RUN .         ONE                  : Run          - RUN NUMBER
ENG .         BILL                 : Engineer     - RECORDING ENGINEER
WIT .         JIM                  : Witness      - WITNESSED BY
MUD .         GEL                  : Mud_type     - MUD TYPE
MATR.         SANDSTONE            : Logunit      - NEUTRON MATRIX
TMAX.C        28.4                 : BHT          - MAXIMUM RECORDED TEMPERATURE
BHTD.M        555                  : BHTDEP       - MAXIMUM RECORDED TEMPERATURE
RMT .C        28.4                 : MDTP         - TEMPERATURE OF MUD
MUDD.KG/M     1090                 : MWT          - MUD DENSITY
NEUT.         1                    : NEUTRON      - NEUTRON TYPE
RESI.         0                    : RESIST       - RESISTIVITY TYPE
RM  .OHMM     10                   : RM           - RESISTIVITY OF MUD
RMC .OHMM     4.6                  : RMC          - RESISTIVITY OF MUD CAKE
RMF .OHMM     4.6                  : RMF          - RESISTIVITY OF MUD FILTRATE
SUFT.C        4                    : SUFT         - SURFACE TEMPERATURE
~A  DEPTH     RESD     PHIN     PHID       GR
# ...
  460.500    4.210    0.453    0.246  123.081
  460.750    5.004    0.444    0.241  121.861
  461.000    5.406    0.431    0.234  118.795
  461.250    5.610    0.432    0.223  116.335
  461.500    6.012    0.429    0.213  110.782
  461.750    6.807    0.420    0.199  100.890
  462.000    7.403    0.356    0.176   87.892
  462.250    8.592    0.325    0.173   78.000
  462.500    9.387    0.248    0.177   72.448
  462.750    9.985    0.259    0.205   74.341
  463.000    9.797    0.274    0.234   77.460
  463.250    9.208    0.296    0.259   89.892
  463.500    8.031    0.332    0.269  104.176
  463.750    6.657    0.400    0.277  119.081
  464.000    5.086    0.546    0.281  129.026
  464.250    3.909    0.560    0.286  129.052
  464.500    2.929    0.554    0.285  129.699
  464.750    2.146    0.554    0.257  133.452
  465.000    1.760    0.550    0.251  136.578
  465.250    1.569    0.542    0.250  136.604
  465.500    1.180    0.545    0.256  135.398
  465.750    0.795    0.549    0.263  134.804
  466.000    0.600    0.560    0.282  134.211
  466.250    0.606    0.571    0.287  133.618
  466.500    0.415    0.583    0.288  133.638
  466.750    0.422    0.591    0.284  134.291
  467.000    0.428    0.596    0.274  134.937
  467.250    0.433    0.594    0.268  134.351
  467.500    0.242    0.588    0.270  133.744
  467.750    0.248    0.577    0.273  131.911
  468.000    0.254    0.563    0.267  128.218
  468.250    0.262    0.506    0.252  124.532
  468.500    0.465    0.497    0.242  124.558
  468.750    1.063    0.493    0.248  125.205
  469.000    1.462    0.487    0.244  127.711
  469.250    2.257    0.478    0.235  129.598
  469.500    3.055    0.472    0.234  129.004
  469.750    3.256    0.463    0.238  128.411
  470.000    3.458    0.473    0.240  130.911
  470.250    3.663    0.469    0.247  131.557
  470.500    3.668    0.454    0.247  129.104
  470.750    3.675    0.438    0.240  123.558
  471.000    3.683    0.432    0.229  125.444
  471.250    3.686    0.455    0.243  128.564
  471.500    3.891    0.463    0.258  131.070
  471.750    3.896    0.465    0.252  130.477
  472.000    3.905    0.456    0.245  128.024
  472.250    3.518    0.459    0.247  126.191
  472.500    3.325    0.462    0.254  127.464
  472.750    2.743    0.457    0.261  128.104
  473.000    2.547    0.459    0.269  130.623
  473.250    2.159    0.467    0.269  131.883
  473.500    1.968    0.477    0.262  133.769
  473.750    1.580    0.475    0.254  134.416
  474.000    1.389    0.466    0.248  136.295
  474.250    1.199    0.460    0.240  138.182
  474.500    1.206    0.453    0.245  138.208
  474.750    1.212    0.459    0.250  135.762
  475.000    1.417    0.472    0.260  133.922
  475.250    1.420    0.481    0.270  131.469
  475.500    1.624    0.492    0.280  128.403
  475.750    1.631    0.507    0.289  126.570
  476.000    1.242    0.521    0.295  125.363
  476.250    0.853    0.501    0.291  126.616
  476.500    0.466    0.528    0.286  130.982
  476.750    0.470    0.541    0.287  133.495
  477.000    0.480    0.552    0.288  129.809
  477.250    0.486    0.560    0.288  128.582
  477.500    0.489    0.551    0.287  124.270
  477.750    0.497    0.517    0.284  123.056
  478.000    0.501    0.495    0.281  124.949
  478.250    0.312    0.521    0.278  126.836
  478.500    0.316    0.520    0.274  129.968
  478.750    0.322    0.512    0.272  133.088
  479.000    0.330    0.507    0.266  135.594
  479.250    0.335    0.498    0.262  136.861
  479.500    0.341    0.478    0.263  136.894
  479.750    0.547    0.475    0.258  136.920
  480.000    0.552    0.479    0.253  136.327
  480.250    0.952    0.477    0.259  135.120
  480.500    1.353    0.478    0.269  133.894
  480.750    1.753    0.504    0.284  129.581
  481.000    1.561    0.545    0.296  124.035
  481.250    0.975    0.569    0.306  122.196
  481.500    0.390    0.574    0.312  119.742
  481.750   -0.196    0.575    0.315  118.529
  482.000   -0.384    0.580    0.326  115.456
  482.250   -0.576    0.584    0.340  111.770
  482.500   -0.567    0.585    0.338  110.544
  482.750   -0.565    0.586    0.334  106.851
  483.000   -0.559    0.586    0.327  103.778
  483.250   -0.354    0.580    0.316  101.945
  483.500   -0.151    0.573    0.302  101.351
  483.750    0.055    0.552    0.291   99.518
  484.000    0.257    0.475    0.252   95.825
  484.250    0.855    0.450    0.246   90.273
  484.500    1.848    0.435    0.237   80.381
  484.750    2.443    0.415    0.232   71.735
  485.000    3.829    0.390    0.228   74.855
  485.250    5.216    0.371    0.227   84.180
  485.500    5.223    0.359    0.228   86.686
  485.750    3.651    0.356    0.233   86.713
  486.000    2.474    0.416    0.243   83.020
  486.250    2.480    0.436    0.268   73.748
  486.500    3.079    0.410    0.275   75.634
  486.750    3.281    0.403    0.281   79.380
  487.000    3.681    0.401    0.286   85.606
  487.250    3.885    0.413    0.285   94.318
  487.500    3.302    0.462    0.277  106.743
  487.750    2.912    0.548    0.265  116.068
  488.000    2.327    0.545    0.270  112.995
  488.250    1.543    0.535    0.278  109.929
  488.500    0.565    0.547    0.291  113.062
  488.750   -0.218    0.564    0.286  115.555
  489.000   -1.198    0.556    0.257  118.061
  489.250   -1.192    0.541    0.248  120.567
  489.500   -0.395    0.534    0.248  122.453
  489.750   -0.195    0.525    0.253  118.760
  490.000    0.403    0.494    0.254  113.828
  490.250    0.803    0.484    0.252  109.515
  490.500    1.008    0.474    0.249  105.202
  490.750    1.409    0.501    0.254   94.690
  491.000    1.809    0.531    0.265   85.418
  491.250    2.208    0.511    0.275   76.766
  491.500    3.006    0.481    0.281   60.049
  491.750    4.000    0.452    0.283   48.930
  492.000    4.594    0.425    0.286   49.563
  492.250    5.785    0.402    0.296   52.696
  492.500    6.976    0.391    0.306   54.576
  492.750    7.373    0.400    0.320   58.329
  493.000    8.168    0.408    0.330   62.068
  493.250    9.160    0.417    0.330   67.680
  493.500    9.758    0.424    0.328   72.673
  493.750    9.961    0.432    0.327   76.412
  494.000    8.983    0.437    0.321   80.778
  494.250    7.607    0.444    0.313   86.384
  494.500    6.037    0.453    0.306   91.990
  494.750    5.056    0.454    0.295  100.695
  495.000    3.879    0.456    0.289  108.781
  495.250    2.505    0.468    0.291  118.112
  495.500    1.722    0.496    0.291  120.619
  495.750    1.730    0.487    0.281  119.405
  496.000    1.735    0.470    0.256  114.473
  496.250    1.939    0.461    0.253  108.300
  496.500    2.536    0.456    0.261   97.162
  496.750    3.725    0.454    0.283   87.890
  497.000    5.111    0.448    0.293   79.238
  497.250    6.695    0.447    0.298   66.866
  497.500    8.673    0.438    0.299   45.822
  497.750   10.850    0.433    0.300   43.363
  498.000   13.222    0.428    0.299   39.663
  498.250   17.172    0.412    0.293   34.111
  498.500   17.377    0.370    0.286   29.178
  498.750   18.173    0.362    0.279   22.386
  499.000   18.373    0.348    0.281   20.552
  499.250   19.564    0.338    0.287   19.339
  499.500   20.160    0.331    0.291   18.746
  499.750   21.547    0.325    0.291   19.392
  500.000   23.722    0.326    0.291   20.659
  500.250   26.488    0.328    0.291   21.305
  500.500   28.466    0.333    0.291   20.719
  500.750   28.472    0.331    0.292   20.739
  501.000   27.100    0.328    0.297   20.765
  501.250   28.685    0.326    0.301   24.511
  501.500   30.269    0.342    0.304   33.223
  501.750   31.852    0.383    0.312   40.069
  502.000   32.645    0.400    0.319   44.441
  502.250   32.062    0.416    0.328   45.715
  502.500   30.094    0.409    0.314   45.728
  502.750   26.157    0.385    0.302   45.761
  503.000   23.205    0.380    0.293   46.408
  503.250   24.789    0.385    0.301   47.674
  503.500   27.161    0.391    0.314   48.941
  503.750   28.944    0.395    0.310   49.587
