~VERSION INFORMATION
 VERS.                 2.0:   CWLS LOG ASCII STANDARD -VERSION 2.0
 WRAP.                  NO:   ONE LINE PER DEPTH STEP
~WELL INFORMATION BLOCK
#MNEM.UNIT           DATA                    DESCRIPTION OF MNEMONIC
#---------    -------------------            -------------------------------
# Generated from Intellog Unique Number	CN_94_101/WELL/3305
WELL.         10-15-095-08W4                 : Well_name    - WELL
LOC .         AA/10-15-095-08W4/0            : Location     - LOCATION
UWI .         AA/10-15-095-08W400            : Uwi          - UNIQUE WELL ID
ENTR.         JOETTE                         : Entered      - ENTERED BY
SRVC.         SCHLUMBERGER                   : Scn          - SERVICE COMPANY
DATE.         07/22/92                       : Date         - LOG DATE
STRT.M        10                             : top_depth    - START DEPTH
STOP.M        110                            : bot_depth    - STOP DEPTH
STEP.M        0.25                           : increment    - STEP LENGTH
 NULL. -999.2500:NULL Value
~CURVE INFORMATION BLOCK
#MNEM UNIT       ERCB CURVE CODE    CURVE DESCRIPTION
#-----------   ------------------   ----------------------------------
DEPT.M        00 001 00 00         : DEPTH        - DEPTH
GR  .API      00 310 00 00         : GR           - GAMMA RAY
ILD .OHMM     00 120 00 00         : RESD         - DEEP RESISTIVITY (DIL)
NPHI.V/V      00 330 00 00         : PHIN         - NEUTRON POROSITY (SANDSTONE)
RHOB.KG/M3    00 350 00 00         : DENS         - BULK DENSITY
~PARAMETER INFORMATION
#MNEM.UNIT           DATA             DESCRIPTION OF MNEMONIC
#---------         -----------     ------------------------------
GL  .M        342.66               : gl           - GROUND LEVEL ELEVATION
EREF.M        342.66               : kb           - ELEVATION OF DEPTH REFERENCE
DATM.M        342.66               : datum        - DATUM ELEVATION
TDD .M        115                  : tdd          - TOTAL DEPTH DRILLER
RUN .         ONE                  : Run          - RUN NUMBER
ENG .         BILL                 : Engineer     - RECORDING ENGINEER
WIT .         JIM                  : Witness      - WITNESSED BY
MUD .         GEL                  : Mud_type     - MUD TYPE
MATR.         SANDSTONE            : Logunit      - NEUTRON MATRIX
TMAX.C        10                   : BHT          - MAXIMUM RECORDED TEMPERATURE
BHTD.M        115                  : BHTDEP       - MAXIMUM RECORDED TEMPERATURE
RMT .C        10                   : MDTP         - TEMPERATURE OF MUD
MUDD.KG/M     1090                 : MWT          - MUD DENSITY
NEUT.         1                    : NEUTRON      - NEUTRON TYPE
RESI.         0                    : RESIST       - RESISTIVITY TYPE
RM  .OHMM     13.1                 : RM           - RESISTIVITY OF MUD
RMC .OHMM     13.1                 : RMC          - RESISTIVITY OF MUD CAKE
RMF .OHMM     13.1                 : RMF          - RESISTIVITY OF MUD FILTRATE
SUFT.C        4                    : SUFT         - SURFACE TEMPERATURE
~A  DEPTH       GR     RESD     PHIN     DENS
   10.000   99.422   15.878    0.356 2089.840
   10.250   95.744   17.176    0.617 2098.330
   10.500   85.874  575.339    0.656 2094.480
   10.750  101.475 2334.920    0.642 2115.170
   11.000  103.402    3.311    0.640 2099.120
   11.250   91.653    0.423    0.664 2103.470
   11.500   96.078    0.275    0.593 2148.710
   11.750   94.279    0.262    0.609 2154.950
   12.000   86.256    0.405    0.651 2157.270
   12.250   86.319    0.450    0.651 2129.080
   12.500   93.245    0.368    0.577 2102.860
   12.750   95.776    0.350    0.548 2084.910
   13.000  100.807    0.234    0.526 2085.260
   13.250  100.886    0.164    0.575 2085.410
   13.500   98.450    0.165    0.609 2085.690
   13.750  100.998    0.145    0.602 2071.810
   14.000  113.495    0.157    0.633 2084.230
   14.250  108.608    0.166    0.617 2127.290
   14.500  101.810    0.170    0.580 2150.010
   14.750   98.164    0.194    0.616 2135.990
   15.000   94.486    0.642    0.534 2126.180
   15.250   96.413    0.582    0.593 2142.660
   15.500   90.888    0.500    0.558 2240.700
   15.750  107.111    0.584    0.542 2265.390
   16.000  102.208    0.718    0.525 2259.580
   16.250   97.304    0.796    0.569 2182.510
   16.500   88.039    2.507    0.531 2264.280
   16.750   93.069    1.365    0.535 2366.320
   17.000   74.507    0.762    0.440 2492.840
   17.250   62.757    4.305    0.371 2303.850
   17.500   51.645   33.849    0.293 2253.150
   17.750   48.604   60.946    0.271 2206.660
   18.000   69.794   53.767    0.338 2184.500
   18.250   71.100   27.816    0.379 2152.320
   18.500   55.625    7.436    0.444 2152.600
   18.750   38.304    6.729    0.450 2144.680
   19.000   24.692    6.919    0.413 2138.790
   19.250   20.410   15.649    0.359 2139.070
   19.500   22.957   16.504    0.348 2143.570
   19.750   21.779   23.019    0.353 2141.820
   20.000   22.463   19.313    0.385 2137.890
   20.250   22.527  140.707    0.415 2123.940
   20.500   22.591  191.442    0.345 2120.160
   20.750   23.275  121.372    0.341 2120.440
   21.000   25.823  128.000    0.357 2128.860
   21.250   35.215  125.080    0.415 2131.250
   21.500   39.625   39.925    0.449 2123.330
   21.750   49.623   51.599    0.445 2121.580
   22.000   44.099   29.569    0.418 2117.800
   22.250   41.058   97.921    0.392 2118.080
   22.500   46.089  100.677    0.426 2130.640
   22.750   47.394   33.812    0.474 2128.820
   23.000   51.199   39.497    0.452 2155.610
   23.250   58.093   21.499    0.441 2151.900
   23.500   63.123   21.009    0.431 2135.840
   23.750   62.566   12.032    0.422 2134.090
   24.000   78.168   17.224    0.403 2140.550
   24.250   89.408   20.120    0.448 2146.940
   24.500   90.729   14.121    0.456 2149.320
   24.750   97.002    8.092    0.499 2149.470
   25.000   84.011    6.129    0.492 2153.820
   25.250   72.278    3.888    0.429 2156.210
   25.500   61.770   13.547    0.390 2132.020
   25.750   68.059   26.986    0.394 2124.170
   26.000   64.397   32.316    0.374 2130.550
   26.250   56.373   39.695    0.407 2153.210
   26.500   58.316   48.758    0.374 2165.690
   26.750   73.901   63.015    0.377 2155.810
   27.000   72.103  146.204    0.397 2139.820
   27.250   60.369   88.201    0.411 2127.980
   27.500   54.845   53.116    0.373 2122.160
   27.750   52.425   50.602    0.378 2118.380
   28.000   46.885   59.110    0.384 2147.060
   28.250   47.569   56.312    0.415 2151.480
   28.500   61.309   86.949    0.371 2139.500
   28.750   61.993   40.634    0.349 2131.720
   29.000   47.761   47.467    0.376 2154.300
   29.250   68.950  161.239    0.430 2162.790
   29.500   86.415  110.323    0.403 2154.870
   29.750   80.891   36.143    0.431 2147.020
   30.000   72.278   25.381    0.446 2141.270
   30.250   69.221   30.376    0.410 2137.490
   30.500   62.439   37.334    0.392 2135.740
   30.750   56.294   35.567    0.418 2133.920
   31.000   53.874   36.568    0.415 2119.970
   31.250   47.108   47.260    0.401 2116.180
   31.500   51.518   61.078    0.373 2132.810
   31.750   53.444   55.303    0.414 2139.190
   32.000   49.782   54.042    0.428 2143.550
   32.250   49.862   50.192    0.416 2145.860
   32.500   48.079   49.047    0.420 2137.940
   32.750   49.353   60.281    0.460 2136.260
   33.000   55.004   51.846    0.445 2142.650
   33.250   57.583   56.085    0.451 2157.170
   33.500   54.527   43.600    0.447 2157.450
   33.750   52.728   42.630    0.444 2135.300
   34.000   54.654   87.055    0.442 2139.650
   34.250   44.768  432.954    0.442 2172.540
   34.500   41.106   79.008    0.385 2178.930
   34.750   56.708   47.636    0.406 2167.010
   35.000   59.255   38.007    0.417 2153.130
   35.250   68.011   39.031    0.419 2163.580
   35.500   69.937   33.589    0.444 2165.900
   35.750   61.309   42.345    0.434 2164.080
   36.000   55.163   48.224    0.415 2156.230
   36.250   50.881   42.569    0.411 2154.480
   36.500   57.774   50.947    0.401 2154.840
   36.750   57.838   46.130    0.417 2153.090
   37.000   48.588   43.946    0.432 2143.200
   37.250   40.565   62.910    0.420 2137.240
   37.500   43.128   59.898    0.425 2125.330
   37.750   52.521   54.234    0.412 2129.680
   38.000   49.480   63.316    0.448 2154.440
   38.250   45.181  132.703    0.463 2124.140
   38.500   38.415  271.151    0.452 2120.430
   38.750   47.792  114.536    0.407 2126.750
   39.000   50.356   70.792    0.385 2147.440
   39.250   46.678   70.958    0.417 2151.790
   39.500   51.709   78.735    0.403 2176.480
   39.750   53.635   43.960    0.385 2134.130
   40.000   40.039   73.297    0.452 2132.450
   40.250   35.773  107.628    0.390 2130.560
   40.500   38.304   71.793    0.392 2130.910
   40.750   36.505   57.248    0.424 2137.300
   41.000   39.052  215.274    0.386 2143.680
   41.250   40.374  111.371    0.398 2137.800
   41.500   45.389  130.097    0.416 2150.350
   41.750   38.638  137.202    0.428 2138.360
   42.000   36.203  400.144    0.401 2124.410
   42.250   38.129  115.379    0.341 2120.560
   42.500   44.401   55.309    0.341 2149.390
   42.750   40.740   81.166    0.360 2155.840
   43.000   40.819  183.700    0.381 2147.920
   43.250   39.641   95.036    0.396 2148.200
   43.500   38.447   66.699    0.415 2158.660
   43.750   37.890  220.885    0.422 2154.870
   44.000   34.244  271.481    0.435 2157.260
   44.250   38.017  286.306    0.399 2165.610
   44.500   38.097  555.686    0.386 2176.210
   44.750   35.056  503.146    0.367 2172.280
   45.000   35.741  479.330    0.388 2152.230
   45.250   33.337 1897.580    0.380 2138.280
   45.500   33.369  493.974    0.395 2130.430
   45.750   32.843  447.269    0.436 2118.510
   46.000   31.633  673.664    0.438 2116.760
   46.250   32.350 1964.720    0.410 2119.080
   46.500   32.398 1183.880    0.387 2111.230
   46.750   37.428  475.294    0.395 2101.270
   47.000   45.564  569.170    0.367 2132.130
   47.250   41.281  409.984    0.433 2144.620
   47.500   40.119  756.293    0.403 2132.700
   47.750   41.408  353.649    0.432 2124.850
   48.000   38.989  218.583    0.433 2133.270
   48.250   35.948  561.415    0.442 2135.660
   48.500   44.099  577.216    0.411 2140.010
   48.750   41.058  460.271    0.404 2154.460
   49.000   52.314  367.020    0.427 2154.810
   49.250   44.290  596.243    0.398 2142.820
   49.500   49.321  265.145    0.390 2147.180
   49.750   47.538  333.877    0.400 2155.670
   50.000   54.415  259.552    0.403 2151.810
   50.250   55.100  177.590    0.394 2141.930
   50.500   45.229   99.212    0.421 2132.040
   50.750   47.156   62.936    0.410 2122.160
   51.000   52.823  157.499    0.401 2108.210
   51.250   51.008  365.422    0.395 2108.490
   51.500   46.105  291.558    0.398 2123.010
   51.750   41.201  315.210    0.430 2127.360
   52.000   40.023  358.761    0.425 2121.550
   52.250   43.812  398.082    0.424 2121.830
   52.500   43.892  555.563    0.433 2111.950
   52.750   42.077  343.583    0.433 2087.830
   53.000   44.624 1002.050    0.446 2081.940
   53.250   40.963  619.345    0.394 2084.260
