~VERSION INFORMATION
 VERS.                 2.0:   CWLS LOG ASCII STANDARD -VERSION 2.0
 WRAP.                  NO:   ONE LINE PER DEPTH STEP
~WELL INFORMATION BLOCK
#MNEM.UNIT           DATA                    DESCRIPTION OF MNEMONIC
#---------    -------------------            -------------------------------
# Generated from Intellog Unique Number	CN_91_93/WELL/2636
WELL.         10-08-091-17W4                 : Well_name    - WELL
LOC .         AA/10-08-091-17W4/0            : Location     - LOCATION
UWI .         AA/10-08-091-17W400            : Uwi          - UNIQUE WELL ID
ENTR.         JOETTE                         : Entered      - ENTERED BY
SRVC.         SCHLUMBERGER                   : Scn          - SERVICE COMPANY
DATE.         02/05/92                       : Date         - LOG DATE
STRT.M        100                            : top_depth    - START DEPTH
STOP.M        240                            : bot_depth    - STOP DEPTH
STEP.M        0.25                           : increment    - STEP LENGTH
 NULL. -999.2500:NULL Value
~CURVE INFORMATION BLOCK
#MNEM UNIT       ERCB CURVE CODE    CURVE DESCRIPTION
#-----------   ------------------   ----------------------------------
DEPT.M        00 001 00 00         : DEPTH        - DEPTH
GR  .API      00 310 00 00         : GR           - GAMMA RAY
CALI.MM       00 280 01 00         : CAL          - CALIPER
NPHI.V/V      00 330 00 00         : PHIN         - NEUTRON POROSITY (SANDSTONE)
DPHI.V/V      00 890 00 00         : PHID         - DENSITY POROSITY (SANDSTONE)
ILD .OHMM     00 120 00 00         : RESD         - DEEP RESISTIVITY (DIL)
~PARAMETER INFORMATION
#MNEM.UNIT           DATA             DESCRIPTION OF MNEMONIC
#---------         -----------     ------------------------------
GL  .M        505.57               : gl           - GROUND LEVEL ELEVATION
EREF.M        509.22               : kb           - ELEVATION OF DEPTH REFERENCE
DATM.M        509.22               : datum        - DATUM ELEVATION
TDD .M        246                  : tdd          - TOTAL DEPTH DRILLER
RUN .         ONE                  : Run          - RUN NUMBER
ENG .         BILL                 : Engineer     - RECORDING ENGINEER
WIT .         JIM                  : Witness      - WITNESSED BY
MUD .         GEL                  : Mud_type     - MUD TYPE
MATR.         SANDSTONE            : Logunit      - NEUTRON MATRIX
TMAX.C        25                   : BHT          - MAXIMUM RECORDED TEMPERATURE
BHTD.M        246                  : BHTDEP       - MAXIMUM RECORDED TEMPERATURE
RMT .C        24                   : MDTP         - TEMPERATURE OF MUD
MUDD.KG/M     1150                 : MWT          - MUD DENSITY
NEUT.         1                    : NEUTRON      - NEUTRON TYPE
RESI.         0                    : RESIST       - RESISTIVITY TYPE
RM  .OHMM     9.7                  : RM           - RESISTIVITY OF MUD
RMC .OHMM     2.6                  : RMC          - RESISTIVITY OF MUD CAKE
RMF .OHMM     13.4                 : RMF          - RESISTIVITY OF MUD FILTRATE
SUFT.C        4                    : SUFT         - SURFACE TEMPERATURE
~A  DEPTH       GR      CAL     PHIN     PHID     RESD
# ...
  209.500   73.441  181.961    0.354    0.258   21.350
  209.750   69.332  181.520    0.332    0.223   26.002
  210.000   65.230  178.607    0.320    0.191   28.059
  210.250   64.375  178.607    0.325    0.186   30.578
  210.500   62.922  175.287    0.330    0.278   32.105
  210.750   60.001  174.320    0.327    0.308   33.101
  211.000   57.375  173.381    0.331    0.325   31.386
  211.250   57.694  170.480    0.331    0.342   24.287
  211.500   58.013  170.033    0.365    0.360   22.614
  211.750   58.335  170.084    0.375    0.296   22.614
  212.000   51.573  170.084    0.382    0.301   21.918
  212.250   48.651  170.163    0.365    0.284   21.360
  212.500   48.380  170.705    0.352    0.279   21.022
  212.750   48.407  172.226    0.367    0.250   23.122
  213.000   46.965  172.802    0.375    0.216   28.943
  213.250   41.085  173.797    0.393    0.240   31.532
  213.500   36.091  175.810    0.388    0.254   41.335
  213.750   34.642  177.828    0.371    0.290   56.244
  214.000   34.672  179.349    0.348    0.322   76.506
  214.250   36.474  181.356    0.354    0.317  212.140
  214.500   38.268  184.359    0.361    0.295  275.628
  214.750   42.726  187.847    0.368    0.279  254.203
  215.000   50.132  192.811    0.361    0.282  169.681
  215.250   59.014  200.241    0.359    0.289  138.784
  215.500   59.927  205.200    0.431    0.250   96.095
  215.750   50.508  210.164    0.456    0.265   17.417
  216.000   41.090  215.626    0.404    0.287   19.151
  216.250   38.762  220.591    0.353    0.308   26.292
  216.500   38.487  226.047    0.363    0.307   47.636
  216.750   39.994  236.915    0.364    0.311  103.853
  217.000   42.090  249.264    0.367    0.312  181.453
  217.250   45.361  257.672    0.376    0.303  167.296
  217.500   47.158  265.107    0.394    0.310  136.877
  217.750   47.189  269.082    0.404    0.320  147.795
  218.000   47.216  273.063    0.411    0.313  146.854
  218.250   48.722  276.557    0.411    0.305  129.285
  218.500   51.107  276.557    0.411    0.311   99.123
  218.750   52.023  278.643    0.406    0.309   80.354
  219.000   51.161  279.649    0.423    0.320   69.468
  219.250   51.782  279.694    0.403    0.315   55.779
  219.500   53.583  277.285    0.417    0.312   34.273
  219.750   52.429  273.394    0.421    0.311   35.984
  220.000   49.803  270.476    0.412    0.290   39.215
  220.250   48.643  266.100    0.397    0.305   43.909
  220.500   47.791  261.711    0.391    0.301   60.841
  220.750   48.992  252.415    0.396    0.315   69.438
  221.000   53.741  243.605    0.401    0.319   63.472
  221.250   57.904  242.168    0.389    0.322   46.899
  221.500   61.480  243.197    0.401    0.317   34.019
  221.750   62.392  243.740    0.404    0.304   30.517
  222.000   62.412  239.363    0.403    0.287   32.951
  222.250   63.332  236.948    0.404    0.284   32.951
  222.500   64.539  236.993    0.415    0.282   33.790
  222.750   66.042  236.048    0.419    0.282   34.463
  223.000   67.837  230.190    0.423    0.285   33.907
  223.250   69.340  223.840    0.438    0.271   27.496
  223.500   72.325  211.592    0.444    0.285   25.602
  223.750   75.300  207.203    0.447    0.289   25.602
  224.000   80.644  199.869    0.436    0.264   24.391
  224.250   85.984  194.503    0.397    0.275   23.739
  224.500   94.275  189.142    0.390    0.270   23.142
  224.750   99.618  185.743    0.385    0.260   29.246
  225.000  101.715  182.831    0.381    0.252   29.041
  225.250  107.937  182.384    0.329    0.251   26.546
  225.500  113.277  183.910    0.321    0.082   23.163
  225.750  117.440  186.421    0.354    0.170   23.163
  226.000  121.009  189.423    0.369    0.204   21.260
  226.250  124.283  189.423    0.385    0.210   18.704
  226.500  127.855  190.983    0.389    0.236   17.250
  226.750  129.948  201.856    0.383    0.235   15.910
  227.000  130.861  210.768    0.390    0.236   14.956
  227.250  116.424  211.785    0.391    0.232   16.907
  227.500  115.569  213.798    0.401    0.237   20.591
  227.750  116.478  215.811    0.422    0.255   21.619
  228.000  113.262  215.811    0.430    0.259   22.483
  228.250  112.111  217.891    0.438    0.267   22.764
  228.500  112.430  218.903    0.429    0.276   22.821
  228.750  110.985  218.903    0.425    0.272   22.676
  229.000  109.237  219.490    0.409    0.256   22.676
  229.250  102.472  221.497    0.399    0.240   22.574
  229.500   95.415  221.497    0.376    0.250   21.411
  229.750   98.099  222.079    0.368    0.232   19.747
  230.000  101.969  222.079    0.359    0.212   17.714
  230.250  106.420  222.672    0.404    0.193   15.901
  230.500  101.134  223.204    0.417    0.164   14.938
  230.750   94.373  223.204    0.426    0.198   18.357
  231.000   92.340  223.785    0.412    0.234   18.357
  231.250   94.131  224.334    0.394    0.255   19.539
  231.500   97.405  224.334    0.380    0.249   19.390
  231.750  105.700  224.927    0.370    0.225   18.901
  232.000  108.679  224.949    0.370    0.205   14.363
  232.250  113.133  224.502    0.357    0.195   11.849
  232.500  118.477  223.569    0.345    0.177   11.879
  232.750  122.931  222.636    0.344    0.178   11.167
  233.000  127.090  222.189    0.370    0.187   10.589
  233.250  119.738  221.742    0.376    0.181   11.224
  233.500  112.980  221.295    0.394    0.177   12.116
  233.750  108.576  219.858    0.393    0.165   13.445
  234.000  103.290  216.465    0.398    0.213   14.652
  234.250  105.383  215.040    0.396    0.216   15.527
  234.500  103.344  215.079    0.398    0.217   16.003
  234.750  101.308  215.079    0.392    0.215   15.927
  235.000  103.109  215.667    0.377    0.214   15.650
  235.250  106.678  215.711    0.368    0.212   13.160
  235.500  102.573  215.756    0.358    0.194   12.952
  235.750   99.645  215.315    0.353    0.166   12.514
  236.000  103.509  214.868    0.353    0.139   11.656
  236.250  108.557  213.929    0.358    0.063   10.363
  236.500  108.557  212.493    0.388    0.040    9.467
  236.750  105.676  211.062    0.388    0.050    9.760
  237.000  100.970  208.647    0.381    0.059   10.445
  237.250   99.515  204.264    0.383    0.050    9.813
  237.500  106.035  200.379    0.395    0.049   10.205
  237.750   94.846  198.462    0.396    0.051   11.437
  238.000   85.136  197.020    0.389    0.048   12.350
  238.250   82.503  192.638    0.372    0.035   13.575
  238.500   67.473  185.795    0.273    0.061   16.225
  238.750   76.067  183.386    0.250    0.055   19.573
  239.000   79.340  182.447    0.261    0.048   19.989
  239.250   64.606  180.530    0.286    0.050   20.794
  239.500   57.254  179.591    0.273    0.058   23.076
  239.750   43.112  177.674    0.268    0.044   25.854
  240.000   54.946  175.745    0.281    0.042   28.692
