~VERSION INFORMATION
 VERS.                 2.0:   CWLS LOG ASCII STANDARD -VERSION 2.0
 WRAP.                  NO:   ONE LINE PER DEPTH STEP
~WELL INFORMATION BLOCK
#MNEM.UNIT           DATA                    DESCRIPTION OF MNEMONIC
#---------    -------------------            -------------------------------
# Generated from Intellog Unique Number	CC_88_90/WELL/3152
WELL.         CANADIAN KEWANEE               : Well_name    - WELL
LOC .         AA/11-31-088-13W4/0            : Location     - LOCATION
UWI .         AA/11-31-088-13W400            : Uwi          - UNIQUE WELL ID
ENTR.         JOETTE                         : Entered      - ENTERED BY
SRVC.         SCHLUMBERGER                   : Scn          - SERVICE COMPANY
DATE.         03/06/92                       : Date         - LOG DATE
STRT.M        30.480                         : top_depth    - START DEPTH
STOP.M        131.480                        : bot_depth    - STOP DEPTH
STEP.M        0.25                           : increment    - STEP LENGTH
 NULL. -999.2500:NULL Value
~CURVE INFORMATION BLOCK
#MNEM UNIT       ERCB CURVE CODE    CURVE DESCRIPTION
#-----------   ------------------   ----------------------------------
DEPT.M        00 001 00 00         : DEPTH        - DEPTH
GR  .API      00 310 00 00         : GR           - GAMMA RAY
NPHI.V/V      00 330 00 00         : PHIN         - NEUTRON POROSITY (SANDSTONE)
ILD .OHMM     00 120 00 00         : RESD         - DEEP RESISTIVITY (DIL)
~PARAMETER INFORMATION
#MNEM.UNIT           DATA             DESCRIPTION OF MNEMONIC
#---------         -----------     ------------------------------
GL  .M        492.1                : gl           - GROUND LEVEL ELEVATION
EREF.M        492.1                : kb           - ELEVATION OF DEPTH REFERENCE
DATM.M        492.1                : datum        - DATUM ELEVATION
TDD .M        198.12               : tdd          - TOTAL DEPTH DRILLER
RUN .         ONE                  : Run          - RUN NUMBER
ENG .         BILL                 : Engineer     - RECORDING ENGINEER
WIT .         JIM                  : Witness      - WITNESSED BY
MUD .         GEL                  : Mud_type     - MUD TYPE
MATR.         SANDSTONE            : Logunit      - NEUTRON MATRIX
TMAX.C        4.44444              : BHT          - MAXIMUM RECORDED TEMPERATURE
BHTD.M        198.12               : BHTDEP       - MAXIMUM RECORDED TEMPERATURE
RMT .C        4.44444              : MDTP         - TEMPERATURE OF MUD
MUDD.KG/M     1030                 : MWT          - MUD DENSITY
NEUT.         1                    : NEUTRON      - NEUTRON TYPE
RESI.         0                    : RESIST       - RESISTIVITY TYPE
RM  .OHMM     4.5                  : RM           - RESISTIVITY OF MUD
RMC .OHMM     4.5                  : RMC          - RESISTIVITY OF MUD CAKE
RMF .OHMM     4.5                  : RMF          - RESISTIVITY OF MUD FILTRATE
SUFT.C        4                    : SUFT         - SURFACE TEMPERATURE
~A  DEPTH       GR     PHIN     RESD
# ...
   84.730   84.881    0.384   11.886
   84.980   82.425    0.387   11.882
   85.230   80.585    0.386   12.101
   85.480   91.650    0.414   12.245
   85.730  115.622    0.428   12.390
   85.980  122.385    0.451   12.608
   86.230  116.857    0.450   12.605
   86.480  121.162    0.442   12.531
   86.730  121.780    0.431   12.382
   86.980  121.783    0.430   12.306
   87.230  108.880    0.438   12.451
   87.480   92.905    0.452   12.451
   87.730   83.075    0.448   12.668
   87.980  100.286    0.441   12.812
   88.230  124.257    0.434   12.812
   88.480  124.875    0.412   12.882
   88.730  116.889    0.408   12.952
   88.980  111.361    0.400   12.951
   89.230   97.229    0.407   12.582
   89.480   84.940    0.415   12.582
   89.730   64.663    0.436   12.359
   89.980   41.313    0.451   12.210
   90.230   43.774    0.419   12.210
   90.480   40.705    0.381   11.913
   90.730   33.333    0.366   11.764
   90.980   35.179    0.370   11.764
   91.230   59.151    0.381   11.907
   91.480   99.101    0.417   11.830
   91.730  105.250    0.424   11.830
   91.980  108.326    0.414   11.681
   92.230   84.361    0.412   11.532
   92.480   68.385    0.414   11.530
   92.730   48.722    0.428   11.527
   92.980   46.267    0.443   11.451
   93.230   60.406    0.449   11.451
   93.480   65.940    0.445   11.375
   93.730   57.953    0.445   11.299
   93.980   45.050    0.438   11.299
   94.230   45.668    0.443   11.150
   94.480   51.203    0.446   11.074
   94.730   58.581    0.446   11.074
   94.980   58.584    0.445   10.704
   95.230   54.900    0.430   10.555
   95.480   57.975    0.427   10.479
   95.730   63.510    0.412   10.404
   95.980   61.669    0.416   10.404
   96.230   61.673    0.449   10.253
   96.480   55.530    0.468   10.106
   96.730   62.908    0.460    9.957
   96.980   75.817    0.452    9.957
   97.230   83.809    0.445    9.660
   97.480   83.198    0.448    9.804
   97.730   78.284    0.445    9.804
   97.980   67.840    0.418   10.020
   98.230   57.396    0.411   10.018
   98.480   47.566    0.387   10.018
   98.730   35.892    0.385   10.014
   98.980   32.823    0.418   10.084
   99.230   35.284    0.454   10.084
   99.480   38.360    0.509   10.082
   99.730   37.134    0.522    9.713
   99.980   40.210    0.528    8.537
  100.230   46.359    0.496    7.802
  100.480   38.987    0.483    7.434
  100.730   43.907    0.468    6.772
  100.980   48.826    0.461    6.037
  101.230   48.830    0.464    6.842
  101.480   46.989    0.469    6.842
  101.730   46.377    0.480    8.671
  101.980   46.381    0.497    7.789
  102.230   42.697    0.517    6.833
  102.480   48.231    0.535    5.512
  102.730   48.849    0.562    5.512
  102.980   36.560    0.575    4.921
  103.230   29.189    0.568    5.431
  103.480   25.505    0.552    5.576
  103.730   21.820    0.539    5.722
  103.980   31.042    0.511    5.866
  104.230   48.867    0.498    6.010
  104.480   44.568    0.489    6.081
  104.730   42.728    0.494    5.640
  104.980   45.190    0.520    5.051
  105.230   47.651    0.537    4.830
  105.480   71.622    0.536    4.241
  105.730   87.604    0.521    4.385
  105.980   92.523    0.523    6.363
  106.230   94.370    0.533    7.168
  106.480   77.780    0.540   14.499
  106.730   71.638    0.541   14.716
  106.980   86.391    0.483   14.127
  107.230   96.841    0.474   13.538
  107.480   96.230    0.462   13.756
  107.730   95.618    0.474   14.121
  107.980   82.716    0.476   15.293
  108.230   72.272    0.440   16.904
  108.480   64.285    0.436   15.876
  108.730   64.903    0.416   14.334
  108.980   82.728    0.419   13.379
  109.230   82.117    0.431   10.003
  109.480   75.360    0.453   11.395
  109.730   75.363    0.457   10.806
  109.980   77.210    0.458   10.438
  110.230   71.068    0.446   10.729
  110.480   69.227    0.442   11.827
  110.730   66.772    0.445   13.364
  110.980   63.702    0.445   13.363
  111.230   46.498    0.445   12.627
  111.480   45.886    0.388   12.112
  111.730   55.722    0.388   11.450
  111.980   73.548    0.367   11.008
  112.230   83.999    0.397   10.640
  112.480   79.700    0.412   10.418
  112.730   66.797    0.425   10.049
  112.980   48.978    0.447    9.754
  113.230   71.105    0.463    9.459
  113.480   95.691    0.481    8.943
  113.730  123.964    0.493    8.354
  113.980  115.978    0.459    8.060
  114.230  115.981    0.458    7.544
  114.480  124.588    0.462    6.956
  114.730  120.904    0.468    6.953
  114.980   92.637    0.468    7.245
  115.230   76.047    0.477    8.782
  115.480   47.780    0.476    9.661
  115.730   63.762    0.464   10.392
  115.980  106.785    0.445    9.510
  116.230  104.330    0.457   11.855
  116.480  106.176    0.480    7.526
  116.730   93.888    0.484    7.377
  116.980   61.934    0.482    7.523
  117.230   44.115    0.454    7.667
  117.480   65.014    0.446    7.667
  117.730   74.235    0.434    7.810
  117.980   83.457    0.433    7.808
  118.230  113.573    0.449    8.172
  118.480   96.984    0.464    8.464
  118.730   55.196    0.470    9.194
  118.980   39.221    0.460   10.146
  119.230   52.744    0.445    8.751
  119.480   66.882    0.449    7.942
  119.730   77.948    0.425    9.480
  119.980   87.169    0.423   10.798
  120.230   83.485    0.433   12.262
  120.480   75.499    0.440   11.673
  120.730   73.044    0.499   11.672
  120.980   77.349    0.519    7.270
  121.230   74.894    0.538    5.362
  121.480   76.126    0.545    4.407
  121.730   67.525    0.526    4.772
  121.980   63.841    0.488    6.382
  122.230   65.688    0.476    7.041
  122.480   59.545    0.466    8.138
  122.730   54.632    0.466    9.015
  122.980   60.781    0.461    8.647
  123.230   63.242    0.487    8.647
  123.480   58.944    0.494    8.277
  123.730   62.020    0.498    8.128
  123.980   70.627    0.490    8.274
  124.230   73.703    0.457   10.470
  124.480   74.935    0.456   10.689
  124.730   74.324    0.458   12.667
  124.980   71.869    0.458   12.297
  125.230   63.883    0.456   12.809
  125.480   63.885    0.456   13.540
  125.730   66.347    0.454   13.611
  125.980   67.579    0.464   13.096
  126.230   76.187    0.466   12.655
  126.480   71.887    0.426   11.480
  126.730   69.432    0.403   10.891
  126.980   66.362    0.400   10.375
  127.230   66.980    0.429   10.594
  127.480   68.213    0.433   11.544
  127.730   65.757    0.441   11.910
  127.980   67.605    0.454   13.300
  128.230   76.212    0.459   13.812
  128.480   74.371    0.452   13.150
  128.730   70.072    0.452   12.854
  128.980   72.534    0.458   12.265
  129.230   71.308    0.462   11.898
  129.480   67.623    0.466   11.382
  129.730   65.168    0.457   10.793
  129.980   74.390    0.379   10.204
  130.230   71.935    0.327   10.350
  130.480   59.032    0.321   12.694
  130.730   39.369    0.302   13.205
  130.980   20.320    0.295   14.010
  131.230   21.553    0.291   14.961
  131.480   25.243    0.316   15.399
