~VERSION INFORMATION
 VERS.                 2.0:   CWLS LOG ASCII STANDARD -VERSION 2.0
 WRAP.                  NO:   ONE LINE PER DEPTH STEP
~WELL INFORMATION BLOCK
#MNEM.UNIT           DATA                    DESCRIPTION OF MNEMONIC
#---------    -------------------            -------------------------------
# Generated from Intellog Unique Number	CW_79_81/WELL/2480
WELL.         11-02-081-22W4                 : Well_name    - WELL
LOC .         AA/11-02-081-22W4/0            : Location     - LOCATION
UWI .         AA/11-02-081-22W4/0            : Uwi          - UNIQUE WELL ID
ENTR.         MAX                            : Entered      - ENTERED BY
SRVC.         SCHLUMBERGER                   : Scn          - SERVICE COMPANY
STRT.M        190                            : top_depth    - START DEPTH
STOP.M        430                            : bot_depth    - STOP DEPTH
STEP.M        0.25                           : increment    - STEP LENGTH
 NULL. -999.2500:NULL Value
~CURVE INFORMATION BLOCK
#MNEM UNIT       ERCB CURVE CODE    CURVE DESCRIPTION
#-----------   ------------------   ----------------------------------
DEPT.M        00 001 00 00         : DEPTH        - DEPTH
ILD .OHMM     00 120 00 00         : RESD         - DEEP RESISTIVITY (DIL)
NPHI.V/V      00 330 00 00         : PHIN         - NEUTRON POROSITY (SANDSTONE)
DPHI.V/V      00 890 00 00         : PHID         - DENSITY POROSITY (SANDSTONE)
GR  .API      00 310 00 00         : GR           - GAMMA RAY
CALI.MM       00 280 01 00         : CAL          - CALIPER
~PARAMETER INFORMATION
#MNEM.UNIT           DATA             DESCRIPTION OF MNEMONIC
#---------         -----------     ------------------------------
GL  .M        607                  : gl           - GROUND LEVEL ELEVATION
EREF.M        610.7                : kb           - ELEVATION OF DEPTH REFERENCE
DATM.M        607                  : datum        - DATUM ELEVATION
TDD .M        435                  : tdd          - TOTAL DEPTH DRILLER
RUN .         ONE                  : Run          - RUN NUMBER
ENG .         BILL                 : Engineer     - RECORDING ENGINEER
WIT .         JIM                  : Witness      - WITNESSED BY
MUD .         GEL                  : Mud_type     - MUD TYPE
MATR.         SANDSTONE            : Logunit      - NEUTRON MATRIX
TMAX.C        29                   : BHT          - MAXIMUM RECORDED TEMPERATURE
BHTD.M        435                  : BHTDEP       - MAXIMUM RECORDED TEMPERATURE
MATR.         1                    : LOGUNIT      - NEUTRON MATRIX
RMT .C        20                   : MDTP         - TEMPERATURE OF MUD
NEUT.         1                    : NEUTRON      - NEUTRON TYPE
RESI.         0                    : RESIST       - RESISTIVITY TYPE
RMC .OHMM     1.22                 : RMC          - RESISTIVITY OF MUD CAKE
RMF .OHMM     2.93                 : RMF          - RESISTIVITY OF MUD FILTRATE
SUFT.C        -20                  : SUFT         - SURFACE TEMPERATURE
~A  DEPTH     RESD     PHIN     PHID       GR      CAL
# ...
  263.000   40.599    0.416    0.365   57.578  198.916
  263.250   44.211    0.426    0.368   56.795  202.183
  263.500   45.227    0.447    0.372   56.322  196.925
  263.750   46.220    0.436    0.373   57.976  194.995
  264.000   46.727    0.427    0.372   57.874  193.650
  264.250   46.210    0.420    0.374   56.953  192.892
  264.500   45.052    0.414    0.377   56.148  192.524
  264.750   44.399    0.408    0.371   56.396  192.160
  265.000   44.397    0.405    0.357   56.409  192.187
  265.250   43.434    0.425    0.373   55.957  192.988
  265.500   39.716    0.432    0.386   55.678  193.498
  265.750   35.466    0.432    0.396   56.041  193.717
  266.000   29.884    0.431    0.399   57.399  193.058
  266.250   21.871    0.433    0.387   59.993  190.356
  266.500   19.402    0.441    0.368   60.006  190.378
  266.750   19.120    0.435    0.359   59.320  192.357
  267.000   19.155    0.425    0.362   58.982  193.160
  267.250   19.294    0.419    0.373   59.111  193.377
  267.500   19.433    0.419    0.387   59.594  193.399
  267.750   19.604    0.416    0.394   60.275  193.343
  268.000   19.752    0.415    0.394   61.265  192.968
  268.250   19.895    0.438    0.382   59.407  191.818
  268.500   19.930    0.444    0.370   57.546  190.083
  268.750   19.857    0.438    0.361   56.623  188.349
  269.000   19.341    0.432    0.356   56.169  187.397
  269.250   17.231    0.446    0.363   54.410  188.207
  269.500   14.627    0.459    0.373   54.910  188.226
  269.750   14.309    0.458    0.380   60.309  189.420
  270.000   14.232    0.461    0.389   64.656  191.494
  270.250   14.386    0.466    0.390   65.138  193.274
  270.500   14.806    0.467    0.381   62.166  194.760
  270.750   15.857    0.449    0.373   59.180  197.777
  271.000   17.379    0.419    0.386   58.218  201.051
  271.250   19.765    0.401    0.396   58.233  198.343
  271.500   20.691    0.410    0.392   60.001  195.638
  271.750   20.690    0.427    0.389   61.068  194.297
  272.000   20.353    0.436    0.392   60.204  194.514
  272.250   19.853    0.427    0.392   57.313  195.319
  272.500   19.553    0.459    0.393   56.839  195.345
  272.750   19.129    0.469    0.392   58.257  198.490
  273.000   18.818    0.470    0.392   56.165  199.001
  273.250   18.545    0.463    0.393   54.306  197.072
  273.500   18.276    0.452    0.394   54.495  193.972
  273.750   17.957    0.442    0.393   57.058  192.131
  274.000   17.686    0.437    0.390   59.271  192.567
  274.250   17.303    0.444    0.386   61.624  193.754
  274.500   16.834    0.449    0.386   61.521  195.240
  274.750   16.412    0.454    0.387   59.075  196.630
  275.000   16.057    0.463    0.388   56.570  197.239
  275.250   15.662    0.472    0.382   58.753  196.178
  275.500   15.426    0.459    0.378   60.234  196.611
  275.750   15.313    0.450    0.372   60.713  198.193
  276.000   15.368    0.446    0.365   61.898  199.191
  276.250   15.536    0.444    0.360   62.031  199.606
  276.500   15.791    0.441    0.358   61.285  199.531
  276.750   16.212    0.434    0.351   61.916  199.082
  277.000   16.585    0.442    0.349   62.659  198.702
  277.250   16.948    0.478    0.351   62.440  197.554
  277.500   17.041    0.477    0.340   63.801  196.994
  277.750   16.729    0.462    0.324   65.688  196.626
  278.000   16.193    0.446    0.307   66.696  196.353
  278.250   15.843    0.445    0.297   64.974  196.381
  278.500   15.842    0.462    0.338   64.504  196.405
  278.750   16.190    0.471    0.357   65.220  196.038
  279.000   16.456    0.464    0.362   66.988  192.744
  279.250   16.637    0.452    0.363   68.171  190.427
  279.500   16.757    0.445    0.364   67.775  190.745
  279.750   16.879    0.442    0.359   65.256  193.439
  280.000   16.878    0.439    0.359   64.295  195.084
  280.250   15.916    0.430    0.358   66.181  197.058
  280.500   12.577    0.419    0.354   69.299  199.325
  280.750    9.322    0.418    0.337   70.484  201.104
  281.000    6.856    0.426    0.314   71.316  202.006
  281.250    4.865    0.439    0.295   79.196  202.361
  281.500    4.011    0.467    0.266   84.578  204.009
  281.750    4.249    0.466    0.277   83.421  205.203
  282.000    4.598    0.463    0.293   82.086  204.643
  282.250    5.186    0.466    0.309   79.523  203.495
  282.500    6.105    0.473    0.325   73.802  202.248
  282.750    7.388    0.470    0.343   61.721  200.227
  283.000    8.223    0.455    0.357   59.786  197.810
  283.250   10.659    0.435    0.371   59.800  195.492
  283.500   13.046    0.428    0.376   59.636  195.810
  283.750   14.731    0.424    0.375   58.947  197.004
  284.000   15.397    0.421    0.370   57.674  198.391
  284.250   15.325    0.424    0.367   55.758  200.535
  284.500   14.981    0.418    0.368   54.311  201.370
  284.750   14.549    0.431    0.376   55.495  199.054
  285.000   14.287    0.453    0.376   56.329  197.905
  285.250   14.183    0.466    0.373   56.694  197.929
  285.500   14.157    0.465    0.370   56.708  198.928
  285.750   13.989    0.462    0.373   56.674  200.516
  286.000   13.674    0.460    0.372   56.445  200.542
  286.250   13.377    0.456    0.372   55.521  199.393
  286.500   13.232    0.454    0.378   54.950  197.954
  286.750   13.184    0.453    0.385   55.784  196.805
  287.000   13.278    0.450    0.387   57.846  195.753
  287.250   13.752    0.432    0.379   59.492  193.671
  287.500   14.176    0.426    0.377   58.288  192.880
  287.750   14.072    0.433    0.379   55.961  192.513
  288.000   14.046    0.442    0.378   56.266  193.608
  288.250   14.045    0.440    0.379   56.279  195.776
  288.500   14.045    0.427    0.379   55.942  197.750
  288.750   14.065    0.419    0.369   58.360  197.061
  289.000   14.171    0.414    0.364   59.837  195.464
  289.250   14.378    0.422    0.369   60.787  194.702
  289.500   14.825    0.434    0.371   61.212  195.407
  289.750   15.536    0.441    0.370   60.054  196.992
  290.000   16.609    0.438    0.364   57.081  198.675
  290.250   18.621    0.395    0.310   52.494  199.482
  290.500   20.567    0.237    0.110   50.558  199.508
  290.750   24.903    0.194    0.071   52.211  201.485
  291.000   29.348    0.179    0.061   51.054  202.286
  291.250   30.767    0.176    0.081   50.130  202.309
  291.500   27.335    0.181    0.128   51.373  202.335
  291.750   20.293    0.213    0.217   56.044  202.716
  292.000   15.794    0.286    0.336   58.255  198.678
  292.250   14.568    0.369    0.346   56.629  197.919
  292.500   13.979    0.413    0.351   55.881  197.453
  292.750   13.778    0.437    0.354   57.066  197.281
  293.000   13.828    0.447    0.356   59.304  197.402
  293.250   14.008    0.444    0.360   59.497  197.981
  293.500   13.902    0.426    0.365   58.049  198.820
  293.750   13.600    0.419    0.369   58.296  198.846
  294.000   13.453    0.434    0.369   58.544  198.866
  294.250   13.403    0.450    0.366   58.674  199.083
  294.500   13.254    0.457    0.363   58.921  199.205
  294.750   12.472    0.453    0.362   60.362  198.045
  295.000   11.482    0.448    0.361   62.816  196.039
  295.250   10.203    0.440    0.353   68.214  195.669
  295.500    9.021    0.435    0.338   73.789  195.593
  295.750    8.255    0.437    0.325   75.794  195.420
  296.000    7.892    0.442    0.321   74.170  194.955
  296.250    7.882    0.434    0.332   72.400  194.203
  296.500    8.124    0.423    0.344   71.684  194.230
  296.750    8.856    0.427    0.346   69.590  194.641
  297.000    9.458    0.425    0.349   67.320  195.056
  297.250    9.672    0.430    0.353   64.641  195.274
  297.500    9.550    0.444    0.359   62.258  195.490
  297.750    9.480    0.455    0.365   62.196  196.865
  298.000    9.479    0.462    0.367   64.159  199.735
  298.250    9.548    0.463    0.367   65.112  198.978
  298.500    9.774    0.458    0.369   64.656  197.346
  298.750    9.737    0.451    0.371   63.146  196.004
  299.000    9.460    0.446    0.372   61.638  195.245
  299.250    9.362    0.455    0.370   61.940  194.491
