~Version : LASO    vs 4.00 
VERS.                2.00:   CWLS Log ASCII Standard -VERSION 2.0
WRAP.                  NO:
~Well Information Block
#MNEM.UNIT       Data                        Description of Mnemonic
#----.----      -------------------------- : -----------------------------
STRT.M             1.0000:
STOP.M           202.5000:
STEP.M             0.1000:
NULL.           -999.2500:
COMP.  MOBIL OIL CANADA                    :COMPANY
WELL.  MOBIL 90 CLARKE CREEK 16-31         :WELL
FLD.   CLARKE CREEK                        :FIELD
LOC.   16-31-089-07W4                      :LOCATION
CTRY.  CANADA                              :COUNTRY
PROV.  ALBERTA                             :PROVINCE
SRVC.  BRITISH PLASTERBOARD                :SERVICE COMPANY
DATE.  22-JAN-90                           :LOG DATE
UWI.   AA/16-31-089-07W400                 :UNIQUE WELL ID
~Parameter Information Block
#MNEM.UNIT       Data                        Description of Mnemonic
#----.----      -------------------------- : -----------------------------
RUN .                   1                 : Run Number
GL  .M           453.6000                 : Ground Level Elevation
DREF.                  GD                 : Depth Reference
EREF.M           453.6000                 : Elevation of Depth Reference
TDL .M           204.5000                 : Total Depth Logger
TDD .M           204.5000                 : Total Depth Driller
~Curve Information Block
#MNEM.UNIT        API CODE    Curve Description
#---------    ------------    -------------------------------------------
DEPT.M                    :   DEPTH
CALI.mm                   :   CALI
DPHI.V/V                  :   DPHI
DT  .US/M     60 520  0  1:   2 SONIC INTERVAL TRANSIT TIME (COMPENSATED)
GR  .API                  :   GR
ILD .Ohmm                 :   ILD
NPHI.V/V                  :   NPHI
RHOB.K/M3     45 350  1  1:   3 BULK DENSITY
~A  Depth           CALI        DPHI          DT          GR         ILD        NPHI        RHOB
# ...
92.3000         151.8466      0.3591    485.0400     96.6237     19.9628      0.4384   1044.1000
92.4000         152.7185      0.3660    489.1600     97.5513     19.4371      0.4327    845.8000
92.5000         152.8700      0.3533    494.3200     97.9117     19.1247      0.4268   1056.3000
92.6000         152.9292      0.3437    498.9200     96.2489     19.1429      0.4339   1048.4000
92.7000         152.5878      0.3374    494.0800     93.4576     19.1716      0.4367   1043.5000
92.8000         152.5991      0.3374    488.2400     90.6456     19.5029      0.4321   1055.3000
92.9000         152.3482      0.3373    481.4400     88.3374     20.3486      0.4250   1114.5000
93.0000         152.2771      0.3316    477.6000     85.6030     20.7658      0.4247   1179.6001
93.1000         152.2849      0.3267    475.7200     83.2409     20.8297      0.4352   1086.1000
93.2000         152.3164      0.3240    473.8400     79.3568     21.2049      0.4507   1008.1000
93.3000         152.3487      0.3196    472.2000     78.5183     21.2954      0.4493   1118.5000
93.4000         152.3811      0.3173    483.2800     82.9298     21.3433      0.4570   1183.8000
93.5000         152.4136      0.3137    485.7200     85.7222     21.3839      0.4573   1218.3000
93.6000         152.4460      0.3091    493.1600     85.3290     21.4220      0.4562   1196.6001
93.7000         152.8418      0.3044    502.8400     85.2483     20.8034      0.4580   1209.8000
93.8000         153.2552      0.3035    491.8400     84.7685     20.3157      0.4571   1170.8000
93.9000         153.3397      0.3123    490.4800     83.7589     19.5013      0.4410   1203.8000
94.0000         153.3836      0.3399    495.8000     84.1578     18.9651      0.4247   1202.7000
94.1000         153.4161      0.3543    496.2800     85.8990     19.8544      0.4135   1190.6001
94.2000         153.0904      0.3593    502.6800     90.8906     21.0376      0.4136   1076.3000
94.3000         153.0841      0.3486    502.0400     93.0184     22.4773      0.4265    851.6000
94.4000         153.1108      0.3302    491.6800     92.8890     23.3671      0.4336    851.6000
94.5000         153.1418      0.3169    475.9600     91.7247     25.0990      0.4278   1169.4000
94.6000         153.1742      0.3161    450.0000     88.9637     26.1706      0.4138   1292.7000
94.7000         153.2066      0.3367    450.3200     85.1061     26.7846      0.4290   1306.1001
94.8000         153.2391      0.3761    467.5600     84.1587     27.9771      0.4372   1306.7000
94.9000         152.9500      0.4001    492.0800     84.6037     28.0676      0.4375    980.9000
95.0000         152.9037      0.4014    521.4800     84.6529     27.6619      0.4238    726.7000
95.1000         152.5672      0.3825    508.9600     85.7911     28.5353      0.4328    674.3000
95.2000         152.5723      0.3554    496.1600     85.9446     29.3139      0.4492    652.4000
95.3000         152.2635      0.3399    474.6000     85.0187     30.2256      0.4632    848.0000
95.4000         152.2222      0.3236    467.0000     83.0679     30.5315      0.4531   1011.0000
95.5000         152.2539      0.3154    480.0000     80.2698     29.6358      0.4499   1147.2000
95.6000         152.2863      0.3239    479.0000     77.9893     29.1035      0.4562   1181.8000
95.7000         152.3187      0.3388    477.3200     74.2256     29.0220      0.4446   1142.3000
95.8000         151.6972      0.3504    482.1600     72.2278     29.5831      0.4318   1093.0000
95.9000         151.1868      0.3546    488.8000     75.2664     30.0710      0.4104   1126.2000
96.0000         149.3464      0.3540    487.9600     84.3272     29.3319      0.3934   1081.1000
96.1000         147.8254      0.3477    487.0400     88.2678     27.6109      0.3982   1133.6000
96.2000         145.6577      0.3430    477.4800     89.7927     27.1619      0.4004   1123.6000
96.3000         143.0972      0.3459    468.7200     91.0420     27.6461      0.4236   1190.0000
96.4000         141.7175      0.3523    460.8000     90.2222     28.1924      0.4395   1227.7000
96.5000         141.6773      0.3264    441.0000     84.7622     30.6026      0.4366   1173.4000
96.6000         150.0867      0.2631    400.7200     79.6354     35.6459      0.4119   1063.6000
96.7000         162.0301      0.1719    320.4400     75.0288     42.1096      0.3408    984.5000
96.8000         165.2206      0.0681    240.6400     71.0762     54.4693      0.2717   1395.5000
96.9000         162.5310      0.0269    200.4000     68.7970     68.2273      0.2410   1654.2000
97.0000         160.9859      0.0153    200.0000     68.6788     88.2936      0.2291   1883.8000
97.1000         160.5283      0.0311    200.1600     70.2335     95.4607      0.2480   1857.0000
97.2000         160.8279      0.2112    326.1200     76.3720     65.5025      0.2897   1682.1000
97.3000         160.9058      0.2765    424.4000     87.9117     40.8346      0.3139   1648.8000
97.4000         160.5706      0.2954    496.3600     96.1301     30.7409      0.3324   1167.1001
97.5000         158.0680      0.2983    507.0800     99.9395     24.5377      0.3497   1114.2000
97.6000         155.7857      0.2994    517.8000    101.4161     21.6258      0.3799   1133.6000
97.7000         154.4986      0.3080    522.0400    101.6739     18.5369      0.4314   1157.2000
97.8000         153.8319      0.3089    516.5600    101.1821     17.9761      0.4938   1145.8000
97.9000         154.5837      0.3060    520.2400    100.7701     17.7203      0.5120   1132.6000
98.0000         156.4400      0.3029    516.0000    100.6774     17.7391      0.4588   1169.9000
98.1000         157.7024      0.3049    517.3600    101.7214     17.2002      0.4590   1193.6001
98.2000         158.2511      0.3114    513.9200    103.8643     16.6316      0.4502   1167.6001
98.3000         158.0221      0.3172    509.6000    106.1635     16.2253      0.4388   1241.3000
98.4000         157.3109      0.3181    505.3600    106.8502     15.1519      0.4252   1222.6001
98.5000         156.9289      0.3159    501.6800    104.8547     14.6035      0.4183   1185.1001
98.6000         155.9110      0.3130    495.7200    101.1510     14.5565      0.4314   1135.7000
98.7000         155.3175      0.3131    498.2800     98.5968     14.5667      0.4561   1102.0000
98.8000         154.2085      0.3340    490.4000     97.4866     14.5923      0.4847   1173.0000
98.9000         152.7367      0.3542    492.2800     98.0072     14.6181      0.5069   1125.2000
99.0000         150.5635      0.3819    493.8000    100.6836     14.4107      0.5252   1077.1000
99.1000         150.5938      0.4054    490.0800    100.6136     14.6241      0.5056   1041.5000
99.2000         151.0169      0.4162    492.9200     97.0943     14.9675      0.5006   1148.6000
99.3000         151.8043      0.4139    489.0400     90.9319     15.2682      0.4857   1071.2000
99.4000         152.6018      0.4062    493.9600     83.6612     15.5734      0.4654    992.3000
99.5000         153.0623      0.3601    497.0000     76.3094     16.3991      0.4331    841.2000
99.6000         153.6833      0.3358    493.7200     74.7795     17.3897      0.4071   1005.0000
99.7000         154.3940      0.3183    499.8800     76.5312     18.2466      0.3927   1132.4000
99.8000         154.8210      0.3143    495.2400     79.3921     19.6363      0.3991   1203.9000
99.9000         154.1884      0.3167    498.9200     81.2717     21.1494      0.4100   1212.7000
100.0000        152.8046      0.3222    502.2800     82.5634     22.0575      0.4115   1223.3000
100.1000        150.1353      0.3237    504.3600     83.4831     22.9237      0.4233   1218.0000
100.2000        149.2375      0.3222    496.4800     83.5420     23.1633      0.4410   1177.0000
100.3000        148.2772      0.3226    491.9200     83.5936     23.6186      0.4674   1144.7000
100.4000        147.5212      0.3270    483.3600     83.6426     23.3066      0.4820   1130.9000
100.5000        147.1116      0.3262    482.7200     85.1596     22.5855      0.4581   1122.6000
