~VERSION INFORMATION
 VERS.                 2.0:   CWLS LOG ASCII STANDARD -VERSION 2.0
 WRAP.                  NO:   ONE LINE PER DEPTH STEP
~WELL INFORMATION BLOCK
#MNEM.UNIT           DATA                    DESCRIPTION OF MNEMONIC
#---------    -------------------            -------------------------------
# Generated from Intellog Unique Number	CC_80_83/WELL/2401
NULL.         -999.25                        : NULL_VALUE
WELL.         DOME BUTTES NEWBY OV           : Well_name    - WELL              
LOC .         11-19-081-05W4                 : Location     - LOCATION          
UWI .         AA/11-19-081-05W4/0            : Uwi          - UNIQUE WELL ID    
ENTR.         DW                             : Entered      - ENTERED BY        
SRVC.         SCHLUMBERGER                   : Scn          - SERVICE COMPANY   
DATE.         07 MAR 81                      : Date         - LOG DATE
STRT.M        100                            : top_depth    - START DEPTH       
STOP.M        300.1                          : bot_depth    - STOP DEPTH        
STEP.M        0.3                            : increment    - STEP LENGTH       
~CURVE INFORMATION BLOCK
#MNEM UNIT       ERCB CURVE CODE    CURVE DESCRIPTION
#-----------   ------------------   ----------------------------------
DEPT.M        00 001 00 00         : DEPTH        - DEPTH                       
ILD .OHMM     00 120 00 00         : RESD         - DEEP RESISTIVITY (DIL)      
GR  .API      00 310 00 00         : GR           - GAMMA RAY                   
NPHI.V/V      00 330 00 00         : PHIN         - NEUTRON POROSITY (LIMESTONE)
DPHI.V/V      00 890 00 00         : PHID         - DENSITY POROSITY (LIMESTONE)
~PARAMETER INFORMATION       
#MNEM.UNIT           DATA             DESCRIPTION OF MNEMONIC
#---------         -----------     ------------------------------
GL  .M        487                  : gl           - GROUND LEVEL ELEVATION      
EREF.M        491.5                : kb           - ELEVATION OF DEPTH REFERENCE
DATM.M        491.5                : datum        - DATUM ELEVATION             
TDD .M        305                  : tdd          - TOTAL DEPTH DRILLER         
RUN .         ONE                  : Run          - RUN NUMBER                  
ENG .         BILL                 : Engineer     - RECORDING ENGINEER          
WIT .         JIM                  : Witness      - WITNESSED BY                
MUD .         GEL                  : Mud_type     - MUD TYPE                    
MATR.         LIMESTONE            : Logunit      - NEUTRON MATRIX              
TMAX.C        20                   : BHT          - MAXIMUM RECORDED TEMPERATURE
BHTD.M        305                  : BHTDEP       - MAXIMUM RECORDED TEMPERATURE
MATR.         1                    : LOGUNIT      - NEUTRON MATRIX              
RMT .C        25                   : MDTP         - TEMPERATURE OF MUD          
NEUT.         1                    : NEUTRON      - NEUTRON TYPE                
RESI.         0                    : RESIST       - RESISTIVITY TYPE            
RMC .OHMM     0.25                 : RMC          - RESISTIVITY OF MUD CAKE     
RMF .OHMM     0.25                 : RMF          - RESISTIVITY OF MUD FILTRATE 
SUFT.C        4                    : SUFT         - SURFACE TEMPERATURE         
~A  DEPTH     RESD       GR     PHIN     PHID
# ...
  204.401    2.509   87.417    0.558    0.379
  204.701    2.757   91.684    0.541    0.311
  205.001    3.665   90.382    0.587    0.322
  205.301    4.027   94.027    0.568    0.293
  205.601    4.685   97.058    0.492    0.287
  205.901    6.350   94.506    0.503    0.277
  206.201    7.675   91.375    0.491    0.273
  206.501    7.963   85.758    0.465    0.260
  206.801    7.094   86.315    0.434    0.238
  207.101    5.425   91.195    0.408    0.227
  207.401    4.477   95.456    0.388    0.216
  207.701    4.066   98.479    0.392    0.254
  208.001    3.834   98.424    0.457    0.257
  208.301    3.687  102.064    0.483    0.237
  208.601    3.478   98.296    0.461    0.253
  208.901    3.473   93.297    0.492    0.253
  209.201    3.470   96.931    0.491    0.256
  209.501    3.669   98.116    0.477    0.267
  209.801    3.808   99.897    0.481    0.254
  210.101    4.027  102.927    0.492    0.251
  210.401    4.178  101.638    0.528    0.259
  210.701    4.094  101.573    0.562    0.276
  211.001    4.091  100.282    0.532    0.270
  211.301    4.163   99.603    0.489    0.264
  211.601    4.488  102.013    0.506    0.282
  211.901    5.027   97.628    0.535    0.272
  212.201    5.738   96.332    0.520    0.251
  212.501    5.730   94.412    0.493    0.262
  212.801    5.725   96.203    0.454    0.269
  213.101    6.170   99.235    0.461    0.241
  213.401    6.910  100.411    0.449    0.247
  213.701    7.737   96.027    0.474    0.238
  214.001    8.029   80.520    0.552    0.100
  214.301    7.867   76.140    0.544    0.109
  214.601    7.564   81.635    0.349    0.143
  214.901    7.557   76.017    0.371    0.226
  215.201    7.548   69.153    0.389    0.291
  215.501    7.256   70.952    0.391    0.313
  215.801    6.343   78.301    0.374    0.255
  216.101    4.944   75.154    0.379    0.275
  216.401    3.928   70.151    0.412    0.284
  216.701    3.241   78.735    0.412    0.281
  217.001    3.059   87.323    0.422    0.310
  217.301    2.940   89.107    0.513    0.305
  217.601    3.110   90.274    0.513    0.286
  217.901    3.980   92.076    0.498    0.291
  218.201    7.044   81.518    0.519    0.308
  218.501    8.677   62.922    0.528    0.321
  218.801    8.665   67.802    0.452    0.330
  219.101    7.575   69.597    0.382    0.327
  219.401    7.010   72.621    0.393    0.304
  219.701    7.700   78.738    0.412    0.294
  220.001    9.489   84.242    0.427    0.308
  220.301   13.359   91.593    0.452    0.303
  220.601   24.562   90.904    0.470    0.268
  220.901   86.363   56.265    0.416    0.265
  221.201  110.512   36.439    0.080    0.334
  221.501  112.517   32.046    0.081    0.341
  221.801  100.228   36.316    0.084    0.328
  222.101   69.688   58.492    0.098    0.326
  222.401   63.266   47.926    0.134    0.320
  222.701   64.400   48.484    0.166    0.319
  223.001   70.776   57.690    0.187    0.315
  223.301   87.180   60.715    0.195    0.294
  223.601  113.734   45.833    0.121    0.323
  223.901  129.807   39.593    0.105    0.339
  224.201  122.446   46.941    0.138    0.297
  224.501  124.648   41.932    0.141    0.302
  224.801  131.842   43.731    0.138    0.341
  225.101  126.739   46.762    0.139    0.315
  225.401  121.845   44.844    0.113    0.321
  225.701  124.057   52.817    0.111    0.342
  226.001  117.020   55.220    0.123    0.345
  226.301   87.814   42.806    0.148    0.343
  226.601   26.380   27.928    0.170    0.329
  226.901   16.995   29.719    0.167    0.000
  227.201   10.947   35.833    0.163    0.079
  227.501   10.132   91.975    0.283    0.113
  227.801    9.928  117.855    0.321    0.150
  228.101    9.915  116.555    0.352    0.198
  228.401    9.354  117.115    0.406    0.211
  228.701    8.333  118.288    0.387    0.224
  229.001    7.009  113.905    0.378    0.207
  229.301    6.485  102.723    0.410    0.221
  229.601    6.356   73.020    0.462    0.272
  229.901    6.597   56.897    0.370    0.296
  230.201    7.111   61.778    0.322    0.288
  230.501    7.813   65.421    0.339    0.286
  230.801    8.423   67.836    0.372    0.315
  231.101    8.574   90.620    0.368    0.301
  231.401    8.403   88.709    0.377    0.288
  231.701    8.076   78.768    0.408    0.282
  232.001    8.067   66.354    0.376    0.289
  232.301    8.214   62.579    0.367    0.305
  232.601    8.851   61.908    0.369    0.299
  232.901    9.364   59.374    0.355    0.312
  233.201   10.095   59.925    0.353    0.318
  233.501   11.522   67.900    0.379    0.310
  233.801   13.406   86.986    0.371    0.302
  234.101   15.303  108.542    0.343    0.294
  234.401   18.145  120.213    0.361    0.288
  234.701   26.038  135.597    0.361    0.298
  235.001   33.316  147.889    0.381    0.313
  235.301   33.919  131.150    0.389    0.314
  235.601   29.643   75.501    0.371    0.309
  235.901   27.441   77.912    0.349    0.308
  236.201   24.445   88.963    0.357    0.278
  236.501   23.500   77.173    0.358    0.269
  236.801   23.474   64.760    0.371    0.287
  237.101   23.002   66.547    0.395    0.284
  237.401   22.110   71.431    0.367    0.278
  237.701   20.462   84.953    0.349    0.267
  238.001   18.234   78.102    0.355    0.261
  238.301   14.212   78.033    0.384    0.274
  238.601   12.662   81.684    0.391    0.270
  238.901   12.644   94.595    0.357    0.242
  239.201   13.370   90.826    0.365    0.241
  239.501   13.877   82.735    0.375    0.228
  239.801   14.402   77.737    0.357    0.232
  240.101   14.940   82.615    0.374    0.254
  240.401   14.921   84.408    0.382    0.250
  240.701   13.813   88.053    0.381    0.241
  241.001   11.186   92.309    0.343    0.231
  241.301   10.548   97.193    0.353    0.224
  241.601   10.948   89.099    0.364    0.221
  241.901   13.487   70.513    0.373    0.230
  242.201   18.629   73.536    0.461    0.316
  242.501   24.769   80.267    0.388    0.265
  242.801   31.084   68.478    0.421    0.274
  243.101   32.267   56.676    0.435    0.315
  243.401   31.025   60.326    0.391    0.339
  243.701   20.760   63.353    0.349    0.287
  244.001   14.435   61.438    0.374    0.294
  244.301   12.376   91.019    0.380    0.289
  244.601   12.600   90.962    0.396    0.241
  244.901   14.108   71.131    0.380    0.270
  245.201   15.800   55.017    0.369    0.293
  245.501   19.097   48.153    0.410    0.328
  245.801   20.589   42.541    0.419    0.348
  246.101   21.773   36.306    0.403    0.348
  246.401   22.169   46.742    0.380    0.336
  246.701   23.000   52.241    0.364    0.316
  247.001   24.330   43.529    0.375    0.320
  247.301   27.766   45.323    0.369    0.315
  247.602   29.936   51.436    0.348    0.303
  247.902   32.887   54.464    0.360    0.302
  248.202   34.120   50.083    0.384    0.313
  248.502   32.195   46.922    0.394    0.318
  248.802   24.612   48.715    0.377    0.325
  249.102   23.223   55.457    0.371    0.329
  249.402   24.093   65.274    0.367    0.317
  249.702   26.475   57.185    0.391    0.298
  250.002   30.803   47.242    0.443    0.303
  250.302   40.957   42.243    0.400    0.323
  250.602   53.412   39.085    0.407    0.325
  250.902   52.333   36.559    0.417    0.334
  251.202   53.293   38.355    0.405    0.342
  251.502   58.557   36.433    0.359    0.334
  251.802   70.761   33.286    0.388    0.321
  252.102   74.845   35.695    0.396    0.316
  252.402   69.268   46.139    0.357    0.316
  252.702   56.089   47.309    0.361    0.306
  253.002   46.303   37.973    0.382    0.319
  253.302   44.515   38.532    0.380    0.356
  253.602   47.077   37.240    0.420    0.376
  253.902   43.563   36.569    0.468    0.364
  254.202   38.080   41.446    0.447    0.338
  254.502   28.038   48.795    0.375    0.330
  254.802   23.579   56.765    0.379    0.300
  255.102   23.556   72.755    0.382    0.249
  255.402   27.407   66.527    0.392    0.257
  255.702   36.438   39.902    0.412    0.278
  256.002   50.328   33.666    0.431    0.318
  256.302   64.415   41.017    0.425    0.330
