~VERSION INFORMATION
 VERS.                 2.0:   CWLS LOG ASCII STANDARD -VERSION 2.0
 WRAP.                  NO:   ONE LINE PER DEPTH STEP
~WELL INFORMATION BLOCK
#MNEM.UNIT           DATA                    DESCRIPTION OF MNEMONIC
#---------    -------------------            -------------------------------
# Generated from Intellog Unique Number	CS_77_79/WELL/943
WELL.         PEX PCEJ THORNBURY OV          : Well_name    - WELL
LOC .         AA/10-10-079-14W4/0            : Location     - LOCATION
UWI .         AA/10-10-079-14W4/0            : Uwi          - UNIQUE WELL ID
ENTR.         JHS                            : Entered      - ENTERED BY
SRVC.         SCHLUMBERGER                   : Scn          - SERVICE COMPANY
STRT.M        265                            : top_depth    - START DEPTH
STOP.M        505                            : bot_depth    - STOP DEPTH
STEP.M        0.25                           : increment    - STEP LENGTH
 NULL. -999.2500:NULL Value
~CURVE INFORMATION BLOCK
#MNEM UNIT       ERCB CURVE CODE    CURVE DESCRIPTION
#-----------   ------------------   ----------------------------------
DEPT.M        00 001 00 00         : DEPTH        - DEPTH
DPHI.V/V      00 890 00 00         : PHID         - DENSITY POROSITY (LIMESTONE)
NPHI.V/V      00 330 00 00         : PHIN         - NEUTRON POROSITY (LIMESTONE)
GR  .API      00 310 00 00         : GR           - GAMMA RAY
ILD .OHMM     00 120 00 00         : RESD         - DEEP RESISTIVITY (DIL)
~PARAMETER INFORMATION
#MNEM.UNIT           DATA             DESCRIPTION OF MNEMONIC
#---------         -----------     ------------------------------
GL  .M        690.52               : gl           - GROUND LEVEL ELEVATION
EREF.M        693.42               : kb           - ELEVATION OF DEPTH REFERENCE
DATM.M        693.42               : datum        - DATUM ELEVATION
TDD .M        504.5                : tdd          - TOTAL DEPTH DRILLER
RUN .         ONE                  : Run          - RUN NUMBER
ENG .         BILL                 : Engineer     - RECORDING ENGINEER
WIT .         JIM                  : Witness      - WITNESSED BY
MUD .         GEL                  : Mud_type     - MUD TYPE
MATR.         LIMESTONE            : Logunit      - NEUTRON MATRIX
TMAX.C        19                   : BHT          - MAXIMUM RECORDED TEMPERATURE
BHTD.M        504.5                : BHTDEP       - MAXIMUM RECORDED TEMPERATURE
MATR.         1                    : LOGUNIT      - NEUTRON MATRIX
RMT .C        25                   : MDTP         - TEMPERATURE OF MUD
NEUT.         1                    : NEUTRON      - NEUTRON TYPE
RESI.         0                    : RESIST       - RESISTIVITY TYPE
RMC .OHMM     0.25                 : RMC          - RESISTIVITY OF MUD CAKE
RMF .OHMM     0.25                 : RMF          - RESISTIVITY OF MUD FILTRATE
SUFT.C        15                   : SUFT         - SURFACE TEMPERATURE
~A  DEPTH     PHID     PHIN       GR     RESD
# ...
  308.500    0.220    0.416  104.948    6.930
  308.750    0.227    0.419  113.118    6.435
  309.000    0.232    0.432  108.109    6.205
  309.250    0.210    0.439  101.217    5.872
  309.500    0.214    0.429  104.368    5.768
  309.750    0.207    0.428  101.869    5.670
  310.000    0.219    0.440  105.646    5.897
  310.250    0.219    0.428  108.795    6.132
  310.500    0.230    0.421  110.061    6.495
  310.750    0.246    0.418   98.776    6.884
  311.000    0.266    0.390   86.235    7.434
  311.250    0.254    0.413   93.150    7.730
  311.500    0.259    0.394   92.535    8.189
  311.750    0.250    0.376   76.228    8.846
  312.000    0.255    0.362   73.733    9.555
  312.250    0.207    0.350   72.486   10.121
  312.500    0.171    0.351   69.359   10.928
  312.750    0.167    0.368   82.551   11.804
  313.000    0.230    0.377   84.446   12.050
  313.250    0.218    0.375   83.202   11.618
  313.500    0.207    0.365   84.469   11.636
  313.750    0.213    0.350   73.186   12.098
  314.000    0.228    0.349   73.195   12.819
  314.250    0.241    0.356   63.792   12.356
  314.500    0.216    0.378   71.335   11.259
  314.750    0.213    0.414   85.155   10.654
  315.000    0.226    0.397   92.697   10.080
  315.250    0.238    0.379   87.688    9.725
  315.500    0.234    0.379   83.936    9.739
  315.750    0.219    0.388   82.063    9.564
  316.000    0.196    0.399   87.722    9.578
  316.250    0.188    0.401   99.031    8.897
  316.500    0.193    0.406  104.693    8.418
  316.750    0.204    0.404   97.172    7.815
  317.000    0.221    0.406   92.162    7.258
  317.250    0.233    0.421   98.452    7.132
  317.500    0.236    0.437   94.697    7.422
  317.750    0.232    0.425   96.590    7.569
  318.000    0.218    0.409   89.072    8.022
  318.250    0.208    0.388   82.179    8.831
  318.500    0.231    0.354   79.679    9.004
  318.750    0.343    0.339   64.001    9.914
  319.000    0.352    0.328   62.131   10.504
  319.250    0.265    0.355   79.715   10.919
  319.500    0.268    0.413   87.259   11.142
  319.750    0.265    0.386   68.441   10.546
  320.000    0.276    0.365   51.507    9.980
  320.250    0.289    0.360   50.893   10.181
  320.500    0.253    0.372   58.435   10.994
  320.750    0.265    0.381   58.446   11.870
  321.000    0.329    0.370   23.311   13.318
  321.250    0.320    0.375   17.674   14.107
  321.500    0.319    0.386   15.175   16.429
  321.750    0.308    0.382   21.462   18.775
  322.000    0.299    0.380   27.123   20.276
  322.250    0.307    0.366   31.527   20.305
  322.500    0.306    0.361   30.914   19.579
  322.750    0.310    0.371   32.179   19.974
  323.000    0.318    0.377   20.265   21.580
  323.250    0.319    0.382   12.748   21.598
  323.500    0.315    0.370   13.386   20.826
  323.750    0.312    0.373   12.141   19.720
  324.000    0.309    0.387   18.431   19.005
  324.250    0.299    0.402   20.326   18.341
  324.500    0.311    0.402   17.826   18.353
  324.750    0.327    0.398   20.349   18.727
  325.000    0.336    0.394   19.105   19.473
  325.250    0.334    0.387   17.232   21.030
  325.500    0.332    0.378   17.243   23.580
  325.750    0.341    0.385   16.002   27.463
  326.000    0.340    0.404   12.876   32.595
  326.250    0.351    0.409   12.257   37.236
  326.500    0.332    0.387   14.783   45.887
  326.750    0.320    0.398   16.047   62.146
  327.000    0.314    0.420   13.548   72.373
  327.250    0.314    0.432   10.420   78.163
  327.500    0.364    0.426    6.040   76.836
  327.750    0.358    0.410    9.191   72.692
  328.000    0.347    0.414   14.849   66.240
  328.250    0.348    0.404   13.606   61.504
  328.500    0.354    0.401   11.106   57.102
  328.750    0.336    0.399   14.886   54.042
  329.000    0.338    0.391   17.405   52.126
  329.250    0.348    0.381   20.557   50.245
  329.500    0.350    0.396   16.176   48.461
  329.750    0.345    0.417   13.049   47.620
  330.000    0.335    0.408    9.295   46.771
  330.250    0.327    0.403    6.796   45.966
  330.500    0.328    0.407   11.203   46.044
  330.750    0.345    0.398   13.094   46.971
  331.000    0.354    0.411   13.734   47.939
  331.250    0.360    0.402   11.863   49.845
  331.500    0.351    0.411   12.503   51.828
  331.750    0.358    0.417   12.512   54.941
  332.000    0.356    0.433   11.897   58.234
  332.250    0.348    0.436   10.655   59.380
  332.500    0.334    0.411   10.040   61.756
  332.750    0.327    0.406   13.188   63.020
  333.000    0.340    0.401   12.571   64.314
  333.250    0.344    0.409   14.466   62.024
  333.500    0.346    0.424   12.597   58.682
  333.750    0.371    0.417   12.607   54.515
  334.000    0.370    0.428   15.129   51.573
  334.250    0.328    0.437   14.511   49.733
  334.500    0.310    0.415   13.269   49.789
  334.750    0.334    0.405   11.399   50.792
  335.000    0.345    0.427    9.525   54.867
  335.250    0.361    0.426   14.559   58.124
  335.500    0.366    0.418   10.179   61.624
  335.750    0.362    0.440   10.188   61.704
  336.000    0.356    0.451   12.713   60.607
  336.250    0.346    0.427   11.466   59.561
  336.500    0.336    0.408   13.991   60.799
  336.750    0.327    0.411   14.631   63.243
  337.000    0.326    0.421   13.387   65.733
  337.250    0.338    0.435   12.770   69.644
  337.500    0.337    0.435   12.781   78.099
  337.750    0.330    0.440   15.929   87.588
  338.000    0.330    0.425   15.941   91.093
  338.250    0.342    0.410   12.815   92.967
  338.500    0.353    0.399   15.964   87.962
  338.750    0.347    0.386   21.627   80.139
  339.000    0.343    0.370   24.776   65.215
  339.250    0.331    0.370   27.295   54.060
  339.500    0.321    0.376   26.054   42.366
  339.750    0.306    0.369   29.831   36.473
  340.000    0.297    0.391   38.628   32.004
  340.250    0.318    0.408   46.172   33.290
  340.500    0.335    0.413   51.831   35.939
  340.750    0.332    0.407   47.449   43.470
  341.000    0.323    0.418   39.301   48.747
  341.250    0.318    0.429   41.197   52.638
  341.500    0.307    0.427   40.583   53.721
  341.750    0.303    0.419   42.478   53.782
  342.000    0.337    0.411   43.743   52.856
  342.250    0.325    0.422   49.404   52.950
  342.500    0.320    0.425   50.044   54.000
  342.750    0.327    0.419   48.170   55.117
  343.000    0.333    0.418   49.437   55.209
  343.250    0.334    0.417   50.075   55.286
  343.500    0.324    0.426   49.459   55.349
  343.750    0.319    0.419   45.706   58.654
  344.000    0.323    0.417   40.697   59.838
  344.250    0.321    0.436   39.453   61.088
  344.500    0.323    0.415   40.093   59.990
  344.750    0.336    0.414   43.872   57.884
  345.000    0.339    0.407   47.020   57.967
  345.250    0.329    0.409   48.914   58.009
  345.500    0.302    0.374   51.435   53.862
  345.750    0.171    0.335   42.033   47.277
  346.000    0.126    0.316   35.142   40.699
  346.250    0.197    0.385   38.919   31.300
  346.500    0.331    0.445   43.950   26.946
  346.750    0.329    0.447   38.941   22.345
  347.000    0.335    0.447   40.839   18.881
  347.250    0.321    0.425   43.359   16.570
  347.500    0.310    0.416   43.369   15.977
  347.750    0.320    0.422   45.891   15.415
  348.000    0.327    0.421   41.509   15.427
  348.250    0.323    0.427   45.914   15.169
  348.500    0.311    0.425   47.812   14.896
  348.750    0.320    0.414   42.800   14.924
  349.000    0.321    0.413   46.577   14.937
  349.250    0.331    0.412   50.355   14.964
  349.500    0.328    0.396   46.600   14.984
  349.750    0.317    0.399   37.827   14.720
  350.000    0.311    0.418   39.093   14.743
  350.250    0.313    0.405   44.124   14.480
  350.500    0.326    0.396   49.787   14.777
  350.750    0.331    0.389   47.914   14.799
  351.000    0.324    0.370   52.320   15.105
  351.250    0.316    0.347   54.214   15.701
  351.500    0.308    0.328   56.108   17.951
  351.750    0.298    0.312   52.352   19.376
