~VERSION INFORMATION
 VERS.                 2.0:   CWLS LOG ASCII STANDARD -VERSION 2.0
 WRAP.                  NO:   ONE LINE PER DEPTH STEP
~WELL INFORMATION BLOCK
#MNEM.UNIT           DATA                    DESCRIPTION OF MNEMONIC
#---------    -------------------            -------------------------------
# Generated from Intellog Unique Number	CC_88_90/WELL/1179
WELL.         10-11-090-07W4                 : Well_name    - WELL
LOC .         AA/10-11-090-07W4/0            : Location     - LOCATION
UWI .         AA/10-11-090-07W400            : Uwi          - UNIQUE WELL ID
ENTR.         DW                             : Entered      - ENTERED BY
SRVC.         SCHLUMBERGER                   : Scn          - SERVICE COMPANY
STRT.M        15                             : top_depth    - START DEPTH
STOP.M        194.75                         : bot_depth    - STOP DEPTH
STEP.M        0.25                           : increment    - STEP LENGTH
 NULL. -999.2500:NULL Value
~CURVE INFORMATION BLOCK
#MNEM UNIT       ERCB CURVE CODE    CURVE DESCRIPTION
#-----------   ------------------   ----------------------------------
DEPT.M        00 001 00 00         : DEPTH        - DEPTH
GR  .API      00 310 00 00         : GR           - GAMMA RAY
DPHI.V/V      00 890 00 00         : PHID         - DENSITY POROSITY (SANDSTONE)
NPHI.V/V      00 330 00 00         : PHIN         - NEUTRON POROSITY (SANDSTONE)
ILD .OHMM     00 120 00 00         : RESD         - DEEP RESISTIVITY (DIL)
~PARAMETER INFORMATION
#MNEM.UNIT           DATA             DESCRIPTION OF MNEMONIC
#---------         -----------     ------------------------------
GL  .M        460.1                : gl           - GROUND LEVEL ELEVATION
EREF.M        461.1                : kb           - ELEVATION OF DEPTH REFERENCE
DATM.M        461.1                : datum        - DATUM ELEVATION
TDD .M        200                  : tdd          - TOTAL DEPTH DRILLER
RUN .         ONE                  : Run          - RUN NUMBER
ENG .         BILL                 : Engineer     - RECORDING ENGINEER
WIT .         JIM                  : Witness      - WITNESSED BY
MUD .         GEL                  : Mud_type     - MUD TYPE
MATR.         SANDSTONE            : Logunit      - NEUTRON MATRIX
TMAX.C        10                   : BHT          - MAXIMUM RECORDED TEMPERATURE
BHTD.M        200                  : BHTDEP       - MAXIMUM RECORDED TEMPERATURE
MATR.         1                    : LOGUNIT      - NEUTRON MATRIX
RMT .C        25                   : MDTP         - TEMPERATURE OF MUD
NEUT.         1                    : NEUTRON      - NEUTRON TYPE
RESI.         0                    : RESIST       - RESISTIVITY TYPE
RMC .OHMM     0.25                 : RMC          - RESISTIVITY OF MUD CAKE
RMF .OHMM     0.25                 : RMF          - RESISTIVITY OF MUD FILTRATE
SUFT.C        4                    : SUFT         - SURFACE TEMPERATURE
~A  DEPTH       GR     PHID     PHIN     RESD
# ...
  145.500   95.791    0.252    0.413    3.882
  145.750   97.374    0.253    0.411    3.857
  146.000   98.272    0.246    0.429    4.116
  146.250   94.739    0.235    0.436    4.651
  146.500   91.197    0.230    0.421    5.528
  146.750   87.104    0.234    0.403    6.886
  147.000   76.878    0.241    0.388    8.232
  147.250   76.543    0.246    0.374    8.313
  147.500   81.742    0.247    0.351    7.881
  147.750   87.470    0.250    0.370    7.107
  148.000   84.073    0.237    0.398    6.338
  148.250   75.103    0.205    0.394    5.891
  148.500   76.586    0.192    0.395    5.563
  148.750   80.100    0.204    0.401    5.555
  149.000   84.800    0.245    0.407    5.569
  149.250   90.695    0.265    0.409    5.584
  149.500   95.468    0.269    0.424    5.521
  149.750   97.009    0.275    0.449    5.332
  150.000   95.082    0.269    0.447    5.164
  150.250   91.160    0.269    0.418    4.982
  150.500   90.769    0.268    0.398    4.948
  150.750   94.091    0.265    0.411    4.973
  151.000   96.877    0.259    0.431    4.949
  151.250   97.440    0.252    0.433    4.994
  151.500   96.085    0.252    0.422    5.177
  151.750   90.475    0.252    0.407    5.190
  152.000   90.466    0.250    0.414    5.159
  152.250   92.604    0.253    0.420    5.274
  152.500   92.711    0.262    0.415    5.458
  152.750   94.965    0.273    0.415    5.648
  153.000  100.183    0.280    0.420    6.015
  153.250   97.955    0.279    0.418    6.552
  153.500   92.952    0.253    0.410    6.819
  153.750   82.240    0.241    0.399    6.869
  154.000   78.788    0.240    0.393    6.812
  154.250   90.806    0.244    0.396    6.590
  154.500  101.170    0.271    0.403    6.239
  154.750  102.584    0.263    0.412    5.901
  155.000  101.552    0.266    0.414    5.525
  155.250   97.454    0.263    0.406    5.368
  155.500   92.757    0.251    0.400    5.481
  155.750   91.614    0.249    0.402    5.664
  156.000   92.202    0.252    0.405    5.837
  156.250   92.744    0.255    0.409    6.017
  156.500   92.525    0.257    0.407    6.161
  156.750   91.141    0.248    0.404    6.473
  157.000   89.850    0.245    0.404    6.729
  157.250   90.430    0.257    0.410    6.640
  157.500   91.342    0.266    0.424    6.472
  157.750   89.351    0.268    0.415    6.481
  158.000   92.743    0.272    0.403    6.350
  158.250   97.079    0.264    0.405    6.178
  158.500   95.125    0.259    0.424    5.955
  158.750   91.706    0.257    0.440    5.576
  159.000   95.442    0.230    0.423    5.246
  159.250   99.468    0.219    0.410    5.223
  159.500   99.086    0.214    0.404    5.384
  159.750   97.964    0.215    0.400    5.555
  160.000   92.784    0.220    0.396    5.765
  160.250   83.995    0.225    0.395    6.192
  160.500   80.871    0.234    0.394    6.705
  160.750   80.250    0.241    0.390    6.727
  161.000   85.476    0.256    0.388    6.695
  161.250   88.649    0.257    0.392    6.760
  161.500   87.782    0.248    0.381    7.129
  161.750   82.581    0.252    0.359    7.926
  162.000   71.917    0.264    0.362    9.191
  162.250   69.487    0.272    0.364   11.157
  162.500   68.135    0.273    0.365   12.058
  162.750   72.411    0.272    0.367   12.037
  163.000   79.744    0.271    0.368   11.771
  163.250   80.554    0.270    0.367   11.406
  163.500   76.021    0.266    0.367   11.073
  163.750   74.512    0.260    0.363   11.032
  164.000   75.802    0.258    0.358   11.362
  164.250   72.265    0.269    0.356   11.575
  164.500   69.811    0.280    0.370   11.890
  164.750   73.244    0.282    0.388   12.388
  165.000   72.658    0.291    0.383   12.940
  165.250   66.856    0.307    0.379   14.084
  165.500   64.042    0.314    0.373   13.734
  165.750   70.361    0.308    0.371   28.727
  166.000   60.029    0.303    0.372   55.982
  166.250   36.323    0.299    0.370   67.700
  166.500   39.313    0.289    0.366   55.672
  166.750   46.561    0.283    0.361   47.293
  167.000   59.426    0.293    0.360   26.240
  167.250   67.767    0.297    0.363   14.292
  167.500   70.017    0.295    0.381   14.727
  167.750   70.715    0.299    0.396   13.174
  168.000   68.411    0.300    0.382   13.178
  168.250   69.208    0.301    0.384   13.652
  168.500   70.347    0.303    0.382   14.545
  168.750   66.591    0.303    0.374   15.087
  169.000   63.671    0.303    0.369   17.000
  169.250   67.334    0.309    0.368   18.369
  169.500   73.133    0.316    0.365   22.836
  169.750   79.965    0.322    0.359   44.849
  170.000   89.437    0.315    0.358   41.263
  170.250   85.527    0.315    0.362   71.191
  170.500   68.219    0.321    0.368  110.404
  170.750   51.278    0.318    0.375  108.784
  171.000   41.119    0.311    0.382  105.643
  171.250   41.024    0.300    0.383  100.729
  171.500   44.106    0.303    0.370   91.662
  171.750   44.523    0.310    0.358   62.615
  172.000   44.352    0.316    0.357   37.678
  172.250   48.327    0.323    0.367   35.459
  172.500   57.030    0.322    0.388   32.650
  172.750   64.039    0.313    0.397   32.183
  173.000   52.518    0.309    0.388   29.958
  173.250   49.726    0.308    0.363   25.611
  173.500   57.161    0.295    0.368   21.407
  173.750   63.187    0.280    0.404   18.593
  174.000   74.875    0.290    0.412   16.959
  174.250   75.585    0.308    0.421   15.368
  174.500   66.919    0.314    0.413   14.410
  174.750   64.089    0.303    0.378   14.287
  175.000   71.730    0.273    0.360   14.665
  175.250   80.158    0.253    0.378   15.221
  175.500   82.757    0.273    0.394   16.339
  175.750   83.112    0.292    0.395   19.023
  176.000   68.831    0.298    0.395   22.028
  176.250   61.981    0.299    0.394   24.678
  176.500   70.495    0.298    0.392   25.280
  176.750   75.459    0.299    0.391   23.672
  177.000   68.830    0.305    0.387   22.970
  177.250   67.308    0.311    0.388   24.854
  177.500   73.674    0.320    0.399   27.979
  177.750   77.741    0.324    0.404   30.659
  178.000   79.760    0.324    0.404   33.092
  178.250   74.557    0.330    0.409   35.622
  178.500   57.982    0.343    0.407   37.239
  178.750   60.806    0.352    0.401   37.411
  179.000   59.672    0.344    0.389   35.599
  179.250   60.492    0.347    0.386   29.518
  179.500   73.634    0.360    0.394   22.860
  179.750   91.553    0.352    0.412   17.310
  180.000  101.973    0.314    0.431   10.824
  180.250  100.008    0.276    0.437   10.588
  180.500   94.453    0.269    0.437   11.130
  180.750   91.548    0.318    0.409   13.583
  181.000   67.434    0.346    0.380   17.848
  181.250   32.288    0.323    0.379   25.367
  181.500   31.241    0.324    0.382   35.395
  181.750   33.370    0.317    0.393   30.927
  182.000   34.631    0.318    0.405   20.151
  182.250   71.540    0.275    0.407   12.585
  182.500  105.113    0.235    0.400    9.084
  182.750  101.394    0.250    0.396    7.286
  183.000  101.489    0.256    0.389    6.706
  183.250   97.441    0.251    0.351    6.966
  183.500   88.147    0.249    0.346    8.318
  183.750   80.817    0.272    0.355   12.584
  184.000   75.032    0.299    0.357   18.587
  184.250   63.306    0.308    0.351   26.750
  184.500   45.802    0.314    0.335   42.994
  184.750   34.289    0.315    0.331   66.283
  185.000   26.875    0.316    0.332   72.693
  185.250   21.489    0.331    0.345   53.560
  185.500   20.322    0.302    0.345   32.173
  185.750   27.028    0.232    0.320   24.977
  186.000   40.453    0.205    0.296   21.410
  186.250   49.662    0.146    0.256   20.551
  186.500   44.303    0.074    0.232   20.916
  186.750   36.584    0.052    0.205   21.716
  187.000   34.121    0.055    0.189   22.597
  187.250   32.248    0.075    0.207   26.441
  187.500   29.040    0.141    0.231   34.408
  187.750   28.765    0.155    0.229   37.491
  188.000   29.516    0.130    0.208   38.937
  188.250   26.446    0.052    0.180   41.618
  188.500   21.599   -0.004    0.158   46.797
  188.750   19.171    0.003    0.150   55.536
