~VERSION INFORMATION
 VERS.                 2.0:   CWLS LOG ASCII STANDARD -VERSION 2.0
 WRAP.                  NO:   ONE LINE PER DEPTH STEP
~WELL INFORMATION BLOCK
#MNEM.UNIT           DATA                    DESCRIPTION OF MNEMONIC
#---------    -------------------            -------------------------------
# Generated from Intellog Unique Number	CX_WELLS/WELL/3897
WELL.         PEX POEJ MCMURRAY              : Well_name    - WELL
LOC .         AA/10-08-088-16W4/0            : Location     - LOCATION
UWI .         AA/10-08-088-16W400            : Uwi          - UNIQUE WELL ID
ENTR.         TIM                            : Entered      - ENTERED BY
SRVC.         SCHLUMBERGER                   : Scn          - SERVICE COMPANY
STRT.M        75                             : top_depth    - START DEPTH
STOP.M        270                            : bot_depth    - STOP DEPTH
STEP.M        0.25                           : increment    - STEP LENGTH
 NULL. -999.2500:NULL Value
~CURVE INFORMATION BLOCK
#MNEM UNIT       ERCB CURVE CODE    CURVE DESCRIPTION
#-----------   ------------------   ----------------------------------
DEPT.M        00 001 00 00         : DEPTH        - DEPTH
GR  .API      00 310 00 00         : GR           - GAMMA RAY
NPHI.V/V      00 330 00 00         : PHIN         - NEUTRON POROSITY (SANDSTONE)
DPHI.V/V      00 890 00 00         : PHID         - DENSITY POROSITY (SANDSTONE)
ILD .OHMM     00 120 00 00         : RESD         - DEEP RESISTIVITY (DIL)
~PARAMETER INFORMATION
#MNEM.UNIT           DATA             DESCRIPTION OF MNEMONIC
#---------         -----------     ------------------------------
GL  .M        539                  : gl           - GROUND LEVEL ELEVATION
EREF.M        542.8                : kb           - ELEVATION OF DEPTH REFERENCE
DATM.M        542.8                : datum        - DATUM ELEVATION
TDD .M        279                  : tdd          - TOTAL DEPTH DRILLER
RUN .         ONE                  : Run          - RUN NUMBER
ENG .         BILL                 : Engineer     - RECORDING ENGINEER
WIT .         JIM                  : Witness      - WITNESSED BY
MUD .         GEL                  : Mud_type     - MUD TYPE
MATR.         SANDSTONE            : Logunit      - NEUTRON MATRIX
TMAX.C        13.9                 : BHT          - MAXIMUM RECORDED TEMPERATURE
BHTD.M        278                  : BHTDEP       - MAXIMUM RECORDED TEMPERATURE
MATR.         1                    : LOGUNIT      - NEUTRON MATRIX
RMT .C        9                    : MDTP         - TEMPERATURE OF MUD
NEUT.         1                    : NEUTRON      - NEUTRON TYPE
RESI.         6.98                 : RESIST       - RESISTIVITY TYPE
RMC .OHMM     8.86                 : RMC          - RESISTIVITY OF MUD CAKE
RMF .OHMM     7.09                 : RMF          - RESISTIVITY OF MUD FILTRATE
SUFT.C        4                    : SUFT         - SURFACE TEMPERATURE
~A  DEPTH       GR     PHIN     PHID     RESD
# ...
  205.500   91.157    0.484    0.209   10.745
  205.750   90.613    0.453    0.181   11.161
  206.000   93.062    0.435    0.175   11.169
  206.250   96.095    0.433    0.203   11.385
  206.500   99.142    0.443    0.194   11.400
  206.750   98.626    0.444    0.177   11.417
  207.000   97.471    0.444    0.150   11.634
  207.250   95.132    0.437    0.120   11.646
  207.500   95.786    0.421    0.138   12.098
  207.750   98.248    0.413    0.163   12.335
  208.000  100.098    0.409    0.189   12.807
  208.250  100.139    0.409    0.195   13.307
  208.500   97.828    0.405    0.202   13.313
  208.750   96.659    0.395    0.171   13.833
  209.000   93.124    0.386    0.131   14.366
  209.250   89.602    0.337    0.107   14.648
  209.500   88.446    0.285    0.074   18.281
  209.750   87.305    0.256    0.063   17.320
  210.000   94.554    0.338    0.103   16.107
  210.250  101.804    0.378    0.131   14.979
  210.500  103.668    0.403    0.151   13.676
  210.750  103.695    0.417    0.168   13.192
  211.000  103.750    0.414    0.180   12.967
  211.250  103.819    0.412    0.196   12.983
  211.500  104.500    0.417    0.205   12.756
  211.750  104.555    0.428    0.194   12.536
  212.000  105.195    0.445    0.189   12.320
  212.250  105.236    0.446    0.196   11.676
  212.500  102.299    0.443    0.183   11.259
  212.750   98.179    0.465    0.172   10.668
  213.000  100.614    0.494    0.198    9.921
  213.250  104.857    0.516    0.200    9.569
  213.500  107.347    0.554    0.198    9.064
  213.750  104.383    0.580    0.193    8.746
  214.000   99.650    0.530    0.184    9.254
  214.250   93.109    0.487    0.158   10.536
  214.500   95.585    0.454    0.112   10.945
  214.750   98.619    0.434    0.147   10.367
  215.000  105.256    0.446    0.189   10.186
  215.250  110.112    0.456    0.200    9.651
  215.500  108.984    0.457    0.183    9.311
  215.750  106.659    0.460    0.157    9.148
  216.000  105.490    0.463    0.143    8.995
  216.250  103.151    0.464    0.134    8.838
  216.500   97.209    0.449    0.097    9.011
  216.750   94.271    0.430    0.072    9.017
  217.000   99.127    0.424    0.098    9.541
  217.250  102.787    0.434    0.120    9.911
  217.500  106.418    0.448    0.156    9.919
  217.750  110.064    0.450    0.174    9.750
  218.000  114.934    0.454    0.186    9.579
  218.250  117.967    0.442    0.177    9.416
  218.500  118.036    0.438    0.174    9.254
  218.750  114.486    0.436    0.174    9.265
  219.000  109.169    0.420    0.169    9.618
  219.250  105.620    0.415    0.145   11.364
  219.500  103.880    0.395    0.101   13.424
  219.750  103.337    0.387    0.082   13.691
  220.000  104.616    0.377    0.097   13.454
  220.250  105.242    0.379    0.148   12.981
  220.500  105.297    0.395    0.196   12.754
  220.750  105.964    0.396    0.200   12.309
  221.000  106.033    0.398    0.197   12.096
  221.250  105.476    0.404    0.185   12.108
  221.500  104.348    0.416    0.186   12.123
  221.750  103.192    0.429    0.190   12.590
  222.000  100.269    0.399    0.194   13.817
  222.250   96.733    0.387    0.176   16.318
  222.500   92.586    0.363    0.155   20.000
  222.750   92.641    0.284    0.087   20.035
  223.000   94.491    0.275    0.046   19.320
  223.250   96.341    0.300    0.074   18.301
  223.500  100.585    0.342    0.123   16.408
  223.750  101.252    0.377    0.153   14.985
  224.000  101.307    0.395    0.175   14.454
  224.250  100.764    0.396    0.192   13.945
  224.500   99.023    0.395    0.205   13.701
  224.750   97.283    0.393    0.198   13.226
  225.000   97.338    0.394    0.193   12.995
  225.250   99.202    0.395    0.193   12.774
  225.500  100.468    0.400    0.189   12.547
  225.750  101.094    0.398    0.181   12.559
  226.000  101.775    0.400    0.172   12.575
  226.250   97.627    0.430    0.195   12.821
  226.500   88.692    0.444    0.225   13.563
  226.750   65.994    0.461    0.234   15.161
  227.000   54.081    0.439    0.256   20.000
  227.250   48.750    0.389    0.270   22.784
  227.500   47.608    0.359    0.280   25.463
  227.750   41.679    0.365    0.285   31.786
  228.000   37.545    0.369    0.287   44.313
  228.250   35.207    0.371    0.289   70.285
  228.500   34.079    0.372    0.292   80.048
  228.750   34.134    0.375    0.294   84.697
  229.000   35.998    0.374    0.293   87.938
  229.250   37.222    0.374    0.291   89.638
  229.500   40.283    0.373    0.287   91.416
  229.750   39.753    0.375    0.286   89.862
  230.000   39.210    0.380    0.286   82.064
  230.250   39.849    0.391    0.286   80.608
  230.500   40.516    0.399    0.288   74.963
  230.750   41.156    0.408    0.294   72.326
  231.000   42.422    0.403    0.299   68.527
  231.250   43.075    0.396    0.311   66.116
  231.500   44.341    0.399    0.295   64.959
  231.750   44.980    0.405    0.287   63.854
  232.000   45.634    0.413    0.300   63.902
  232.250   45.689    0.437    0.308   65.154
  232.500   45.771    0.469    0.308   71.540
  232.750   45.799    0.491    0.310   77.081
  233.000   46.452    0.495    0.312   84.594
  233.250   47.718    0.439    0.310   86.230
  233.500   48.385    0.444    0.310   84.742
  233.750   48.440    0.434    0.317   80.270
  234.000   49.080    0.422    0.322   74.686
  234.250   49.148    0.417    0.317   70.710
  234.500   49.203    0.412    0.313   64.558
  234.750   50.455    0.409    0.309   58.942
  235.000   51.095    0.412    0.301   54.814
  235.250   52.945    0.416    0.298   48.249
  235.500   57.216    0.425    0.295   44.052
  235.750   59.665    0.429    0.292   32.857
  236.000   60.917    0.425    0.287   32.274
  236.250   62.155    0.420    0.282   30.579
  236.500   64.005    0.427    0.280   28.437
  236.750   64.101    0.436    0.280   25.963
  237.000   64.129    0.446    0.279   23.267
  237.250   64.184    0.440    0.274   20.855
  237.500   67.231    0.429    0.256   14.452
  237.750   73.868    0.420    0.220   13.689
  238.000   82.913    0.415    0.204   10.398
  238.250   89.551    0.467    0.198    9.493
  238.500   96.188    0.492    0.215    7.210
  238.750  107.627    0.509    0.218    6.704
  239.000  112.483    0.526    0.223    6.009
  239.250  108.933    0.540    0.248    5.388
  239.500  108.390    0.554    0.251    5.198
  239.750  112.077    0.577    0.243    5.301
  240.000  113.899    0.576    0.232    5.505
  240.250  113.954    0.544    0.217    5.612
  240.500  104.435    0.536    0.204    5.939
  240.750  106.883    0.532    0.193    6.166
  241.000  111.726    0.483    0.190    6.404
  241.250  110.598    0.480    0.193    6.774
  241.500  108.245    0.504    0.197    6.907
  241.750  104.125    0.514    0.197    7.042
  242.000  100.576    0.476    0.201   11.374
  242.250   94.049    0.413    0.210   14.199
  242.500   80.340    0.389    0.222   18.732
  242.750   69.012    0.367    0.230   28.645
  243.000   64.878    0.359    0.243   30.856
  243.250   58.949    0.350    0.254   32.639
  243.500   51.823    0.331    0.269   32.680
  243.750   47.703    0.315    0.284   32.713
  244.000   48.968    0.278    0.308   33.345
  244.250   50.193    0.308    0.325   37.294
  244.500   50.846    0.364    0.323   40.928
  244.750   49.704    0.382    0.310   44.918
  245.000   44.999    0.410    0.305   48.397
  245.250   42.647    0.424    0.301   54.101
  245.500   39.710    0.412    0.294   60.492
  245.750   37.371    0.402    0.288   62.806
  246.000   35.631    0.392    0.279   65.226
  246.250   35.088    0.385    0.281   56.367
  246.500   38.733    0.380    0.289   50.513
  246.750   44.174    0.380    0.293   42.845
  247.000   50.811    0.378    0.291   37.705
  247.250   58.061    0.370    0.289   33.805
  247.500   65.297    0.368    0.285   36.433
  247.750   70.738    0.366    0.280   39.984
  248.000   70.208    0.365    0.261   41.504
  248.250   67.869    0.366    0.250   41.545
  248.500   66.129    0.369    0.250   39.353
  248.750   64.389    0.376    0.254   37.276
