~VERSION INFORMATION
 VERS.                 2.0:   CWLS LOG ASCII STANDARD -VERSION 2.0
 WRAP.                  NO:   ONE LINE PER DEPTH STEP
~WELL INFORMATION BLOCK
#MNEM.UNIT           DATA                    DESCRIPTION OF MNEMONIC
#---------    -------------------            -------------------------------
# Generated from Intellog Unique Number	CN_94_101/WELL/1070
WELL.         CHEVRON CANADA RESOURCES       : Well_name    - WELL
LOC .         AA/10-29-094-07W4/0            : Location     - LOCATION
UWI .         AA/10-29-094-07W400            : Uwi          - UNIQUE WELL ID
ENTR.         JOETTE                         : Entered      - ENTERED BY
SRVC.         SCHLUMBERGER                   : Scn          - SERVICE COMPANY
DATE.         04/12/92                       : Date         - LOG DATE
STRT.M        100                            : top_depth    - START DEPTH
STOP.M        250                            : bot_depth    - STOP DEPTH
STEP.M        0.25                           : increment    - STEP LENGTH
 NULL. -999.2500:NULL Value
~CURVE INFORMATION BLOCK
#MNEM UNIT       ERCB CURVE CODE    CURVE DESCRIPTION
#-----------   ------------------   ----------------------------------
DEPT.M        00 001 00 00         : DEPTH        - DEPTH
GR  .API      00 310 00 00         : GR           - GAMMA RAY
ILD .OHMM     00 120 00 00         : RESD         - DEEP RESISTIVITY (DIL)
DPHI.V/V      00 890 00 00         : PHID         - DENSITY POROSITY (SANDSTONE)
NPHI.V/V      00 330 00 00         : PHIN         - NEUTRON POROSITY (SANDSTONE)
CALI.MM       00 280 01 00         : CAL          - CALIPER
~PARAMETER INFORMATION
#MNEM.UNIT           DATA             DESCRIPTION OF MNEMONIC
#---------         -----------     ------------------------------
GL  .M        496.1                : gl           - GROUND LEVEL ELEVATION
EREF.M        496.1                : kb           - ELEVATION OF DEPTH REFERENCE
DATM.M        496.1                : datum        - DATUM ELEVATION
TDD .M        253.4                : tdd          - TOTAL DEPTH DRILLER
RUN .         ONE                  : Run          - RUN NUMBER
ENG .         BILL                 : Engineer     - RECORDING ENGINEER
WIT .         JIM                  : Witness      - WITNESSED BY
MUD .         GEL                  : Mud_type     - MUD TYPE
MATR.         SANDSTONE            : Logunit      - NEUTRON MATRIX
TMAX.C        10                   : BHT          - MAXIMUM RECORDED TEMPERATURE
BHTD.M        253.4                : BHTDEP       - MAXIMUM RECORDED TEMPERATURE
RMT .C        17.3                 : MDTP         - TEMPERATURE OF MUD
MUDD.KG/M     1130                 : MWT          - MUD DENSITY
NEUT.         1                    : NEUTRON      - NEUTRON TYPE
RESI.         0                    : RESIST       - RESISTIVITY TYPE
RM  .OHMM     8.25                 : RM           - RESISTIVITY OF MUD
RMC .OHMM     7.89                 : RMC          - RESISTIVITY OF MUD CAKE
RMF .OHMM     6.89                 : RMF          - RESISTIVITY OF MUD FILTRATE
SUFT.C        4                    : SUFT         - SURFACE TEMPERATURE
~A  DEPTH       GR     RESD     PHID     PHIN      CAL
# ...
  136.500   79.440   23.152    0.149    0.512  163.271
  136.750   80.069   16.449    0.210    0.552  168.478
  137.000   81.319   13.870    0.262    0.603  171.690
  137.250   86.302   11.697    0.344    0.585  173.316
  137.500   88.794   11.269    0.333    0.576  168.198
  137.750   94.399   11.065    0.328    0.576  165.460
  138.000   98.763   10.459    0.328    0.573  164.715
  138.250  100.010   10.075    0.332    0.558  167.134
  138.500  104.991   10.084    0.376    0.538  169.147
  138.750  104.379    9.902    0.366    0.523  172.766
  139.000  104.386    9.723    0.350    0.504  170.822
  139.250  102.528    9.547    0.325    0.476  167.677
  139.500  109.373   10.308    0.305    0.559  166.942
  139.750  110.626   12.013    0.272    0.542  170.145
  140.000  107.523   11.796    0.298    0.524  174.151
  140.250  100.691   10.334    0.318    0.538  179.348
  140.500   98.212    9.954    0.341    0.523  179.793
  140.750  107.545    9.590    0.343    0.550  175.062
  141.000  116.879    8.561    0.339    0.590  172.324
  141.250  121.860    7.359    0.335    0.632  175.933
  141.500  109.433    7.507    0.332    0.634  181.536
  141.750   97.627    8.107    0.303    0.589  180.385
  142.000   98.256    8.590    0.316    0.525  176.853
  142.250  105.725    8.275    0.329    0.511  182.447
  142.500  110.706    8.129    0.345    0.571  182.486
  142.750  108.228    8.132    0.333    0.595  176.970
  143.000  106.992    8.951    0.272    0.586  171.852
  143.250  110.732    8.791    0.289    0.568  167.527
  143.500  106.385    8.151    0.298    0.584  167.566
  143.750  103.908    7.559    0.309    0.608  165.612
  144.000  103.293    7.565    0.305    0.600  160.503
  144.250  107.029    7.865    0.300    0.574  161.722
  144.500  110.767    8.494    0.310    0.511  164.151
  144.750  113.264    8.665    0.311    0.527  163.000
  145.000  112.026    8.672    0.282    0.479  161.065
  145.250  110.791    8.846    0.270    0.461  162.304
  145.500  114.527    9.924    0.253    0.492  162.720
  145.750  120.131   10.721    0.250    0.535  161.172
  146.000  125.736   10.725    0.248    0.518  158.434
  146.250  125.119   11.367    0.243    0.494  156.886
  146.500  117.666   12.273    0.237    0.487  153.752
  146.750  102.130   14.036    0.232    0.479  151.797
  147.000   90.946   13.014    0.247    0.473  149.862
  147.250  100.901   11.845    0.258    0.473  154.265
  147.500  113.965   12.314    0.260    0.510  155.504
  147.750  116.460   12.799    0.252    0.537  154.343
  148.000  102.789   14.091    0.175    0.492  154.779
  148.250   95.335   16.418    0.104    0.415  157.605
  148.500   89.747   20.655    0.162    0.416  158.040
  148.750  105.922   16.763    0.186    0.548  156.493
  149.000  100.333   12.607    0.244    0.637  155.332
  149.250   91.636    9.483    0.311    0.665  153.387
  149.500   84.183    6.867    0.381    0.665  151.055
  149.750   78.595    6.370    0.423    0.630  150.698
  150.000   82.332    6.376    0.386    0.603  154.297
  150.250   86.692    6.501    0.365    0.596  159.504
  150.500   86.078    6.758    0.372    0.619  162.320
  150.750   85.463    7.161    0.381    0.635  156.011
  151.000   94.797    7.448    0.390    0.617  153.670
  151.250   95.426    7.453    0.388    0.602  154.502
  151.500   99.164    7.602    0.348    0.589  155.731
  151.750  109.120    7.902    0.328    0.572  155.770
  152.000  104.153    8.867    0.323    0.557  154.232
  152.250   97.943    9.574    0.315    0.529  153.487
  152.500   92.355   10.540    0.305    0.506  153.507
  152.750   92.984    9.773    0.300    0.522  154.339
  153.000   94.235    8.401    0.299    0.545  154.775
  153.250   92.377    9.245    0.250    0.518  155.617
  153.500   83.058   10.981    0.222    0.463  155.656
  153.750   86.174   13.043    0.189    0.431  156.082
  154.000   98.617   12.566    0.267    0.519  156.141
  154.250  113.548   10.396    0.325    0.570  156.576
  154.500  107.962    8.279    0.332    0.590  158.202
  154.750  108.589    7.976    0.327    0.587  157.844
  155.000  108.596    9.299    0.319    0.605  157.090
  155.250  107.982    9.129    0.314    0.596  157.139
  155.500  110.478    8.798    0.317    0.572  157.971
  155.750  106.134    8.636    0.320    0.556  158.387
  156.000  103.652    8.480    0.324    0.545  156.056
  156.250  111.120    8.328    0.321    0.542  158.862
  156.500  114.237    8.334    0.319    0.560  161.301
  156.750  113.004    7.878    0.317    0.574  158.156
  157.000  113.632    7.588    0.327    0.577  159.395
  157.250  116.126    7.172    0.340    0.568  161.011
  157.500  116.132    7.178    0.336    0.535  161.844
  157.750  114.896    7.462    0.330    0.526  161.089
  158.000  113.038    8.372    0.320    0.562  159.551
  158.250  113.045    9.756    0.317    0.602  158.400
  158.500  113.676   10.342    0.309    0.590  158.042
  158.750  111.195   10.544    0.299    0.579  157.694
  159.000  110.581   10.356    0.286    0.574  156.920
  159.250  109.344   10.170    0.269    0.561  155.779
  159.500  102.513   10.774    0.269    0.570  153.834
  159.750   91.951   12.556    0.286    0.549  152.296
  160.000   86.986   15.201    0.253    0.496  151.919
  160.250   95.076   14.097    0.198    0.440  151.164
  160.500  103.788   11.227    0.220    0.494  150.420
  160.750   97.578   11.672    0.245    0.510  150.072
  161.000   87.637   13.605    0.257    0.480  150.091
  161.250   78.319   15.263    0.264    0.457  150.140
  161.500   73.974   18.126    0.279    0.417  150.575
  161.750   73.360   23.679    0.305    0.386  150.208
  162.000   74.611   23.702    0.298    0.366  149.850
  162.250   73.996   21.160    0.290    0.365  148.699
  162.500   74.625   23.739    0.285    0.359  148.341
  162.750   77.120   27.665    0.294    0.357  148.777
  163.000   79.614   32.860    0.302    0.364  148.419
  163.250   80.243   36.864    0.311    0.359  146.088
  163.500   80.251   42.961    0.312    0.353  142.943
  163.750   80.880   52.009    0.308    0.343  142.189
  164.000   66.587   71.950    0.302    0.326  142.624
  164.250   50.429   93.994    0.246    0.305  142.673
  164.500   47.952  349.874    0.202    0.305  141.522
  164.750   54.797  283.945    0.237    0.335  139.964
  165.000   56.669  186.943    0.295    0.352  136.829
  165.250   49.216  151.745    0.346    0.357  134.885
  165.500   41.141  235.325    0.354    0.358  133.337
  165.750   35.552  307.483    0.359    0.365  132.979
  166.000   34.316  379.321    0.358    0.351  132.641
  166.250   33.080  468.033    0.347    0.339  132.660
  166.500   38.683  394.654    0.339    0.343  132.699
  166.750   49.882  320.348    0.339    0.345  133.135
  167.000   65.435  223.304    0.339    0.358  133.580
  167.250   76.634  108.398    0.333    0.419  134.413
  167.500   81.617   88.006    0.318    0.445  135.652
  167.750   78.514   83.170    0.311    0.440  136.088
  168.000   72.306   77.133    0.314    0.404  136.136
  168.250   70.446   91.653    0.320    0.387  135.759
  168.500   71.697  106.790    0.331    0.396  137.385
  168.750   74.813  119.803    0.330    0.402  139.030
  169.000   75.444   81.936    0.325    0.395  138.256
  169.250   72.963   82.000    0.322    0.383  138.295
  169.500   67.996  134.612    0.324    0.369  138.741
  169.750   61.786  156.875    0.334    0.318  137.212
  170.000   55.576  189.914    0.340    0.229  136.448
  170.250   41.284  363.111    0.340    0.203  136.081
  170.500   37.562  668.200    0.329    0.212  135.723
  170.750   38.192  960.082    0.318    0.240  136.575
  171.000   40.062  306.659    0.329    0.304  137.001
  171.250   54.370  101.731    0.347    0.319  137.427
  171.500   71.165   82.577    0.305    0.332  137.882
  171.750   63.711  146.311    0.298    0.350  138.308
  172.000   46.310  128.159    0.293    0.343  138.734
  172.250   46.939  125.865    0.278    0.334  139.170
  172.500   61.246   67.186    0.285    0.370  140.012
  172.750   62.499   94.733    0.300    0.387  140.041
