~VERSION INFORMATION
 VERS.                 2.0:   CWLS LOG ASCII STANDARD -VERSION 2.0
 WRAP.                  NO:   ONE LINE PER DEPTH STEP
~WELL INFORMATION BLOCK
#MNEM.UNIT           DATA                    DESCRIPTION OF MNEMONIC
#---------    -------------------            -------------------------------
# Generated from Intellog Unique Number	CX_WELLS/WELL/2326
WELL.         13-01-088-07W4                 : Well_name    - WELL
LOC .         AA/13-01-088-07W4/0            : Location     - LOCATION
UWI .         AA/13-01-088-07W400            : Uwi          - UNIQUE WELL ID
ENTR.         RJA                            : Entered      - ENTERED BY
SRVC.         SCHLUMBERGER                   : Scn          - SERVICE COMPANY
STRT.M        35                             : top_depth    - START DEPTH
STOP.M        150                            : bot_depth    - STOP DEPTH
STEP.M        0.25                           : increment    - STEP LENGTH
 NULL. -999.2500:NULL Value
~CURVE INFORMATION BLOCK
#MNEM UNIT       ERCB CURVE CODE    CURVE DESCRIPTION
#-----------   ------------------   ----------------------------------
DEPT.M        00 001 00 00         : DEPTH        - DEPTH
GR  .API      00 310 00 00         : GR           - GAMMA RAY
NPHI.V/V      00 330 00 00         : PHIN         - NEUTRON POROSITY (SANDSTONE)
DPHI.V/V      00 890 00 00         : PHID         - DENSITY POROSITY (SANDSTONE)
ILD .OHMM     00 120 00 00         : RESD         - DEEP RESISTIVITY (DIL)
~PARAMETER INFORMATION
#MNEM.UNIT           DATA             DESCRIPTION OF MNEMONIC
#---------         -----------     ------------------------------
GL  .M        408.81               : gl           - GROUND LEVEL ELEVATION
EREF.M        410.31               : kb           - ELEVATION OF DEPTH REFERENCE
DATM.M        410.31               : datum        - DATUM ELEVATION
TDD .M        151                  : tdd          - TOTAL DEPTH DRILLER
RUN .         ONE                  : Run          - RUN NUMBER
ENG .         BILL                 : Engineer     - RECORDING ENGINEER
WIT .         JIM                  : Witness      - WITNESSED BY
MUD .         GEL                  : Mud_type     - MUD TYPE
MATR.         SANDSTONE            : Logunit      - NEUTRON MATRIX
TMAX.C        18                   : BHT          - MAXIMUM RECORDED TEMPERATURE
BHTD.M        157                  : BHTDEP       - MAXIMUM RECORDED TEMPERATURE
MATR.         1                    : LOGUNIT      - NEUTRON MATRIX
RMT .C        25                   : MDTP         - TEMPERATURE OF MUD
NEUT.         1                    : NEUTRON      - NEUTRON TYPE
RESI.         0                    : RESIST       - RESISTIVITY TYPE
RMC .OHMM     0.25                 : RMC          - RESISTIVITY OF MUD CAKE
RMF .OHMM     0.25                 : RMF          - RESISTIVITY OF MUD FILTRATE
SUFT.C        15                   : SUFT         - SURFACE TEMPERATURE
~A  DEPTH       GR     PHIN     PHID     RESD
   35.000   93.326    0.557    0.305    5.217
   35.250   93.250    0.550    0.290    6.054
   35.500   92.549    0.535    0.271    7.025
   35.750   92.473    0.518    0.255    7.705
   36.000   92.378    0.527    0.243    7.989
   36.250   92.928    0.543    0.237    7.829
   36.500   92.871    0.557    0.247    7.673
   36.750   90.273    0.497    0.262    7.662
   37.000   85.817    0.471    0.287    8.245
   37.250   80.734    0.467    0.298    8.878
   37.500   73.130    0.471    0.294   10.110
   37.750   69.299    0.467    0.281   12.411
   38.000   66.094    0.448    0.263   14.957
   38.250   62.244    0.429    0.245   16.406
   38.500   59.665    0.413    0.251   17.332
   38.750   57.712    0.408    0.257   17.629
   39.000   60.766    0.417    0.267   17.271
   39.250   67.593    0.424    0.273   16.617
   39.500   78.782    0.454    0.272   15.107
   39.750   84.339    0.484    0.265   13.479
   40.000   87.393    0.506    0.252   11.584
   40.250   89.820    0.523    0.248    9.955
   40.500   90.996    0.537    0.247    8.237
   40.750   90.295    0.530    0.248    7.078
   41.000   87.716    0.499    0.253    6.198
   41.250   89.517    0.515    0.263    5.740
   41.500   93.178    0.539    0.277    5.623
   41.750   94.980    0.556    0.286    5.617
   42.000   96.781    0.557    0.280    5.713
   42.250   96.706    0.560    0.270    5.817
   42.500   95.378    0.565    0.267    6.502
   42.750   93.425    0.525    0.270    7.404
   43.000   86.484    0.495    0.278    9.089
   43.250   76.357    0.447    0.293   10.950
   43.500   73.171    0.412    0.306   12.011
   43.750   69.966    0.422    0.307   12.688
   44.000   70.497    0.466    0.301   13.155
   44.250   72.925    0.475    0.291   13.132
   44.500   75.997    0.486    0.286   13.109
   44.750   80.302    0.500    0.283   13.100
   45.000   80.815    0.500    0.280   12.361
   45.250   81.403    0.500    0.273   11.238
   45.500   81.327    0.499    0.265   10.027
   45.750   78.748    0.489    0.233    9.461
   46.000   71.769    0.472    0.190    9.995
   46.250   67.312    0.405    0.159   10.562
   46.500   68.488    0.404    0.282   11.805
   46.750   70.290    0.416    0.286   12.939
   47.000   73.344    0.436    0.284   12.930
   47.250   77.023    0.446    0.289   12.205
   47.500   80.683    0.458    0.291   11.306
   47.750   83.111    0.476    0.286   10.668
   48.000   83.035    0.502    0.272   10.855
   48.250   78.597    0.501    0.260   11.467
   48.500   72.245    0.492    0.258   12.344
   48.750   74.691    0.498    0.271   12.803
   49.000   71.467    0.510    0.251   13.022
   49.250   59.501    0.491    0.114   13.506
   49.500   50.644    0.376    0.022   14.003
   49.750   46.794    0.288   -0.013   14.248
   50.000   49.867    0.207   -0.009   14.772
   50.250   57.301    0.307    0.041   14.477
   50.500   64.754    0.420    0.097   13.924
   50.750   74.066    0.438    0.139   12.894
   51.000   78.997    0.467    0.252   11.501
   51.250   82.032    0.494    0.249   10.265
   51.500   83.834    0.499    0.251    8.493
   51.750   85.029    0.504    0.251    7.581
   52.000   89.334    0.514    0.245    6.762
   52.250   94.909    0.518    0.249    6.033
   52.500   94.834    0.529    0.265    5.802
   52.750   90.358    0.528    0.285    6.014
   53.000   89.638    0.520    0.317    6.471
   53.250   90.814    0.513    0.296    6.839
   53.500   90.738    0.500    0.279    7.227
   53.750   90.036    0.493    0.278    8.072
   54.000   89.354    0.495    0.288    8.374
   54.250   87.363    0.492    0.290    8.683
   54.500   86.699    0.480    0.278    8.667
   54.750   85.997    0.477    0.245    8.181
   55.000   87.799    0.481    0.234    7.871
   55.250   90.208    0.487    0.233    7.023
   55.500   92.010    0.502    0.247    5.921
   55.750   93.811    0.518    0.263    5.383
   56.000   95.613    0.532    0.286    4.891
   56.250   97.415    0.552    0.280    4.796
   56.500   98.591    0.570    0.273    4.526
   56.750   99.767    0.599    0.276    4.353
   57.000   99.691    0.625    0.281    4.266
   57.250   97.112    0.617    0.286    4.103
   57.500   95.159    0.600    0.296    4.022
   57.750   94.457    0.582    0.309    3.867
   58.000   93.130    0.587    0.321    3.720
   58.250   93.054    0.586    0.316    3.785
   58.500   95.482    0.576    0.310    4.228
   58.750   96.658    0.553    0.297    4.638
   59.000   97.815    0.536    0.268    4.994
   59.250   97.094    0.540    0.261    5.378
   59.500   96.393    0.539    0.263    5.679
   59.750   95.729    0.530    0.263    5.779
   60.000   94.402    0.517    0.255    6.105
   60.250   93.074    0.501    0.249    6.567
   60.500   89.813    0.490    0.252    6.813
   60.750   89.111    0.477    0.261    7.334
   61.000   89.073    0.476    0.267    7.748
   61.250   90.875    0.478    0.264    8.185
   61.500   95.180    0.477    0.258    8.644
   61.750   96.963    0.457    0.247    8.962
   62.000   96.261    0.444    0.222    9.295
   62.250   96.167    0.441    0.214    9.816
   62.500   96.755    0.442    0.220    9.992
   62.750   97.893    0.451    0.226   10.548
   63.000   98.481    0.462    0.240   10.944
   63.250   98.405    0.456    0.252   11.557
   63.500   97.078    0.451    0.262   11.755
   63.750   96.357    0.453    0.263   11.965
   64.000   96.300    0.462    0.265   12.175
   64.250   96.206    0.468    0.266   12.162
   64.500   96.130    0.469    0.270   11.693
   64.750   94.822    0.468    0.275   11.037
   65.000   91.579    0.467    0.278   10.035
   65.250   89.000    0.470    0.278    9.299
   65.500   88.298    0.477    0.273    8.451
   65.750   91.371    0.486    0.265    8.126
   66.000   93.153    0.496    0.258    8.114
   66.250   93.685    0.502    0.257    8.105
   66.500   94.254    0.499    0.253    8.094
   66.750   94.178    0.501    0.233    8.083
   67.000   94.728    0.502    0.218    7.768
   67.250   95.904    0.499    0.223    7.477
   67.500   95.828    0.484    0.234    7.191
   67.750   93.875    0.456    0.245    7.597
   68.000   89.400    0.456    0.260    8.172
   68.250   86.840    0.465    0.264    8.476
   68.500   85.512    0.473    0.252    8.954
   68.750   87.940    0.478    0.238    9.111
   69.000   89.742    0.480    0.227    8.763
   69.250   91.543    0.478    0.224    8.274
   69.500   93.971    0.477    0.224    7.377
   69.750   97.005    0.486    0.227    7.230
   70.000   96.323    0.507    0.235    6.827
   70.250   94.351    0.523    0.242    6.442
   70.500   93.023    0.530    0.250    6.313
   70.750   92.322    0.524    0.253    6.189
   71.000   94.749    0.518    0.258    5.953
   71.250   96.551    0.520    0.259    5.723
   71.500   97.120    0.523    0.258    5.713
   71.750   97.025    0.515    0.257    5.926
   72.000   95.072    0.479    0.257    6.031
   72.250   93.119    0.465    0.255    6.488
   72.500   89.895    0.460    0.253    6.859
   72.750   86.064    0.520    0.260    7.381
   73.000   87.240    0.548    0.270    7.099
   73.250   89.061    0.564    0.284    5.876
   73.500   90.863    0.567    0.297    4.863
   73.750   92.646    0.542    0.294    4.259
   74.000   92.570    0.494    0.273    4.497
   74.250   89.365    0.459    0.251    4.753
   74.500   88.038    0.443    0.248    5.312
   74.750   87.355    0.434    0.244    5.718
   75.000   84.112    0.442    0.250    6.509
   75.250   82.785    0.463    0.258    6.879
   75.500   82.102    0.483    0.258    7.688
   75.750   82.027    0.483    0.259    8.752
   76.000   81.932    0.484    0.261    9.074
   76.250   81.856    0.488    0.261    8.896
   76.500   83.032    0.491    0.254    8.718
   76.750   82.938    0.486    0.249    8.538
   77.000   82.900    0.479    0.236    8.526
   77.250   82.824    0.469    0.204    8.517
   77.500   82.748    0.462    0.165    8.830
   77.750   83.924    0.443    0.152    8.985
   78.000   86.959    0.428    0.180    9.492
   78.250   89.386    0.430    0.206    9.661
