~VERSION INFORMATION
 VERS.                 2.0:   CWLS LOG ASCII STANDARD -VERSION 2.0
 WRAP.                  NO:   ONE LINE PER DEPTH STEP
~WELL INFORMATION BLOCK
#MNEM.UNIT           DATA                    DESCRIPTION OF MNEMONIC
#---------    -------------------            -------------------------------
# Generated from Intellog Unique Number	CC_84_87/WELL/2297
NULL.         -999.25                        : NULL_VALUE
WELL.         PEX PECJ HANGST OV             : Well_name    - WELL              
LOC .         10-08-086-09W4                 : Location     - LOCATION          
UWI .         AA/10-08-086-09W400            : Uwi          - UNIQUE WELL ID    
ENTR.         DW                             : Entered      - ENTERED BY        
SRVC.         DRESSER ATLAS                  : Scn          - SERVICE COMPANY   
DATE.         26 JAN 81                      : Date         - LOG DATE
STRT.M        65                             : top_depth    - START DEPTH       
STOP.M        239.902                        : bot_depth    - STOP DEPTH        
STEP.M        0.3                            : increment    - STEP LENGTH       
~CURVE INFORMATION BLOCK
#MNEM UNIT       ERCB CURVE CODE    CURVE DESCRIPTION
#-----------   ------------------   ----------------------------------
DEPT.M        00 001 00 00         : DEPTH        - DEPTH                       
DPHI.V/V      00 890 00 00         : PHID         - DENSITY POROSITY (LIMESTONE)
NPHI.V/V      00 330 00 00         : PHIN         - NEUTRON POROSITY (LIMESTONE)
GR  .API      00 310 00 00         : GR           - GAMMA RAY                   
ILD .OHMM     00 120 00 00         : RESD         - DEEP RESISTIVITY (DIL)      
~PARAMETER INFORMATION       
#MNEM.UNIT           DATA             DESCRIPTION OF MNEMONIC
#---------         -----------     ------------------------------
GL  .M        478.9                : gl           - GROUND LEVEL ELEVATION      
EREF.M        484                  : kb           - ELEVATION OF DEPTH REFERENCE
DATM.M        484                  : datum        - DATUM ELEVATION             
TDD .M        250                  : tdd          - TOTAL DEPTH DRILLER         
RUN .         ONE                  : Run          - RUN NUMBER                  
ENG .         BILL                 : Engineer     - RECORDING ENGINEER          
WIT .         JIM                  : Witness      - WITNESSED BY                
MUD .         GEL                  : Mud_type     - MUD TYPE                    
MATR.         LIMESTONE            : Logunit      - NEUTRON MATRIX              
TMAX.C        18                   : BHT          - MAXIMUM RECORDED TEMPERATURE
BHTD.M        250                  : BHTDEP       - MAXIMUM RECORDED TEMPERATURE
MATR.         1                    : LOGUNIT      - NEUTRON MATRIX              
RMT .C        25                   : MDTP         - TEMPERATURE OF MUD          
NEUT.         1                    : NEUTRON      - NEUTRON TYPE                
RESI.         0                    : RESIST       - RESISTIVITY TYPE            
RMC .OHMM     0.25                 : RMC          - RESISTIVITY OF MUD CAKE     
RMF .OHMM     0.25                 : RMF          - RESISTIVITY OF MUD FILTRATE 
SUFT.C        4                    : SUFT         - SURFACE TEMPERATURE         
~A  DEPTH     PHID     PHIN       GR     RESD
# ...
  169.401    0.420    0.541  109.133    4.158
  169.701    0.421    0.555  114.668    3.989
  170.001    0.203    0.528  112.057    4.720
  170.301    0.206    0.502  115.079    6.031
  170.601    0.206    0.486  116.829    7.699
  170.901    0.203    0.479  114.237    8.940
  171.201    0.202    0.481  105.383    9.624
  171.501    0.222    0.466  105.888   10.153
  171.801    0.233    0.458  105.800    9.927
  172.101    0.232    0.465  104.439    9.708
  172.401    0.239    0.473  118.087    9.684
  172.701    0.212    0.450  110.473   10.609
  173.001    0.130    0.430  107.868   11.422
  173.301    0.169    0.374   98.389   12.519
  173.601    0.232    0.339   95.153   13.218
  173.901    0.232    0.385  108.189   13.412
  174.201    0.214    0.429  117.458   13.128
  174.501    0.192    0.438  105.457   12.849
  174.801    0.187    0.434  104.103   12.327
  175.101    0.198    0.429  109.645   11.169
  175.401    0.243    0.464  107.656    9.560
  175.701    0.262    0.501  105.038    6.384
  176.001    0.308    0.517  101.180    5.160
  176.301    0.333    0.535   96.081    4.090
  176.601    0.378    0.558   92.846    3.636
  176.901    0.407    0.574  103.386    3.557
  177.201    0.273    0.603   90.140    3.825
  177.501    0.258    0.549   88.770    4.116
  177.801    0.247    0.486   91.178    4.780
  178.101    0.244    0.461   91.073    6.462
  178.401    0.250    0.447   94.726    6.949
  178.701    0.265    0.454  100.252    6.662
  179.001    0.269    0.451   99.493    6.397
  179.301    0.262    0.505  103.148    6.025
  179.601    0.255    0.516  111.192    5.565
  179.901    0.259    0.468  109.201    5.655
  180.201    0.253    0.432  101.594    6.442
  180.501    0.242    0.431   99.608    8.882
  180.801    0.171    0.439   98.265    9.551
  181.101    0.194    0.437   95.655    8.330
  181.401    0.255    0.413   97.427    6.735
  181.701    0.306    0.410  108.583    5.548
  182.001    0.298    0.473  104.099    4.749
  182.301    0.299    0.534  115.875    4.142
  182.601    0.301    0.554  116.389    3.898
  182.901    0.302    0.556  111.277    3.737
  183.201    0.299    0.538  111.800    3.726
  183.501    0.285    0.525  119.212    3.790
  183.801    0.276    0.539  114.091    3.846
  184.101    0.278    0.527  115.246    4.059
  184.401    0.268    0.523  108.877    4.208
  184.701    0.266    0.535  107.522    4.614
  185.001    0.270    0.548  111.785    5.152
  185.301    0.250    0.537  112.938    5.436
  185.601    0.223    0.538  104.066    5.420
  185.901    0.233    0.522  103.346    5.306
  186.201    0.253    0.515  110.129    4.989
  186.501    0.267    0.515  116.889    4.886
  186.801    0.270    0.545  119.301    4.867
  187.101    0.264    0.544  115.430    5.137
  187.401    0.240    0.561  110.941    5.635
  187.701    0.243    0.516  105.217    6.931
  188.001    0.267    0.493  101.346    9.370
  188.301    0.316    0.450  102.485    9.523
  188.601    0.364    0.465   96.778    8.953
  188.901    0.438    0.479   90.413    8.755
  189.201    0.398    0.481   91.555    8.902
  189.501    0.351    0.449   95.839   10.336
  189.801    0.256    0.443   78.840   14.814
  190.101    0.258    0.432   61.850   22.887
  190.401    0.260    0.374   67.370   23.700
  190.701    0.259    0.381   79.778   22.750
  191.001    0.259    0.394   75.893   20.215
  191.301    0.261    0.411   80.191   18.659
  191.601    0.263    0.397   95.720   17.575
  191.901    0.261    0.388   94.995   16.555
  192.201    0.261    0.393   92.384   14.437
  192.501    0.267    0.397   96.025   14.121
  192.801    0.289    0.380   99.050   14.348
  193.101    0.297    0.389   97.075   15.140
  193.401    0.207    0.397   86.961   14.804
  193.701    0.237    0.330   90.593   13.940
  194.001    0.261    0.384   94.246   11.476
  194.301    0.265    0.428  112.922    9.824
  194.601    0.260    0.457  125.951    8.737
  194.901    0.253    0.483  138.980    8.377
  195.201    0.253    0.485  138.232    8.350
  195.501    0.257    0.473  134.375    9.337
  195.801    0.251    0.458  126.158   11.480
  196.101    0.247    0.433  111.652   15.237
  196.401    0.275    0.409   99.049   21.819
  196.701    0.291    0.373   65.156   29.508
  197.001    0.290    0.358   67.514   28.864
  197.301    0.285    0.367   69.939   24.684
  197.601    0.276    0.385   63.587   20.730
  197.901    0.265    0.397   69.742   16.432
  198.201    0.262    0.401   79.643   14.333
  198.501    0.255    0.392   97.038   13.501
  198.801    0.186    0.361  101.324   12.710
  199.101    0.191    0.359  111.862   12.191
  199.401    0.213    0.367  121.768   11.920
  199.701    0.210    0.386  119.786   11.665
  200.001    0.219    0.416  124.040   11.179
  200.301    0.208    0.444  110.805   11.132
  200.601    0.161    0.414  105.063   11.107
  200.901    0.183    0.407  111.213   11.299
  201.201    0.193    0.422  118.628   11.252
  201.501    0.195    0.437  120.382   11.221
  201.801    0.198    0.440  119.644   10.772
  202.101    0.201    0.439  118.940   10.322
  202.401    0.205    0.443  119.425   10.107
  202.701    0.201    0.448  119.348    9.876
  203.001    0.196    0.454  117.999    9.853
  203.301    0.193    0.464  120.380    9.825
  203.601    0.194    0.469  121.544    9.971
  203.901    0.197    0.454  125.178    9.950
  204.201    0.200    0.438  128.197   10.092
  204.501    0.202    0.430  116.219    9.885
  204.801    0.203    0.428  117.991    9.849
  205.101    0.197    0.433  126.015    9.816
  205.401    0.196    0.435  132.174    9.786
  205.701    0.198    0.435  122.684    9.575
  206.001    0.200    0.444  120.704    9.730
  206.301    0.196    0.448  124.973    9.873
  206.601    0.183    0.444  117.976   10.039
  206.901    0.184    0.437  122.891   10.010
  207.201    0.204    0.416  127.757    9.784
  207.501    0.207    0.428  123.933    9.755
  207.801    0.207    0.435  115.071    9.543
  208.101    0.202    0.439  114.941    9.512
  208.401    0.177    0.440  111.715    9.658
  208.701    0.179    0.425  109.733    9.820
  209.001    0.172    0.427  113.383   10.166
  209.301    0.165    0.421  115.146   10.334
  209.601    0.164    0.394  123.197   10.294
  209.901    0.205    0.397  126.825   10.267
  210.201    0.206    0.397  121.110   10.236
  210.501    0.185    0.392  116.615   10.010
  210.801    0.182    0.402  123.402    9.601
  211.101    0.190    0.416  125.173    9.566
  211.401    0.196    0.425  124.438    9.533
  211.701    0.197    0.430  129.324    9.688
  212.001    0.196    0.434  122.336    9.847
  212.301    0.193    0.442  119.118   10.003
  212.602    0.184    0.440  114.008   10.156
  212.902    0.182    0.429  108.271   10.137
  213.202    0.187    0.413  117.545   10.094
  213.502    0.206    0.392  115.559   10.065
  213.802    0.205    0.411  119.832    9.655
  214.102    0.201    0.439  124.101    9.447
  214.402    0.204    0.426  122.139    9.414
  214.702    0.211    0.414  113.265    9.564
  215.002    0.215    0.409  115.671    9.723
  215.302    0.213    0.382  118.678    9.871
  215.602    0.210    0.387  121.088   10.030
  215.902    0.204    0.402  114.102    9.999
  216.202    0.198    0.411  108.372    9.970
  216.502    0.186    0.419  106.368    9.752
  216.802    0.187    0.409  112.514    9.721
  217.102    0.200    0.419  117.437    9.502
  217.402    0.190    0.419  116.678    9.651
  217.702    0.189    0.406  116.603    9.622
  218.002    0.193    0.394  131.506    9.770
  218.302    0.208    0.394  122.628    9.941
  218.602    0.207    0.413  119.391    9.908
  218.902    0.205    0.414  119.308    9.679
  219.202    0.206    0.416  124.202    9.468
  219.502    0.208    0.412  125.353    9.437
  219.802    0.215    0.405  123.373    9.590
  220.102    0.221    0.419  112.625    9.745
  220.402    0.218    0.430  106.899    9.906
  220.702    0.216    0.424  114.300    9.499
  221.002    0.209    0.417  112.941    9.291
  221.302    0.201    0.406  119.704    9.090
