~VERSION INFORMATION
 VERS.                 2.0:   CWLS LOG ASCII STANDARD -VERSION 2.0
 WRAP.                  NO:   ONE LINE PER DEPTH STEP
~WELL INFORMATION BLOCK
#MNEM.UNIT           DATA                    DESCRIPTION OF MNEMONIC
#---------    -------------------            -------------------------------
# Generated from Intellog Unique Number	CC_84_87/WELL/2342
NULL.         -999.25                        : NULL_VALUE
WELL.         PCI PCEJ HANGST OV             : Well_name    - WELL              
LOC .         13-14-084-12W4                 : Location     - LOCATION          
UWI .         AA/13-14-084-12W400            : Uwi          - UNIQUE WELL ID    
ENTR.         DW                             : Entered      - ENTERED BY        
SRVC.         SCHLUMBERGER                   : Scn          - SERVICE COMPANY   
DATE.         29 JAN 84                      : Date         - LOG DATE
STRT.M        105                            : top_depth    - START DEPTH       
STOP.M        309.899                        : bot_depth    - STOP DEPTH        
STEP.M        0.3                            : increment    - STEP LENGTH       
~CURVE INFORMATION BLOCK
#MNEM UNIT       ERCB CURVE CODE    CURVE DESCRIPTION
#-----------   ------------------   ----------------------------------
DEPT.M        00 001 00 00         : DEPTH        - DEPTH                       
DPHI.V/V      00 890 00 00         : PHID         - DENSITY POROSITY (LIMESTONE)
NPHI.V/V      00 330 00 00         : PHIN         - NEUTRON POROSITY (LIMESTONE)
GR  .API      00 310 00 00         : GR           - GAMMA RAY                   
ILD .OHMM     00 120 00 00         : RESD         - DEEP RESISTIVITY (DIL)      
~PARAMETER INFORMATION       
#MNEM.UNIT           DATA             DESCRIPTION OF MNEMONIC
#---------         -----------     ------------------------------
GL  .M        562.4                : gl           - GROUND LEVEL ELEVATION      
EREF.M        565.6                : kb           - ELEVATION OF DEPTH REFERENCE
DATM.M        565.6                : datum        - DATUM ELEVATION             
TDD .M        328                  : tdd          - TOTAL DEPTH DRILLER         
RUN .         ONE                  : Run          - RUN NUMBER                  
ENG .         BILL                 : Engineer     - RECORDING ENGINEER          
WIT .         JIM                  : Witness      - WITNESSED BY                
MUD .         GEL                  : Mud_type     - MUD TYPE                    
MATR.         LIMESTONE            : Logunit      - NEUTRON MATRIX              
TMAX.C        18.2                 : BHT          - MAXIMUM RECORDED TEMPERATURE
BHTD.M        328                  : BHTDEP       - MAXIMUM RECORDED TEMPERATURE
MATR.         1                    : LOGUNIT      - NEUTRON MATRIX              
RMT .C        25                   : MDTP         - TEMPERATURE OF MUD          
NEUT.         1                    : NEUTRON      - NEUTRON TYPE                
RESI.         0                    : RESIST       - RESISTIVITY TYPE            
RMC .OHMM     0.25                 : RMC          - RESISTIVITY OF MUD CAKE     
RMF .OHMM     0.25                 : RMF          - RESISTIVITY OF MUD FILTRATE 
SUFT.C        4                    : SUFT         - SURFACE TEMPERATURE         
~A  DEPTH     PHID     PHIN       GR     RESD
# ...
  261.601    0.359    0.479   67.943    6.131
  261.901    0.387    0.488   72.180    4.801
  262.201    0.391    0.453   78.234    4.530
  262.501    0.338    0.440   80.048    4.874
  262.801    0.196    0.409   72.175    5.868
  263.101    0.198    0.395   70.356    7.470
  263.401    0.325    0.434   80.648    7.594
  263.701    0.359    0.428   94.574    7.167
  264.001    0.274    0.479   94.571    6.399
  264.301    0.282    0.534   92.147    4.917
  264.601    0.303    0.490   91.540    3.572
  264.901    0.262    0.458   91.538    3.436
  265.201    0.253    0.476   92.748    3.625
  265.501    0.229    0.478   93.351    3.831
  265.801    0.234    0.479   94.561    4.121
  266.101    0.241    0.501   95.164    4.271
  266.401    0.219    0.484   95.162    4.344
  266.701    0.128    0.463   93.950    4.099
  267.001    0.198    0.482   92.737    3.944
  267.301    0.239    0.496   97.579    3.721
  267.601    0.262    0.498  109.082    3.512
  267.901    0.241    0.448  108.475    3.573
  268.201    0.210    0.457   95.152    3.990
  268.501    0.267    0.441   80.618    4.541
  268.801    0.202    0.339   75.166    7.798
  269.101    0.131    0.369   77.586    9.738
  269.401    0.245    0.482   76.979    9.196
  269.701    0.289    0.495   68.500    8.204
  270.001    0.357    0.434   73.948    8.501
  270.301    0.246    0.443   79.396    9.496
  270.601    0.274    0.447   64.861   10.806
  270.901    0.285    0.402   62.437   12.530
  271.201    0.273    0.401   60.013   16.561
  271.501    0.265    0.395   57.589   21.476
  271.801    0.259    0.396   56.377   22.259
  272.101    0.248    0.384   56.980   21.808
  272.401    0.232    0.335   60.612   19.099
  272.701    0.217    0.339   70.298   16.113
  273.001    0.234    0.317   64.847   14.116
  273.301    0.226    0.289   50.312   12.829
  273.601    0.204    0.320   57.577   11.889
  273.901    0.203    0.425   87.246   10.413
  274.201    0.219    0.434   88.455    9.118
  274.501    0.243    0.402   83.003    8.771
  274.801    0.267    0.400   81.790    9.794
  275.101    0.237    0.384   92.688   11.570
  275.401    0.209    0.396  101.163   12.212
  275.701    0.230    0.426  103.584   12.654
  276.001    0.237    0.437  104.187   12.879
  276.301    0.219    0.413   98.130   14.115
  276.601    0.090    0.300   77.541   22.077
  276.901    0.181    0.336   54.529   29.721
  277.201    0.251    0.356   59.372   46.485
  277.501    0.290    0.383   67.242   44.690
  277.801    0.285    0.376   68.451   41.403
  278.101    0.261    0.339   64.210   36.941
  278.401    0.255    0.318   62.998   32.364
  278.701    0.246    0.302   76.923   25.337
  279.001    0.201    0.331   82.370   20.596
  279.301    0.200    0.372   75.708   19.433
  279.601    0.158    0.322   56.935   21.709
  279.901    0.201    0.328   55.117   26.124
  280.201    0.248    0.363   55.720   31.449
  280.501    0.257    0.368   51.480   32.578
  280.801    0.231    0.324   58.139   29.632
  281.101    0.228    0.325   59.348   26.944
  281.401    0.259    0.383   51.474   31.236
  281.701    0.289    0.372   50.262   31.178
  282.000    0.257    0.319   61.159   27.306
  282.300    0.222    0.318   79.323   22.617
  282.600    0.207    0.316   85.982   17.701
  282.900    0.209    0.317   84.163   16.710
  283.200    0.225    0.352   78.712   19.013
  283.500    0.240    0.369   58.728   22.465
  283.800    0.302    0.378   47.827   27.039
  284.100    0.291    0.369   50.853   25.521
  284.400    0.285    0.358   65.989   21.935
  284.700    0.274    0.373   76.886   17.495
  285.000    0.241    0.407   81.729   15.908
  285.300    0.239    0.394   85.360   14.463
  285.600    0.228    0.384   87.175   13.902
  285.900    0.229    0.385   78.090   14.144
  286.200    0.255    0.384   72.033   14.665
  286.500    0.261    0.373   72.031   15.192
  286.800    0.230    0.380   79.296   15.166
  287.100    0.222    0.411   75.055   14.866
  287.400    0.267    0.384   70.209   14.020
  287.700    0.240    0.361   78.685   13.747
  288.000    0.234    0.364   88.977   13.982
  288.300    0.229    0.414   76.259   14.490
  288.600    0.223    0.416   59.908   16.186
  288.900    0.153    0.313   52.640   26.273
  289.200    0.234    0.349   51.427   33.440
  289.500    0.280    0.335   55.664   34.014
  289.800    0.283    0.319   62.928   29.797
  290.100    0.247    0.327   76.248   24.214
  290.400    0.242    0.385   71.402   22.018
  290.700    0.306    0.384   65.951   28.031
  291.000    0.312    0.378   61.710   39.919
  291.300    0.311    0.372   65.341   48.019
  291.600    0.312    0.369   64.734   50.733
  291.900    0.299    0.381   64.732   44.411
  292.200    0.284    0.395   68.363   38.897
  292.500    0.286    0.380   74.417   34.721
  292.800    0.275    0.356   79.865   30.414
  293.100    0.257    0.353   88.946   27.137
  293.400    0.278    0.380   91.366   26.591
  293.700    0.275    0.405   84.704   25.573
  294.000    0.250    0.383   88.940   23.694
  294.300    0.225    0.352   85.911   21.950
  294.600    0.210    0.378   73.193   19.951
  294.900    0.219    0.380   71.980   17.472
  295.200    0.206    0.369   77.428   15.889
  295.500    0.206    0.364   81.665   14.447
  295.800    0.211    0.375   78.635   14.158
  296.100    0.219    0.384   77.422   14.672
  296.400    0.234    0.380   76.815   14.925
  296.700    0.232    0.358   77.419   16.055
  297.000    0.224    0.372   76.812   16.953
  297.300    0.221    0.382   78.626   16.917
  297.600    0.235    0.386   82.863   16.266
  297.900    0.223    0.373   86.495   15.637
  298.200    0.214    0.350   87.704   15.623
  298.500    0.214    0.384   83.463   16.189
  298.800    0.238    0.384   78.617   16.780
  299.100    0.255    0.363   73.772   16.755
  299.400    0.245    0.328   71.347   16.416
  299.700    0.221    0.362   73.768   15.787
  300.000    0.174    0.366   78.610   15.184
  300.300    0.186    0.354   87.086   14.590
  300.600    0.182    0.355   87.084   14.567
  300.900    0.189    0.368   81.027   14.821
  301.200    0.235    0.378   76.181   15.361
  301.500    0.200    0.378   81.629   15.334
  301.800    0.207    0.376   88.288   15.308
  302.100    0.180    0.355   85.864   14.722
  302.400    0.172    0.363   85.862   14.159
  302.700    0.199    0.380   87.677   13.873
  303.000    0.216    0.376   86.464   13.340
  303.300    0.202    0.393   86.462   13.322
  303.600    0.211    0.411   88.882   13.298
  303.900    0.210    0.378   91.302   13.030
  304.200    0.193    0.367   93.117   12.768
  304.500    0.182    0.365   96.748   12.052
  304.800    0.174    0.404   93.719   11.165
  305.100    0.176    0.419   82.818   10.938
  305.400    0.130    0.245   41.641   11.551
  305.700    0.000    0.117   31.345   23.034
  306.000    0.013    0.158   37.399   32.196
  306.299    0.028    0.194   48.296   32.747
  306.599    0.026    0.204   54.349   32.079
  306.899    0.006    0.212   53.742   30.844
  307.199    0.029    0.216   54.346   28.578
  307.499    0.028    0.217   57.372   25.988
  307.799    0.010    0.217   61.003   24.068
  308.099    0.012    0.221   66.451   23.588
  308.399    0.046    0.237   66.449   22.263
  308.699    0.059    0.234   62.814   21.415
  308.999    0.050    0.238   62.206   20.973
  309.299    0.041    0.248   65.838   20.942
  309.599    0.039    0.254   73.708   20.513
  309.899    0.035    0.254   70.073   20.101
