~VERSION INFORMATION
 VERS.                 2.0:   CWLS LOG ASCII STANDARD -VERSION 2.0
 WRAP.                  NO:   ONE LINE PER DEPTH STEP
~WELL INFORMATION BLOCK
#MNEM.UNIT           DATA                    DESCRIPTION OF MNEMONIC
#---------    -------------------            -------------------------------
# Generated from Intellog Unique Number	CC_84_87/WELL/2299
NULL.         -999.25                        : NULL_VALUE
WELL.         PEX PCEJ MCMURRAY OV           : Well_name    - WELL
LOC .         10-08-087-15W4                 : Location     - LOCATION          
UWI .         AA/10-08-087-15W400            : Uwi          - UNIQUE WELL ID    
ENTR.         JOHN                           : Entered      - ENTERED BY        
SRVC.         SCHLUMBERGER                   : Scn          - SERVICE COMPANY   
DATE.         17 MAR 79                      : Date         - LOG DATE
STRT.M        68                             : top_depth    - START DEPTH       
STOP.M        236.902                        : bot_depth    - STOP DEPTH        
STEP.M        0.3                            : increment    - STEP LENGTH       
~CURVE INFORMATION BLOCK
#MNEM UNIT       ERCB CURVE CODE    CURVE DESCRIPTION
#-----------   ------------------   ----------------------------------
DEPT.M        00 001 00 00         : DEPTH        - DEPTH                       
DPHI.V/V      00 890 00 00         : PHID         - DENSITY POROSITY (LIMESTONE)
NPHI.V/V      00 330 00 00         : PHIN         - NEUTRON POROSITY (LIMESTONE)
GR  .API      00 310 00 00         : GR           - GAMMA RAY                   
ILD .OHMM     00 120 00 00         : RESD         - DEEP RESISTIVITY (DIL)      
~PARAMETER INFORMATION       
#MNEM.UNIT           DATA             DESCRIPTION OF MNEMONIC
#---------         -----------     ------------------------------
GL  .M        492.33               : gl           - GROUND LEVEL ELEVATION      
EREF.M        495.33               : kb           - ELEVATION OF DEPTH REFERENCE
DATM.M        495.33               : datum        - DATUM ELEVATION             
TDD .M        245.2                : tdd          - TOTAL DEPTH DRILLER         
RUN .         ONE                  : Run          - RUN NUMBER                  
ENG .         BILL                 : Engineer     - RECORDING ENGINEER          
WIT .         JIM                  : Witness      - WITNESSED BY                
MUD .         GEL                  : Mud_type     - MUD TYPE                    
MATR.         LIMESTONE            : Logunit      - NEUTRON MATRIX              
TMAX.C        60                   : BHT          - MAXIMUM RECORDED TEMPERATURE
BHTD.M        245.2                : BHTDEP       - MAXIMUM RECORDED TEMPERATURE
MATR.         1                    : LOGUNIT      - NEUTRON MATRIX              
RMT .C        25                   : MDTP         - TEMPERATURE OF MUD          
NEUT.         1                    : NEUTRON      - NEUTRON TYPE                
RESI.         0                    : RESIST       - RESISTIVITY TYPE            
RMC .OHMM     0.25                 : RMC          - RESISTIVITY OF MUD CAKE     
RMF .OHMM     0.25                 : RMF          - RESISTIVITY OF MUD FILTRATE 
SUFT.C        15                   : SUFT         - SURFACE TEMPERATURE         
~A  DEPTH     PHID     PHIN       GR     RESD
# ...
  120.201    0.318    0.503   79.148    9.236
  120.501    0.306    0.491   90.807    6.715
  120.801    0.259    0.524  111.689    4.882
  121.101    0.261    0.554  112.282    4.205
  121.401    0.236    0.560  115.339    3.761
  121.701    0.226    0.555  120.237    3.558
  122.001    0.235    0.574  116.532    3.562
  122.301    0.234    0.558  114.668    3.773
  122.601    0.209    0.555  116.492    4.152
  122.901    0.193    0.542  117.705    4.316
  123.201    0.180    0.549  117.069    4.404
  123.501    0.201    0.575  118.283    4.326
  123.801    0.212    0.587  121.953    4.017
  124.101    0.225    0.536  118.860    3.802
  124.401    0.236    0.535  103.476    3.807
  124.701    0.249    0.533   91.779    4.032
  125.001    0.229    0.417   83.768    4.871
  125.301    0.259    0.391   83.135    8.263
  125.601    0.294    0.390   86.191   11.832
  125.901    0.282    0.412   86.785   13.768
  126.201    0.280    0.446   89.841   15.148
  126.501    0.275    0.455   94.127   13.805
  126.801    0.248    0.433   95.338   12.113
  127.101    0.220    0.456   97.778   10.047
  127.401    0.227    0.464  105.135    9.330
  127.701    0.234    0.439  103.885    8.998
  128.001    0.232    0.432   98.333    8.841
  128.301    0.225    0.421   99.546    8.851
  128.601    0.209    0.438  102.602    9.029
  128.901    0.215    0.452  100.737    9.210
  129.201    0.244    0.420  100.718    9.223
  129.501    0.240    0.435  103.161    9.062
  129.801    0.244    0.453  103.755    8.901
  130.101    0.241    0.465  103.124    8.585
  130.401    0.216    0.474   96.958    8.434
  130.701    0.229    0.470   95.091    8.443
  131.001    0.247    0.475   96.304    8.455
  131.301    0.252    0.467   93.216    8.307
  131.601    0.242    0.484   85.821    8.800
  131.901    0.232    0.486   78.427    9.499
  132.201    0.256    0.440   76.565   10.449
  132.501    0.245    0.415   81.462   11.713
  132.801    0.278    0.412   88.820   11.292
  133.101    0.261    0.435   91.258    9.726
  133.401    0.239    0.461   94.314    8.222
  133.701    0.255    0.484   94.911    7.634
  134.001    0.225    0.481   91.817    7.090
  134.301    0.217    0.490   89.952    6.708
  134.601    0.225    0.509   89.933    6.590
  134.901    0.238    0.511   91.764    6.354
  135.201    0.272    0.508   92.357    6.482
  135.501    0.253    0.468   90.498    6.997
  135.801    0.229    0.470   89.854    7.698
  136.101    0.261    0.481   89.843    8.470
  136.401    0.272    0.440   86.751    9.143
  136.701    0.243    0.405   82.432   10.057
  137.001    0.169    0.386   78.726   10.853
  137.301    0.166    0.374   77.474   11.939
  137.601    0.207    0.406   81.147   10.881
  137.901    0.250    0.455   94.653    9.194
  138.201    0.247    0.479  102.011    7.208
  138.501    0.259    0.486  101.992    6.448
  138.801    0.254    0.500   95.210    6.215
  139.101    0.231    0.515   92.733    6.342
  139.401    0.230    0.496   93.329    6.976
  139.701    0.238    0.478   95.156    7.673
  140.001    0.235    0.489   99.441    7.681
  140.301    0.225    0.533   97.578    7.407
  140.601    0.211    0.521   95.102    7.277
  140.901    0.213    0.492   94.464    7.288
  141.201    0.229    0.510   96.898    7.434
  141.501    0.223    0.494   98.116    7.441
  141.801    0.218    0.464   98.713    7.885
  142.101    0.221    0.451  101.153    8.044
  142.401    0.233    0.455  104.823    7.904
  142.701    0.239    0.468  106.643    7.619
  143.001    0.228    0.458  106.014    7.348
  143.301    0.230    0.467  103.540    7.356
  143.601    0.247    0.452   99.832    7.793
  143.901    0.258    0.434   94.282    8.258
  144.201    0.272    0.420   91.802    8.746
  144.501    0.284    0.429   91.172    9.442
  144.801    0.289    0.451   90.539   10.002
  145.101    0.288    0.450   89.288    9.643
  145.401    0.271    0.457   88.659    8.624
  145.701    0.265    0.460   88.025    7.714
  146.001    0.266    0.454   92.309    7.439
  146.301    0.251    0.460  112.576    7.588
  146.601    0.227    0.473  118.087    8.189
  146.901    0.226    0.491  116.838    8.842
  147.201    0.198    0.494  102.684    9.368
  147.501    0.193    0.481  102.667    9.556
  147.801    0.217    0.459  100.190    9.936
  148.101    0.248    0.437   95.254   10.329
  148.401    0.263    0.428   94.618   11.152
  148.701    0.284    0.438   92.758   11.589
  149.001    0.285    0.431   89.665   11.826
  149.301    0.275    0.430   85.340   11.841
  149.601    0.275    0.443   82.866   11.205
  149.901    0.276    0.453   81.004   10.601
  150.201    0.280    0.456   80.366    9.842
  150.501    0.291    0.467   79.733    9.314
  150.801    0.275    0.470   77.872    9.151
  151.101    0.263    0.467   76.625    9.512
  151.401    0.220    0.469   77.838   10.077
  151.701    0.182    0.473   75.363   11.955
  152.001    0.042    0.466   70.425   13.911
  152.301    0.048    0.256   65.490   22.723
  152.601    0.110    0.272   66.701   23.183
  152.901    0.147    0.301   72.828   18.868
  153.201    0.222    0.375   83.875   14.244
  153.501    0.197    0.474   86.930   12.739
  153.801    0.162    0.467   86.293   12.753
  154.101    0.176    0.375   92.421   12.068
  154.401    0.211    0.375   96.709   11.638
  154.701    0.228    0.440   98.533   11.012
  155.001    0.219    0.450   97.288   10.419
  155.301    0.222    0.452   99.106    9.859
  155.601    0.216    0.462  101.549    9.330
  155.901    0.196    0.466  103.993    8.502
  156.201    0.197    0.496  100.286    8.197
  156.501    0.191    0.531   97.806    8.055
  156.801    0.202    0.520   97.788    8.217
  157.101    0.198    0.519   99.614    8.382
  157.401    0.212    0.476  102.669    8.393
  157.701    0.198    0.442  105.722    8.093
  158.001    0.206    0.443  108.165    7.951
  158.301    0.209    0.476  103.843    8.425
  158.601    0.226    0.485   98.907    8.593
  158.901    0.226    0.498   97.660    9.104
  159.201    0.228    0.495   93.953    9.829
  159.501    0.215    0.473   91.475   10.218
  159.801    0.208    0.455   92.687   10.037
  160.101    0.209    0.449  100.046    9.677
  160.401    0.205    0.447  103.101    9.508
  160.701    0.214    0.457  100.624    9.344
  161.001    0.226    0.468   95.688    9.354
  161.301    0.245    0.450   89.523    9.910
  161.601    0.243    0.420   91.348   10.500
  161.901    0.231    0.413   95.631   10.914
  162.201    0.221    0.401   96.841   10.926
  162.501    0.223    0.409  100.509   11.151
  162.801    0.219    0.439  101.107   11.373
  163.101    0.225    0.433   96.172   11.824
  163.401    0.220    0.413   97.381   12.524
  163.701    0.208    0.419  104.125   12.542
  164.001    0.227    0.435  110.870   12.093
  164.301    0.227    0.424  113.310   10.812
  164.601    0.222    0.420  112.058   10.041
  164.901    0.223    0.430  110.200   10.444
  165.201    0.227    0.427  109.567   10.655
  165.501    0.223    0.424  108.934   11.075
  165.801    0.232    0.429  103.381   10.877
  166.101    0.245    0.443   98.443   11.100
  166.401    0.242    0.472  100.270   11.116
  166.701    0.218    0.473  110.704   10.714
  167.001    0.217    0.453  115.600   10.138
  167.301    0.225    0.438  116.812    9.066
  167.601    0.212    0.445  118.639    7.956
  167.901    0.210    0.469  119.235    6.476
  168.201    0.210    0.486  113.069    6.485
  168.501    0.214    0.504  101.372    6.868
  168.801    0.220    0.474   97.662    7.847
  169.101    0.216    0.462  102.565    8.469
  169.401    0.201    0.449  109.302    8.322
  169.701    0.199    0.464  110.516    7.727
  170.001    0.221    0.500  116.031    7.041
  170.301    0.215    0.512  116.011    6.919
  170.601    0.198    0.507  108.004    7.469
  170.901    0.180    0.505  107.368    7.764
  171.201    0.169    0.497  111.655    7.210
  171.501    0.202    0.413  123.316    6.570
  171.801    0.210    0.425  123.908    6.334
  172.101    0.214    0.440  126.350    6.713
