~VERSION INFORMATION
 VERS.                 2.0:   CWLS LOG ASCII STANDARD -VERSION 2.0
 WRAP.                  NO:   ONE LINE PER DEPTH STEP
~WELL INFORMATION BLOCK
#MNEM.UNIT           DATA                    DESCRIPTION OF MNEMONIC
#---------    -------------------            -------------------------------
# Generated from Intellog Unique Number	CN_91_93/WELL/3631
WELL.         10-18-093-06W4                 : Well_name    - WELL
LOC .         AA/10-18-093-06W4/0            : Location     - LOCATION
UWI .         AA/10-18-093-06W400            : Uwi          - UNIQUE WELL ID
ENTR.         JOETTE                         : Entered      - ENTERED BY
SRVC.         SCHLUMBERGER                   : Scn          - SERVICE COMPANY
DATE.         03/18/92                       : Date         - LOG DATE
STRT.M        65                             : top_depth    - START DEPTH
STOP.M        265                            : bot_depth    - STOP DEPTH
STEP.M        0.25                           : increment    - STEP LENGTH
 NULL. -999.2500:NULL Value
~CURVE INFORMATION BLOCK
#MNEM UNIT       ERCB CURVE CODE    CURVE DESCRIPTION
#-----------   ------------------   ----------------------------------
DEPT.M        00 001 00 00         : DEPTH        - DEPTH
ILD .OHMM     00 120 00 00         : RESD         - DEEP RESISTIVITY (DIL)
CALI.MM       00 280 01 00         : CAL          - CALIPER
GR  .API      00 310 00 00         : GR           - GAMMA RAY
NPHI.V/V      00 330 00 00         : PHIN         - NEUTRON POROSITY (SANDSTONE)
DPHI.V/V      00 890 00 00         : PHID         - DENSITY POROSITY (SANDSTONE)
~PARAMETER INFORMATION
#MNEM.UNIT           DATA             DESCRIPTION OF MNEMONIC
#---------         -----------     ------------------------------
GL  .M        547.76               : gl           - GROUND LEVEL ELEVATION
EREF.M        550.46               : kb           - ELEVATION OF DEPTH REFERENCE
DATM.M        550.46               : datum        - DATUM ELEVATION
TDD .M        266.5                : tdd          - TOTAL DEPTH DRILLER
RUN .         ONE                  : Run          - RUN NUMBER
ENG .         BILL                 : Engineer     - RECORDING ENGINEER
WIT .         JIM                  : Witness      - WITNESSED BY
MUD .         GEL                  : Mud_type     - MUD TYPE
MATR.         SANDSTONE            : Logunit      - NEUTRON MATRIX
TMAX.C        16                   : BHT          - MAXIMUM RECORDED TEMPERATURE
BHTD.M        266.5                : BHTDEP       - MAXIMUM RECORDED TEMPERATURE
RMT .C        37                   : MDTP         - TEMPERATURE OF MUD
MUDD.KG/M     9666.66              : MWT          - MUD DENSITY
NEUT.         1                    : NEUTRON      - NEUTRON TYPE
RESI.         0                    : RESIST       - RESISTIVITY TYPE
RM  .OHMM     12                   : RM           - RESISTIVITY OF MUD
RMC .OHMM     12                   : RMC          - RESISTIVITY OF MUD CAKE
RMF .OHMM     12                   : RMF          - RESISTIVITY OF MUD FILTRATE
SUFT.C        4                    : SUFT         - SURFACE TEMPERATURE
~A  DEPTH     RESD      CAL       GR     PHIN     PHID
# ...
  211.000    3.648  174.928   92.989    0.519    0.213
  211.250    3.387  173.933   97.899    0.509    0.252
  211.500    3.203  173.957  103.425    0.559    0.265
  211.750    3.029  173.981  102.824    0.563    0.259
  212.000    2.919  174.012  100.391    0.531    0.252
  212.250    2.920  174.030   98.573    0.522    0.243
  212.500    3.091  173.040   97.364    0.511    0.241
  212.750    3.529  173.071   96.155    0.500    0.237
  213.000    3.805  173.083   94.945    0.493    0.230
  213.250    4.343  173.107   93.736    0.488    0.224
  213.500    5.051  172.117   92.523    0.481    0.211
  213.750    5.766  172.142   90.709    0.476    0.211
  214.000    5.662  172.166   89.492    0.466    0.194
  214.250    5.560  171.164   85.227    0.459    0.174
  214.500    5.563  171.195   88.909    0.443    0.161
  214.750    5.671  171.213   88.312    0.447    0.180
  215.000    5.891  171.237   82.823    0.471    0.199
  215.250    6.355  171.268   78.550    0.454    0.222
  215.500    7.253  172.306   74.892    0.419    0.244
  215.750    8.758  173.356   71.851    0.404    0.254
  216.000   10.776  174.400   68.809    0.387    0.232
  216.250   13.259  173.405   68.205    0.369    0.238
  216.500   17.261  169.349   68.219    0.350    0.258
  216.750   21.645  165.294   70.070    0.334    0.272
  217.000   25.649  163.272   73.756    0.322    0.270
  217.250   25.664  162.282   76.219    0.323    0.279
  217.500   23.819  162.307   76.849    0.344    0.240
  217.750   24.742  162.331   76.251    0.349    0.200
  218.000   28.238  162.349   73.206    0.339    0.161
  218.250   31.043  162.373   70.776    0.320    0.146
  218.500   31.650  162.398   72.015    0.320    0.199
  218.750   30.504  162.428   73.250    0.344    0.229
  219.000   29.399  162.446   75.100    0.363    0.241
  219.250   29.412  162.477   76.342    0.368    0.237
  219.500   29.424  162.495   76.969    0.369    0.236
  219.750   30.000  162.525   76.368    0.372    0.235
  220.000   31.167  162.556   76.386    0.377    0.236
  220.250   33.620  162.568   77.624    0.383    0.242
  220.500   39.104  162.592   78.251    0.388    0.249
  220.750   45.477  162.616   76.430    0.384    0.258
  221.000   53.883  162.641   72.769    0.377    0.264
  221.250   63.852  162.671   69.112    0.369    0.267
  221.500   77.102  162.701   62.395    0.358    0.280
  221.750   91.394  162.713   55.066    0.347    0.302
  222.000   93.155  162.738   49.569    0.327    0.325
  222.250   98.644  162.762   43.464    0.312    0.319
  222.500   98.672  162.792   41.646    0.337    0.308
  222.750   91.577  162.811   45.333    0.365    0.306
  223.000   81.868  164.875   47.179    0.374    0.290
  223.250   78.892  165.919   46.586    0.362    0.254
  223.500   77.467  163.903   47.212    0.364    0.259
  223.750   64.219  163.934   53.350    0.369    0.265
  224.000   53.244  166.004   50.913    0.368    0.275
  224.250   16.609  167.042   66.839    0.358    0.280
  224.500   14.032  170.126   74.197    0.359    0.266
  224.750   12.542  173.216   91.958    0.386    0.243
  225.000   11.642  174.254  109.108    0.416    0.205
  225.250   11.432  175.293  107.898    0.442    0.207
  225.500   11.224  175.323  104.249    0.453    0.213
  225.750   11.021  175.347  103.032    0.460    0.218
  226.000   11.021  175.372  101.211    0.464    0.220
  226.250   11.035  175.396  100.001    0.468    0.217
  226.500   11.042  174.400   98.180    0.461    0.208
  226.750   11.046  174.418   96.359    0.463    0.217
  227.000   11.053  174.455   94.537    0.466    0.221
  227.250   11.059  174.473   96.391    0.464    0.215
  227.500   11.067  173.477   98.238    0.453    0.214
  227.750   11.073  173.502  100.701    0.450    0.216
  228.000   10.873  173.532   98.267    0.456    0.219
  228.250   10.677  172.536   96.446    0.458    0.216
  228.500   10.681  172.561   95.237    0.453    0.212
  228.750   10.890  171.565   93.415    0.447    0.207
  229.000   11.103  171.589   89.758    0.434    0.206
  229.250   11.977  171.614   91.612    0.427    0.218
  229.500   12.443  170.618   94.683    0.414    0.216
  229.750   12.450  170.642   95.309    0.411    0.215
  230.000   12.000  169.647   95.936    0.421    0.217
  230.250   11.781  168.651   95.342    0.433    0.222
  230.500   11.788  168.675   92.905    0.439    0.212
  230.750   12.479  167.680   89.252    0.434    0.205
  231.000   13.719  167.704   86.207    0.410    0.223
  231.250   14.800  166.708   82.553    0.405    0.235
  231.500   15.086  166.732   80.116    0.400    0.241
  231.750   15.673  166.757   78.903    0.402    0.244
  232.000   15.684  166.775   77.082    0.406    0.238
  232.250   15.114  167.825   81.380    0.416    0.229
  232.500   14.027  168.869   86.290    0.426    0.213
  232.750   13.267  170.940   93.648    0.433    0.190
  233.000   13.271  170.952   95.503    0.423    0.179
  233.250   12.789  170.982   90.618    0.425    0.189
  233.500   12.798  171.006   85.125    0.430    0.206
  233.750   13.296  170.017   88.199    0.425    0.215
  234.000   14.342  170.035   89.441    0.416    0.218
  234.250   15.471  169.046   85.780    0.401    0.222
  234.500   16.378  168.044   80.287    0.400    0.231
  234.750   18.003  168.074   75.406    0.407    0.232
  235.000   19.058  167.066   72.361    0.395    0.241
  235.250   20.172  167.091   72.376    0.381    0.265
  235.500   20.960  167.115   78.513    0.382    0.248
  235.750   21.370  167.145   80.976    0.397    0.223
  236.000   22.202  167.170   79.151    0.406    0.231
  236.250   22.633  167.194   71.210    0.392    0.246
  236.500   23.079  167.218   65.105    0.381    0.249
  236.750   24.892  167.242   60.227    0.377    0.243
  237.000   31.213  167.267   55.346    0.381    0.244
  237.250   37.695  166.277   51.073    0.385    0.260
  237.500   41.428  166.289   45.580    0.393    0.314
  237.750   66.320  166.314   39.475    0.404    0.319
  238.000   75.701  166.338   37.046    0.413    0.318
  238.250   83.209  166.362   35.221    0.407    0.324
  238.500   86.434  166.392   33.399    0.407    0.328
  238.750   91.514  167.431   32.806    0.410    0.332
  239.000   95.061  168.481   32.205    0.410    0.336
  239.250  100.634  168.505   30.383    0.383    0.335
  239.500  106.533  169.549   31.013    0.377    0.334
  239.750  112.795  169.568   32.255    0.378    0.337
  240.000  112.859  169.598   32.878    0.387    0.326
  240.250  110.821  169.616   32.897    0.395    0.316
  240.500  102.852  168.627   32.904    0.393    0.319
  240.750   99.100  167.631   32.919    0.387    0.308
  241.000   92.000  167.649   32.933    0.381    0.305
  241.250   93.786  166.660   34.172    0.387    0.309
  241.500  105.029  166.678   33.578    0.426    0.321
  241.750  113.296  166.702   32.372    0.428    0.317
  242.000  115.512  165.706   32.379    0.420    0.329
  242.250  117.772  165.731   33.618    0.414    0.329
  242.500  111.377  165.755   40.364    0.418    0.313
  242.750   79.449  165.779   46.502    0.422    0.306
  243.000   69.693  165.804   49.573    0.412    0.313
  243.250   58.879  164.808   55.099    0.399    0.304
  243.500   47.016  164.832   53.893    0.407    0.300
  243.750   38.260  163.837   51.459    0.423    0.307
  244.000   34.848  162.841   55.146    0.435    0.300
  244.250   32.956  162.865   57.608    0.412    0.290
  244.500   32.979  161.882   56.395    0.407    0.288
  244.750   33.620  161.894   52.133    0.400    0.299
  245.000   34.923  161.924   48.469    0.401    0.311
  245.250   37.682  161.948   42.979    0.406    0.320
  245.500   39.137  161.967   42.990    0.411    0.318
  245.750   44.667  160.971   44.229    0.405    0.312
  246.000   50.985  160.995   46.083    0.403    0.311
  246.250   53.974  161.038   44.874    0.401    0.320
  246.500   55.030  162.070   43.049    0.405    0.347
  246.750   55.061  162.088   40.003    0.412    0.336
  247.000   52.064  163.144   36.353    0.401    0.335
  247.250   51.131  163.157   35.749    0.378    0.339
