~VERSION INFORMATION
 VERS.                 2.0:   CWLS LOG ASCII STANDARD -VERSION 2.0
 WRAP.                  NO:   ONE LINE PER DEPTH STEP
~WELL INFORMATION BLOCK
#MNEM.UNIT           DATA                    DESCRIPTION OF MNEMONIC
#---------    -------------------            -------------------------------
# Generated from Intellog Unique Number	CS_77_79/WELL/949
WELL.         PEX PCEJ THORNBURY OV          : Well_name    - WELL
LOC .         AA/10-11-079-12W4/0            : Location     - LOCATION
UWI .         AA/10-11-079-12W4/0            : Uwi          - UNIQUE WELL ID
ENTR.         JHS                            : Entered      - ENTERED BY
SRVC.         SCHLUMBERGER                   : Scn          - SERVICE COMPANY
STRT.M        250                            : top_depth    - START DEPTH
STOP.M        465                            : bot_depth    - STOP DEPTH
STEP.M        0.25                           : increment    - STEP LENGTH
 NULL. -999.2500:NULL Value
~CURVE INFORMATION BLOCK
#MNEM UNIT       ERCB CURVE CODE    CURVE DESCRIPTION
#-----------   ------------------   ----------------------------------
DEPT.M        00 001 00 00         : DEPTH        - DEPTH
DPHI.V/V      00 890 00 00         : PHID         - DENSITY POROSITY (LIMESTONE)
NPHI.V/V      00 330 00 00         : PHIN         - NEUTRON POROSITY (LIMESTONE)
GR  .API      00 310 00 00         : GR           - GAMMA RAY
ILD .OHMM     00 120 00 00         : RESD         - DEEP RESISTIVITY (DIL)
RHOB.KG/M3    00 350 00 00         : DENS         - BULK DENSITY
~PARAMETER INFORMATION
#MNEM.UNIT           DATA             DESCRIPTION OF MNEMONIC
#---------         -----------     ------------------------------
GL  .M        640                  : gl           - GROUND LEVEL ELEVATION
EREF.M        643.5                : kb           - ELEVATION OF DEPTH REFERENCE
DATM.M        643.5                : datum        - DATUM ELEVATION
TDD .M        474                  : tdd          - TOTAL DEPTH DRILLER
RUN .         ONE                  : Run          - RUN NUMBER
ENG .         BILL                 : Engineer     - RECORDING ENGINEER
WIT .         JIM                  : Witness      - WITNESSED BY
MUD .         GEL                  : Mud_type     - MUD TYPE
MATR.         LIMESTONE            : Logunit      - NEUTRON MATRIX
TMAX.C        26                   : BHT          - MAXIMUM RECORDED TEMPERATURE
BHTD.M        474                  : BHTDEP       - MAXIMUM RECORDED TEMPERATURE
MATR.         1                    : LOGUNIT      - NEUTRON MATRIX
RMT .C        25                   : MDTP         - TEMPERATURE OF MUD
NEUT.         1                    : NEUTRON      - NEUTRON TYPE
RESI.         0                    : RESIST       - RESISTIVITY TYPE
RMC .OHMM     0.25                 : RMC          - RESISTIVITY OF MUD CAKE
RMF .OHMM     0.25                 : RMF          - RESISTIVITY OF MUD FILTRATE
SUFT.C        15                   : SUFT         - SURFACE TEMPERATURE
~A  DEPTH     PHID     PHIN       GR     RESD     DENS
# ...
  432.500    0.286    0.357   82.285   11.622 2221.350
  432.750    0.286    0.362   71.726   11.189 2221.410
  433.000    0.273    0.387   68.628   10.571 2242.550
  433.250    0.267    0.389   80.471    9.799 2253.140
  433.500    0.291    0.384   85.468    9.258 2213.170
  433.750    0.377    0.395   79.264    8.746 2065.770
  434.000    0.421    0.421   74.305    8.107 1990.000
  434.250    0.287    0.395   80.546    7.516    0.000
  434.500    0.260    0.378   86.787    7.236 2266.100
  434.750    0.261    0.378   91.159    7.373 2264.060
  435.000    0.251    0.420   96.779    7.514 2280.970
  435.250    0.239    0.412   99.292    8.577 2302.110
  435.500    0.240    0.415   95.571   10.364 2300.060
  435.750    0.248    0.420  100.567   12.522 2285.380
  436.000    0.278    0.408  104.323   14.567 2234.870
  436.250    0.289    0.408  105.582   16.947 2215.990
  436.500    0.265    0.419  102.497   19.346 2256.070
  436.750    0.242    0.401  102.512   22.935 2296.170
  437.000    0.227    0.389   97.550   24.274 2321.500
  437.250    0.232    0.376   80.760   26.180 2313.150
  437.500    0.234    0.375   77.051   27.187 2309.010
  437.750    0.232    0.369   75.199   27.704 2313.270
  438.000    0.243    0.360   72.101   27.702 2294.380
  438.250    0.253    0.355   64.033   26.670 2277.600
  438.500    0.245    0.361   55.956   26.669 2290.300
  438.750    0.234    0.354   58.468   25.195 2309.320
  439.000    0.231    0.351   62.216   22.918 2315.710
  439.250    0.238    0.356   59.746   21.245 2303.130
  439.500    0.249    0.351   53.541   18.258 2284.240
  439.750    0.254    0.343   52.936   16.297 2275.860
  440.000    0.261    0.334   52.333   14.274 2263.310
  440.250    0.256    0.338   61.687   12.984 2271.790
  440.500    0.238    0.356   65.436   12.501 2303.450
  440.750    0.229    0.361   69.813   12.035 2318.250
  441.000    0.224    0.379   78.544   11.587 2326.740
  441.250    0.220    0.388   86.030   11.586 2333.120
  441.500    0.209    0.393   75.468   11.585 2352.170
  441.750    0.206    0.383   71.752   11.584 2358.540
  442.000    0.202    0.379   78.621   11.804 2364.910
  442.250    0.203    0.405   83.617   12.259 2362.870
  442.500    0.209    0.409   87.364   12.730 2352.400
  442.750    0.220    0.398   85.517   12.972 2333.500
  443.000    0.226    0.390   72.469   12.728 2323.050
  443.250    0.221    0.369   69.998   12.970 2331.530
  443.500    0.220    0.357   74.991   13.469 2333.700
  443.750    0.226    0.364   81.233   14.527 2323.220
  444.000    0.220    0.343   80.008   15.375 2333.830
  444.250    0.217    0.341   77.537   15.667 2338.100
  444.500    0.221    0.354   81.911   15.371 2331.860
  444.750    0.229    0.364   83.172   15.082 2319.260
  445.000    0.233    0.374   71.364   14.521 2310.920
  445.250    0.240    0.387   62.669   13.461 2300.440
  445.500    0.243    0.393   65.178   12.960 2294.170
  445.750    0.235    0.396   70.180   12.716 2308.990
  446.000    0.223    0.382   72.685   12.957 2328.010
  446.250    0.215    0.370   72.078   13.456 2342.840
  446.500    0.213    0.363   78.320   13.974 2345.010
  446.750    0.218    0.361   77.093   14.789 2336.640
  447.000    0.223    0.359   73.379   15.359 2328.270
  447.250    0.219    0.364   75.886   17.204 2334.660
  447.500    0.222    0.376   79.016   20.014 2330.530
  447.750    0.219    0.380   75.919   22.847 2334.800
  448.000    0.216    0.378   63.493   26.081 2341.170
  448.250    0.206    0.370   64.754   29.774 2358.100
  448.500    0.202    0.363   70.377   32.112 2364.480
  448.750    0.208    0.356   72.880   33.348 2354.000
  449.000    0.243    0.368   66.675   30.334 2295.070
  449.250    0.267    0.374   33.709   26.070 2253.000
  449.500    0.266    0.362   33.103   18.542 2255.170
  449.750    0.252    0.352   38.103   12.460 2278.430
  450.000    0.242    0.346   49.323   10.913 2295.340
  450.250    0.230    0.346   63.030    9.927 2316.470
  450.500    0.226    0.358   81.720    9.202 2322.840
  450.750    0.271    0.373   90.454    8.859 2247.070
  451.000    0.261    0.379   96.070    8.859 2263.980
  451.250    0.209    0.363   99.200    9.027 2352.520
  451.500    0.202    0.380  104.820    9.199 2365.220
  451.750    0.209    0.386  102.970    9.553 2352.670
  452.000    0.218    0.380   99.255   10.110 2337.970
  452.250    0.227    0.378   99.271   10.303 2321.180
  452.500    0.230    0.370   99.915   10.903 2317.030
  452.750    0.214    0.367  101.797   10.903 2344.510
  453.000    0.212    0.359  101.195   10.300 2346.680
  453.250    0.210    0.358  104.323    9.916 2350.930
  453.500    0.189    0.364   99.362    9.192 2386.800
  453.750    0.168    0.358  106.854    9.192 2422.680
  454.000    0.148    0.356  103.756    9.191 2456.450
  454.250    0.142    0.356   91.951    9.190 2467.050
  454.500    0.218    0.382   96.946    9.365 2336.500
  454.750    0.218    0.390  104.432    9.364 2336.580
  455.000    0.212    0.387  103.830    9.725 2347.170
  455.250    0.208    0.380   94.514   10.292 2353.540
  455.500    0.207    0.376   90.793   10.892 2355.720
  455.750    0.216    0.372   88.947   11.527 2341.020
  456.000    0.205    0.370   90.829   11.747 2360.100
  456.250    0.202    0.387   89.604   11.970 2364.360
  456.500    0.200    0.363   85.893   11.744 2368.620
  456.750    0.203    0.351   87.775   11.743 2362.360
  457.000    0.212    0.352   92.150   11.966 2347.670
  457.250    0.223    0.395   94.031   12.194 2328.790
  457.500    0.224    0.381   91.561   12.426 2326.730
  457.750    0.223    0.367   87.223   13.150 2328.900
  458.000    0.227    0.360   90.352   13.657 2322.650
  458.250    0.218    0.358   87.259   14.182 2337.490
  458.500    0.217    0.355   91.636   15.009 2339.630
  458.750    0.217    0.346   93.523   15.587 2339.700
  459.000    0.217    0.337   83.582   16.497 2339.750
  459.250    0.228    0.331   82.979   17.131 2320.880
  459.500    0.230    0.332   74.906   17.130 2316.700
  459.750    0.226    0.335   70.563   17.128 2323.110
  460.000    0.223    0.331   68.093   17.454 2329.480
  460.250    0.222    0.315   73.715   18.825 2329.540
  460.500    0.225    0.298   76.219   21.489 2325.390
  460.750    0.216    0.263   78.112   24.072    0.000
  461.000    0.176    0.237   73.771   26.964    0.000
  461.250    0.145    0.215   62.580   31.968    0.000
  461.500    0.017    0.184   44.550   37.191    0.000
  461.750    0.015    0.157   23.415   43.266    0.000
  462.000    0.015    0.142   23.433   44.088    0.000
  462.250    0.016    0.135   24.069   43.258    0.000
  462.500    0.020    0.132   24.716   42.444    0.000
  462.750    0.023    0.136   25.349   40.098    0.000
  463.000    0.024    0.159   25.373   38.605    0.000
  463.250    0.021    0.168   26.629   38.602    0.000
  463.500    0.018    0.173   30.382   40.088    0.000
  463.750    0.019    0.170   31.024   44.904    0.000
  464.000    0.016    0.169   31.668   46.632    0.000
  464.250    0.003    0.173   32.934   46.627    0.000
  464.500    0.005    0.163   32.950   45.750    0.000
  464.750    0.009    0.150   34.828   41.616    0.000
  465.000    0.011    0.142   38.586   31.927    0.000
