~VERSION INFORMATION
 VERS.                 2.0:   CWLS LOG ASCII STANDARD -VERSION 2.0
 WRAP.                  NO:   ONE LINE PER DEPTH STEP
~WELL INFORMATION BLOCK
#MNEM.UNIT           DATA                    DESCRIPTION OF MNEMONIC
#---------    -------------------            -------------------------------
# Generated from Intellog Unique Number	CN_94_101/WELL/5035
WELL.         FRENCH PETROLEUM               : Well_name    - WELL
LOC .         AA/13-18-099-08W4/0            : Location     - LOCATION
UWI .         AA/13-18-099-08W400            : Uwi          - UNIQUE WELL ID
ENTR.         T                              : Entered      - ENTERED BY
SRVC.         SCHLUMBERGER                   : Scn          - SERVICE COMPANY
DATE.         08/17/92                       : Date         - LOG DATE
STRT.M        3.048                          : top_depth    - START DEPTH
STOP.M        88.298                         : bot_depth    - STOP DEPTH
STEP.M        0.25                           : increment    - STEP LENGTH
 NULL. -999.2500:NULL Value
~CURVE INFORMATION BLOCK
#MNEM UNIT       ERCB CURVE CODE    CURVE DESCRIPTION
#-----------   ------------------   ----------------------------------
DEPT.M        00 001 00 00         : DEPTH        - DEPTH
GR  .API      00 310 00 00         : GR           - GAMMA RAY
NPHI.V/V      00 330 00 00         : PHIN         - NEUTRON POROSITY (SANDSTONE)
ILD .OHMM     00 120 00 00         : RESD         - DEEP RESISTIVITY (DIL)
~PARAMETER INFORMATION
#MNEM.UNIT           DATA             DESCRIPTION OF MNEMONIC
#---------         -----------     ------------------------------
GL  .M        303.581              : gl           - GROUND LEVEL ELEVATION
EREF.M        303.581              : kb           - ELEVATION OF DEPTH REFERENCE
DATM.M        303.581              : datum        - DATUM ELEVATION
TDD .M        91.44                : tdd          - TOTAL DEPTH DRILLER
RUN .         ONE                  : Run          - RUN NUMBER
ENG .         BILL                 : Engineer     - RECORDING ENGINEER
WIT .         JIM                  : Witness      - WITNESSED BY
MUD .         GEL                  : Mud_type     - MUD TYPE
MATR.         SANDSTONE            : Logunit      - NEUTRON MATRIX
TMAX.C        17.7778              : BHT          - MAXIMUM RECORDED TEMPERATURE
BHTD.M        91.44                : BHTDEP       - MAXIMUM RECORDED TEMPERATURE
RMT .C        20                   : MDTP         - TEMPERATURE OF MUD
MUDD.KG/M     1030                 : MWT          - MUD DENSITY
NEUT.         1                    : NEUTRON      - NEUTRON TYPE
RESI.         0                    : RESIST       - RESISTIVITY TYPE
RM  .OHMM     12.6                 : RM           - RESISTIVITY OF MUD
RMC .OHMM     8.2                  : RMC          - RESISTIVITY OF MUD CAKE
RMF .OHMM     11.4                 : RMF          - RESISTIVITY OF MUD FILTRATE
SUFT.C        4                    : SUFT         - SURFACE TEMPERATURE
~A  DEPTH       GR     PHIN     RESD
# ...
   57.298   47.131    0.340  328.579
   57.548   74.432    0.367  317.662
   57.798   95.948    0.377  306.761
   58.048  124.910    0.400  285.043
   58.298  128.245    0.414  248.862
   58.548  120.836    0.427  100.501
   58.798  104.338    0.441   44.111
   59.048   96.110    0.442   45.575
   59.298   92.007    0.429   50.005
   59.548   95.343    0.416   53.694
   59.798   99.497    0.415   55.157
   60.048  103.658    0.413   56.251
   60.298  107.820    0.413   55.856
   60.548  104.551    0.417   55.095
   60.798   98.788    0.426   55.076
   61.048  102.957    0.391   55.051
   61.298  108.764    0.370   55.032
   61.548  111.273    0.370   55.013
   61.798  111.302    0.370   54.999
   62.048  114.637    0.368   54.604
   62.298  121.285    0.371   54.214
   62.548  127.919    0.396   52.345
   62.798  137.873    0.407   48.242
   63.048  141.208    0.421   44.144
   63.298  146.196    0.421   40.417
   63.548  159.448    0.434   39.276
   63.798  157.005    0.418   38.891
   64.048  156.201    0.425   38.871
   64.298  155.404    0.440   38.852
   64.548  156.260    0.427   38.823
   64.798  157.116    0.417   38.809
   65.048  158.813    0.414   38.785
   65.298  158.016    0.409   39.146
   65.548  152.246    0.404   40.234
   65.798  139.879    0.400   42.064
   66.048  128.338    0.393   43.538
   66.298  115.145    0.344   46.485
   66.548  103.605    0.292   49.798
   66.798   93.725    0.258   52.008
   67.048   92.928    0.247   55.326
   67.298  111.131    0.294   60.869
   67.548  122.730    0.323   51.575
   67.798  140.956    0.352   45.993
   68.048  142.638    0.403   41.525
   68.298  138.528    0.420   38.905
   68.548  137.738    0.423   37.022
   68.798  146.032    0.424   36.271
   69.048  147.714    0.424   35.876
   69.298  149.396    0.423   35.861
   69.548  151.905    0.423   35.833
   69.798  151.927    0.423   35.823
   70.048  146.998    0.421   35.799
   70.298  134.631    0.420   35.780
   70.548  131.355    0.421   34.272
   70.798  146.260    0.422   35.361
   71.048  152.916    0.422   36.459
   71.298  152.930    0.421   38.288
   71.548  154.620    0.419   39.020
   71.798  153.816    0.414   39.738
   72.048  149.713    0.399   40.456
   72.298  140.652    0.396   40.812
   72.548  121.674    0.399   40.797
   72.798  112.612    0.404   39.285
   73.048  112.642    0.432   37.041
   73.298  123.415    0.435   35.914
   73.548  143.286    0.444   34.783
   73.798  138.357    0.443   34.764
   74.048  131.775    0.439   34.744
   74.298  137.589    0.446   34.720
   74.548  143.403    0.457   34.701
   74.798  146.746    0.458   35.053
   75.048  126.941    0.442   35.404
   75.298  122.005    0.440   35.756
   75.548  117.902    0.444   35.731
   75.798  125.369    0.445   34.966
   76.048  146.886    0.445   34.585
   76.298  155.187    0.446   34.561
   76.548  154.390    0.447   34.537
   76.798  151.940    0.448   34.513
   77.048  148.656    0.451   34.123
   77.298  141.255    0.452   34.114
   77.548  137.153    0.455   34.094
   77.798  138.828    0.457   33.699
   78.048  144.642    0.457   33.685
   78.298  138.060    0.459   33.290
   78.548  124.040    0.468   33.642
   78.798  119.111    0.476   33.993
   79.048  117.488    0.456   34.711
   79.298  122.476    0.442   35.062
   79.548  124.992    0.439   35.043
   79.798  121.716    0.440   33.911
   80.048  115.968    0.444   32.779
   80.298  121.782    0.446   33.131
   80.548  126.763    0.438   35.341
   80.798  138.362    0.448   39.030
   81.048  146.656    0.450   36.040
   81.298  126.858    0.439   34.166
   81.548  121.922    0.434   33.035
   81.798  116.993    0.440   33.011
   82.048  148.426    0.447   33.367
   82.298  126.142    0.447   34.085
   82.548  111.296    0.432   34.065
   82.798  116.284    0.415   34.417
   83.048  123.751    0.414   35.510
   83.298  127.094    0.419   35.486
   83.548  131.248    0.427   34.730
   83.798  140.368    0.429   33.598
   84.048  144.537    0.438   32.462
   84.298  140.434    0.448   32.447
   84.548  119.796    0.451   32.423
   84.798  105.776    0.443   33.521
   85.048  100.021    0.432   36.839
   85.298  106.662    0.416   39.040
   85.548  143.887    0.428   36.059
   85.798  240.615    0.447   30.844
   86.048  205.935    0.449   30.449
   86.298  183.644    0.446   31.918
   86.548  165.492    0.407   38.944
   86.798  158.091    0.378   68.964
   87.048  162.245    0.332   79.693
   87.298  178.810    0.330   78.932
   87.548  193.715    0.325   80.772
   87.798  200.356    0.300   83.719
   88.048  197.906    0.201   86.295
   88.298  198.762    0.107   90.725
