~VERSION INFORMATION
 VERS.                 2.0:   CWLS LOG ASCII STANDARD -VERSION 2.0
 WRAP.                  NO:   ONE LINE PER DEPTH STEP
~WELL INFORMATION BLOCK
#MNEM.UNIT           DATA                    DESCRIPTION OF MNEMONIC
#---------    -------------------            -------------------------------
# Generated from Intellog Unique Number	CC_84_87/WELL/2340
NULL.         -999.25                        : NULL_VALUE
WELL.         ARCO ACI MCMURRAY              : Well_name    - WELL
LOC .         12-11-085-10W4                 : Location     - LOCATION          
UWI .         AA/12-11-085-10W400            : Uwi          - UNIQUE WELL ID    
ENTR.         DW                             : Entered      - ENTERED BY        
SRVC.         DRESSER ATLAS                  : Scn          - SERVICE COMPANY   
DATE.         31 JAN 76                      : Date         - LOG DATE
STRT.M        91.44                          : top_depth    - START DEPTH       
STOP.M        326.136                        : bot_depth    - STOP DEPTH        
STEP.M        0.3048                         : increment    - STEP LENGTH       
~CURVE INFORMATION BLOCK
#MNEM UNIT       ERCB CURVE CODE    CURVE DESCRIPTION
#-----------   ------------------   ----------------------------------
DEPT.M        00 001 00 00         : DEPTH        - DEPTH                       
RHOB.KG/M3    00 350 00 00         : DENS         - BULK DENSITY                
NPHI.V/V      00 330 00 00         : PHIN         - NEUTRON POROSITY (LIMESTONE)
GR  .API      00 310 00 00         : GR           - GAMMA RAY                   
ILD .OHMM     00 120 00 00         : RESD         - DEEP RESISTIVITY (DIL)      
~PARAMETER INFORMATION       
#MNEM.UNIT           DATA             DESCRIPTION OF MNEMONIC
#---------         -----------     ------------------------------
GL  .M        570.89               : gl           - GROUND LEVEL ELEVATION      
EREF.M        573.634              : kb           - ELEVATION OF DEPTH REFERENCE
DATM.M        573.634              : datum        - DATUM ELEVATION             
TDD .M        324.307              : tdd          - TOTAL DEPTH DRILLER         
RUN .         ONE                  : Run          - RUN NUMBER                  
ENG .         BILL                 : Engineer     - RECORDING ENGINEER          
WIT .         JIM                  : Witness      - WITNESSED BY                
MUD .         GEL                  : Mud_type     - MUD TYPE                    
MATR.         LIMESTONE            : Logunit      - NEUTRON MATRIX              
TMAX.C        15.5556              : BHT          - MAXIMUM RECORDED TEMPERATURE
BHTD.M        324.307              : BHTDEP       - MAXIMUM RECORDED TEMPERATURE
MATR.         1                    : LOGUNIT      - NEUTRON MATRIX              
RMT .C        25                   : MDTP         - TEMPERATURE OF MUD          
NEUT.         1                    : NEUTRON      - NEUTRON TYPE                
RESI.         0                    : RESIST       - RESISTIVITY TYPE            
RMC .OHMM     0.25                 : RMC          - RESISTIVITY OF MUD CAKE     
RMF .OHMM     0.25                 : RMF          - RESISTIVITY OF MUD FILTRATE 
SUFT.C        15                   : SUFT         - SURFACE TEMPERATURE         
~A  DEPTH     DENS     PHIN       GR     RESD
# ...
  250.544 2119.820    0.578   88.336    3.104
  250.848 2238.510    0.562   91.323    3.738
  251.153 2184.170    0.480   93.117    4.672
  251.458 2069.480    0.448   85.911    5.839
  251.763 2186.160    0.356   79.304    6.777
  252.068 2212.300    0.323   79.297    7.579
  252.372 2238.440    0.309   83.482    8.018
  252.677 2310.860    0.301   84.074    8.021
  252.982 2264.570    0.325   83.466    8.178
  253.287 2236.390    0.348   82.858    8.492
  253.591 2326.920    0.271   82.251    8.656
  253.896 2507.980    0.213   81.640    8.660
  254.201 2495.890    0.222   82.830    8.506
  254.506 2294.680    0.340   85.821    8.051
  254.811 2242.360    0.374   88.811    7.481
  255.115 2147.780    0.408   89.398    6.824
  255.420 2145.760    0.424   90.589    6.457
  255.725 2270.490    0.414   90.584    5.468
  256.030 2270.470    0.410   91.172    4.300
  256.335 2226.200    0.412   89.364    3.320
  256.639 2083.340    0.426   84.560    2.659
  256.944 2004.860    0.478   78.555    2.470
  257.249 2077.280    0.602   70.749    2.815
  257.554 2153.720    0.620   67.142    3.089
  257.859 2185.890    0.422   67.733    4.237
  258.164 2201.970    0.376   68.920    4.826
  258.468 2201.960    0.359   69.512    4.920
  258.773 2197.930    0.349   71.303    4.570
  259.078 2272.350    0.351   73.094    3.801
  259.383 2314.590    0.375   74.883    3.597
  259.688 2165.700    0.435   76.673    3.600
  259.992 2091.240    0.458   79.063    3.668
  260.297 2079.160    0.459   80.256    4.026
  260.602 2165.660    0.374   77.847    5.223
  260.907 2246.120    0.340   80.235    5.734
  261.212 2230.010    0.320   82.025    5.427
  261.516 2201.830    0.261   79.620    4.348
  261.821 2469.410    0.280   76.614    3.614
  262.126 2290.330    0.381   82.601    2.949
  262.431 2163.560    0.464   89.788    2.592
  262.736 2163.550    0.521   90.376    2.499
  263.040 2167.560    0.536   89.168    2.455
  263.345 2159.500    0.547   88.560    2.598
  263.650 2107.180    0.505   91.549    2.697
  263.955 2141.370    0.447   93.340    2.906
  264.260 2185.610    0.439   93.332    3.074
  264.565 2215.780    0.449   92.124    3.438
  264.869 2217.780    0.432   92.715    3.569
  265.174 2276.110    0.425   92.103    3.847
  265.479 2255.980    0.417   90.898    3.921
  265.784 2109.090    0.411   84.293    3.852
  266.089 2117.130    0.425   85.482    3.783
  266.393 2185.520    0.457   90.868    3.647
  266.698 2209.650    0.516   92.659    3.326
  267.003 2072.830    0.541   92.651    3.267
  267.308 2032.570    0.483   90.244    3.522
  267.613 2113.040    0.487   88.437    3.656
  267.917 2094.920    0.410   85.430    4.742
  268.222 2157.280    0.401   81.222    5.504
  268.527 2169.330    0.449   77.016    6.042
  268.832 2147.190    0.399   74.008    6.883
  269.137 2181.380    0.351   71.002    7.416
  269.441 2104.910    0.359   72.192    7.151
  269.746 2219.580    0.367   75.781    6.525
  270.051 2265.840    0.378   75.771    6.408
  270.356 2149.130    0.384   72.764    6.293
  270.661 2157.170    0.377   70.356    6.297
  270.966 2279.880    0.298   69.148    6.300
  271.270 2231.580    0.303   70.939    6.664
  271.575 2207.420    0.317   74.529    7.181
  271.880 2219.480    0.320   81.116    7.321
  272.185 2237.580    0.352   88.303    7.326
  272.490 2197.330    0.353   94.291    7.330
  272.794 2163.110    0.347   95.483    7.611
  273.099 2233.510    0.347   96.672    7.616
  273.404 2247.590    0.354  101.459    7.763
  273.709 2245.560    0.384  103.248    8.060
  274.014 2237.500    0.390  101.442    9.014
  274.318 2269.030    0.274   95.559   11.898
  274.623 2256.930    0.250   86.477   13.554
  274.928 2841.110    0.138   70.746   13.809
  275.233 2489.710    0.132   61.664   13.059
  275.538 2266.800    0.233   64.073   10.840
  275.842 2234.610    0.267   73.128   10.062
  276.147 2212.450    0.272   74.936    9.877
  276.452 2208.380    0.272   76.136    9.694
  276.757 2214.360    0.272   79.753    9.694
  277.062 2254.450    0.273   81.557    9.694
  277.367 2260.410    0.287   77.915    9.877
  277.671 2222.210    0.291   75.489   10.062
  277.976 2208.080    0.291   71.849   10.251
  278.281 2204.030    0.292   71.234   10.444
  278.586 2256.160    0.288   74.248   11.463
  278.891 2262.140    0.285   72.423   12.121
  279.195 2254.050    0.278   70.598   13.304
  279.500 2233.910    0.283   75.424   14.333
  279.805 2207.750    0.298   70.576   14.602
  280.110 2181.600    0.291   67.541   15.156
  280.415 2181.540    0.288   67.532   15.156
  280.719 2237.700    0.289   69.939   15.156
  281.024 2239.630    0.296   72.349   15.731
  281.329 2235.570    0.305   69.918   16.635
  281.634 2223.470    0.302   68.093   17.591
  281.939 2169.200    0.306   66.270   17.591
  282.243 2133.000    0.312   63.843   17.266
  282.548 2167.070    0.308   63.828   16.635
  282.853 2154.980    0.329   65.634   15.441
  283.158 2156.920    0.299   67.439   14.333
  283.463 2217.110    0.295   69.845   13.554
  283.768 2241.130    0.294   70.437   12.581
  284.072 2255.140    0.288   71.034   11.678
  284.377 2275.150    0.278   72.234   11.463
  284.682 2267.070    0.278   75.246   11.678
  284.987 2240.910    0.295   78.260   11.678
  285.292 2283.010    0.300   84.295   10.840
  285.596 2284.960    0.279   90.935   10.640
  285.901 2313.000    0.278   93.950   10.444
  286.206 2320.980    0.281   94.543   10.640
  286.511 2300.840    0.330   90.905   11.044
  286.816 2254.620    0.318   80.615   14.602
  287.120 2194.320    0.323   61.255   18.951
  287.425 2150.090    0.328   48.546   21.589
  287.730 2166.100    0.323   49.140   24.594
  288.035 2158.000    0.318   47.921   27.501
  288.340 2131.850    0.321   43.074   33.752
  288.644 2103.690    0.319   33.388   40.660
  288.949 2115.670    0.315   29.749   42.202
  289.254 2127.670    0.317   28.529   40.660
  289.559 2131.620    0.319   29.729   39.910
  289.864 2095.420    0.329   33.949   33.130
  290.169 2135.520    0.341   38.776   28.018
  290.473 2081.260    0.342   43.603   17.266
  290.778 2109.310    0.339   48.432   14.333
  291.083 2185.540    0.293   58.701   12.121
  291.388 2295.900    0.298   71.993   11.898
  291.693 2279.790    0.317   74.399   12.818
  291.997 2275.720    0.323   69.554   14.333
  292.302 2207.400    0.318   62.284   13.304
  292.607 2225.410    0.287   61.671   12.818
  292.912 2161.100    0.276   61.056   11.252
  293.217 2319.660    0.286   70.116   10.444
  293.521 2309.550    0.303   80.382    9.877
  293.826 2287.410    0.316   78.558    9.168
  294.131 2277.320    0.331   74.317    8.999
  294.436 2243.120    0.345   79.747    8.670
  294.741 2277.200    0.335   82.761    8.670
  295.045 2303.240    0.332   81.539    8.510
  295.350 2285.120    0.339   81.530    8.510
  295.655 2262.970    0.349   88.170    8.510
  295.960 2289.020    0.355   91.790    8.353
  296.265 2298.990    0.355   94.195    8.199
  296.570 2304.960    0.344   93.584    8.353
  296.874 2329.000    0.331   91.759    8.833
  297.179 2330.940    0.326   87.511    9.340
  297.484 2298.760    0.348   84.478    9.340
  297.789 2274.620    0.352   84.471    9.340
  298.094 2260.510    0.336   92.924    9.168
  298.398 2290.560    0.313   93.518    9.168
  298.703 2306.560    0.322   89.881    9.516
  299.008 2302.490    0.313   80.801   10.251
  299.313 2238.190    0.297   75.349   11.678
  299.618 2242.140    0.290   67.471   13.059
  299.922 2262.170    0.295   65.652   15.441
  300.227 2286.200    0.309   63.827   15.731
  300.532 2235.950    0.309   65.632   16.027
  300.837 2147.550    0.291   58.969   15.156
  301.142 2177.610    0.260   71.052   13.554
  301.446 2298.010    0.255   78.297   11.898
  301.751 2285.910    0.263   83.125   10.640
  302.056 2251.710    0.274   81.905   10.251
  302.361 2235.590    0.281   74.637   11.044
  302.666 2257.620    0.269   64.348   11.898
  302.971 2265.600    0.272   63.128   13.809
  303.275 2265.550    0.268   63.721   14.333
