~VERSION INFORMATION
 VERS.                 2.0:   CWLS LOG ASCII STANDARD -VERSION 2.0
 WRAP.                  NO:   ONE LINE PER DEPTH STEP
~WELL INFORMATION BLOCK
#MNEM.UNIT           DATA                    DESCRIPTION OF MNEMONIC
#---------    -------------------            -------------------------------
# Generated from Intellog Unique Number	CW_79_81/WELL/2481
WELL.         GAD JOLI FOU OV                : Well_name    - WELL
LOC .         AA/11-08-081-19W4/0            : Location     - LOCATION
UWI .         AA/11-08-081-19W400            : Uwi          - UNIQUE WELL ID
ENTR.         MAX                            : Entered      - ENTERED BY
SRVC.         SCHLUMBERGER                   : Scn          - SERVICE COMPANY
STRT.M        175                            : top_depth    - START DEPTH
STOP.M        370                            : bot_depth    - STOP DEPTH
STEP.M        0.25                           : increment    - STEP LENGTH
 NULL. -999.2500:NULL Value
~CURVE INFORMATION BLOCK
#MNEM UNIT       ERCB CURVE CODE    CURVE DESCRIPTION
#-----------   ------------------   ----------------------------------
DEPT.M        00 001 00 00         : DEPTH        - DEPTH
ILD .OHMM     00 120 00 00         : RESD         - DEEP RESISTIVITY (DIL)
NPHI.V/V      00 330 00 00         : PHIN         - NEUTRON POROSITY (SANDSTONE)
DPHI.V/V      00 890 00 00         : PHID         - DENSITY POROSITY (SANDSTONE)
GR  .API      00 310 00 00         : GR           - GAMMA RAY
CALI.MM       00 280 01 00         : CAL          - CALIPER
~PARAMETER INFORMATION
#MNEM.UNIT           DATA             DESCRIPTION OF MNEMONIC
#---------         -----------     ------------------------------
GL  .M        580.5                : gl           - GROUND LEVEL ELEVATION
EREF.M        584                  : kb           - ELEVATION OF DEPTH REFERENCE
DATM.M        580.5                : datum        - DATUM ELEVATION
TDD .M        374                  : tdd          - TOTAL DEPTH DRILLER
RUN .         ONE                  : Run          - RUN NUMBER
ENG .         BILL                 : Engineer     - RECORDING ENGINEER
WIT .         JIM                  : Witness      - WITNESSED BY
MUD .         GEL                  : Mud_type     - MUD TYPE
MATR.         SANDSTONE            : Logunit      - NEUTRON MATRIX
TMAX.C        25.5                 : BHT          - MAXIMUM RECORDED TEMPERATURE
BHTD.M        374                  : BHTDEP       - MAXIMUM RECORDED TEMPERATURE
MATR.         1                    : LOGUNIT      - NEUTRON MATRIX
RMT .C        18.8                 : MDTP         - TEMPERATURE OF MUD
NEUT.         1                    : NEUTRON      - NEUTRON TYPE
RESI.         0                    : RESIST       - RESISTIVITY TYPE
RMC .OHMM     3.74                 : RMC          - RESISTIVITY OF MUD CAKE
RMF .OHMM     3.212                : RMF          - RESISTIVITY OF MUD FILTRATE
SUFT.C        -20                  : SUFT         - SURFACE TEMPERATURE
~A  DEPTH     RESD     PHIN     PHID       GR      CAL
  175.000    3.241    0.492    0.277   81.073  255.619
  175.250    3.094    0.525    0.268   81.071  257.283
  175.500    2.982    0.544    0.279   79.628  256.112
  175.750    2.896    0.554    0.293   77.704  253.706
  176.000    2.816    0.558    0.303   76.381  251.301
  176.250    2.678    0.561    0.306   77.760  250.430
  176.500    2.597    0.560    0.309   82.262  252.094
  176.750    2.503    0.563    0.298   83.461  254.093
  177.000    2.453    0.576    0.270   81.237  257.592
  177.250    2.426    0.588    0.235   78.593  259.791
  177.500    2.417    0.593    0.213   77.930  260.189
  177.750    2.454    0.584    0.239   81.301  260.752
  178.000    2.552    0.571    0.268   82.550  261.582
  178.250    2.514    0.560    0.284   82.067  260.778
  178.500    2.505    0.546    0.279   83.026  259.374
  178.750    2.515    0.535    0.266   82.664  256.568
  179.000    2.534    0.524    0.242   80.500  254.263
  179.250    2.553    0.504    0.189   78.836  257.145
  179.500    2.554    0.503    0.216   81.336  257.558
  179.750    2.573    0.513    0.243   84.217  257.154
  180.000    2.592    0.516    0.252   86.377  256.150
  180.250    2.602    0.520    0.251   86.615  256.146
  180.500    2.603    0.534    0.247   85.052  257.144
  180.750    2.603    0.573    0.250   82.627  257.541
  181.000    2.603    0.597    0.270   80.123  257.537
  181.250    2.584    0.568    0.267   80.361  257.534
  181.500    2.580    0.535    0.256   81.861  256.930
  181.750    2.599    0.521    0.251   82.099  256.326
  182.000    2.629    0.524    0.256   80.535  255.922
  182.250    2.625    0.527    0.255   78.961  255.435
  182.500    2.605    0.553    0.257   80.711  255.014
  182.750    2.606    0.589    0.261   83.351  255.011
  183.000    2.621    0.597    0.263   83.830  254.407
  183.250    2.650    0.577    0.264   83.468  253.202
  183.500    2.690    0.539    0.265   83.285  251.898
  183.750    2.731    0.505    0.264   84.204  252.829
  184.000    2.731    0.507    0.264   85.203  259.498
  184.250    2.731    0.520    0.273   83.039  266.701
  184.500    2.747    0.525    0.274   83.577  266.998
  184.750    2.788    0.523    0.274   85.737  265.793
  185.000    2.861    0.513    0.273   87.417  265.290
  185.250    2.988    0.500    0.267   84.842  264.234
  185.500    3.083    0.496    0.260   81.587  262.980
  185.750    3.129    0.503    0.247   80.144  258.973
  186.000    3.211    0.502    0.235   77.439  257.969
  186.250    3.272    0.492    0.209   73.594  258.766
  186.500    3.241    0.474    0.176   68.787  260.965
  186.750    2.998    0.463    0.184   63.160  265.465
  187.000    2.735    0.509    0.278   62.657  267.964
  187.250    2.776    0.526    0.306   68.180  267.160
  187.500    3.198    0.494    0.317   67.218  263.953
  187.750    4.329    0.460    0.329   62.171  259.346
  188.000    6.947    0.445    0.346   54.542  254.839
  188.250   10.390    0.437    0.348   45.131  252.266
  188.500   14.626    0.431    0.340   46.130  251.428
  188.750   17.157    0.430    0.334   48.050  251.025
  189.000   19.652    0.424    0.328   48.528  251.221
  189.250   21.612    0.428    0.329   48.166  251.418
  189.500   22.736    0.438    0.334   47.864  251.414
  189.750   23.288    0.438    0.339   48.321  251.408
  190.000   23.471    0.438    0.340   45.817  251.407
  190.250   23.475    0.439    0.340   44.134  251.404
  190.500   23.609    0.442    0.343   44.252  251.401
  190.750   23.787    0.446    0.349   44.971  251.197
  191.000   24.010    0.450    0.355   45.809  250.893
  191.250   24.411    0.452    0.353   47.008  250.973
  191.500   24.603    0.441    0.346   47.006  251.387
  191.750   24.973    0.447    0.341   46.043  251.783
  192.000   25.209    0.447    0.337   45.801  252.181
  192.250   25.493    0.439    0.333   45.318  252.378
  192.500   25.877    0.428    0.331   44.475  252.375
  192.750   26.348    0.420    0.333   43.893  252.370
  193.000   26.762    0.418    0.341   43.390  252.367
  193.250   27.164    0.424    0.335   43.388  252.363
  193.500   27.573    0.433    0.336   43.926  252.360
  193.750   27.782    0.440    0.342   44.285  252.357
  194.000   27.734    0.443    0.349   44.163  252.353
  194.250   27.362    0.439    0.346   43.880  252.433
  194.500   26.537    0.407    0.352   44.879  252.847
  194.750   25.955    0.407    0.354   45.117  254.044
  195.000   25.959    0.427    0.345   45.355  254.642
  195.250   26.156    0.454    0.336   45.594  254.638
  195.500   26.305    0.477    0.336   45.772  254.235
  195.750   26.227    0.483    0.350   45.419  253.830
  196.000   25.830    0.479    0.353   43.666  253.827
  196.250   25.453    0.467    0.349   43.663  254.223
  196.500   25.363    0.455    0.351   43.842  254.020
  196.750   25.271    0.446    0.356   43.960  253.817
  197.000   25.041    0.446    0.361   43.898  253.814
  197.250   24.640    0.469    0.356   43.655  253.892
  197.500   24.453    0.477    0.348   43.653  254.306
  197.750   24.275    0.475    0.347   43.651  254.303
  198.000   23.965    0.476    0.348   44.730  254.300
  198.250   23.528    0.477    0.348   46.290  254.297
  198.500   23.058    0.478    0.346   47.008  254.293
  198.750   22.581    0.480    0.340   44.643  254.289
  199.000   21.900    0.474    0.334   43.640  254.286
  199.250   21.902    0.461    0.340   44.599  254.283
  199.500   22.149    0.453    0.345   45.558  254.279
  199.750   22.728    0.459    0.345   44.956  254.276
  200.000   23.716    0.465    0.342   43.633  254.173
  200.250   25.482    0.437    0.345   44.831  253.684
  200.500   27.118    0.422    0.343   44.829  253.264
  200.750   27.322    0.434    0.341   44.106  252.060
  201.000   27.377    0.446    0.342   44.465  251.456
  201.250   27.075    0.457    0.345   45.063  251.052
  201.500   25.863    0.463    0.349   46.202  250.649
  201.750   21.299    0.451    0.346   50.274  250.243
  202.000   15.145    0.446    0.327   55.026  250.240
  202.250    9.501    0.436    0.310   56.706  250.238
  202.500    6.635    0.427    0.292   59.466  250.835
  202.750    4.838    0.440    0.283   63.668  254.835
  203.000    3.921    0.476    0.280   67.269  259.436
  203.250    3.981    0.492    0.268   66.026  255.645
  203.500    4.303    0.406    0.256   67.024  252.722
  203.750    5.084    0.426    0.254   63.179  254.320
  204.000    6.478    0.426    0.261   59.154  252.916
  204.250    8.254    0.425    0.268   58.791  251.311
  204.500    9.734    0.428    0.269   61.612  250.306
  204.750   10.570    0.431    0.261   62.110  248.701
  205.000   10.572    0.434    0.273   58.605  248.698
  205.250   10.495    0.443    0.304   56.441  249.496
  205.500   10.535    0.446    0.318   56.799  249.692
  205.750   11.154    0.448    0.321   57.277  249.689
  206.000   12.538    0.448    0.319   57.395  249.885
  206.250   14.425    0.446    0.318   59.445  250.849
  206.500   14.765    0.451    0.314   63.697  251.680
  206.750   12.507    0.441    0.289   65.857  256.081
  207.000   10.419    0.440    0.258   67.476  261.382
  207.250    8.143    0.457    0.235   70.237  267.384
  207.500    6.510    0.488    0.229   74.258  272.085
  207.750    5.991    0.505    0.242   78.350  270.179
  208.000    6.132    0.487    0.251   79.599  262.670
  208.250    6.599    0.467    0.245   78.396  256.260
  208.500    7.143    0.447    0.238   80.075  256.157
  208.750    7.724    0.441    0.231   81.995  259.156
  209.000    8.322    0.448    0.230   82.293  261.855
  209.250    9.154    0.447    0.243   79.939  259.899
  209.500   10.212    0.426    0.244   80.187  256.142
  209.750   10.753    0.411    0.243   79.464  259.342
  210.000   10.959    0.403    0.248   77.841  259.839
  210.250   10.960    0.402    0.254   76.157  258.835
  210.500   10.921    0.403    0.257   74.474  258.831
  210.750   10.970    0.409    0.257   71.018  264.382
  211.000   10.804    0.427    0.248   65.761  268.133
  211.250   10.410    0.431    0.250   64.558  264.526
