~VERSION INFORMATION
 VERS.                 2.0:   CWLS LOG ASCII STANDARD -VERSION 2.0
 WRAP.                  NO:   ONE LINE PER DEPTH STEP
~WELL INFORMATION BLOCK
#MNEM.UNIT           DATA                    DESCRIPTION OF MNEMONIC
#---------    -------------------            -------------------------------
# Generated from Intellog Unique Number	CC_84_87/WELL/2340
NULL.         -999.25                        : NULL_VALUE
WELL.         ARCO ACI MCMURRAY              : Well_name    - WELL
LOC .         12-11-085-10W4                 : Location     - LOCATION          
UWI .         AA/12-11-085-10W400            : Uwi          - UNIQUE WELL ID    
ENTR.         DW                             : Entered      - ENTERED BY        
SRVC.         DRESSER ATLAS                  : Scn          - SERVICE COMPANY   
DATE.         31 JAN 76                      : Date         - LOG DATE
STRT.M        91.44                          : top_depth    - START DEPTH       
STOP.M        326.136                        : bot_depth    - STOP DEPTH        
STEP.M        0.3048                         : increment    - STEP LENGTH       
~CURVE INFORMATION BLOCK
#MNEM UNIT       ERCB CURVE CODE    CURVE DESCRIPTION
#-----------   ------------------   ----------------------------------
DEPT.M        00 001 00 00         : DEPTH        - DEPTH                       
RHOB.KG/M3    00 350 00 00         : DENS         - BULK DENSITY                
NPHI.V/V      00 330 00 00         : PHIN         - NEUTRON POROSITY (LIMESTONE)
GR  .API      00 310 00 00         : GR           - GAMMA RAY                   
ILD .OHMM     00 120 00 00         : RESD         - DEEP RESISTIVITY (DIL)      
~PARAMETER INFORMATION       
#MNEM.UNIT           DATA             DESCRIPTION OF MNEMONIC
#---------         -----------     ------------------------------
GL  .M        570.89               : gl           - GROUND LEVEL ELEVATION      
EREF.M        573.634              : kb           - ELEVATION OF DEPTH REFERENCE
DATM.M        573.634              : datum        - DATUM ELEVATION             
TDD .M        324.307              : tdd          - TOTAL DEPTH DRILLER         
RUN .         ONE                  : Run          - RUN NUMBER                  
ENG .         BILL                 : Engineer     - RECORDING ENGINEER          
WIT .         JIM                  : Witness      - WITNESSED BY                
MUD .         GEL                  : Mud_type     - MUD TYPE                    
MATR.         LIMESTONE            : Logunit      - NEUTRON MATRIX              
TMAX.C        15.5556              : BHT          - MAXIMUM RECORDED TEMPERATURE
BHTD.M        324.307              : BHTDEP       - MAXIMUM RECORDED TEMPERATURE
MATR.         1                    : LOGUNIT      - NEUTRON MATRIX              
RMT .C        25                   : MDTP         - TEMPERATURE OF MUD          
NEUT.         1                    : NEUTRON      - NEUTRON TYPE                
RESI.         0                    : RESIST       - RESISTIVITY TYPE            
RMC .OHMM     0.25                 : RMC          - RESISTIVITY OF MUD CAKE     
RMF .OHMM     0.25                 : RMF          - RESISTIVITY OF MUD FILTRATE 
SUFT.C        15                   : SUFT         - SURFACE TEMPERATURE         
~A  DEPTH     DENS     PHIN       GR     RESD
# ...
  197.509 2194.560    0.497   90.486    3.757
  197.814 2200.580    0.485   93.476    3.974
  198.119 2025.530    0.471   94.068    4.362
  198.424 2158.300    0.446   83.864    5.763
  198.729 2138.170    0.409   77.856    7.204
  199.033 1997.320    0.377   76.650    7.621
  199.338 2329.280    0.322   76.642    7.626
  199.643 2504.310    0.313   78.430    6.828
  199.948 2363.460    0.346   82.618    6.000
  200.252 2331.250    0.460   88.009    5.176
  200.557 2282.950    0.404   87.399    4.466
  200.862 2152.160    0.384   83.792    3.924
  201.167 2154.160    0.514   87.380    2.919
  201.472 2184.320    0.548   94.569    2.382
  201.776 2202.420    0.536   95.758    2.255
  202.081 2162.170    0.522   97.550    2.256
  202.386 2154.110    0.507   99.340    2.343
  202.691 2166.170    0.506   93.335    2.525
  202.996 2053.480    0.524   88.529    2.621
  203.300 2017.260    0.540   90.314    2.825
  203.605 2121.860    0.546   91.509    2.933
  203.910 2093.680    0.548   93.899    2.882
  204.215 1995.080    0.540   95.689    2.830
  204.520 1989.040    0.533   90.879    2.994
  204.824 2071.510    0.524   87.271    3.226
  205.129 2198.250    0.497   86.066    3.675
  205.434 2220.370    0.447   83.656    4.426
  205.739 2184.140    0.418   83.050    5.042
  206.044 1997.020    0.447   84.839    5.962
  206.348 1964.810    0.488   86.629    6.544
  206.653 1918.530    0.476   87.221    6.923
  206.958 2176.040    0.406   83.014    7.461
  207.263 2167.970    0.338   75.806    7.892
  207.568 2161.930    0.365   73.401    8.044
  207.872 2153.870    0.341   70.992    8.201
  208.177 2121.660    0.300   70.384    8.674
  208.482 2099.520    0.300   69.175    8.519
  208.787 1938.550    0.346   68.569    8.847
  209.092 1854.040    0.374   65.561    9.711
  209.396 2568.260    0.227   57.757   11.481
  209.701 2519.960    0.092   56.549   13.325
  210.006 2187.980    0.132   61.337   11.712
  210.311 2536.030    0.296   75.721   10.103
  210.615 2519.920    0.289   81.109    8.879
  210.920 2083.320    0.250   75.104    8.099
  211.225 2045.080    0.255   68.497    7.955
  211.530 2254.310    0.361   72.085    7.960
  211.835 2439.390    0.337   71.478    7.965
  212.139 2304.580    0.309   64.272    8.119
  212.444 2105.380    0.239   61.267    7.973
  212.749 2115.430    0.397   66.655    7.981
  213.054 2111.390    0.393   67.843    8.132
  213.359 2117.420    0.374   66.037    9.614
  213.663 2137.520    0.350   60.629   12.705
  213.968 2284.380    0.314   58.819   15.878
  214.273 2521.770    0.274   58.210   19.480
  214.578 2535.840    0.096   58.802   21.788
  214.883 2568.020    0.094   59.395   18.796
  215.187 2580.080    0.093   60.582   12.742
  215.492 2535.800    0.144   61.177    9.656
  215.797 2314.480    0.218   62.966    8.178
  216.102 2133.390    0.317   64.156    7.739
  216.407 2137.400    0.354   65.944    7.190
  216.711 2129.340    0.364   66.538    7.196
  217.016 2123.290    0.374   67.128    7.472
  217.321 2107.180    0.361   67.118    7.615
  217.626 2107.170    0.368   65.911    8.059
  217.931 2121.240    0.375   63.500    8.062
  218.235 2280.170    0.370   62.296    8.066
  218.540 2312.350    0.352   61.087    8.221
  218.845 2133.270    0.349   61.679    8.077
  219.150 2115.150    0.361   65.265    7.932
  219.455 2225.790    0.365   66.455    7.793
  219.759 2233.830    0.358   66.450    7.652
  220.064 2147.300    0.357   67.038    7.243
  220.369 2193.560    0.364   68.229    6.731
  220.674 2205.620    0.381   70.020    6.370
  220.979 2157.320    0.399   71.811    5.810
  221.283 2050.680    0.407   74.200    5.201
  221.588 2012.440    0.425   77.189    4.832
  221.893 2229.710    0.431   77.778    4.835
  222.198 2261.890    0.386   77.172    5.309
  222.502 2402.710    0.365   74.764    5.827
  222.807 2426.840    0.359   75.953    6.164
  223.112 2175.340    0.365   77.145    6.401
  223.417 2062.650    0.391   75.338    6.525
  223.722 1998.260    0.489   76.527    6.409
  224.026 2267.840    0.458   78.315    6.065
  224.331 2217.530    0.383   77.707    5.430
  224.636 2122.960    0.362   77.699    4.686
  224.941 2074.660    0.438   78.291    4.195
  225.246 1986.120    0.501   79.481    4.045
  225.550 1996.170    0.498   81.271    4.123
  225.855 2173.200    0.508   81.863    4.281
  226.160 2008.210    0.446   81.852    4.528
  226.465 1969.970    0.444   80.645    5.159
  226.770 2038.360    0.488   78.235    5.663
  227.074 2235.520    0.482   76.428    6.217
  227.379 2177.160    0.433   76.421    6.700
  227.684 2167.090    0.375   75.812    7.087
  227.989 2189.210    0.352   72.804    7.496
  228.294 2323.990    0.288   70.397    7.364
  228.598 2251.550    0.262   70.388    7.234
  228.903 2295.800    0.343   70.978    6.973
  229.208 2195.190    0.339   72.170    6.850
  229.513 2142.870    0.339   72.760    6.604
  229.818 2500.980    0.366   73.951    6.137
  230.122 2146.860    0.405   76.339    5.701
  230.427 2134.780    0.411   79.326    5.104
  230.732 2068.370    0.466   81.118    4.570
  231.037 2126.700    0.456   83.509    4.092
  231.342 2144.800    0.472   87.697    3.732
  231.646 2170.940    0.493   89.490    3.467
  231.951 2166.900    0.502   91.277    3.281
  232.256 2182.990    0.504   91.869    2.993
  232.561 2217.170    0.510   93.660    2.730
  232.865 2217.160    0.518   96.649    2.631
  233.170 2146.730    0.524  100.237    2.585
  233.475 2156.780    0.531  101.429    2.684
  233.780 2160.790    0.541   97.821    3.115
  234.085 2068.220    0.541   93.015    3.420
  234.389 2335.800    0.539   90.607    3.825
  234.694 2190.930    0.490   88.796    4.199
  234.999 2237.180    0.445   89.390    4.441
  235.304 2255.280    0.443   90.580    4.786
  235.609 2259.290    0.448   92.370    5.157
  235.913 2106.370    0.456   92.359    5.558
  236.218 2118.430    0.460   92.351    5.989
  236.523 2150.610    0.447   92.343    6.454
  236.828 2144.560    0.394   91.734    6.701
  237.133 1997.670    0.383   92.327    7.088
  237.437 2235.070    0.417   93.517    7.499
  237.742 2247.130    0.413   94.708    8.234
  238.047 2265.220    0.305   95.898    8.549
  238.352 2307.460    0.304   95.286    8.714
  238.657 2402.010    0.302   93.480    8.559
  238.961 2257.140    0.301   91.075    8.251
  239.266 2311.440    0.316   90.464    7.810
  239.571 2222.910    0.337   93.455    7.531
  239.876 2263.130    0.330   95.845    7.128
  240.181 2405.960    0.345   96.434    6.623
  240.485 2375.770    0.369   95.227    6.153
  240.790 2200.720    0.378   93.418    5.509
  241.095 2160.470    0.395   94.610    5.411
  241.400 2194.660    0.454   96.398    5.515
  241.705 2021.620    0.475   96.991    5.943
  242.009 2196.640    0.475   95.782    6.898
  242.314 2230.830    0.464   91.575    7.572
  242.619 2208.690    0.352   85.569    7.718
  242.924 2210.690    0.311   87.359    7.868
  243.228 2218.720    0.320   89.749    7.872
  243.533 2248.890    0.321   90.340    7.591
  243.838 1981.290    0.339   90.331    7.455
  244.143 2108.030    0.427   92.121    7.188
  244.448 2214.650    0.421   90.912    6.930
  244.752 2252.860    0.326   75.913    6.808
  245.057 2431.910    0.304   78.900    6.687
  245.362 2264.900    0.282   81.892    6.570
  245.667 2248.800    0.309   86.679    6.453
  245.972 2295.060    0.331   89.069    6.337
  246.276 2315.160    0.333   89.058    6.110
  246.581 2280.950    0.338   87.850    5.893
  246.886 2117.970    0.375   87.243    5.787
  247.191 2130.020    0.435   86.633    6.010
  247.496 2148.120    0.444   84.827    6.357
  247.800 2107.860    0.486   83.018    6.724
  248.105 2290.940    0.368   81.811    6.854
  248.410 2305.010    0.348   80.003    6.609
  248.715 2272.810    0.344   79.394    6.254
  249.020 2298.950    0.351   81.784    5.104
  249.324 2061.530    0.393   84.174    4.165
  249.629 2051.450    0.497   87.762    3.463
  249.934 2129.900    0.530   89.552    3.043
  250.239 2089.650    0.556   89.545    2.934
