~VERSION INFORMATION
 VERS.                 2.0:   CWLS LOG ASCII STANDARD -VERSION 2.0
 WRAP.                  NO:   ONE LINE PER DEPTH STEP
~WELL INFORMATION BLOCK
#MNEM.UNIT           DATA                    DESCRIPTION OF MNEMONIC
#---------    -------------------            -------------------------------
# Generated from Intellog Unique Number	CW_82_90/WELL/773
WELL.         PHILLIPS ET AL GRANOR OV 10-14 : Well_name    - WELL
LOC .         AA/10-14-084-19W4/0            : Location     - LOCATION
UWI .         AA/10-14-084-19W400            : Uwi          - UNIQUE WELL ID
ENTR.         JAYE                           : Entered      - ENTERED BY
SRVC.         SCHLUMBERGER                   : Scn          - SERVICE COMPANY
DATE.         22 JAN 81                      : Date         - LOG DATE
STRT.M        190                            : top_depth    - START DEPTH
STOP.M        350                            : bot_depth    - STOP DEPTH
STEP.M        0.25                           : increment    - STEP LENGTH
 NULL. -999.2500:NULL Value
~CURVE INFORMATION BLOCK
#MNEM UNIT       ERCB CURVE CODE    CURVE DESCRIPTION
#-----------   ------------------   ----------------------------------
DEPT.M        00 001 00 00         : DEPTH        - DEPTH
CALI.MM       00 280 01 00         : CAL          - CALIPER
GR  .API      00 310 00 00         : GR           - GAMMA RAY
NPHI.V/V      00 330 00 00         : PHIN         - NEUTRON POROSITY (SANDSTONE)
DPHI.V/V      00 890 00 00         : PHID         - DENSITY POROSITY (SANDSTONE)
ILD .OHMM     00 120 00 00         : RESD         - DEEP RESISTIVITY (DIL)
~PARAMETER INFORMATION
#MNEM.UNIT           DATA             DESCRIPTION OF MNEMONIC
#---------         -----------     ------------------------------
GL  .M        599.7                : gl           - GROUND LEVEL ELEVATION
EREF.M        602.32               : kb           - ELEVATION OF DEPTH REFERENCE
DATM.M        599.7                : datum        - DATUM ELEVATION
TDD .M        349                  : tdd          - TOTAL DEPTH DRILLER
RUN .         ONE                  : Run          - RUN NUMBER
ENG .         SALSMAN              : Engineer     - RECORDING ENGINEER
WIT .         CRIPPS/HAYES         : Witness      - WITNESSED BY
BASE.         EDMONTON             : Branch       - HOME BASE OF LOGGING UNIT
MUD .         GEL CHEM             : Mud_type     - MUD TYPE
MATR.         SANDSTONE            : Logunit      - NEUTRON MATRIX
TMAX.C        0                    : BHT          - MAXIMUM RECORDED TEMPERATURE
BHTD.M        349                  : BHTDEP       - MAXIMUM RECORDED TEMPERATURE
RMT .C        10                   : MDTP         - TEMPERATURE OF MUD
MUDD.KG/M     1110                 : MWT          - MUD DENSITY
NEUT.         1                    : NEUTRON      - NEUTRON TYPE
RESI.         0                    : RESIST       - RESISTIVITY TYPE
RM  .OHMM     1.97                 : RM           - RESISTIVITY OF MUD
RMC .OHMM     0                    : RMC          - RESISTIVITY OF MUD CAKE
RMF .OHMM     1.72                 : RMF          - RESISTIVITY OF MUD FILTRATE
SUFT.C        0                    : SUFT         - SURFACE TEMPERATURE
~A  DEPTH      CAL       GR     PHIN     PHID     RESD
  190.000  227.930   60.249    0.455    0.218    9.187
  190.250  224.678   60.236    0.437    0.232   10.778
  190.500  216.327   62.180    0.451    0.274   11.154
  190.750  212.555   64.859    0.464    0.302    9.187
  191.000  209.937   68.617    0.460    0.308    5.532
  191.250  215.358   71.673    0.453    0.305    4.713
  191.500  222.014   74.855    0.464    0.274    4.814
  191.750  229.499   80.543    0.483    0.247    5.308
  192.000  236.989   85.986    0.491    0.216    5.963
  192.250  236.136   87.163    0.480    0.223    6.933
  192.500  234.034   86.087    0.485    0.218    7.656
  192.750  234.035   82.573    0.481    0.238    8.556
  193.000  234.209   78.243    0.490    0.227    9.421
  193.250  233.981   76.178    0.478    0.222    9.990
  193.500  233.268   78.980    0.460    0.226   10.393
  193.750  233.031   83.987    0.435    0.213   10.673
  194.000  232.477   84.861    0.426    0.202   10.959
  194.250  231.332   84.592    0.435    0.210   11.299
  194.500  230.674   82.644    0.448    0.230   11.435
  194.750  229.211   79.880    0.460    0.236   11.461
  195.000  224.501   80.063    0.472    0.246   11.214
  195.250  215.623   81.675    0.476    0.275   10.156
  195.500  197.459   85.432    0.473    0.276    7.937
  195.750  201.008   85.731    0.455    0.260    5.269
  196.000  208.688   82.778    0.443    0.248    4.380
  196.250  214.107   85.222    0.473    0.264    4.213
  196.500  221.386   90.592    0.523    0.240    4.393
  196.750  230.854   95.469    0.558    0.237    4.564
  197.000  238.341   95.523    0.569    0.252    4.634
  197.250  237.502   95.022    0.566    0.231    4.664
  197.500  243.636   98.206    0.279    0.275    4.647
  197.750  232.249  102.705    0.299    0.267    4.322
  198.000  220.346  103.003    0.319    0.251    3.844
  198.250  206.364  101.493    0.334    0.214    3.682
  198.500  202.591   97.287    0.343    0.222    3.870
  198.750  201.638   99.042    0.355    0.228    4.242
  199.000  202.985  100.851    0.364    0.260    5.685
  199.250  205.993   97.388    0.374    0.281    7.995
  199.500  211.334   84.291    0.384    0.302   16.887
  199.750  213.046   75.580    0.398    0.330   22.836
  200.000  215.759   70.811    0.411    0.361   26.099
  200.250  216.563   66.733    0.330    0.400   26.807
  200.500  214.563   58.897    0.291    0.413   26.279
  200.750  210.062   53.187    0.314    0.383   25.521
  201.000  207.550   47.544    0.348    0.346   25.152
  201.250  211.521   48.912    0.385    0.332   25.118
  201.500  215.866   46.401    0.443    0.358   25.127
  201.750  222.105   47.330    0.472    0.349   25.148
  202.000  233.345   50.083    0.473    0.345   25.354
  202.250  235.634   50.633    0.472    0.353   25.699
  202.500  237.072   53.321    0.472    0.350   25.845
  202.750  238.104   54.060    0.474    0.350   25.997
  203.000  237.464   52.867    0.476    0.356   25.866
  203.250  234.848   51.918    0.482    0.357   25.544
  203.500  230.750   51.974    0.489    0.355   25.411
  203.750  225.519   52.715    0.485    0.354   25.208
  204.000  221.750   53.899    0.476    0.356   25.207
  204.250  220.589   55.325    0.480    0.358   25.034
  204.500  202.015   60.647    0.483    0.355   24.893
  204.750  187.924   60.201    0.466    0.345   24.782
  205.000  180.919   59.246    0.451    0.345   24.511
  205.250  178.720   59.865    0.460    0.343   24.428
  205.500  191.734   60.678    0.456    0.347   24.215
  205.750  206.944   58.722    0.453    0.350   24.042
  206.000  212.349   55.707    0.454    0.360   24.102
  206.250  207.234   53.886    0.460    0.363   24.065
  206.500  205.556   54.757    0.461    0.352   23.861
  206.750  213.043   57.376    0.491    0.351   23.683
  207.000  216.876   59.430    0.500    0.359   23.795
  207.250  218.434   60.925    0.477    0.364   24.340
  207.500  216.960   59.789    0.466    0.348   25.198
  207.750  215.370   55.777    0.465    0.351   25.489
  208.000  213.812   54.011    0.475    0.346   25.455
  208.250  213.682   55.013    0.475    0.348   25.409
  208.500  213.996   56.376    0.481    0.347   25.236
  208.750  214.493   57.122    0.486    0.341   24.821
  209.000  215.190   56.797    0.467    0.344   24.106
  209.250  215.914   55.541    0.456    0.342   23.843
  209.500  216.622   54.587    0.457    0.336   23.599
  209.750  217.454   54.841    0.461    0.333   23.520
  210.000  218.156   55.834    0.472    0.352   23.133
  210.250  218.554   56.571    0.482    0.351   22.598
  210.500  216.357   57.312    0.488    0.349   22.432
  210.750  203.717   57.177    0.486    0.342   22.106
  211.000  206.437   53.912    0.489    0.348   21.350
  211.250  212.445   54.533    0.503    0.347   20.152
  211.500  196.476   56.354    0.500    0.364   19.129
  211.750  201.473   57.647    0.512    0.362   18.196
  212.000  205.315   59.138    0.515    0.354   18.241
  212.250  208.740   60.136    0.503    0.350   18.628
  212.500  213.307   60.379    0.500    0.350   18.919
  212.750  215.707   60.123    0.502    0.345   19.143
  213.000  216.433   59.426    0.497    0.332   19.302
  213.250  217.130   57.660    0.495    0.343   19.270
  213.500  217.539   55.462    0.494    0.356   19.146
  213.750  217.837   55.580    0.491    0.355   19.144
  214.000  217.702   57.570    0.486    0.354   19.374
  214.250  217.069   59.879    0.480    0.344   19.422
  214.500  215.799   59.807    0.500    0.343   19.352
  214.750  210.675   58.425    0.493    0.347   18.724
  215.000  207.733   58.037    0.475    0.345   18.143
  215.250  207.833   58.469    0.476    0.351   18.084
  215.500  203.332   58.336    0.508    0.351   18.548
  215.750  203.938   57.387    0.534    0.354   18.796
  216.000  208.718   56.377    0.528    0.345   18.907
  216.250  211.957   56.054    0.502    0.353   18.614
  216.500  212.348   57.048    0.509    0.354   18.405
  216.750  212.850   55.037    0.518    0.360   18.147
  217.000  213.034   54.970    0.479    0.354   17.847
  217.250  213.142   55.583    0.456    0.358   17.260
  217.500  212.386   55.451    0.454    0.360   16.853
  217.750  209.557   54.817    0.470    0.360   16.488
  218.000  208.910   54.873    0.465    0.359   15.858
  218.250  210.872   55.863    0.469    0.361   14.946
  218.500  215.246   56.988    0.470    0.359   14.059
  218.750  216.484   57.539    0.481    0.353   13.076
  219.000  216.392   57.031    0.474    0.350   12.935
  219.250  215.926   56.084    0.489    0.346   13.411
  219.500  215.280   55.764    0.528    0.347   14.114
  219.750  215.389   55.940    0.507    0.354   14.853
  220.000  215.794   56.435    0.498    0.341   15.430
  220.250  216.386   56.301    0.501    0.329   15.668
  220.500  216.680   55.851    0.496    0.345   15.617
  220.750  216.565   55.783    0.499    0.350   15.108
  221.000  215.508   54.901    0.516    0.349   14.586
  221.250  215.589   54.451    0.509    0.357   14.298
  221.500  217.253   55.257    0.494    0.366   14.066
  221.750  218.480   57.815    0.500    0.352   13.940
  222.000  219.197   60.688    0.508    0.346   13.712
  222.250  219.300   62.435    0.503    0.347   13.312
  222.500  219.278   61.927    0.491    0.347   12.787
  222.750  219.277   61.980    0.467    0.350   12.485
  223.000  219.140   62.969    0.477    0.344   12.095
  223.250  218.910   62.781    0.503    0.328   11.833
  223.500  219.004   62.651    0.507    0.314   12.319
  223.750  219.517   63.699    0.510    0.304   12.693
  224.000  219.713   64.252    0.497    0.323   12.704
  224.250  219.805   63.180    0.498    0.334   12.170
  224.500  219.877   61.794    0.487    0.320    9.836
  224.750  219.880   60.784    0.501    0.326    7.473
  225.000  219.546   61.530    0.510    0.335    6.559
  225.250  219.313   63.149    0.511    0.324    6.310
  225.500  218.673   66.962    0.507    0.315    6.592
  225.750  216.576   71.083    0.533    0.303    7.418
  226.000  209.043   72.327    0.548    0.288    9.646
  226.250  206.631   66.062    0.536    0.267   12.637
