~VERSION INFORMATION
 VERS.                 2.0:   CWLS LOG ASCII STANDARD -VERSION 2.0
 WRAP.                  NO:   ONE LINE PER DEPTH STEP
~WELL INFORMATION BLOCK
#MNEM.UNIT           DATA                    DESCRIPTION OF MNEMONIC
#---------    -------------------            -------------------------------
# Generated from Intellog Unique Number	CC_84_87/WELL/2350
NULL.         -999.25                        : NULL_VALUE
WELL.         SUNCOR CHEECHAM                : Well_name    - WELL              
LOC .         15-06-085-06W4                 : Location     - LOCATION          
UWI .         00/15-06-085-06W400            : Uwi          - UNIQUE WELL ID    
ENTR.         DW                             : Entered      - ENTERED BY        
SRVC.         SCHLUMBERGER                   : Scn          - SERVICE COMPANY   
DATE.         04 MAR 81                      : Date         - LOG DATE
STRT.M        91                             : top_depth    - START DEPTH       
STOP.M        324.999                        : bot_depth    - STOP DEPTH        
STEP.M        0.3                            : increment    - STEP LENGTH       
~CURVE INFORMATION BLOCK
#MNEM UNIT       ERCB CURVE CODE    CURVE DESCRIPTION
#-----------   ------------------   ----------------------------------
DEPT.M        00 001 00 00         : DEPTH        - DEPTH                       
DPHI.V/V      00 890 00 00         : PHID         - DENSITY POROSITY (LIMESTONE)
NPHI.V/V      00 330 00 00         : PHIN         - NEUTRON POROSITY (LIMESTONE)
GR  .API      00 310 00 00         : GR           - GAMMA RAY                   
ILD .OHMM     00 120 00 00         : RESD         - DEEP RESISTIVITY (DIL)      
~PARAMETER INFORMATION       
#MNEM.UNIT           DATA             DESCRIPTION OF MNEMONIC
#---------         -----------     ------------------------------
GL  .M        504.5                : gl           - GROUND LEVEL ELEVATION      
EREF.M        507.7                : kb           - ELEVATION OF DEPTH REFERENCE
DATM.M        507.7                : datum        - DATUM ELEVATION             
TDD .M        353                  : tdd          - TOTAL DEPTH DRILLER         
RUN .         ONE                  : Run          - RUN NUMBER                  
ENG .         BILL                 : Engineer     - RECORDING ENGINEER          
WIT .         JIM                  : Witness      - WITNESSED BY                
MUD .         GEL                  : Mud_type     - MUD TYPE                    
MATR.         LIMESTONE            : Logunit      - NEUTRON MATRIX              
TMAX.C        25                   : BHT          - MAXIMUM RECORDED TEMPERATURE
BHTD.M        353                  : BHTDEP       - MAXIMUM RECORDED TEMPERATURE
MATR.         1                    : LOGUNIT      - NEUTRON MATRIX              
RMT .C        25                   : MDTP         - TEMPERATURE OF MUD          
NEUT.         1                    : NEUTRON      - NEUTRON TYPE                
RESI.         0                    : RESIST       - RESISTIVITY TYPE            
RMC .OHMM     0.25                 : RMC          - RESISTIVITY OF MUD CAKE     
RMF .OHMM     0.25                 : RMF          - RESISTIVITY OF MUD FILTRATE 
SUFT.C        4                    : SUFT         - SURFACE TEMPERATURE         
~A  DEPTH     PHID     PHIN       GR     RESD
   91.000    0.154    0.553   93.795    6.393
   91.300    0.144    0.570  101.203    6.514
   91.600    0.217    0.564  104.268    6.764
   91.900    0.303    0.519  103.600    7.023
   92.200    0.297    0.535   99.835    7.155
   92.500    0.242    0.524   97.923    7.151
   92.800    0.287    0.511   99.742    7.012
   93.100    0.273    0.521  100.328    6.617
   93.400    0.289    0.554  103.385    6.244
   93.700    0.311    0.543  107.688    6.122
   94.000    0.389    0.531  110.130    6.003
   94.300    0.246    0.515  111.334    5.885
   94.600    0.220    0.476  113.149    5.882
   94.900    0.229    0.495  113.731    5.879
   95.200    0.238    0.527  113.067    5.876
   95.500    0.253    0.516  110.542    5.762
   95.800    0.249    0.524  104.905    5.758
   96.100    0.259    0.484  101.757    5.755
   96.400    0.258    0.470   94.262    5.642
   96.700    0.283    0.459   95.460    5.532
   97.000    0.266    0.477  101.004    5.636
   97.300    0.272    0.474  103.450    5.742
   97.600    0.268    0.474  104.023    5.850
   97.900    0.257    0.456  100.868    6.190
   98.200    0.252    0.453   95.233    6.553
   98.500    0.239    0.462   94.569    7.207
   98.800    0.196    0.460   97.644    8.720
   99.100    0.206    0.442  105.054    9.591
   99.400    0.243    0.435  103.762   10.150
   99.700    0.277    0.454  106.211   10.144
  100.000    0.289    0.475  111.126   10.139
  100.300    0.257    0.475  109.841    9.942
  100.600    0.223    0.479  107.945    9.562
  100.900    0.237    0.478  105.413    9.198
  101.200    0.203    0.477  104.121    9.018
  101.500    0.206    0.462  105.317    8.843
  101.800    0.236    0.456  107.771    8.669
  102.100    0.211    0.457  110.208    8.667
  102.400    0.216    0.480  109.547    8.661
  102.700    0.217    0.500  108.259    8.655
  103.000    0.214    0.493  109.451    8.487
  103.300    0.211    0.500  108.798    8.813
  103.600    0.209    0.494  103.786    9.151
  103.900    0.224    0.486  100.632    9.322
  104.200    0.242    0.458  104.313    9.316
  104.500    0.248    0.455  107.376    9.313
  104.800    0.229    0.469  104.849    9.131
  105.100    0.271    0.482  102.328    8.783
  105.400    0.223    0.485  104.124    8.778
  105.700    0.237    0.490  103.482    8.606
  106.000    0.253    0.482  101.571    8.601
  106.300    0.245    0.474  100.899    8.596
  106.600    0.236    0.486  103.347    8.593
  106.900    0.206    0.500  101.447    8.585
  107.200    0.227    0.475  106.359    8.746
  107.500    0.211    0.456  107.560    8.744
  107.800    0.224    0.455  106.909    8.906
  108.100    0.214    0.450  105.619    8.733
  108.400    0.205    0.451  105.577    8.729
  108.700    0.208    0.469  103.038    8.723
  109.000    0.223    0.466   99.898    8.885
  109.300    0.223    0.445   96.748    9.051
  109.600    0.221    0.458   94.218    9.223
  109.900    0.218    0.459   88.583    9.394
  110.200    0.218    0.432   84.820    9.388
  110.500    0.237    0.408   79.188    9.206
  110.800    0.245    0.417   76.660    8.856
  111.100    0.256    0.406   88.417    6.772
  111.400    0.269    0.406  103.905    6.639
  111.700    0.261    0.428  111.302    8.348
  112.000    0.241    0.458  113.132   10.495
  112.300    0.220    0.474  116.190   11.764
  112.600    0.208    0.431  112.425   11.758
  112.900    0.223    0.449  102.442   10.084
  113.200    0.238    0.449   96.185    7.859
  113.500    0.272    0.444   99.251    7.003
  113.800    0.272    0.448  101.693    6.999
  114.100    0.264    0.448   92.949    7.697
  114.400    0.278    0.449   89.805    8.148
  114.700    0.288    0.451   93.483    8.460
  115.000    0.280    0.448  102.766    8.786
  115.300    0.278    0.437  108.312    9.478
  115.600    0.260    0.440  101.433   10.226
  115.900    0.255    0.462   83.993   10.221
  116.200    0.266    0.451   75.261   10.613
  116.500    0.257    0.410   59.688   10.406
  116.800    0.278    0.396   51.570    8.590
  117.100    0.305    0.414   49.647    6.443
  117.400    0.324    0.430   50.231    8.417
  117.700    0.287    0.424   49.569    9.617
  118.000    0.282    0.416   48.913    9.610
  118.300    0.288    0.415   51.965    9.790
  118.600    0.298    0.428   51.926    9.601
  118.900    0.284    0.430   49.404    9.413
  119.200    0.301    0.401   51.222    9.407
  119.500    0.317    0.387   61.106    9.224
  119.800    0.307    0.419   61.694    9.220
  120.100    0.302    0.442   60.413    9.215
  120.400    0.312    0.442   57.885    9.941
  120.700    0.306    0.442   54.730   10.523
  121.000    0.317    0.453   51.585   10.120
  121.300    0.322    0.445   53.403    9.551
  121.600    0.311    0.421   53.362    9.188
  121.900    0.301    0.410   52.073    9.009
  122.200    0.299    0.428   45.820    9.003
  122.500    0.324    0.450   44.532    9.348
  122.800    0.318    0.443   48.843    9.166
  123.100    0.337    0.419   52.518    8.988
  123.400    0.338    0.400   54.348    9.156
  123.700    0.309    0.404   54.299    9.690
  124.000    0.307    0.416   52.397    9.871
  124.300    0.325    0.431   51.108    9.868
  124.600    0.332    0.438   58.523    9.674
  124.900    0.325    0.437   60.959   10.640
  125.200    0.314    0.437   59.050   11.927
  125.500    0.315    0.443   55.903   12.384
  125.800    0.326    0.466   50.894   11.689
  126.100    0.321    0.464   52.093   10.414
  126.400    0.323    0.446   52.670    9.459
  126.700    0.348    0.430   47.647    9.273
  127.000    0.329    0.425   51.336    9.268
  127.300    0.334    0.430   54.405    9.443
  127.600    0.324    0.437   54.360    9.437
  127.900    0.328    0.409   58.047    9.077
  128.200    0.316    0.427   62.348    8.901
  128.500    0.313    0.434   62.309    9.066
  128.800    0.286    0.437   59.777    9.237
  129.100    0.317    0.447   57.244    9.777
  129.400    0.320    0.450   56.576   10.153
  129.700    0.306    0.448   56.539   10.747
  130.000    0.307    0.444   57.124   11.158
  130.300    0.320    0.436   58.944   11.367
  130.600    0.338    0.427   59.517   11.805
  130.900    0.316    0.421   56.990   12.733
  131.200    0.319    0.441   55.700   13.223
  131.500    0.333    0.448   55.658   12.967
  131.800    0.315    0.435   56.866   12.236
  132.100    0.330    0.439   57.437   11.771
  132.400    0.308    0.437   53.667   11.107
  132.700    0.309    0.444   53.624   10.684
  133.000    0.341    0.452   57.310   10.679
  133.300    0.333    0.443   56.649   10.672
  133.600    0.328    0.442   52.253   10.870
  133.900    0.322    0.435   52.835   10.867
  134.200    0.307    0.416   53.412   10.655
  134.500    0.312    0.436   52.747   10.447
  134.800    0.335    0.455   50.831   10.244
  135.100    0.330    0.435   47.690   10.434
  135.400    0.324    0.454   49.515   10.428
  135.700    0.321    0.459   55.051   10.224
  136.000    0.317    0.428   55.019    9.834
  136.300    0.322    0.432   56.210    9.643
  136.600    0.334    0.449   58.654    9.639
  136.900    0.342    0.438   59.231    9.820
  137.200    0.329    0.429   58.572   10.196
  137.500    0.324    0.451   57.279   10.386
  137.800    0.331    0.463   54.759   10.381
  138.100    0.325    0.459   48.498   10.375
  138.400    0.321    0.445   48.455   10.369
  138.700    0.336    0.446   52.144   10.168
  139.000    0.334    0.458   54.583    9.780
  139.300    0.309    0.427   54.534    9.406
  139.600    0.309    0.430   53.875    9.049
  139.900    0.329    0.449   54.456    8.704
  140.201    0.326    0.461   60.004    8.535
  140.501    0.322    0.450   67.415    8.530
  140.801    0.307    0.439   82.901    8.858
  141.101    0.258    0.434   95.902    8.851
  141.401    0.259    0.455  102.686    8.847
  141.701    0.254    0.469   94.572    8.510
  142.001    0.221    0.461   66.576    8.344
  142.301    0.182    0.423   52.248    8.026
  142.601    0.273    0.392   50.959    7.870
  142.901    0.274    0.416   53.393    7.570
