~VERSION INFORMATION
 VERS.                 2.0:   CWLS LOG ASCII STANDARD -VERSION 2.0
 WRAP.                  NO:   ONE LINE PER DEPTH STEP
~WELL INFORMATION BLOCK
#MNEM.UNIT           DATA                    DESCRIPTION OF MNEMONIC
#---------    -------------------            -------------------------------
# Generated from Intellog Unique Number	CN_91_93/WELL/2842
WELL.         11-09-092-10W4                 : Well_name    - WELL
LOC .         AA/11-09-092-10W4/0            : Location     - LOCATION
UWI .         AA/11-09-092-10W400            : Uwi          - UNIQUE WELL ID
ENTR.         JOETTE                         : Entered      - ENTERED BY
SRVC.         COMPUTALOG                     : Scn          - SERVICE COMPANY
DATE.         03/27/92                       : Date         - LOG DATE
STRT.M        5                              : top_depth    - START DEPTH
STOP.M        83                             : bot_depth    - STOP DEPTH
STEP.M        0.25                           : increment    - STEP LENGTH
 NULL. -999.2500:NULL Value
~CURVE INFORMATION BLOCK
#MNEM UNIT       ERCB CURVE CODE    CURVE DESCRIPTION
#-----------   ------------------   ----------------------------------
DEPT.M        00 001 00 00         : DEPTH        - DEPTH
CALI.MM       00 280 01 00         : CAL          - CALIPER
GR  .API      00 310 00 00         : GR           - GAMMA RAY
NPHI.V/V      00 330 00 00         : PHIN         - NEUTRON POROSITY (SANDSTONE)
DPHI.V/V      00 890 00 00         : PHID         - DENSITY POROSITY (SANDSTONE)
ILD .OHMM     00 120 00 00         : RESD         - DEEP RESISTIVITY (DIL)
~PARAMETER INFORMATION
#MNEM.UNIT           DATA             DESCRIPTION OF MNEMONIC
#---------         -----------     ------------------------------
GL  .M        327                  : gl           - GROUND LEVEL ELEVATION
EREF.M        327                  : kb           - ELEVATION OF DEPTH REFERENCE
DATM.M        327                  : datum        - DATUM ELEVATION
TDD .M        84                   : tdd          - TOTAL DEPTH DRILLER
RUN .         ONE                  : Run          - RUN NUMBER
ENG .         BILL                 : Engineer     - RECORDING ENGINEER
WIT .         JIM                  : Witness      - WITNESSED BY
MUD .         GEL                  : Mud_type     - MUD TYPE
MATR.         SANDSTONE            : Logunit      - NEUTRON MATRIX
TMAX.C        15                   : BHT          - MAXIMUM RECORDED TEMPERATURE
BHTD.M        84                   : BHTDEP       - MAXIMUM RECORDED TEMPERATURE
RMT .C        14                   : MDTP         - TEMPERATURE OF MUD
MUDD.KG/M     1020                 : MWT          - MUD DENSITY
NEUT.         1                    : NEUTRON      - NEUTRON TYPE
RESI.         0                    : RESIST       - RESISTIVITY TYPE
RM  .OHMM     13.6                 : RM           - RESISTIVITY OF MUD
RMC .OHMM     13.6                 : RMC          - RESISTIVITY OF MUD CAKE
RMF .OHMM     13.6                 : RMF          - RESISTIVITY OF MUD FILTRATE
SUFT.C        -15                  : SUFT         - SURFACE TEMPERATURE
~A  DEPTH      CAL       GR     PHIN     PHID     RESD
    5.000  154.982   60.959    0.537    0.092 1238.110
    5.250  154.692   56.186    0.635    0.131 1249.950
    5.500  154.700   48.724    0.575    0.145  782.499
    5.750  154.709   54.709    0.474    0.102  639.469
    6.000  154.717   57.108    0.536    0.090  588.946
    6.250  154.727   53.232    0.584    0.091  459.642
    6.500  154.438   57.724    0.739    0.091  330.264
    6.750  153.550   48.768    0.680    0.096   25.670
    7.000  151.467   53.258    0.621    0.106   17.138
    7.250  149.383   35.636    0.581    0.116   17.623
    7.500  148.495   50.288    0.617    0.028   17.308
    7.750  149.101   45.515    0.616    0.003   15.364
    8.000  150.306   40.145    0.563   -0.016   15.654
    8.250  149.718   46.727    0.541   -0.027   17.009
    8.500  148.230   46.737    0.565   -0.030   17.331
    8.750  146.745   44.354    0.471   -0.027   16.559
    9.000  146.157   48.845    0.471   -0.025   16.412
    9.250  146.463   57.818    0.518   -0.021   18.501
    9.500  147.967   72.468    0.626   -0.029   18.507
    9.750  150.664   75.764    0.643   -0.042   16.733
   10.000  153.660   76.968    0.623   -0.059   17.525
   10.250  158.151   71.299    0.638   -0.059   16.745
   10.500  159.653   65.629    0.637   -0.037   14.864
   10.750  154.583   76.097    0.637   -0.038   13.073
   11.000  156.086   86.564    0.595   -0.044   10.783
   11.250  157.887   75.816    0.646   -0.024   10.021
   11.500  157.299   78.513    0.596    0.009    8.978
   11.750  149.239   88.980    0.526    0.100   26.079
   12.000  150.741   74.347    0.559    0.270   39.090
   12.250  151.051   74.654    0.610    0.246   40.567
   12.500  150.758   83.329    0.564    0.250   41.333
   12.750  150.169   83.636    0.551    0.280   42.114
   13.000  149.281   94.402    0.551    0.294   46.183
   13.250  148.993   88.434    0.579    0.287   47.057
   13.500  147.804   80.972    0.546    0.315   45.371
   13.750  142.734   75.603    0.559    0.329   43.346
   14.000  140.949   93.840    0.648    0.374   34.460
   14.250  139.463  102.514    0.617    0.386   31.444
   14.500  136.783   98.040    0.625    0.367   23.658
   14.750  141.871  100.439    0.658    0.305   30.892
   15.000  142.477  106.723    0.652    0.305   39.972
   15.250  136.211   80.734    0.622    0.338   37.840
   15.500  139.805   93.592    0.590    0.327   29.264
   15.750  145.790   99.278    0.581    0.311   70.088
   16.000  151.776  104.366    0.543    0.302  117.299
   16.250  151.785  103.179    0.580    0.307   50.844
   16.500  152.391  102.590    0.595    0.303   45.133
   16.750  152.399   95.427    0.711    0.288   45.566
   17.000  149.718   94.838    0.738    0.302   44.342
   17.250  147.336  113.374    0.589    0.257   44.766
   17.500  147.646  102.326    0.548    0.249   48.640
   17.750  148.847  112.495    0.595    0.321   51.891
   18.000  150.650   97.862    0.484    0.330   26.537
   18.250  150.060  110.420    0.521    0.323   21.489
   18.500  139.909  122.083    0.599    0.315   21.894
   18.750  136.631  117.609    0.675    0.303   21.111
   19.000  136.640  118.215    0.597    0.307   20.357
   19.250  136.947  114.040    0.676    0.308   19.993
   19.500  137.852  104.488    0.648    0.301   19.998
   19.750  138.161  106.288    0.563    0.295   20.375
   20.000  137.569  117.054    0.610    0.306   20.571
   20.250  136.682  111.684    0.679    0.310   20.390
   20.500  136.990  109.302    0.709    0.301   20.396
   20.750  136.102  109.609    0.634    0.287   22.367
   21.000  135.811  104.837    0.636    0.279   24.984
   21.250  136.418  113.511    0.608    0.280   24.992
   21.500  136.428  113.220    0.620    0.288   22.595
   21.750  135.240  118.011    0.682    0.270   22.191
   22.000  135.847  124.295    0.669    0.251   25.015
   22.250  136.752  116.535    0.631    0.235   19.706
   22.500  134.969  114.451    0.679    0.254   18.147
   22.750  136.769  123.723    0.759    0.266   18.153
   23.000  138.869  112.974    0.766    0.254   21.824
   23.250  138.878  122.544    0.658    0.208   26.968
   23.500  137.392  106.417    0.497    0.157   37.904
   23.750  136.803   95.670    0.553    0.113   43.122
   24.000  137.410  101.355    0.515    0.213   36.225
   24.250  136.820   91.204    0.540    0.246   33.671
   24.500  136.231   90.017    0.572    0.241   33.679
   24.750  135.344   97.198    0.607    0.235   31.016
   25.000  135.651  100.194    0.524    0.233   30.745
   25.250  135.957  109.166    0.516    0.238   27.541
   25.500  135.668   99.613    0.508    0.247   24.004
   25.750  135.079  107.689    0.536    0.243   25.371
   26.000  135.386  133.098    0.540    0.236   26.090
   26.250  138.085  103.523    0.506    0.262   27.327
   26.500  138.094   83.213    0.470    0.305   33.459
   26.750  138.998   48.261    0.427    0.335   63.104
   27.000  135.123   52.154    0.438    0.338  115.776
   27.250  135.729   50.071    0.443    0.323  101.841
   27.500  135.738   52.769    0.406    0.318  171.999
   27.750  135.446   51.881    0.396    0.319   66.769
   28.000  135.156   57.568    0.370    0.323   54.564
   28.250  136.062   48.314    0.394    0.322   44.594
   28.500  136.668   45.632    0.426    0.321   39.220
   28.750  136.974   57.891    0.433    0.315   31.468
   29.000  137.881   57.004    0.416    0.303   28.714
   29.250  136.693   53.427    0.405    0.304   25.026
   29.500  136.105   71.065    0.393    0.294   24.577
   29.750  136.114   70.476    0.389    0.287   25.273
   30.000  136.718   60.624    0.429    0.284   27.210
   30.250  137.924   49.278    0.423    0.262   29.566
   30.500  140.323   67.514    0.449    0.270   27.988
   30.750  142.423   87.841    0.478    0.293   19.745
   31.000  140.040   98.009    0.491    0.291   17.050
   31.250  138.556  101.006    0.559    0.278   14.062
   31.500  140.954  103.406    0.568    0.280   22.685
   31.750  139.172   77.716    0.471    0.287   26.776
   32.000  137.984   62.784    0.392    0.284   31.029
   32.250  138.291   77.733    0.392    0.282   30.195
   32.500  138.600   89.097    0.393    0.286   27.806
   32.750  138.606   73.268    0.469    0.290   24.233
   33.000  139.213   66.704    0.532    0.291   21.315
   33.250  140.416   79.263    0.548    0.288   21.918
   33.500  138.932   84.948    0.625    0.301   19.817
   33.750  138.939   81.670    0.471    0.307   19.108
   34.000  137.753   79.886    0.400    0.282   35.056
   34.250  133.279   95.133    0.402    0.264   36.048
   34.500  133.290  105.302    0.415    0.253   31.706
   34.750  133.894   99.633    0.420    0.240   28.406
   35.000  135.398  102.928    0.405    0.238   26.644
   35.250  136.602  122.360    0.418    0.244   24.090
   35.500  138.402  121.174    0.415    0.238   21.982
   35.750  138.112  114.608    0.419    0.250   26.917
   36.000  137.224  114.020    0.407    0.268   42.242
   36.250  141.117  125.084    0.402    0.231   28.201
   36.500  139.932  102.383    0.423    0.185   33.903
   36.750  137.250  119.722    0.488    0.175   22.427
   37.000  136.362  102.101    0.418    0.297   40.030
   37.250  132.486   74.021    0.399    0.316  108.037
   37.500  133.989   77.019    0.419    0.314   72.128
   37.750  135.193   70.154    0.447    0.318  111.130
   38.000  135.799   57.612    0.416    0.331   73.514
   38.250  136.107   80.630    0.432    0.314   35.578
   38.500  136.116  100.957    0.466    0.297   30.442
   38.750  135.824   97.680    0.475    0.269   27.779
   39.000  136.132   99.181    0.411    0.261   24.433
   39.250  137.636  103.673    0.432    0.261   29.104
   39.500  134.957   98.003    0.491    0.288   25.599
   39.750  134.665  102.494    0.521    0.303   29.938
   40.000  134.973   67.542    0.448    0.302   77.172
   40.250  134.383   56.793    0.396    0.326  204.497
   40.500  133.795   60.686    0.385    0.334  118.941
   40.750  133.803   82.807    0.409    0.311   64.871
   41.000  133.812   87.895    0.445    0.305   50.170
   41.250  133.819   93.582    0.433    0.314   50.654
