~VERSION INFORMATION
 VERS.                 2.0:   CWLS LOG ASCII STANDARD -VERSION 2.0
 WRAP.                  NO:   ONE LINE PER DEPTH STEP
~WELL INFORMATION BLOCK
#MNEM.UNIT           DATA                    DESCRIPTION OF MNEMONIC
#---------    -------------------            -------------------------------
# Generated from Intellog Unique Number	CC_88_90/WELL/3159
WELL.         WESTERN HEMISPHERE PETROLEUM L : Well_name    - WELL
LOC .         AA/16-10-088-10W4/0            : Location     - LOCATION
UWI .         AA/16-10-088-10W400            : Uwi          - UNIQUE WELL ID
ENTR.         JOETTE                         : Entered      - ENTERED BY
SRVC.         SCHLUMBERGER                   : Scn          - SERVICE COMPANY
DATE.         03/06/92                       : Date         - LOG DATE
STRT.M        30.480                         : top_depth    - START DEPTH
STOP.M        131.480                        : bot_depth    - STOP DEPTH
STEP.M        0.25                           : increment    - STEP LENGTH
 NULL. -999.2500:NULL Value
~CURVE INFORMATION BLOCK
#MNEM UNIT       ERCB CURVE CODE    CURVE DESCRIPTION
#-----------   ------------------   ----------------------------------
DEPT.M        00 001 00 00         : DEPTH        - DEPTH
GR  .API      00 310 00 00         : GR           - GAMMA RAY
NPHI.V/V      00 330 00 00         : PHIN         - NEUTRON POROSITY (SANDSTONE)
ILD .OHMM     00 120 00 00         : RESD         - DEEP RESISTIVITY (DIL)
~PARAMETER INFORMATION
#MNEM.UNIT           DATA             DESCRIPTION OF MNEMONIC
#---------         -----------     ------------------------------
GL  .M        386.791              : gl           - GROUND LEVEL ELEVATION
EREF.M        386.791              : kb           - ELEVATION OF DEPTH REFERENCE
DATM.M        386.791              : datum        - DATUM ELEVATION
TDD .M        148.133              : tdd          - TOTAL DEPTH DRILLER
RUN .         ONE                  : Run          - RUN NUMBER
ENG .         BILL                 : Engineer     - RECORDING ENGINEER
WIT .         JIM                  : Witness      - WITNESSED BY
MUD .         GEL                  : Mud_type     - MUD TYPE
MATR.         SANDSTONE            : Logunit      - NEUTRON MATRIX
TMAX.C        10                   : BHT          - MAXIMUM RECORDED TEMPERATURE
BHTD.M        148.133              : BHTDEP       - MAXIMUM RECORDED TEMPERATURE
RMT .C        10                   : MDTP         - TEMPERATURE OF MUD
MUDD.KG/M     9800                 : MWT          - MUD DENSITY
NEUT.         1                    : NEUTRON      - NEUTRON TYPE
RESI.         0                    : RESIST       - RESISTIVITY TYPE
RM  .OHMM     7                    : RM           - RESISTIVITY OF MUD
RMC .OHMM     7                    : RMC          - RESISTIVITY OF MUD CAKE
RMF .OHMM     7                    : RMF          - RESISTIVITY OF MUD FILTRATE
SUFT.C        4                    : SUFT         - SURFACE TEMPERATURE
~A  DEPTH       GR     PHIN     RESD
   30.480   85.425    0.488   12.588
   30.730   84.199    0.496   15.592
   30.980   87.275    0.493   15.234
   31.230   96.496    0.488   14.339
   31.480  112.478    0.488   13.448
   31.730  106.336    0.493   12.553
   31.980  105.725    0.494   13.255
   32.230  119.863    0.496   15.731
   32.480  127.241    0.496   15.899
   32.730  113.723    0.502   15.184
   32.980  111.268    0.503   15.533
   33.230  124.792    0.497   21.732
   33.480  121.108    0.446   31.122
   33.730  110.048    0.378   38.207
   33.980  109.437    0.338   53.804
   34.230  105.138    0.332   69.579
   34.480  102.683    0.435   71.168
   34.730  103.916    0.460   17.434
   34.980  112.523    0.478   11.575
   35.230  105.765    0.499   14.228
   35.480   93.477    0.512   16.526
   35.730  100.855    0.477   16.697
   35.980   95.942    0.463   15.624
   36.230  108.237    0.461   14.908
   36.480  115.614    0.473   14.371
   36.730  119.920    0.502   13.476
   36.980  127.297    0.505   12.938
   37.230  112.551    0.516   13.108
   37.480  104.565    0.522   12.923
   37.730  107.641    0.512   11.852
   37.980  118.706    0.513   10.604
   38.230  121.168    0.521    9.177
   38.480  121.171    0.518   10.591
   38.730  109.497    0.509   14.130
   38.980   90.449    0.498   16.960
   39.230   89.838    0.485   16.421
   39.480   93.528    0.479   14.464
   39.730   94.760    0.482   11.089
   39.980  108.899    0.493   14.273
   40.230  120.578    0.488   17.281
   40.480  126.727    0.454   32.344
   40.730  125.501    0.376   42.977
   40.980  106.453    0.324   35.168
   41.230   84.331    0.380   19.378
   41.480   97.856    0.424   20.969
   41.730   89.255    0.450   22.733
   41.980   91.102    0.457   24.324
   42.230   99.094    0.456   25.203
   42.480   99.712    0.446   25.727
   42.730  102.173    0.428   25.898
   42.980   96.030    0.431   25.357
   43.230  102.794    0.447   23.934
   43.480  124.307    0.456   19.672
   43.730  135.987    0.452   19.133
   43.980  129.230    0.453   20.545
   44.230  116.941    0.454   21.777
   44.480  102.195    0.460   20.351
   44.730  112.646    0.468   17.863
   44.980  114.493    0.482   15.020
   45.230  118.183    0.489   14.657
   45.480  121.874    0.489   14.118
   45.730  118.189    0.495   13.934
   45.980  115.734    0.494   15.877
   46.230  118.196    0.479   14.807
   46.480  120.043    0.481   12.495
   46.730  108.984    0.476   10.714
   46.980  100.998    0.468   12.480
   47.230  102.229    0.469   11.940
   47.480  113.295    0.481   12.820
   47.730  102.850    0.491   14.233
   47.980  101.625    0.494   15.111
   48.230  104.701    0.500   13.333
   48.480  110.849    0.498   11.020
   48.730  112.082    0.482   11.367
   48.980  105.325    0.453   14.552
   49.230  109.630    0.446   13.836
   49.480  109.633    0.452   15.070
   49.730  107.792    0.436   17.191
   49.980  108.410    0.429   15.589
   50.230   99.809    0.435   13.809
   50.480   99.812    0.439   15.219
   50.730   97.972    0.435   16.453
   50.980   83.225    0.440   16.801
   51.230   88.145    0.456   17.858
   51.480   94.909    0.472   21.220
   51.730   89.380    0.478   20.681
   51.980   91.842    0.474   16.241
   52.230  101.678    0.477   14.815
   52.480  102.296    0.475   14.809
   52.730   93.081    0.464   14.979
   52.980  105.375    0.446   16.923
   53.230  120.742    0.449   15.675
   53.480  120.131    0.458   12.654
   53.730  117.061    0.470   11.759
   53.980  120.137    0.486   11.043
   54.230  109.079    0.503   10.148
   54.480   99.249    0.509    9.964
   54.730   94.949    0.512    9.782
   54.980   98.640    0.522    8.885
   55.230   99.258    0.515    8.169
   55.480  100.490    0.509    7.808
   55.730   98.650    0.519    7.977
   55.980   91.892    0.525    8.328
   56.230   96.197    0.518    9.385
   56.480  108.492    0.507   10.442
   56.730   94.975    0.494   11.141
   56.980   95.593    0.481   11.136
   57.230  102.356    0.477   11.126
   57.480   92.526    0.477   11.123
   57.730  101.747    0.480   10.761
   57.980  100.522    0.492   10.398
   58.230   89.463    0.509   10.393
   58.480   88.852    0.511   10.913
   58.730   94.386    0.503   11.263
   58.980   98.691    0.490   12.144
   59.230   95.621    0.470   14.620
   59.480   88.864    0.463   14.081
   59.730   91.325    0.471   11.592
   59.980  118.369    0.477   12.294
   60.230  104.852    0.479   13.525
   60.480   93.178    0.477   13.875
   60.730   90.723    0.470   14.929
   60.980   89.498    0.476   15.457
   61.230  112.239    0.476   16.337
   61.480  123.919    0.466   13.846
   61.730  113.475    0.444   14.726
   61.980  114.708    0.448   15.253
   62.230  114.710    0.457   14.535
   62.480  104.266    0.460   14.883
   62.730   98.738    0.453   15.229
   62.980   97.512    0.437   16.820
   63.230  109.806    0.440   16.636
   63.480  120.258    0.457   14.856
   63.730  110.427    0.456   13.605
   63.980  107.357    0.453   13.245
   64.230  109.819    0.463   12.705
   64.480  108.593    0.473   12.521
   64.730  108.597    0.494   12.512
   64.980  116.589    0.492   12.864
   65.230  112.290    0.478   15.694
   65.480   93.241    0.460   16.040
   65.730   87.099    0.465   15.499
   65.980   82.800    0.465   15.138
   66.230   80.960    0.459   14.422
   66.480   72.974    0.457   13.708
   66.730   64.987    0.453   14.588
   66.980   74.823    0.453   16.176
   67.230   83.430    0.452   17.233
   67.480   88.350    0.439   16.516
   67.730   96.957    0.408   16.332
   67.980  116.012    0.411   16.678
   68.230  106.797    0.417   14.900
   68.480  117.862    0.431   14.361
   68.730  127.084    0.436   14.530
   68.980  120.327    0.446   14.346
   69.230  116.642    0.455   14.162
   69.480  120.948    0.461   13.622
   69.730  124.024    0.465   13.083
   69.980  128.329    0.459   12.544
   70.230  116.655    0.468   12.715
   70.480  110.512    0.481   13.951
   70.730   95.766    0.448   15.357
   70.980   90.239    0.437   15.177
   71.230   97.002    0.459   14.638
   71.480  102.536    0.474   12.681
   71.730  110.528    0.480   10.547
   71.980  106.844    0.493    9.120
   72.230  111.764    0.503    9.113
   72.480  106.850    0.510    9.991
   72.730  108.697    0.504   10.871
   72.980  105.627    0.491   11.928
   73.230   93.954    0.481   12.983
   73.480   93.957    0.472   13.512
   73.730  104.408    0.458   13.858
   73.980  102.567    0.454   13.850
   74.230  110.560    0.458   13.665
   74.480  116.708    0.461   13.661
   74.730  103.806    0.464   13.650
   74.980   81.685    0.462   13.647
   75.230   82.302    0.449   13.639
   75.480  101.972    0.439   13.633
   75.730  102.590    0.449   13.623
   75.980   88.457    0.458   13.794
   76.230   79.857    0.455   14.321
   76.480   83.548    0.432   15.200
   76.730   81.093    0.406   18.562
   76.980   77.408    0.426   21.570
   77.230   94.619    0.457   15.889
   77.480  107.528    0.490   13.753
   77.730  105.073    0.512   10.732
   77.980   96.472    0.519    7.531
   78.230  105.079    0.525    7.528
   78.480  108.770    0.547    8.406
   78.730   95.867    0.537    9.638
   78.980   91.568    0.510   10.342
   79.230   87.884    0.503   11.399
   79.480   89.116    0.490    9.088
   79.730   77.443    0.468    9.078
   79.980   80.519    0.457    9.606
   80.230  111.865    0.451   10.309
   80.480  114.941    0.454   11.187
   80.730  114.329    0.467   11.709
   80.980  111.260    0.474   11.882
   81.230   84.836    0.477   11.344
   81.480   81.767    0.477   10.981
   81.730   84.843    0.470   12.749
   81.980   89.148    0.464   14.692
   82.230  103.900    0.479   15.749
   82.480  130.330    0.496   10.954
   82.730  124.188    0.515    9.529
   82.980  111.899    0.506    8.811
   83.230  104.529    0.512    8.627
   83.480  105.146    0.511    8.618
   83.730   91.013    0.504    8.613
   83.980   85.486    0.508    8.781
   84.230   83.031    0.511    8.777
   84.480   82.420    0.509    8.767
