~VERSION INFORMATION
 VERS.                 2.0:   CWLS LOG ASCII STANDARD -VERSION 2.0
 WRAP.                  NO:   ONE LINE PER DEPTH STEP
~WELL INFORMATION BLOCK
#MNEM.UNIT           DATA                    DESCRIPTION OF MNEMONIC
#---------    -------------------            -------------------------------
# Generated from Intellog Unique Number	CN_91_93/WELL/2788
WELL.         PETRO CANADA                   : Well_name    - WELL
LOC .         AA/10-29-093-17W4/0            : Location     - LOCATION
UWI .         AA/10-29-093-17W400            : Uwi          - UNIQUE WELL ID
ENTR.         JOETTE                         : Entered      - ENTERED BY
SRVC.         SCHLUMBERGER                   : Scn          - SERVICE COMPANY
DATE.         03/24/92                       : Date         - LOG DATE
STRT.F        200                            : top_depth    - START DEPTH
STOP.F        860.269                        : bot_depth    - STOP DEPTH
STEP.F        0.82                           : increment    - STEP LENGTH
 NULL. -999.2500:NULL Value
~CURVE INFORMATION BLOCK
#MNEM UNIT       ERCB CURVE CODE    CURVE DESCRIPTION
#-----------   ------------------   ----------------------------------
DEPT.F        00 001 00 00         : DEPTH        - DEPTH
GR  .API      00 310 00 00         : GR           - GAMMA RAY
NPHI.V/V      00 330 00 00         : PHIN         - NEUTRON POROSITY (SANDSTONE)
DPHI.V/V      00 890 00 00         : PHID         - DENSITY POROSITY (SANDSTONE)
ILD .OHMM     00 120 00 00         : RESD         - DEEP RESISTIVITY (DIL)
~PARAMETER INFORMATION
#MNEM.UNIT           DATA             DESCRIPTION OF MNEMONIC
#---------         -----------     ------------------------------
GL  .F        1673.9               : gl           - GROUND LEVEL ELEVATION
EREF.F        1684.9               : kb           - ELEVATION OF DEPTH REFERENCE
DATM.F        1684.9               : datum        - DATUM ELEVATION
TDD .F        897                  : tdd          - TOTAL DEPTH DRILLER
RUN .         ONE                  : Run          - RUN NUMBER
ENG .         BILL                 : Engineer     - RECORDING ENGINEER
WIT .         JIM                  : Witness      - WITNESSED BY
MUD .         GEL                  : Mud_type     - MUD TYPE
MATR.         SANDSTONE            : Logunit      - NEUTRON MATRIX
TMAX.F        70                   : BHT          - MAXIMUM RECORDED TEMPERATURE
BHTD.F        897                  : BHTDEP       - MAXIMUM RECORDED TEMPERATURE
RMT .F        69                   : MDTP         - TEMPERATURE OF MUD
MUDD.LB/G     8.6                  : MWT          - MUD DENSITY
NEUT.         1                    : NEUTRON      - NEUTRON TYPE
RESI.         0                    : RESIST       - RESISTIVITY TYPE
RM  .OHMM     0.49                 : RM           - RESISTIVITY OF MUD
RMC .OHMM     0.49                 : RMC          - RESISTIVITY OF MUD CAKE
RMF .OHMM     0.49                 : RMF          - RESISTIVITY OF MUD FILTRATE
SUFT.F        39.2                 : SUFT         - SURFACE TEMPERATURE
~A  DEPTH       GR     PHIN     PHID     RESD
# ...
  628.150  105.440    0.393    0.192   11.048
  628.970  102.554    0.396    0.205   10.274
  629.790  102.618    0.408    0.209   10.713
  630.610  103.952    0.413    0.198   12.032
  631.430  106.524    0.413    0.215   19.788
  632.251  107.858    0.410    0.225   33.775
  633.071  107.383    0.403    0.213   40.953
  633.891  105.735    0.393    0.182   60.066
  634.711  104.593    0.383    0.139   75.645
  635.531  101.707    0.367    0.117   42.136
  636.352  100.693    0.335    0.017   15.456
  637.172  100.186    0.312    0.004   13.324
  637.992   99.680    0.258   -0.017   12.148
  638.812   99.872    0.218   -0.038   11.297
  639.633   99.968    0.189   -0.050   10.505
  640.453   99.461    0.327   -0.026   10.341
  641.273   98.987    0.379    0.063   10.989
  642.093   97.338    0.406    0.116   12.578
  642.913   96.228    0.433    0.197   19.917
  643.734   95.722    0.431    0.201   28.104
  644.554   95.882    0.425    0.211   31.613
  645.374   98.454    0.437    0.202   28.824
  646.194  100.359    0.434    0.161   18.003
  647.014  102.930    0.351    0.142   11.903
  647.835  103.629    0.233    0.106   10.640
  648.655  103.155    0.159    0.053    9.007
  649.475  100.871    0.167   -0.004    8.058
  650.295   87.704    0.203    0.024    7.085
  651.115   77.550    0.222    0.051    6.832
  651.936   75.235    0.235    0.072    6.859
  652.756   80.821    0.271    0.119    7.007
  653.576  105.130    0.447    0.145    7.447
  654.396  111.287    0.462    0.171    7.607
  655.217  116.271    0.470    0.169    7.637
  656.037  117.637    0.477    0.162    7.656
  656.857  117.733    0.483    0.155    7.261
  657.677  117.322    0.460    0.149    7.013
  658.497  116.180    0.448    0.142    7.170
  659.318  112.723    0.449    0.139    7.465
  660.138  111.581    0.471    0.143    7.939
  660.958  112.345    0.513    0.155    8.111
  661.778  114.852    0.508    0.160    7.834
  662.598  118.027    0.482    0.147    7.560
  663.419  119.393    0.479    0.135    7.036
  664.239  120.156    0.473    0.126    7.058
  665.059  119.618    0.470    0.118    7.211
  665.879  117.366    0.471    0.109    7.809
  666.699  116.257    0.483    0.105    8.130
  667.520  116.353    0.482    0.137    9.689
  668.340  115.878    0.458    0.177   10.685
  669.160  116.006    0.429    0.181   10.916
  669.980  117.372    0.414    0.176    9.773
  670.801  120.515    0.366    0.168    8.751
  671.621  124.293    0.346    0.161    7.835
  672.441  122.580    0.342    0.138    7.155
  673.261  120.361    0.344    0.129    6.905
  674.081  119.219    0.380    0.113    6.664
  674.902  117.539    0.412    0.124    6.316
  675.722  114.620    0.422    0.152    5.772
  676.542  111.766    0.445    0.167    5.363
  677.362  113.100    0.461    0.155    6.024
  678.182  118.622    0.472    0.156    6.776
  679.003  124.811    0.471    0.170    7.616
  679.823  126.748    0.452    0.182    7.780
  680.643  128.114    0.474    0.154    7.521
  681.463  127.640    0.522    0.145    6.478
  682.283  126.562    0.513    0.136    6.262
  683.104  124.914    0.496    0.141    6.397
  683.924  124.978    0.490    0.157    6.178
  684.744  126.344    0.490    0.170    5.032
  685.564  128.313    0.496    0.183    4.675
  686.385  129.012    0.493    0.175    4.871
  687.205  129.711    0.491    0.150    5.084
  688.025  130.442    0.488    0.141    5.289
  688.845  129.364    0.486    0.112    5.837
  689.665  127.113    0.461    0.073    6.327
  690.486  124.765    0.422    0.031    6.458
  691.306  120.673    0.416    0.029    6.238
  692.126  117.184    0.432    0.101    6.145
  692.946  116.106    0.455    0.138    6.655
  693.766  119.916    0.470    0.162    6.929
  694.587  121.186    0.473    0.158    7.078
  695.407  123.790    0.476    0.155    7.101
  696.227  124.489    0.477    0.140    6.603
  697.047  124.617    0.465    0.126    5.912
  697.867  124.175    0.455    0.106    5.289
  698.688  123.033    0.445    0.098    4.923
  699.508  120.147    0.438    0.090    5.125
  700.328  111.199    0.432    0.086    5.765
  701.148  105.330    0.427    0.092    6.604
  701.969  107.235    0.423    0.108    7.289
  702.789  111.013    0.424    0.125    7.040
  703.609  113.521    0.428    0.138    6.542
  704.429  114.252    0.433    0.134    7.215
  705.249  113.809    0.447    0.128    8.584
  706.070  107.241    0.450    0.124   10.819
  706.890   97.755    0.444    0.123   13.885
  707.710   94.836    0.436    0.121   19.983
  708.530   91.918    0.429    0.124   25.668
  709.350   89.032    0.424    0.187   25.750
  710.171   84.939    0.416    0.219   23.055
  710.991   77.198    0.413    0.232   20.238
  711.811   73.677    0.414    0.242   21.508
  712.631   69.584    0.434    0.254   25.108
  713.451   68.539    0.448    0.255   29.335
  714.272   68.667    0.455    0.247   31.721
  715.092   70.636    0.447    0.234   34.328
  715.912   72.541    0.416    0.206   37.890
  716.732   74.446    0.402    0.197   40.266
  717.552   78.255    0.385    0.181   38.891
  718.373   79.557    0.378    0.173   34.140
  719.193   79.115    0.401    0.190   21.698
  720.013   75.561    0.432    0.236   17.013
  720.833   71.501    0.452    0.253   15.821
  721.654   69.853    0.444    0.251   16.175
  722.474   69.346    0.434    0.244   16.239
  723.294   68.903    0.420    0.225   15.985
  724.114   69.000    0.411    0.196   15.722
  724.934   69.699    0.431    0.178   18.354
  725.755   71.129    0.458    0.167   20.647
  726.575   73.034    0.455    0.169   17.784
  727.395   74.336    0.444    0.192   15.355
  728.215   75.638    0.434    0.196   15.973
  729.035   76.401    0.433    0.202   20.501
  729.856   77.164    0.434    0.212   33.691
  730.676   76.657    0.422    0.220   39.362
  731.496   74.406    0.414    0.230   45.161
  732.316   72.661    0.430    0.241   47.017
  733.136   69.172    0.442    0.258   48.069
  733.957   66.285    0.453    0.270   48.184
  734.777   62.828    0.463    0.279   49.261
  735.597   61.687    0.469    0.278   49.457
  736.417   60.577    0.476    0.277   51.613
  737.238   58.928    0.479    0.275   52.642
  738.058   59.025    0.464    0.283   55.899
  738.878   59.153    0.450    0.286   61.699
  739.698   59.345    0.458    0.287   68.101
  740.518   58.838    0.461    0.286   76.545
  741.339   58.331    0.451    0.283   81.217
  742.159   56.683    0.442    0.280   93.107
  742.979   54.432    0.428    0.284  104.652
  743.799   53.354    0.435    0.291  117.628
  744.619   52.783    0.436    0.291  134.850
  745.440   49.294    0.423    0.283  140.504
  746.260   45.234    0.412    0.271  141.062
  747.080   43.521    0.397    0.265  138.633
  747.900   42.412    0.390    0.272  133.901
  748.720   40.731    0.388    0.282  124.519
  749.541   39.653    0.386    0.290  105.409
  750.361   37.973    0.388    0.293   92.532
  751.181   36.895    0.389    0.292   76.739
  752.001   35.818    0.399    0.292   51.665
  752.822   35.343    0.414    0.288   26.176
  753.642   35.503    0.426    0.284   14.581
  754.462   36.805    0.428    0.279    9.100
  755.282   40.551    0.425    0.278    7.130
  756.102   53.436    0.423    0.281    9.326
  756.923   55.341    0.426    0.286   12.679
  757.743   59.119    0.437    0.285   20.462
  758.563   62.230    0.436    0.282   23.420
  759.383   67.181    0.488    0.276   35.677
  760.203   73.973    0.491    0.283   40.901
  761.024   79.528    0.459    0.263   45.972
  761.844   88.129    0.461    0.238   54.696
  762.664   97.935    0.466    0.226   62.753
  763.484   99.872    0.433    0.215   63.002
  764.304   89.116    0.413    0.252   60.803
  765.125   77.757    0.409    0.257   57.534
  765.945   63.986    0.410    0.256   47.752
  766.765   55.039    0.411    0.253   36.739
  767.585   48.503    0.413    0.247   31.646
  768.406   42.602    0.419    0.240   27.302
  769.226   40.351    0.425    0.234   24.912
  770.046   39.844    0.425    0.235   22.714
