~VERSION INFORMATION
 VERS.                 2.0:   CWLS LOG ASCII STANDARD -VERSION 2.0
 WRAP.                  NO:   ONE LINE PER DEPTH STEP
~WELL INFORMATION BLOCK
#MNEM.UNIT           DATA                    DESCRIPTION OF MNEMONIC
#---------    -------------------            -------------------------------
# Generated from Intellog Unique Number	CC_80_83/WELL/2355
NULL.         -999.25                        : NULL_VALUE
WELL.         PEX PCEJ HANGST OV             : Well_name    - WELL
LOC .         10-14-082-10W4                 : Location     - LOCATION          
UWI .         AA/10-14-082-10W400            : Uwi          - UNIQUE WELL ID    
ENTR.         DW                             : Entered      - ENTERED BY        
SRVC.         DRESSER ATLAS                  : Scn          - SERVICE COMPANY   
DATE.         24 FEB 80                      : Date         - LOG DATE
STRT.M        250                            : top_depth    - START DEPTH       
STOP.M        484.891                        : bot_depth    - STOP DEPTH        
STEP.M        0.3                            : increment    - STEP LENGTH       
~CURVE INFORMATION BLOCK
#MNEM UNIT       ERCB CURVE CODE    CURVE DESCRIPTION
#-----------   ------------------   ----------------------------------
DEPT.M        00 001 00 00         : DEPTH        - DEPTH                       
GR  .API      00 310 00 00         : GR           - GAMMA RAY                   
ILD .OHMM     00 120 00 00         : RESD         - DEEP RESISTIVITY (DIL)      
DPHI.V/V      00 890 00 00         : PHID         - DENSITY POROSITY (LIMESTONE)
NPHI.V/V      00 330 00 00         : PHIN         - NEUTRON POROSITY (LIMESTONE)
~PARAMETER INFORMATION       
#MNEM.UNIT           DATA             DESCRIPTION OF MNEMONIC
#---------         -----------     ------------------------------
GL  .M        706.79               : gl           - GROUND LEVEL ELEVATION      
EREF.M        710.48               : kb           - ELEVATION OF DEPTH REFERENCE
DATM.M        710.48               : datum        - DATUM ELEVATION             
TDD .M        496                  : tdd          - TOTAL DEPTH DRILLER         
RUN .         ONE                  : Run          - RUN NUMBER                  
ENG .         BILL                 : Engineer     - RECORDING ENGINEER          
WIT .         JIM                  : Witness      - WITNESSED BY                
MUD .         GEL                  : Mud_type     - MUD TYPE                    
MATR.         LIMESTONE            : Logunit      - NEUTRON MATRIX              
TMAX.C        17                   : BHT          - MAXIMUM RECORDED TEMPERATURE
BHTD.M        496                  : BHTDEP       - MAXIMUM RECORDED TEMPERATURE
MATR.         1                    : LOGUNIT      - NEUTRON MATRIX              
RMT .C        25                   : MDTP         - TEMPERATURE OF MUD          
NEUT.         1                    : NEUTRON      - NEUTRON TYPE                
RESI.         0                    : RESIST       - RESISTIVITY TYPE            
RMC .OHMM     0.25                 : RMC          - RESISTIVITY OF MUD CAKE     
RMF .OHMM     0.25                 : RMF          - RESISTIVITY OF MUD FILTRATE 
SUFT.C        15                   : SUFT         - SURFACE TEMPERATURE         
~A  DEPTH       GR     RESD     PHID     PHIN
# ...
  354.396   94.774    2.757    0.202    0.376
  354.696   93.512    4.169    0.202    0.378
  354.996   97.862    4.329    0.232    0.409
  355.296   91.610    4.330    0.275    0.400
  355.596   89.726    4.172    0.283    0.385
  355.896   97.196    3.728    0.242    0.401
  356.196   92.193    3.591    0.222    0.387
  356.496   90.929    3.459    0.248    0.363
  356.796   92.785    3.460    0.252    0.394
  357.096   92.147    3.210    0.228    0.390
  357.396   87.143    3.035    0.205    0.377
  357.696   81.517    3.093    0.206    0.373
  357.996   85.243    3.335    0.232    0.369
  358.296   90.220    3.734    0.246    0.377
  358.596   91.453    4.102    0.252    0.369
  358.896   93.311    4.593    0.248    0.356
  359.196   78.953    5.240    0.251    0.341
  359.496   77.688    5.978    0.253    0.308
  359.796   73.311    7.351    0.229    0.266
  360.096   65.188    9.931    0.245    0.253
  360.396   68.292   13.672    0.255    0.252
  360.696   65.784   18.126    0.185    0.224
  360.996   58.286   19.182    0.073    0.195
  361.296   51.409   18.828    0.129    0.256
  361.596   50.773   17.144    0.189    0.299
  361.896   59.487   14.210    0.272    0.327
  362.196   61.968   10.135    0.303    0.348
  362.496   68.816    8.722    0.301    0.338
  362.796   64.436    8.246    0.297    0.336
  363.096   60.052    8.405    0.294    0.344
  363.396   65.031    8.566    0.296    0.348
  363.696   56.908    8.730    0.295    0.355
  363.996   59.389    8.898    0.295    0.351
  364.296   59.998    8.899    0.291    0.351
  364.596   59.984    8.736    0.290    0.354
  364.896   59.345    8.576    0.292    0.353
  365.196   57.460    8.418    0.293    0.363
  365.496   65.553    8.262    0.285    0.349
  365.796   54.936    8.264    0.285    0.339
  366.096   66.148    8.266    0.289    0.343
  366.396   68.002    8.114    0.287    0.329
  366.696   65.496    8.115    0.285    0.315
  366.996   65.478    7.966    0.290    0.307
  367.296   67.338    7.968    0.294    0.312
  367.596   68.567    8.275    0.291    0.276
  367.896   69.797    8.756    0.279    0.241
  368.195   68.541    9.441    0.017    0.102
  368.495   54.809   10.570    0.030    0.103
  368.795   42.322   12.287    0.106    0.158
  369.095   35.445   20.031    0.131    0.201
  369.395   39.796   26.559    0.140    0.225
  369.695   47.265   26.564    0.159    0.249
  369.995   55.359   15.700    0.257    0.298
  370.295   58.463   10.585    0.287    0.327
  370.595   54.081    9.637    0.296    0.334
  370.895   55.312    9.111    0.296    0.331
  371.195   58.420    8.777    0.293    0.342
  371.495   60.897    8.946    0.295    0.350
  371.795   67.120    9.117    0.297    0.340
  372.095   63.990    9.119    0.298    0.332
  372.395   63.350    9.122    0.297    0.340
  372.695   66.455    9.123    0.293    0.344
  372.995   66.441    8.956    0.289    0.351
  373.295   59.565    8.791    0.287    0.344
  373.595   58.302    8.959    0.287    0.307
  373.895   59.539    9.131    0.293    0.314
  374.195   61.394    9.662    0.297    0.276
  374.495   62.002   11.445    0.241    0.173
  374.795   60.741   13.056    0.036    0.150
  375.095   53.245   14.617    0.121    0.213
  375.395   46.994   14.348    0.219    0.294
  375.695   53.836   11.893    0.278    0.334
  375.995   63.176   10.627    0.301    0.342
  376.295   65.659    9.497    0.302    0.330
  376.595   64.398    8.978    0.297    0.342
  376.895   64.380    8.650    0.292    0.329
  377.195   63.121    8.490    0.290    0.327
  377.495   62.484    8.492    0.282    0.326
  377.795   65.584    8.494    0.279    0.335
  378.095   65.569    8.495    0.281    0.348
  378.395   61.813    8.497    0.285    0.354
  378.695   59.307    8.341    0.282    0.350
  378.995   60.541    8.187    0.277    0.338
  379.295   65.515    8.037    0.275    0.325
  379.595   66.748    7.742    0.270    0.322
  379.895   66.734    7.183    0.276    0.337
  380.195   71.709    5.843    0.287    0.352
  380.495   86.660    4.577    0.289    0.360
  380.795   87.269    3.724    0.281    0.364
  381.095   86.007    3.655    0.249    0.351
  381.395   92.228    3.941    0.213    0.343
  381.695   94.712    4.668    0.201    0.351
  381.995   82.847    5.129    0.206    0.358
  382.295   84.705    5.327    0.196    0.383
  382.595   96.538    5.429    0.192    0.395
  382.895   99.017    4.943    0.191    0.381
  383.195   97.125    4.501    0.196    0.374
  383.495   97.118    4.502    0.232    0.392
  383.795  100.220    4.589    0.228    0.397
  384.095  101.454    4.676    0.199    0.391
  384.395   99.570    4.505    0.191    0.392
  384.695   94.567    4.102    0.193    0.391
  384.995   86.446    3.530    0.205    0.388
  385.295   95.781    3.154    0.235    0.391
  385.595  104.499    2.715    0.261    0.410
  385.895   99.499    2.250    0.261    0.425
  386.195   99.483    1.937    0.256    0.439
  386.495  102.586    1.866    0.256    0.444
  386.795  101.950    1.902    0.258    0.425
  387.095  100.060    1.975    0.263    0.418
  387.395   98.803    2.211    0.250    0.398
  387.695   98.786    2.823    0.214    0.381
  387.995  100.020    3.605    0.199    0.371
  388.295   98.759    4.603    0.187    0.362
  388.595   96.870    5.058    0.199    0.355
  388.895   98.728    5.253    0.204    0.356
  389.195  102.458    5.353    0.203    0.363
  389.495  100.573    5.559    0.206    0.355
  389.795   97.439    5.883    0.208    0.333
  390.095  102.415    6.226    0.192    0.328
  390.395  106.143    6.465    0.175    0.318
  390.695  103.006    6.971    0.170    0.311
  390.995  102.373    7.377    0.167    0.327
  391.295   98.611    7.519    0.171    0.318
  391.595   97.979    7.663    0.174    0.317
  391.895   99.833    7.522    0.180    0.320
  392.195  101.068    7.111    0.193    0.320
  392.495  101.053    6.598    0.195    0.337
  392.794   95.427    6.121    0.193    0.354
  393.094   92.918    5.470    0.192    0.362
  393.394  100.387    4.888    0.192    0.367
  393.694  107.854    4.535    0.192    0.363
  393.994  107.216    4.536    0.187    0.346
  394.294   99.096    4.984    0.155    0.321
  394.594   87.857    5.794    0.174    0.330
  394.894   90.959    6.131    0.207    0.348
  395.194   87.202    6.611    0.202    0.356
  395.494   82.824    6.996    0.211    0.335
  395.794   88.420    7.129    0.209    0.325
  396.094   93.398    6.998    0.201    0.329
  396.394   87.768    6.870    0.205    0.340
  396.694   99.604    6.617    0.217    0.342
  396.994  103.330    6.256    0.210    0.346
  397.294  103.941    6.027    0.205    0.337
  397.594   90.207    5.592    0.208    0.342
  397.894   98.298    5.489    0.217    0.339
  398.194   97.661    5.388    0.215    0.355
  398.494   91.408    5.389    0.190    0.349
  398.794   94.513    5.492    0.184    0.338
  399.094   96.995    6.035    0.194    0.338
  399.394  101.342    6.508    0.190    0.357
  399.694  105.072    6.508    0.192    0.361
  399.994  106.928    6.389    0.195    0.364
  400.294  100.056    6.271    0.198    0.367
  400.594   85.074    6.041    0.197    0.359
  400.894   86.928    5.819    0.208    0.355
  401.194   85.044    5.821    0.228    0.349
  401.494   78.168    6.160    0.227    0.348
  401.794   80.023    6.397    0.224    0.349
  402.094   83.751    6.398    0.222    0.366
  402.394   84.988    6.049    0.222    0.345
  402.694   84.348    5.827    0.220    0.342
  402.994   84.959    5.207    0.224    0.349
  403.294   91.805    4.653    0.234    0.385
  403.594   98.646    4.004    0.224    0.374
  403.894  101.754    3.257    0.234    0.353
  404.194  100.491    2.966    0.219    0.349
  404.494   90.497    2.966    0.222    0.359
  404.794   81.753    3.448    0.224    0.351
  405.094   77.998    4.487    0.219    0.352
  405.394   74.865    6.062    0.201    0.357
  405.694   76.718    6.414    0.143    0.341
  405.994   77.332    6.538    0.161    0.326
  406.294   74.195    6.417    0.211    0.326
