~VERSION INFORMATION
 VERS.                 2.0:   CWLS LOG ASCII STANDARD -VERSION 2.0
 WRAP.                  NO:   ONE LINE PER DEPTH STEP
~WELL INFORMATION BLOCK
#MNEM.UNIT           DATA                    DESCRIPTION OF MNEMONIC
#---------    -------------------            -------------------------------
# Generated from Intellog Unique Number	CS_77_79/WELL/936
WELL.         PEX PCEJ THORNBURY OV          : Well_name    - WELL
LOC .         AA/10-08-079-14W4/0            : Location     - LOCATION
UWI .         AA/10-08-079-14W4/0            : Uwi          - UNIQUE WELL ID
ENTR.         JHS                            : Entered      - ENTERED BY
SRVC.         SCHLUMBERGER                   : Scn          - SERVICE COMPANY
STRT.M        275                            : top_depth    - START DEPTH
STOP.M        525                            : bot_depth    - STOP DEPTH
STEP.M        0.25                           : increment    - STEP LENGTH
 NULL. -999.2500:NULL Value
~CURVE INFORMATION BLOCK
#MNEM UNIT       ERCB CURVE CODE    CURVE DESCRIPTION
#-----------   ------------------   ----------------------------------
DEPT.M        00 001 00 00         : DEPTH        - DEPTH
DPHI.V/V      00 890 00 00         : PHID         - DENSITY POROSITY (LIMESTONE)
NPHI.V/V      00 330 00 00         : PHIN         - NEUTRON POROSITY (LIMESTONE)
GR  .API      00 310 00 00         : GR           - GAMMA RAY
ILD .OHMM     00 120 00 00         : RESD         - DEEP RESISTIVITY (DIL)
RHOB.KG/M3    00 350 00 00         : DENS         - BULK DENSITY
~PARAMETER INFORMATION
#MNEM.UNIT           DATA             DESCRIPTION OF MNEMONIC
#---------         -----------     ------------------------------
GL  .M        700.7                : gl           - GROUND LEVEL ELEVATION
EREF.M        703.6                : kb           - ELEVATION OF DEPTH REFERENCE
DATM.M        703.6                : datum        - DATUM ELEVATION
TDD .M        527                  : tdd          - TOTAL DEPTH DRILLER
RUN .         ONE                  : Run          - RUN NUMBER
ENG .         BILL                 : Engineer     - RECORDING ENGINEER
WIT .         JIM                  : Witness      - WITNESSED BY
MUD .         GEL                  : Mud_type     - MUD TYPE
MATR.         LIMESTONE            : Logunit      - NEUTRON MATRIX
TMAX.C        22                   : BHT          - MAXIMUM RECORDED TEMPERATURE
BHTD.M        527                  : BHTDEP       - MAXIMUM RECORDED TEMPERATURE
MATR.         1                    : LOGUNIT      - NEUTRON MATRIX
RMT .C        25                   : MDTP         - TEMPERATURE OF MUD
NEUT.         1                    : NEUTRON      - NEUTRON TYPE
RESI.         0                    : RESIST       - RESISTIVITY TYPE
RMC .OHMM     0.25                 : RMC          - RESISTIVITY OF MUD CAKE
RMF .OHMM     0.25                 : RMF          - RESISTIVITY OF MUD FILTRATE
SUFT.C        15                   : SUFT         - SURFACE TEMPERATURE
~A  DEPTH     PHID     PHIN       GR     RESD     DENS
# ...
  494.000    0.201    0.332   70.028   20.008 2365.670
  494.250    0.190    0.340   84.890   19.242 2384.540
  494.500    0.177    0.346   88.577   18.854 2407.610
  494.750    0.187    0.359   85.408   18.480 2390.510
  495.000    0.192    0.354   84.110   18.099 2381.840
  495.250    0.187    0.345   84.669   18.076 2390.070
  495.500    0.198    0.348   88.968   18.054 2370.920
  495.750    0.201    0.336   87.671   18.358 2366.450
  496.000    0.194    0.336   93.832   18.693 2378.990
  496.250    0.195    0.332   91.278   18.656 2376.670
  496.500    0.214    0.335   89.363   18.644 2344.750
  496.750    0.235    0.345   84.955   17.919 2308.620
  497.000    0.195    0.341   91.112   16.914 2376.120
  497.250    0.136    0.341   97.894   15.961 2477.420
  497.500    0.108    0.344   95.976   14.780 2525.840
  497.750    0.170    0.333   82.858   14.472 2419.960
  498.000    0.208    0.334   74.083   15.303 2354.220
  498.250    0.281    0.355   57.244   21.457 2229.310
  498.500    0.261    0.353   39.755   29.529 2262.940
  498.750    0.066    0.344   40.944   39.129 2596.810
  499.000    0.054    0.325   37.166   45.438 2617.750
  499.250    0.107    0.294   43.937   48.916 2526.660
  499.500    0.188    0.313   49.485   47.942 2389.040
  499.750    0.271    0.347   57.521   38.902 2247.200
  500.000    0.283    0.361   63.052   29.264 2225.840
  500.250    0.304    0.367   62.371   23.309 2189.730
  500.500    0.298    0.343   66.682   18.206 2200.110
  500.750    0.192    0.334   86.531   16.230 2381.760
  501.000    0.174    0.328  102.020   15.320 2413.280
  501.250    0.172    0.341   87.663   14.188 2415.180
  501.500    0.192    0.354   98.172   13.139 2381.170
  501.750    0.183    0.353  102.471   13.118 2397.870
  502.000    0.172    0.357  107.391   14.391 2416.710
  502.250    0.175    0.363   96.764   15.791 2410.190
  502.500    0.208    0.356   74.937   17.321 2355.060
  502.750    0.234    0.359   63.052   17.961 2310.480
  503.000    0.250    0.345   64.235   18.283 2282.800
  503.250    0.228    0.327   79.111   17.916 2320.650
  503.500    0.212    0.309   94.605   16.910 2347.930
  503.750    0.182    0.308  100.140   15.656 2398.500
  504.000    0.175    0.322  100.090   13.954 2411.020
  504.250    0.196    0.332   94.426   13.167 2374.870
  504.500    0.184    0.328   94.381   12.910 2395.810
  504.750    0.181    0.340   95.563   13.136 2399.870
  505.000    0.179    0.327   92.401   14.411 2403.910
  505.250    0.199    0.330   87.373   16.420 2369.900
  505.500    0.210    0.344   82.334   18.364 2350.660
  505.750    0.205    0.329   67.351   20.146 2358.940
  506.000    0.121    0.298   67.919   21.694 2502.510
  506.250    0.144    0.290   59.768   22.076 2464.290
  506.500    0.214    0.314   59.718   22.470 2343.590
  506.750    0.159    0.353   63.382   21.606 2438.530
  507.000    0.159    0.352   68.932   19.629 2438.300
  507.250    0.200    0.343   76.961   17.839 2368.390
  507.500    0.191    0.337   87.483   15.903 2382.980
  507.750    0.177    0.331   98.619   14.727 2408.180
  508.000    0.167    0.335  102.296   13.897 2424.900
  508.250    0.153    0.333  108.462   12.866 2447.940
  508.500    0.146    0.336  111.502   12.604 2460.420
  508.750    0.146    0.344  107.726   12.592 2460.260
  509.000    0.181    0.355   87.757   12.813 2400.860
  509.250    0.151    0.340   87.083   12.791 2451.450
  509.500    0.119    0.347   85.161   12.532 2506.230
  509.750    0.224    0.348   73.904   11.826 2326.300
  510.000    0.255    0.354   52.688   11.375 2273.250
  510.250    0.272    0.368   47.663   11.145 2245.610
  510.500    0.294    0.372   46.979   11.337 2207.360
  510.750    0.285    0.353   56.879   11.760 2221.940
  511.000    0.272    0.357   65.532   12.427 2245.040
  511.250    0.267    0.359   62.983   13.129 2253.300
  511.500    0.249    0.352   67.281   13.361 2284.820
  511.750    0.245    0.354   67.852   13.593 2290.980
  512.000    0.228    0.354   75.873   13.072 2320.410
  512.250    0.201    0.339   83.288   12.572 2366.720
  512.500    0.170    0.327  109.354   11.857 2419.390
  512.750    0.164    0.338  116.761   11.188 2429.740
  513.000    0.166    0.368  111.104   10.560 2425.360
  513.250    0.165    0.384  119.141   10.154 2427.280
  513.500    0.142    0.382  124.682   10.142 2467.270
  513.750    0.135    0.356  125.242   10.314 2479.770
  514.000    0.150    0.367  105.900   10.501 2454.210
  514.250    0.155    0.355  103.982   11.093 2445.560
  514.500    0.139    0.339  122.582   11.724 2472.850
  514.750    0.124    0.347  126.882   12.153 2498.010
  515.000    0.118    0.344  118.740   12.363 2508.410
  515.250    0.129    0.333  121.153   12.588 2489.200
  515.500    0.148    0.337  119.251   13.300 2457.290
  515.750    0.150    0.336  118.566   13.790 2452.850
  516.000    0.159    0.345  118.513   14.036 2437.860
  516.250    0.162    0.351  115.964   14.012 2433.460
  516.500    0.164    0.351  117.148   13.722 2429.040
  516.750    0.162    0.354  117.094   13.449 2433.110
  517.000    0.160    0.361  112.066   13.181 2437.090
  517.250    0.145    0.350  120.706   13.166 2462.320
  517.500    0.161    0.348  121.278   13.148 2434.650
  517.750    0.167    0.352  109.408   13.625 2423.870
  518.000    0.186    0.331  102.500   13.357 2391.970
  518.250    0.164    0.328  105.556   13.339 2429.840
  518.500    0.159    0.321  110.470   14.635 2438.050
  518.750    0.157    0.314  116.021   17.319 2442.150
  519.000    0.149    0.293   96.057   20.887 2454.640
  519.250    0.038    0.243   78.581   27.156    0.000
  519.500    0.010    0.176   41.824   35.989    0.000
  519.750    0.000    0.142   18.133   50.464    0.000
  520.000    0.008    0.129    9.988   59.693    0.000
  520.250    0.000    0.125    9.305   60.771    0.000
  520.500    0.000    0.126   13.598   60.637    0.000
  520.750    0.019    0.135   16.030   60.595    0.000
  521.000    0.034    0.150   14.103   61.642    0.000
  521.250    0.021    0.144   15.290   61.533    0.000
  521.500    0.012    0.141   13.380   62.641    0.000
  521.750    0.018    0.143   12.680   62.555    0.000
  522.000    0.038    0.151   14.495   63.651    0.000
  522.250    0.067    0.145   14.450   64.767    0.000
  522.500    0.006    0.136   12.518   64.679    0.000
  522.750    0.003    0.134   14.940   64.553    0.000
  523.000    0.011    0.133   16.130   64.477    0.000
  523.250    0.050    0.133   16.079   64.378    0.000
  523.500    0.039    0.130   14.166   63.075    0.000
  523.750    0.039    0.128   14.089   62.965    0.000
  524.000    0.017    0.129   12.812   62.917    0.000
  524.250    0.008    0.129   13.375   61.627    0.000
  524.500    0.027    0.131   14.564   62.706    0.000
  524.750    0.007    0.131   10.773   62.596    0.000
  525.000    0.000    0.130   13.203   63.706    0.000
