~VERSION INFORMATION
 VERS.                 2.0:   CWLS LOG ASCII STANDARD -VERSION 2.0
 WRAP.                  NO:   ONE LINE PER DEPTH STEP
~WELL INFORMATION BLOCK
#MNEM.UNIT           DATA                    DESCRIPTION OF MNEMONIC
#---------    -------------------            -------------------------------
# Generated from Intellog Unique Number	CN_94_101/WELL/5024
WELL.         TEXACO                         : Well_name    - WELL
LOC .         AA/11-29-100-12W4/0            : Location     - LOCATION
UWI .         AA/11-29-100-12W400            : Uwi          - UNIQUE WELL ID
ENTR.         TIM                            : Entered      - ENTERED BY
SRVC.         SCHLUMBERGER                   : Scn          - SERVICE COMPANY
DATE.         08/13/92                       : Date         - LOG DATE
STRT.M        325                            : top_depth    - START DEPTH
STOP.M        575                            : bot_depth    - STOP DEPTH
STEP.M        0.25                           : increment    - STEP LENGTH
 NULL. -999.2500:NULL Value
~CURVE INFORMATION BLOCK
#MNEM UNIT       ERCB CURVE CODE    CURVE DESCRIPTION
#-----------   ------------------   ----------------------------------
DEPT.M        00 001 00 00         : DEPTH        - DEPTH
GR  .API      00 310 00 00         : GR           - GAMMA RAY
ILD .OHMM     00 120 00 00         : RESD         - DEEP RESISTIVITY (DIL)
NPHI.V/V      00 330 00 00         : PHIN         - NEUTRON POROSITY (SANDSTONE)
DPHI.V/V      00 890 00 00         : PHID         - DENSITY POROSITY (SANDSTONE)
~PARAMETER INFORMATION
#MNEM.UNIT           DATA             DESCRIPTION OF MNEMONIC
#---------         -----------     ------------------------------
GL  .M        776.4                : gl           - GROUND LEVEL ELEVATION
EREF.M        779.8                : kb           - ELEVATION OF DEPTH REFERENCE
DATM.M        779.8                : datum        - DATUM ELEVATION
TDD .M        634                  : tdd          - TOTAL DEPTH DRILLER
RUN .         ONE                  : Run          - RUN NUMBER
ENG .         BILL                 : Engineer     - RECORDING ENGINEER
WIT .         JIM                  : Witness      - WITNESSED BY
MUD .         GEL                  : Mud_type     - MUD TYPE
MATR.         SANDSTONE            : Logunit      - NEUTRON MATRIX
TMAX.C        28                   : BHT          - MAXIMUM RECORDED TEMPERATURE
BHTD.M        57634                : BHTDEP       - MAXIMUM RECORDED TEMPERATURE
RMT .C        25                   : MDTP         - TEMPERATURE OF MUD
MUDD.KG/M     1090                 : MWT          - MUD DENSITY
NEUT.         1                    : NEUTRON      - NEUTRON TYPE
RESI.         0                    : RESIST       - RESISTIVITY TYPE
RM  .OHMM     4.6                  : RM           - RESISTIVITY OF MUD
RMC .OHMM     4.6                  : RMC          - RESISTIVITY OF MUD CAKE
RMF .OHMM     4.6                  : RMF          - RESISTIVITY OF MUD FILTRATE
SUFT.C        4                    : SUFT         - SURFACE TEMPERATURE
~A  DEPTH       GR     RESD     PHIN     PHID
# ...
  499.000  101.243    5.110    0.438    0.253
  499.250   87.159    7.242    0.413    0.242
  499.500   75.614   14.295    0.403    0.228
  499.750   72.998   27.128    0.377    0.231
  500.000   72.948   28.700    0.377    0.261
  500.250   72.909   25.003    0.379    0.291
  500.500   71.545   23.102    0.376    0.298
  500.750   69.593   20.514    0.366    0.295
  501.000   66.365   18.946    0.342    0.277
  501.250   61.211   17.154    0.336    0.265
  501.500   56.057   16.479    0.318    0.274
  501.750   51.541   16.768    0.279    0.279
  502.000   45.749   18.460    0.275    0.283
  502.250   38.031   21.958    0.284    0.281
  502.500   35.429   27.156    0.291    0.272
  502.750   33.464   35.618    0.298    0.253
  503.000   31.500   83.731    0.304    0.256
  503.250   31.424  158.966    0.308    0.257
  503.500   31.386  248.320    0.310    0.263
  503.750   30.709  295.498    0.305    0.268
  504.000   30.659  318.900    0.299    0.271
  504.250   30.608  306.223    0.293    0.276
  504.500   29.894  271.913    0.285    0.280
  504.750   30.468  232.229    0.282    0.287
  505.000   31.055  218.788    0.282    0.296
  505.250   31.668  194.355    0.285    0.301
  505.500   33.530  172.579    0.297    0.302
  505.750   35.393  153.306    0.309    0.302
  506.000   39.157  138.862    0.321    0.301
  506.250   41.658  116.357    0.330    0.300
  506.500   44.171   97.460    0.337    0.304
  506.750   47.310   64.655    0.339    0.305
  507.000   51.086   57.435    0.339    0.308
  507.250   54.225   48.127    0.339    0.317
  507.500   57.989   35.868    0.342    0.333
  507.750   60.515   28.338    0.347    0.339
  508.000   63.653   24.223    0.354    0.331
  508.250   66.792   19.138    0.359    0.331
  508.500   71.181   16.352    0.373    0.334
  508.750   72.419   13.971    0.370    0.327
  509.000   74.907   11.927    0.367    0.320
  509.250   75.519   11.462    0.366    0.311
  509.500   75.468   10.790    0.369    0.299
  509.750   72.828   10.772    0.376    0.289
  510.000   72.165   11.621    0.380    0.284
  510.250   70.187   12.062    0.382    0.278
  510.500   69.499   12.526    0.383    0.274
  510.750   67.521   12.751    0.384    0.277
  511.000   66.207   13.235    0.385    0.281
  511.250   63.605   14.851    0.384    0.287
  511.500   63.554   15.118    0.381    0.312
  511.750   64.154   13.429    0.375    0.317
  512.000   65.379   11.930    0.372    0.314
  512.250   67.841   10.597    0.370    0.302
  512.500   68.467    8.705    0.373    0.301
  512.750   70.942    7.438    0.376    0.296
  513.000   72.817    6.355    0.388    0.290
  513.250   74.668    5.754    0.392    0.309
  513.500   75.267    5.857    0.383    0.313
  513.750   76.505    5.965    0.381    0.315
  514.000   76.454    6.189    0.386    0.318
  514.250   76.391    6.548    0.388    0.318
  514.500   76.340    6.671    0.382    0.315
  514.750   76.289    7.479    0.374    0.313
  515.000   75.575    7.919    0.366    0.309
  515.250   74.899    8.882    0.363    0.309
  515.500   74.861    9.223    0.363    0.310
  515.750   74.784    9.393    0.367    0.308
  516.000   74.759    9.746    0.369    0.307
  516.250   74.045    9.921    0.369    0.306
  516.500   72.731   10.298    0.364    0.304
  516.750   71.404   11.550    0.358    0.298
  517.000   69.440   12.234    0.341    0.290
  517.250   67.475   13.457    0.268    0.263
  517.500   66.149   12.917    0.249    0.239
  517.750   66.098   12.164    0.313    0.207
  518.000   66.672   11.685    0.348    0.173
  518.250   67.897   10.580    0.384    0.293
  518.500   69.122   10.164    0.384    0.313
  518.750   70.998    9.752    0.383    0.328
  519.000   72.848    9.744    0.373    0.323
  519.250   74.073    9.356    0.363    0.320
  519.500   74.660    8.984    0.366    0.313
  519.750   75.260    7.824    0.368    0.302
  520.000   78.398    6.950    0.368    0.292
  520.250   81.537    5.934    0.368    0.286
  520.500   87.865    5.929    0.377    0.279
  520.750   99.921    5.688    0.408    0.270
  521.000  101.172    5.572    0.401    0.269
  521.250  105.586    5.458    0.391    0.274
  521.500  106.798    5.239    0.382    0.276
  521.750  108.010    5.129    0.374    0.267
  522.000  107.960    5.119    0.370    0.258
  522.250  107.909    5.110    0.370    0.256
  522.500  107.871    5.004    0.373    0.254
  522.750  107.794    4.995    0.378    0.254
  523.000  107.769    4.891    0.382    0.253
  523.250  107.080    4.883    0.379    0.253
  523.500  107.017    4.877    0.374    0.253
  523.750  106.978    4.869    0.368    0.253
  524.000  106.915    4.859    0.373    0.254
  524.250  106.877    4.849    0.375    0.254
  524.500  106.813    4.845    0.377    0.254
  524.750  106.125    4.835    0.377    0.252
  525.000  105.449    4.827    0.376    0.246
  525.250  104.734    4.914    0.375    0.242
  525.500  104.684    4.906    0.374    0.240
  525.750  104.645    4.896    0.370    0.249
  526.000  104.582    4.888    0.370    0.256
  526.250  104.544    4.880    0.369    0.259
  526.500  104.455    4.874    0.365    0.259
  526.750  104.442    4.864    0.354    0.258
  527.000  104.391    4.858    0.349    0.250
  527.250  104.302    4.846    0.354    0.244
  527.500  104.264    4.842    0.358    0.244
  527.750  104.239    4.830    0.360    0.247
  528.000  104.175    4.827    0.363    0.258
  528.250  103.474    4.817    0.371    0.270
  528.500  103.436    4.809    0.381    0.269
  528.750  103.372    4.704    0.387    0.268
  529.000  103.347    4.699    0.392    0.268
  529.250  103.908    4.602    0.397    0.266
  529.500  105.121    4.595    0.401    0.261
  529.750  105.095    4.586    0.400    0.255
  530.000  106.307    4.580    0.398    0.251
  530.250  106.894    4.660    0.390    0.253
  530.500  106.856    4.744    0.389    0.256
  530.750  108.081    4.738    0.388    0.258
  531.000  108.656    4.731    0.384    0.262
  531.250  109.255    4.721    0.383    0.264
  531.500  110.480    4.622    0.382    0.262
  531.750  111.067    4.520    0.383    0.256
  532.000  114.831    4.515    0.378    0.248
  532.250  115.431    4.509    0.369    0.246
  532.500  116.656    4.502    0.362    0.246
  532.750  114.691    4.494    0.351    0.246
  533.000  112.076    4.485    0.344    0.246
  533.250  112.651    4.480    0.347    0.246
  533.500  113.888    4.472    0.350    0.246
  533.750  115.751    4.467    0.354    0.251
  534.000  116.976    4.547    0.359    0.255
  534.250  117.550    4.538    0.362    0.260
  534.500  117.512    4.621    0.369    0.266
  534.750  117.461    4.614    0.376    0.272
  535.000  116.773    4.606    0.378    0.273
  535.250  115.421    4.599    0.381    0.274
  535.500  114.745    4.589    0.381    0.275
  535.750  114.056    4.582    0.381    0.274
  536.000  112.729    4.574    0.374    0.263
  536.250  112.028    4.567    0.370    0.260
  536.500  111.990    4.558    0.368    0.260
  536.750  112.589    4.550    0.368    0.266
  537.000  112.539    4.543    0.376    0.270
  537.250  108.010    4.533    0.384    0.275
  537.500   95.189    4.619    0.382    0.276
  537.750   95.189    4.700    0.377    0.276
  538.000   92.548    4.784    0.378    0.276
  538.250   89.308    5.062    0.386    0.278
  538.500   86.067    5.157    0.383    0.280
  538.750   73.234    6.503    0.373    0.284
  539.000   71.256    8.200    0.362    0.285
  539.250   69.955   10.544    0.355    0.289
  539.500   66.077   13.040    0.360    0.290
  539.750   62.199   14.925    0.364    0.294
  540.000   55.744   16.424    0.371    0.299
  540.250   52.516   17.383    0.370    0.301
  540.500   48.000   18.398    0.366    0.306
  540.750   42.833   20.643    0.364    0.310
  541.000   40.882   23.163    0.365    0.311
  541.250   42.719   20.980    0.366    0.313
  541.500   43.957   17.918    0.366    0.315
  541.750   46.445   15.014    0.363    0.315
  542.000   49.596   11.867    0.361    0.315
  542.250   52.734    8.343    0.362    0.314
