~VERSION INFORMATION
 VERS.                 2.0:   CWLS LOG ASCII STANDARD -VERSION 2.0
 WRAP.                  NO:   ONE LINE PER DEPTH STEP
~WELL INFORMATION BLOCK
#MNEM.UNIT           DATA                    DESCRIPTION OF MNEMONIC
#---------    -------------------            -------------------------------
# Generated from Intellog Unique Number	CW_82_90/WELL/3437
WELL.         10-05-088-19W4                 : Well_name    - WELL
LOC .         AA/10-05-088-19W4/0            : Location     - LOCATION
UWI .         AA/10-05-088-19W400            : Uwi          - UNIQUE WELL ID
ENTR.         MAX                            : Entered      - ENTERED BY
SRVC.         SCHLUMBERGER                   : Scn          - SERVICE COMPANY
STRT.M        180                            : top_depth    - START DEPTH
STOP.M        257                            : bot_depth    - STOP DEPTH
STEP.M        0.25                           : increment    - STEP LENGTH
 NULL. -999.2500:NULL Value
~CURVE INFORMATION BLOCK
#MNEM UNIT       ERCB CURVE CODE    CURVE DESCRIPTION
#-----------   ------------------   ----------------------------------
DEPT.M        00 001 00 00         : DEPTH        - DEPTH
GR  .API      00 310 00 00         : GR           - GAMMA RAY
CALI.MM       00 280 01 00         : CAL          - CALIPER
NPHI.V/V      00 330 00 00         : PHIN         - NEUTRON POROSITY (SANDSTONE)
DPHI.V/V      00 890 00 00         : PHID         - DENSITY POROSITY (SANDSTONE)
ILD .OHMM     00 120 00 00         : RESD         - DEEP RESISTIVITY (DIL)
~PARAMETER INFORMATION
#MNEM.UNIT           DATA             DESCRIPTION OF MNEMONIC
#---------         -----------     ------------------------------
GL  .M        531.3                : gl           - GROUND LEVEL ELEVATION
EREF.M        534.8                : kb           - ELEVATION OF DEPTH REFERENCE
DATM.M        531.3                : datum        - DATUM ELEVATION
TDD .M        285                  : tdd          - TOTAL DEPTH DRILLER
RUN .         ONE                  : Run          - RUN NUMBER
ENG .         BILL                 : Engineer     - RECORDING ENGINEER
WIT .         JIM                  : Witness      - WITNESSED BY
MUD .         GEL                  : Mud_type     - MUD TYPE
MATR.         SANDSTONE            : Logunit      - NEUTRON MATRIX
TMAX.C        27                   : BHT          - MAXIMUM RECORDED TEMPERATURE
BHTD.M        287                  : BHTDEP       - MAXIMUM RECORDED TEMPERATURE
MATR.         1                    : LOGUNIT      - NEUTRON MATRIX
RMT .C        10                   : MDTP         - TEMPERATURE OF MUD
NEUT.         1                    : NEUTRON      - NEUTRON TYPE
RESI.         0                    : RESIST       - RESISTIVITY TYPE
RMC .OHMM     7.06                 : RMC          - RESISTIVITY OF MUD CAKE
RMF .OHMM     7.06                 : RMF          - RESISTIVITY OF MUD FILTRATE
SUFT.C        -1                   : SUFT         - SURFACE TEMPERATURE
~A  DEPTH       GR      CAL     PHIN     PHID     RESD
  180.000   63.526  382.180    0.577    0.563    4.509
  180.250   63.797  368.481    0.553    0.486    4.550
  180.500   62.843  359.849    0.511    0.422    4.426
  180.750   59.781  343.133    0.441    0.360    4.425
  181.000   54.592  325.419    0.395    0.327    4.590
  181.250   47.592  319.272    0.368    0.294    5.172
  181.500   39.681  317.195    0.261    0.156    8.036
  181.750   38.428  317.142    0.273    0.195   14.866
  182.000   46.256  319.593    0.360    0.246   25.088
  182.250   49.536  325.068    0.406    0.292   20.123
  182.500   54.944  319.444    0.434    0.322   12.830
  182.750   57.927  315.340    0.441    0.385   10.579
  183.000   54.855  312.237    0.390    0.332   15.413
  183.250   53.603  313.175    0.408    0.312   19.036
  183.500   55.073  317.642    0.407    0.297   19.387
  183.750   57.148  320.597    0.390    0.273   18.685
  184.000   58.926  324.560    0.378    0.297   18.512
  184.250   58.582  343.160    0.386    0.313   18.854
  184.500   56.109  362.751    0.465    0.381   18.851
  184.750   53.048  379.326    0.532    0.424   17.514
  185.000   47.556  386.314    0.557    0.500   16.123
  185.250   43.268  388.252    0.588    0.533   13.791
  185.500   43.837  385.157    0.598    0.496    8.874
  185.750   49.552  373.492    0.606    0.496    6.317
  186.000   53.739  362.826    0.579    0.514    9.461
  186.250   52.482  357.723    0.543    0.516    8.473
  186.500   51.236  345.041    0.549    0.337   10.658
  186.750   48.768  331.359    0.563    0.310   17.498
  187.000   46.009  331.784    0.574    0.347   23.259
  187.250   41.732  352.888    0.586    0.474   19.895
  187.500   34.728  375.017    0.552    0.508   15.524
  187.750   31.958  389.558    0.564    0.524   11.256
  188.000   34.341  386.968    0.595    0.538    7.377
  188.250   40.349  376.311    0.605    0.518    8.235
  188.500   46.664  365.636    0.550    0.524   10.264
  188.750   51.759  362.054    0.550    0.529    8.943
  189.000   53.840  356.439    0.556    0.534    7.863
  189.250   51.977  347.781    0.563    0.540    8.941
  189.500   48.910  355.290    0.573    0.543    9.981
  189.750   43.726  375.890    0.582    0.537   10.741
  190.000   39.142  367.241    0.591    0.495    9.979
  190.250   43.944  358.096    0.580    0.471    9.618
  190.500   51.465  341.389    0.485    0.457    9.355
  190.750   52.627  331.732    0.479    0.440    9.975
  191.000   51.683  366.447    0.484    0.430   10.735
  191.250   47.703  379.502    0.495    0.447   10.442
  191.500   44.944  387.489    0.531    0.477   10.251
  191.750   41.872  387.428    0.550    0.490   10.156
  192.000   36.380  381.804    0.559    0.498   10.829
  192.250   32.108  369.130    0.572    0.545   11.653
  192.500   26.611  374.101    0.590    0.559    9.786
  192.750   22.944  383.610    0.600    0.573    8.218
  193.000   19.878  383.018    0.603    0.569    7.777
  193.250   19.225  377.420    0.603    0.555    7.920
  193.500   21.911  378.862    0.571    0.538    7.919
  193.750   28.826  391.891    0.551    0.522    7.633
  194.000   41.796  388.787    0.556    0.513    7.632
  194.250   51.433  375.123    0.529    0.493    7.990
  194.500   55.923  372.523    0.485    0.456    8.677
  194.750   55.584  374.974    0.494    0.474    9.776
  195.000   53.117  376.920    0.521    0.489   12.074
  195.250   49.450  379.380    0.538    0.500   11.115
  195.500   43.353  382.830    0.559    0.526    9.773
  195.750   33.021  387.297    0.572    0.537    8.359
  196.000   38.127  386.731    0.592    0.533    7.625
  196.250   52.004  372.537    0.600    0.491    7.765
  196.500   62.851  363.896    0.497    0.444    8.205
  196.750   66.439  325.494    0.481    0.417    8.910
  197.000   65.484  313.820    0.463    0.378    9.947
  197.250   63.632  314.767    0.450    0.357    9.765
  197.500   60.258  347.475    0.475    0.405    8.990
  197.750   56.586  371.099    0.537    0.473    7.977
  198.000   50.797  384.145    0.565    0.490    7.014
  198.250   45.310  388.108    0.580    0.500    6.055
  198.500   38.306  389.029    0.596    0.513    5.324
  198.750   38.263  386.960    0.562    0.521    4.768
  199.000   42.456  384.873    0.546    0.518    4.767
  199.250   46.341  383.786    0.553    0.509    5.273
  199.500   49.934  382.698    0.508    0.458    6.107
  199.750   59.274  377.596    0.458    0.407    6.944
  200.000   66.789  368.947    0.425    0.366    8.498
  200.250   64.332  343.165    0.380    0.319   13.449
  200.500   60.963  334.516    0.400    0.321   13.696
  200.750   55.168  357.141    0.521    0.332   11.502
  201.000   49.984  386.320    0.539    0.417    9.571
  201.250   47.819  393.299    0.548    0.459    8.187
  201.500   47.178  394.246    0.564    0.497    9.140
  201.750   46.833  394.175    0.578    0.531    9.745
  202.000   42.248  394.609    0.587    0.539    9.137
  202.250   39.786  395.035    0.553    0.542    8.888
  202.500   43.072  392.435    0.569    0.515    8.806
  202.750   49.079  387.845    0.539    0.508    8.487
  203.000   58.419  377.171    0.506    0.479    8.486
  203.250   68.964  371.564    0.460    0.374    8.803
  203.500   70.429  327.616    0.415    0.343    9.649
  203.750   68.275  327.042    0.375    0.318   11.487
  204.000   64.906  384.965    0.410    0.356   15.409
  204.250   65.161  394.969    0.430    0.370   14.316
  204.500   63.904  363.138    0.399    0.329   14.987
  204.750   61.145  344.406    0.356    0.150   39.303
  205.000   57.170  328.204    0.180    0.044   81.928
  205.250   53.498  320.563    0.177    0.028  188.931
  205.500   51.938  319.980    0.183    0.039  155.779
  205.750   50.989  321.422    0.190    0.055  122.678
  206.000   50.936  322.369    0.199    0.087  102.082
  206.250   51.812  322.794    0.293    0.195   72.002
  206.500   55.405  322.715    0.340    0.304   41.879
  206.750   60.203  322.663    0.374    0.290   19.720
  207.000   61.068  323.088    0.297    0.206   17.661
  207.250   59.514  323.088    0.286    0.189   26.695
  207.500   57.344  323.452    0.303    0.225   44.639
  207.750   54.887  325.894    0.329    0.260   30.073
  208.000   52.420  329.866    0.485    0.330   18.146
  208.250   48.753  333.333    0.539    0.363    9.453
  208.500   41.144  343.850    0.563    0.419    7.444
  208.750   32.935  395.723    0.577    0.531    8.085
  209.000   27.443  398.156    0.567    0.483   10.077
  209.250   34.963  385.996    0.536    0.438   11.045
  209.500   43.093  369.793    0.491    0.382    9.891
  209.750   51.818  361.657    0.456    0.326    8.383
  210.000   56.323  344.942    0.435    0.261    8.155
  210.250   62.029  325.705    0.387    0.203   10.642
  210.500   59.864  318.073    0.322    0.179   14.809
  210.750   56.489  327.078    0.269    0.151   26.168
  211.000   58.267  343.149    0.283    0.194   48.855
  211.250   62.465  361.227    0.364    0.306   19.680
  211.500   64.838  381.836    0.410    0.344   11.875
  211.750   68.431  390.840    0.512    0.402   10.441
  212.000   75.951  370.083    0.495    0.385   11.339
  212.250   80.446  356.410    0.414    0.340   14.662
  212.500   80.398  324.057    0.378    0.277   16.369
  212.750   82.781  321.458    0.360    0.222   18.442
  213.000   83.339  328.437    0.371    0.236   16.067
  213.250   81.180  331.913    0.427    0.269   13.998
  213.500   79.625  333.338    0.394    0.220   14.256
  213.750   78.378  330.756    0.368    0.178   18.265
  214.000   79.239  327.157    0.384    0.185   20.205
  214.250   79.191  325.079    0.423    0.245   16.356
  214.500   80.062  323.488    0.435    0.276   13.362
  214.750   82.742  322.418    0.411    0.304   14.380
  215.000   83.008  319.810    0.360    0.243   15.761
  215.250   78.418  317.723    0.340    0.232   18.422
  215.500   73.541  319.678    0.354    0.255   20.565
  215.750   73.802  335.749    0.369    0.272   22.749
  216.000   76.174  360.382    0.397    0.310   20.187
  216.250   74.323  373.428    0.433    0.370   14.908
