~VERSION INFORMATION
 VERS.                 2.0:   CWLS LOG ASCII STANDARD -VERSION 2.0
 WRAP.                  NO:   ONE LINE PER DEPTH STEP
~WELL INFORMATION BLOCK
#MNEM.UNIT           DATA                    DESCRIPTION OF MNEMONIC
#---------    -------------------            -------------------------------
# Generated from Intellog Unique Number	CX_WELLS/WELL/3411
WELL.         SAN CHEESHAM                   : Well_name    - WELL
LOC .         AA/14-18-085-06W4/0            : Location     - LOCATION
UWI .         AA/14-18-085-06W400            : Uwi          - UNIQUE WELL ID
ENTR.         T                              : Entered      - ENTERED BY
SRVC.         SCHLUMBERGER                   : Scn          - SERVICE COMPANY
STRT.M        100                            : top_depth    - START DEPTH
STOP.M        290                            : bot_depth    - STOP DEPTH
STEP.M        0.25                           : increment    - STEP LENGTH
 NULL. -999.2500:NULL Value
~CURVE INFORMATION BLOCK
#MNEM UNIT       ERCB CURVE CODE    CURVE DESCRIPTION
#-----------   ------------------   ----------------------------------
DEPT.M        00 001 00 00         : DEPTH        - DEPTH
GR  .API      00 310 00 00         : GR           - GAMMA RAY
NPHI.V/V      00 330 00 00         : PHIN         - NEUTRON POROSITY (SANDSTONE)
DPHI.V/V      00 890 00 00         : PHID         - DENSITY POROSITY (SANDSTONE)
ILD .OHMM     00 120 00 00         : RESD         - DEEP RESISTIVITY (OTHER)
~PARAMETER INFORMATION
#MNEM.UNIT           DATA             DESCRIPTION OF MNEMONIC
#---------         -----------     ------------------------------
GL  .M        472.2                : gl           - GROUND LEVEL ELEVATION
EREF.M        472.2                : kb           - ELEVATION OF DEPTH REFERENCE
DATM.M        472.2                : datum        - DATUM ELEVATION
TDD .M        292                  : tdd          - TOTAL DEPTH DRILLER
RUN .         ONE                  : Run          - RUN NUMBER
ENG .         BILL                 : Engineer     - RECORDING ENGINEER
WIT .         JIM                  : Witness      - WITNESSED BY
MUD .         GEL                  : Mud_type     - MUD TYPE
MATR.         SANDSTONE            : Logunit      - NEUTRON MATRIX
TMAX.C        20                   : BHT          - MAXIMUM RECORDED TEMPERATURE
BHTD.M        292                  : BHTDEP       - MAXIMUM RECORDED TEMPERATURE
MATR.         1                    : LOGUNIT      - NEUTRON MATRIX
RMT .C        15.6                 : MDTP         - TEMPERATURE OF MUD
NEUT.         1                    : NEUTRON      - NEUTRON TYPE
RESI.         5                    : RESIST       - RESISTIVITY TYPE
RMC .OHMM     4.5                  : RMC          - RESISTIVITY OF MUD CAKE
RMF .OHMM     3.9                  : RMF          - RESISTIVITY OF MUD FILTRATE
SUFT.C        4                    : SUFT         - SURFACE TEMPERATURE
~A  DEPTH       GR     PHIN     PHID     RESD
# ...
  143.500  103.085    0.596    0.315    2.440
  143.750  101.323    0.590    0.309    2.442
  144.000   98.926    0.575    0.295    2.449
  144.250   99.026    0.552    0.284    2.501
  144.500   98.491    0.524    0.280    2.599
  144.750   97.342    0.507    0.281    2.750
  145.000   95.580    0.496    0.283    2.904
  145.250   93.817    0.491    0.275    3.128
  145.500   92.668    0.490    0.267    3.367
  145.750   92.748    0.493    0.271    3.691
  146.000   93.441    0.499    0.277    3.830
  146.250   94.134    0.503    0.280    4.053
  146.500   95.442    0.509    0.280    4.210
  146.750   96.135    0.507    0.279    4.222
  147.000   96.808    0.491    0.280    4.231
  147.250   97.521    0.488    0.282    4.171
  147.500   97.601    0.494    0.283    4.180
  147.750   97.660    0.506    0.279    4.192
  148.000   98.393    0.508    0.272    4.207
  148.250   99.087    0.478    0.257    4.218
  148.500   99.800    0.444    0.246    4.306
  148.750   99.859    0.433    0.238    4.395
  149.000   99.938    0.429    0.231    4.563
  149.250   99.404    0.424    0.220    4.832
  149.500   98.869    0.419    0.211    5.013
  149.750   98.334    0.418    0.215    5.212
  150.000   97.800    0.425    0.243    5.320
  150.250   97.879    0.435    0.257    5.434
  150.500   98.552    0.448    0.275    5.445
  150.750   99.880    0.469    0.286    5.554
  151.000   99.959    0.476    0.279    5.569
  151.250  100.652    0.470    0.272    5.116
  151.500  100.712    0.471    0.267    4.865
  151.750  100.831    0.472    0.265    4.706
  152.000  100.870    0.473    0.265    4.555
  152.250  100.969    0.474    0.264    4.487
  152.500  101.683    0.473    0.263    4.500
  152.750  101.722    0.471    0.262    4.509
  153.000  100.574    0.466    0.261    4.528
  153.250   98.831    0.463    0.263    4.619
  153.500   98.276    0.457    0.264    4.629
  153.750   97.167    0.455    0.262    4.724
  154.000   97.227    0.450    0.260    4.822
  154.250   97.286    0.451    0.258    4.836
  154.500   97.999    0.450    0.264    5.117
  154.750   98.059    0.453    0.282    5.313
  155.000   98.178    0.456    0.273    5.427
  155.250   98.257    0.465    0.263    5.539
  155.500   98.337    0.493    0.275    5.457
  155.750   97.822    0.511    0.271    5.102
  156.000   97.247    0.527    0.255    4.931
  156.250   97.347    0.524    0.261    4.527
  156.500   98.040    0.495    0.267    4.378
  156.750   98.733    0.486    0.269    4.164
  157.000   98.198    0.495    0.274    4.102
  157.250   97.644    0.505    0.281    4.193
  157.500   96.495    0.511    0.287    4.277
  157.750   94.733    0.494    0.294    4.365
  158.000   92.970    0.478    0.283    4.619
  158.250   90.613    0.463    0.270    4.796
  158.500   89.445    0.471    0.271    4.979
  158.750   91.366    0.498    0.280    5.363
  159.000   93.941    0.510    0.305    5.568
  159.250   95.228    0.525    0.318    5.785
  159.500   97.169    0.547    0.316    5.408
  159.750   97.823    0.556    0.314    4.961
  160.000   98.536    0.565    0.307    4.168
  160.250   99.230    0.567    0.300    3.377
  160.500   99.289    0.525    0.273    3.046
  160.750   99.368    0.489    0.264    3.278
  161.000   99.468    0.479    0.261    3.594
  161.250   99.527    0.472    0.266    3.935
  161.500   98.398    0.461    0.268    4.627
  161.750   96.635    0.447    0.268    5.542
  162.000   94.279    0.454    0.269    6.295
  162.250   93.090    0.464    0.270    6.771
  162.500   91.942    0.477    0.278    6.671
  162.750   90.219    0.482    0.194    6.344
  163.000   89.031    0.479    0.129    6.037
  163.250   86.654    0.443    0.086    5.948
  163.500   83.089    0.406    0.119    5.969
  163.750   82.515    0.392    0.153    5.977
  164.000   83.208    0.422    0.166    6.109
  164.250   86.357    0.428    0.167    6.118
  164.500   90.140    0.433    0.193    6.356
  164.750   93.923    0.446    0.205    6.492
  165.000   95.825    0.459    0.245    6.983
  165.250   97.766    0.453    0.241    7.516
  165.500   99.073    0.450    0.236    7.809
  165.750  100.380    0.447    0.231    7.431
  166.000  101.688    0.443    0.228    6.821
  166.250  101.767    0.445    0.231    6.252
  166.500  101.826    0.448    0.241    5.954
  166.750  100.103    0.451    0.254    6.073
  167.000   98.915    0.487    0.274    6.314
  167.250   97.172    0.518    0.299    6.435
  167.500   94.796    0.537    0.311    6.120
  167.750   93.627    0.555    0.310    5.327
  168.000   91.251    0.556    0.295    4.555
  168.250   90.122    0.552    0.284    3.825
  168.500   89.587    0.548    0.277    3.386
  168.750   89.052    0.513    0.269    3.166
  169.000   89.132    0.482    0.261    3.177
  169.250   89.231    0.471    0.261    3.183
  169.500   89.271    0.463    0.257    3.305
  169.750   89.964    0.457    0.253    3.434
  170.000   90.677    0.450    0.252    3.567
  170.250   91.965    0.461    0.251    3.706
  170.500   90.856    0.484    0.250    3.919
  170.750   90.281    0.503    0.259    4.072
  171.000   91.608    0.516    0.277    4.389
  171.250   92.341    0.529    0.284    4.554
  171.500   90.539    0.527    0.287    4.737
  171.750   89.370    0.506    0.291    4.744
  172.000   87.608    0.482    0.292    4.592
  172.250   87.687    0.464    0.284    4.293
  172.500   91.510    0.489    0.275    3.869
  172.750   92.797    0.517    0.283    3.745
  173.000   94.699    0.526    0.289    3.755
  173.250   97.234    0.551    0.288    3.901
  173.500   98.561    0.554    0.289    3.982
  173.750   98.640    0.534    0.290    4.065
  174.000   99.353    0.504    0.291    3.934
  174.250   99.393    0.514    0.293    3.676
  174.500  100.086    0.530    0.289    3.558
  174.750  100.205    0.543    0.287    3.568
  175.000  100.245    0.559    0.276    3.575
  175.250   99.096    0.534    0.267    3.402
  175.500   98.562    0.519    0.258    3.352
  175.750   98.681    0.512    0.256    3.303
  176.000   98.780    0.507    0.251    3.251
  176.250   98.225    0.493    0.244    3.206
  176.500   97.710    0.486    0.234    3.215
  176.750   97.136    0.473    0.226    3.279
  177.000   96.007    0.467    0.235    3.347
  177.250   94.245    0.452    0.257    3.416
  177.500   93.056    0.440    0.263    3.426
  177.750   90.680    0.425    0.269    3.497
  178.000   87.075    0.407    0.279    3.633
  178.250   82.243    0.402    0.280    3.774
  178.500   78.024    0.399    0.278    3.921
  178.750   76.262    0.401    0.277    4.074
  179.000   76.361    0.406    0.268    4.158
  179.250   77.034    0.407    0.256    4.170
  179.500   78.995    0.398    0.244    4.181
  179.750   79.649    0.401    0.251    4.268
  180.000   80.976    0.406    0.256    4.359
  180.250   82.897    0.407    0.252    4.450
  180.500   84.224    0.410    0.255    4.545
  180.750   84.878    0.423    0.262    4.551
  181.000   85.591    0.442    0.267    4.646
  181.250   82.581    0.423    0.274    4.655
  181.500   78.362    0.411    0.301    4.512
  181.750   67.390    0.419    0.325    4.439
  182.000   60.695    0.434    0.335    4.222
  182.250   56.477    0.442    0.329    4.086
  182.500   63.330    0.444    0.319    4.171
  182.750   68.955    0.447    0.308    4.414
  183.000   71.470    0.450    0.311    4.751
  183.250   72.777    0.446    0.300    5.114
  183.500   68.579    0.440    0.286    5.598
  183.750   64.340    0.430    0.297    6.473
  184.000   67.509    0.417    0.306    7.747
  184.250   70.639    0.402    0.294    8.488
  184.500   74.402    0.402    0.273    7.654
  184.750   77.571    0.400    0.267    6.545
  185.000   81.988    0.391    0.260    5.799
  185.250   82.641    0.382    0.247    5.613
  185.500   85.177    0.372    0.248    5.725
  185.750   87.732    0.371    0.242    6.163
  186.000   87.177    0.368    0.239    6.402
  186.250   87.276    0.367    0.238    6.093
  186.500   88.584    0.367    0.237    5.592
  186.750   89.911    0.368    0.238    5.225
