~VERSION INFORMATION
 VERS.                 2.0:   CWLS LOG ASCII STANDARD -VERSION 2.0
 WRAP.                  NO:   ONE LINE PER DEPTH STEP
~WELL INFORMATION BLOCK
#MNEM.UNIT           DATA                    DESCRIPTION OF MNEMONIC
#---------    -------------------            -------------------------------
# Generated from Intellog Unique Number	utf_inj/WELL/589
WELL.         AO-33                          : Well_name    - WELL              
LOC .         AA/12-18-093-12W4/0            : Location     - LOCATION          
UWI .         AA/12-18-093-12W400            : Uwi          - UNIQUE WELL ID    
ENTR.         JHS                            : Entered      - ENTERED BY        
SRVC.         SCHLUMBERGER                   : Scn          - SERVICE COMPANY   
STRT.M        2                              : top_depth    - START DEPTH       
STOP.M        158                            : bot_depth    - STOP DEPTH        
STEP.M        0.25                           : increment    - STEP LENGTH       
NULL.         -999.250                       : null         - NULL VALUE       
~CURVE INFORMATION BLOCK
#MNEM UNIT       ERCB CURVE CODE    CURVE DESCRIPTION
#-----------   ------------------   ----------------------------------
DEPT.M        00 001 00 00         : DEPTH        - DEPTH                       
GR  .API      00 310 00 00         : GR           - GAMMA RAY                   
DPHI.V/V      00 890 00 00         : PHID         - DENSITY POROSITY (SANDSTONE)
NPHI.V/V      00 330 00 00         : PHIN         - NEUTRON POROSITY (SANDSTONE)
ILD .OHMM     00 120 00 00         : RESD         - DEEP RESISTIVITY (DIL)      
SP  .MV       00 010 00 00         : SP           - SPONTANEOUS POTENTIAL       
CALI.MM       00 280 01 00         : CAL          - CALIPER                     
~PARAMETER INFORMATION       
#MNEM.UNIT           DATA             DESCRIPTION OF MNEMONIC
#---------         -----------     ------------------------------
GL  .M        423.5                : gl           - GROUND LEVEL ELEVATION      
EREF.M        423.5                : kb           - ELEVATION OF DEPTH REFERENCE
DATM.M        423.5                : datum        - DATUM ELEVATION             
TDD .M        162                  : tdd          - TOTAL DEPTH DRILLER         
RUN .         ONE                  : Run          - RUN NUMBER                  
ENG .         BILL                 : Engineer     - RECORDING ENGINEER          
WIT .         JIM                  : Witness      - WITNESSED BY                
MUD .         GEL                  : Mud_type     - MUD TYPE                    
MATR.         SANDSTONE            : Logunit      - NEUTRON MATRIX              
TMAX.C        6.5                  : BHT          - MAXIMUM RECORDED TEMPERATURE
BHTD.M        151.49               : BHTDEP       - MAXIMUM RECORDED TEMPERATURE
MATR.         1                    : LOGUNIT      - NEUTRON MATRIX              
RMT .C        25                   : MDTP         - TEMPERATURE OF MUD          
NEUT.         1                    : NEUTRON      - NEUTRON TYPE                
RESI.         0                    : RESIST       - RESISTIVITY TYPE            
RMC .OHMM     0.25                 : RMC          - RESISTIVITY OF MUD CAKE     
RMF .OHMM     0.25                 : RMF          - RESISTIVITY OF MUD FILTRATE 
SUFT.C        15                   : SUFT         - SURFACE TEMPERATURE         
~A  DEPTH       GR     PHID     PHIN     RESD       SP      CAL
# ...
  127.000  107.934    0.278    0.521   22.264    0.000    0.000
  127.250  100.580    0.258    0.470   15.545    0.000    0.000
  127.500   98.738    0.250    0.418   16.579    0.000    0.000
  127.750   96.895    0.276    0.418   17.201    0.000    0.000
  128.000   96.888    0.262    0.433   15.686    0.683    0.000
  128.250  115.248    0.258    0.461   14.842    0.000    0.000
  128.500  108.508    0.262    0.422   15.399    0.000    0.000
  128.750  115.236    0.259    0.428   15.117    1.323    0.000
  129.000  109.719    0.267    0.419   16.574    0.000    0.000
  129.250   99.918    0.277    0.399   16.574    0.000    0.000
  129.500  108.483    0.270    0.389   15.682    0.000    0.000
  129.750  102.966    0.273    0.399   16.270    0.000    0.000
  130.000  110.919    0.287    0.419   18.852    0.151    0.000
  130.250  101.729    0.285    0.447   19.559    0.000    0.000
  130.500  108.457    0.285    0.456   19.201    0.000    0.000
  130.750   90.696    0.295    0.478   20.859    0.000    0.000
  131.000   93.138    0.306    0.479   29.599    0.000    0.000
  131.250   72.317    0.315    0.463   34.935    0.000    0.000
  131.500   94.351    0.319    0.442   22.451    0.000    0.000
  131.750   87.610    0.310    0.444   24.843    0.000    0.000
  132.000   84.543    0.285    0.498   19.916    0.000    0.000
  132.250   90.658    0.264    0.522   15.246    0.000    0.000
  132.500   90.040    0.259    0.561   20.098    0.000    0.000
  132.750   80.851    0.302    0.530   29.318    0.000    0.000
  133.000   94.925    0.338    0.476   17.183    0.000    0.000
  133.250   99.205    0.312    0.472   19.728    4.543    0.000
  133.500   85.117    0.310    0.534   22.442    0.000    0.000
  133.750   78.375    0.326    0.516   17.991    2.121    0.000
  134.000  102.247    0.274    0.452   14.290    5.182    0.000
  134.250  104.077    0.265    0.480   18.155    0.000    0.000
  134.500   90.602    0.294    0.498   36.558    0.000    0.000
  134.750   75.902    0.333    0.514   24.829    0.000    0.000
  135.000   69.161    0.353    0.534   65.304    0.000    0.000
  135.250   63.033    0.356    0.508   16.708    0.000    0.000
  135.500  106.495    0.343    0.420   13.394    0.000    0.000
  135.750  100.978    0.319    0.518   24.597   11.343    0.000
  136.000   86.278    0.325    0.583   31.832    0.000    0.000
  136.250   75.252    0.306    0.497   28.500    0.386    0.000
  136.500   66.675    0.307    0.490   29.568    0.000    0.000
  136.750  105.851    0.337    0.503   34.578    5.284    0.000
  137.000  118.089    0.334    0.482   32.417    0.000    0.000
  137.250  102.776    0.321    0.450   22.634    4.695    0.000
  137.500   91.749    0.313    0.437   17.978    1.654    0.000
  137.750   88.683    0.290    0.474   35.869    2.272    0.000
  138.000   81.943    0.298    0.512   47.282    0.000    0.000
  138.250   96.017    0.318    0.478   29.018    0.000    0.000
  138.500   97.234    0.324    0.429   24.584    1.691    0.000
  138.750   86.821    0.305    0.435   70.248    1.700    0.000
  139.000   78.244    0.308    0.505   54.779    0.000    0.000
  139.250   74.564    0.339    0.489   54.274    0.000    0.000
  139.500   83.741    0.334    0.444   54.271    1.118    0.000
  139.750   69.654    0.331    0.426  117.638    1.129    0.000
  140.000   55.566    0.342    0.442   69.587    0.000    0.000
  140.250   56.172    0.352    0.491   39.674    0.000    0.000
  140.500   76.369    0.344    0.444   18.471    0.000    0.000
  140.750  109.422    0.313    0.427   15.505    0.000    0.000
  141.000   98.397    0.287    0.439   32.393    0.000    0.000
  141.250   84.309    0.287    0.498  135.028    0.000    0.000
  141.500   67.773    0.325    0.486   53.261    0.000    0.000
  141.750   66.542    0.333    0.437   58.936    0.000    0.000
  142.000   83.678    0.343    0.428   76.977    0.000    0.000
  142.250   68.979    0.343    0.451   96.904    0.000    0.000
  142.500   69.584    0.325    0.470   59.474    0.000    0.000
  142.750   73.251    0.323    0.441   54.739    0.000    0.000
  143.000   56.103    0.351    0.510   60.573    0.000    0.000
  143.250   71.402    0.356    0.552  274.319    0.000    0.000
  143.500   81.191    0.348    0.487  438.766    0.000    0.000
  143.750   78.124    0.345    0.453  503.745    0.000    0.000
  144.000   59.139    0.338    0.423  463.652    0.000    0.000
  144.250   68.316    0.335    0.394  274.266    0.000    0.000
  144.500   76.880    0.340    0.383  149.332    0.000    0.000
  144.750   55.446    0.353    0.418  309.123    0.000    0.000
  145.000   66.458    0.355    0.446  257.105    0.000    0.000
  145.250   67.066    0.348    0.410  257.092    0.000    0.000
  145.500   62.161    0.350    0.383  132.456    0.000    0.000
  145.750   76.236    0.357    0.368   69.511    0.000    0.000
  146.000   79.291    0.358    0.393  112.209    0.000    0.000
  146.250   78.673    0.344    0.455  485.295    0.000    0.000
  146.500   59.075    0.329    0.510  243.213    0.000    0.000
  146.750   88.456    0.336    0.425   50.346    0.000    0.000
  147.000  103.754    0.326    0.414   54.695    0.000    0.000
  147.250   85.994    0.314    0.502   52.714    0.000    0.000
  147.500   92.722    0.310    0.510   48.968    0.000    0.000
  147.750   79.859    0.288    0.463  109.115    0.000    0.000
  148.000   85.975    0.289    0.515  106.136    0.000    0.000
  148.250  106.172    0.324    0.515   91.590    0.000    0.000
  148.500   89.636    0.329    0.436   40.722    0.000    0.000
  148.750   97.588    0.321    0.406   48.062    0.000    0.000
  149.000   91.460    0.308    0.401   51.261    0.000    0.000
  149.250   77.372    0.303    0.401   52.211    0.000    0.000
  149.500   84.713    0.310    0.388  344.934    0.000    0.000
  149.750   69.400    0.336    0.429  467.427    0.000    0.000
  150.000   57.762    0.351    0.429  351.314    0.000    0.000
  150.250   64.489    0.346    0.390  163.560    0.000    0.000
  150.500   77.341    0.340    0.379  127.543    0.000    0.000
  150.750   79.171    0.345    0.385  273.927    0.000    0.000
  151.000   69.981    0.340    0.416  264.007    0.000    0.000
  151.250   62.016    0.332    0.395  395.904    0.000    0.000
  151.500   61.398    0.328    0.371  351.211    0.000    0.000
  151.750   63.840    0.338    0.361  361.038    0.000    0.000
  152.000   67.508    0.342    0.361  385.062    0.000    0.000
  152.250   80.358    0.327    0.358  367.710    0.000    0.000
  152.500   80.964    0.325    0.378  308.667    0.000    0.000
  152.750   94.426    0.332    0.399  273.823    0.000    0.000
  153.000   83.400    0.338    0.373  384.985    0.000    0.000
  153.250   88.903    0.340    0.366  377.939    0.000    0.000
  153.500   80.326    0.339    0.363  367.626    0.000    0.000
  153.750   68.076    0.337    0.388  332.189    0.000    0.000
  154.000   69.293    0.339    0.389  294.690    0.000    0.000
  154.250   70.509    0.362    0.396  211.517    0.000    0.000
  154.500   71.118    0.349    0.416  259.014    0.000    0.000
  154.750   74.173    0.337    0.438  254.276    0.000    0.000
  155.000   70.493    0.342    0.432  236.202    0.000    0.000
  155.250   61.915    0.345    0.396  357.487    0.000    0.000
  155.500   67.419    0.337    0.381  332.079    0.000    0.000
  155.750   82.106    0.331    0.408  258.953    0.000    0.000
  156.000   65.570    0.316    0.413   25.189    0.000    0.000
  156.250   78.420    0.282    0.344   14.628    2.973    0.000
  156.500   73.516    0.005    0.220   18.931    8.471    0.000
  156.750   87.591    0.000    0.155   38.119    2.992    0.000
  157.000   97.380    0.018    0.143   42.966   14.586    0.000
  157.250  102.884    0.031    0.124   45.405   20.085    0.000
  157.500   80.837    0.029    0.126   47.982   20.703    0.000
  157.750   92.464    0.023    0.126   52.609   19.493    0.000
  158.000    0.000    0.000    0.000    0.000    0.000    0.000
