~VERSION INFORMATION
 VERS.                 2.0:   CWLS LOG ASCII STANDARD -VERSION 2.0
 WRAP.                  NO:   ONE LINE PER DEPTH STEP
~WELL INFORMATION BLOCK
#MNEM.UNIT           DATA                    DESCRIPTION OF MNEMONIC
#---------    -------------------            -------------------------------
# Generated from Intellog Unique Number	CS_77_79/WELL/992
WELL.         PEX PCEJ LEISMER OV            : Well_name    - WELL
LOC .         AA/11-08-078-08W4/0            : Location     - LOCATION
UWI .         AA/11-08-078-08W4/0            : Uwi          - UNIQUE WELL ID
ENTR.         JHS                            : Entered      - ENTERED BY
SRVC.         SCHLUMBERGER                   : Scn          - SERVICE COMPANY
STRT.M        155                            : top_depth    - START DEPTH
STOP.M        375                            : bot_depth    - STOP DEPTH
STEP.M        0.25                           : increment    - STEP LENGTH
 NULL. -999.2500:NULL Value
~CURVE INFORMATION BLOCK
#MNEM UNIT       ERCB CURVE CODE    CURVE DESCRIPTION
#-----------   ------------------   ----------------------------------
DEPT.M        00 001 00 00         : DEPTH        - DEPTH
DPHI.V/V      00 890 00 00         : PHID         - DENSITY POROSITY (LIMESTONE)
NPHI.V/V      00 330 00 00         : PHIN         - NEUTRON POROSITY (LIMESTONE)
GR  .API      00 310 00 00         : GR           - GAMMA RAY
ILD .OHMM     00 120 00 00         : RESD         - DEEP RESISTIVITY (DIL)
RHOB.KG/M3    00 350 00 00         : DENS         - BULK DENSITY
~PARAMETER INFORMATION
#MNEM.UNIT           DATA             DESCRIPTION OF MNEMONIC
#---------         -----------     ------------------------------
GL  .M        587.96               : gl           - GROUND LEVEL ELEVATION
EREF.M        591.54               : kb           - ELEVATION OF DEPTH REFERENCE
DATM.M        591.54               : datum        - DATUM ELEVATION
TDD .M        377.6                : tdd          - TOTAL DEPTH DRILLER
RUN .         ONE                  : Run          - RUN NUMBER
ENG .         BILL                 : Engineer     - RECORDING ENGINEER
WIT .         JIM                  : Witness      - WITNESSED BY
MUD .         GEL                  : Mud_type     - MUD TYPE
MATR.         LIMESTONE            : Logunit      - NEUTRON MATRIX
TMAX.C        17                   : BHT          - MAXIMUM RECORDED TEMPERATURE
BHTD.M        377.6                : BHTDEP       - MAXIMUM RECORDED TEMPERATURE
MATR.         1                    : LOGUNIT      - NEUTRON MATRIX
RMT .C        25                   : MDTP         - TEMPERATURE OF MUD
NEUT.         1                    : NEUTRON      - NEUTRON TYPE
RESI.         0                    : RESIST       - RESISTIVITY TYPE
RMC .OHMM     0.25                 : RMC          - RESISTIVITY OF MUD CAKE
RMF .OHMM     0.25                 : RMF          - RESISTIVITY OF MUD FILTRATE
SUFT.C        15                   : SUFT         - SURFACE TEMPERATURE
~A  DEPTH     PHID     PHIN       GR     RESD     DENS
# ...
  228.000    0.325    0.396   74.984   22.083    0.000
  228.250    0.327    0.382   68.795   21.678    0.000
  228.500    0.323    0.385   71.906   21.683    0.000
  228.750    0.319    0.376   68.819   21.686    0.000
  229.000    0.318    0.404   73.788   21.692    0.000
  229.250    0.319    0.412   71.319   21.294    0.000
  229.500    0.318    0.410   68.230   20.903    0.000
  229.750    0.313    0.421   73.198   20.908    0.000
  230.000    0.310    0.421   73.209   20.912    0.000
  230.250    0.310    0.430   77.558   21.715    0.000
  230.500    0.316    0.440   76.949   22.131    0.000
  230.750    0.322    0.434   76.341   22.136    0.000
  231.000    0.325    0.425   73.254   22.138    0.000
  231.250    0.327    0.413   72.642   22.144    0.000
  231.500    0.333    0.412   75.132   22.566    0.000
  231.750    0.335    0.403   75.143   22.153    0.000
  232.000    0.335    0.397   76.392   22.157    0.000
  232.250    0.334    0.400   71.445   21.752    0.000
  232.500    0.334    0.404   65.877   21.755    0.000
  232.750    0.333    0.392   68.367   20.962    0.000
  233.000    0.331    0.394   67.137   20.576    0.000
  233.250    0.328    0.394   73.347   19.826    0.000
  233.500    0.331    0.394   78.315   19.461    0.000
  233.750    0.334    0.413   84.525   19.465    0.000
  234.000    0.340    0.410   79.577   19.471    0.000
  234.250    0.343    0.393   72.769   19.842    0.000
  234.500    0.344    0.375   67.200   20.992    0.000
  234.750    0.349    0.359   74.650   23.057    0.000
  235.000    0.331    0.304   82.099   26.788    0.000
  235.250    0.269    0.267   71.570   31.122    0.000
  235.500    0.163    0.224   57.946   34.828    0.000
  235.750    0.047    0.151   52.376   38.253    0.000
  236.000    0.051    0.130   45.568   36.857    0.000
  236.250    0.053    0.135   41.243   31.736    0.000
  236.500    0.064    0.152   42.490   26.324    0.000
  236.750    0.095    0.212   53.040   22.247    0.000
  237.000    0.250    0.324   57.388   19.520    0.000
  237.250    0.323    0.389   65.456   18.458    0.000
  237.500    0.337    0.435   64.228   17.454    0.000
  237.750    0.339    0.433   69.196   17.132    0.000
  238.000    0.339    0.462   76.647   17.138    0.000
  238.250    0.329    0.445   82.855   17.140    0.000
  238.500    0.325    0.460   81.626   17.469    0.000
  238.750    0.328    0.470   87.216   17.801    0.000
  239.000    0.333    0.451   95.284   17.806    0.000
  239.250    0.334    0.446   89.096   17.810    0.000
  239.500    0.329    0.440   80.431   17.482    0.000
  239.750    0.323    0.443   75.479   16.843    0.000
  240.000    0.319    0.461   73.012   16.227    0.000
  240.250    0.322    0.450   82.321   15.635    0.000
  240.500    0.325    0.446   77.371   15.065    0.000
  240.750    0.322    0.447   71.185   15.067    0.000
  241.000    0.329    0.440   78.631   14.791    0.000
  241.250    0.330    0.423   82.364   14.520    0.000
  241.500    0.325    0.452   79.892   14.252    0.000
  241.750    0.324    0.466   82.386   14.525    0.000
  242.000    0.326    0.449   84.872   14.803    0.000
  242.250    0.326    0.449   86.124   14.806    0.000
  242.500    0.325    0.451   76.835   15.374    0.000
  242.750    0.321    0.456   83.664   15.668    0.000
  243.000    0.315    0.459   78.097   15.381    0.000
  243.250    0.315    0.444   80.587   15.098    0.000
  243.500    0.320    0.447   81.217   14.546    0.000
  243.750    0.319    0.488   81.227   14.550    0.000
  244.000    0.310    0.483   79.378   14.553    0.000
  244.250    0.304    0.485   78.769   14.021    0.000
  244.500    0.308    0.486   76.921   12.770    0.000
  244.750    0.316    0.475   77.550    9.828    0.000
  245.000    0.316    0.476   75.704    8.306    0.000
  245.250    0.315    0.479   74.472    7.566    0.000
  245.500    0.326    0.485   81.920    7.427    0.000
  245.750    0.336    0.500   91.850    7.712    0.000
  246.000    0.317    0.531  101.157    8.960    0.000
  246.250    0.308    0.469   94.971   11.867    0.000
  246.500    0.311    0.442   85.683   16.016    0.000
  246.750    0.313    0.446   86.313   16.630    0.000
  247.000    0.308    0.451   87.562   14.865    0.000
  247.250    0.303    0.442   86.333   10.035    0.000
  247.500    0.301    0.441   95.023    7.439    0.000
  247.750    0.319    0.459   93.174    5.944    0.000
  248.000    0.343    0.526  104.341    5.118    0.000
  248.250    0.323    0.564  116.128    4.575    0.000
  248.500    0.298    0.573  119.859    4.090    0.000
  248.750    0.300    0.582  117.390    4.015    0.000
  249.000    0.306    0.595  117.400    3.942    0.000
  249.250    0.303    0.610  114.312    3.869    0.000
  249.500    0.312    0.620  108.744    3.798    0.000
  249.750    0.322    0.623  117.431    3.592    0.000
  250.000    0.318    0.624  118.063    3.526    0.000
  250.250    0.310    0.625  119.312    3.461    0.000
  250.500    0.307    0.625  126.761    3.462    0.000
  250.750    0.310    0.626  127.392    3.399    0.000
  251.000    0.313    0.625  123.682    3.464    0.000
  251.250    0.313    0.624  118.115    3.530    0.000
  251.500    0.316    0.621  124.325    3.734    0.000
  251.750    0.324    0.616  128.054    4.025    0.000
  252.000    0.327    0.611  123.105    4.677    0.000
  252.250    0.299    0.600  117.540    5.234    0.000
  252.500    0.272    0.567  113.828    5.857    0.000
  252.750    0.267    0.512  110.741    5.969    0.000
  253.000    0.277    0.525  109.512    5.336    0.000
  253.250    0.303    0.532  109.521    4.682    0.000
  253.500    0.329    0.540  118.210    4.031    0.000
  253.750    0.319    0.599  124.418    3.604    0.000
  254.000    0.319    0.615  131.248    3.408    0.000
  254.250    0.314    0.619  125.679    3.222    0.000
  254.500    0.308    0.621  128.170    3.223    0.000
  254.750    0.303    0.623  123.222    3.224    0.000
  255.000    0.306    0.623  123.234    3.285    0.000
  255.250    0.307    0.623  122.623    3.225    0.000
  255.500    0.308    0.622  127.591    3.166    0.000
  255.750    0.317    0.619  121.403    3.413    0.000
  256.000    0.330    0.611  117.078    3.891    0.000
  256.250    0.342    0.598  109.649    4.965    0.000
  256.500    0.330    0.565  104.699    5.768    0.000
  256.750    0.286    0.519  108.430    6.577    0.000
  257.000    0.303    0.488  114.638    7.361    0.000
  257.250    0.321    0.482  116.508    7.501    0.000
  257.500    0.337    0.502  105.982    6.832    0.000
  257.750    0.331    0.525  102.895    5.995    0.000
  258.000    0.348    0.538  100.424    5.563    0.000
  258.250    0.369    0.524  101.674    5.997    0.000
  258.500    0.387    0.529  102.306    7.233    0.000
  258.750    0.400    0.523   93.637    7.945    0.000
  259.000    0.259    0.536   93.027    8.565    0.000
  259.250    0.244    0.476   97.381    8.252    0.000
  259.500    0.253    0.464  102.968    7.950    0.000
  259.750    0.287    0.505  107.937    6.975    0.000
  260.000    0.324    0.535  111.046    6.473    0.000
  260.250    0.381    0.550  101.142    5.896    0.000
  260.500    0.377    0.572  107.349    5.173    0.000
  260.750    0.357    0.579  110.461    4.801    0.000
  261.000    0.333    0.564  114.187    4.539    0.000
  261.250    0.326    0.548  107.380    4.135    0.000
  261.500    0.313    0.559  109.871    3.837    0.000
  261.750    0.300    0.569  109.260    3.561    0.000
  262.000    0.299    0.563  110.510    3.431    0.000
  262.250    0.305    0.580  113.621    3.496    0.000
  262.500    0.328    0.609  120.450    3.987    0.000
  262.750    0.352    0.622  111.162    4.546    0.000
  263.000    0.361    0.608  106.834    5.483    0.000
  263.250    0.377    0.581  101.885    6.136    0.000
  263.500    0.375    0.549   93.219    7.541    0.000
  263.750    0.345    0.504   88.269    8.600    0.000
  264.000    0.332    0.469   84.562    9.098    0.000
  264.250    0.328    0.459   79.612    9.807    0.000
