~VERSION INFORMATION
 VERS.                 2.0:   CWLS LOG ASCII STANDARD -VERSION 2.0
 WRAP.                  NO:   ONE LINE PER DEPTH STEP
~WELL INFORMATION BLOCK
#MNEM.UNIT           DATA                    DESCRIPTION OF MNEMONIC
#---------    -------------------            -------------------------------
# Generated from Intellog Unique Number	CN_91_93/WELL/3943
WELL.         16-23-092-08W4                 : Well_name    - WELL
LOC .         AA/16-23-092-08W4/0            : Location     - LOCATION
UWI .         AA/16-23-092-08W400            : Uwi          - UNIQUE WELL ID
ENTR.         JOETTE                         : Entered      - ENTERED BY
SRVC.         SCHLUMBERGER                   : Scn          - SERVICE COMPANY
DATE.         03/16/92                       : Date         - LOG DATE
STRT.F        30                             : top_depth    - START DEPTH
STOP.F        609.888                        : bot_depth    - STOP DEPTH
STEP.F        0.8202                         : increment    - STEP LENGTH
 NULL. -999.2500:NULL Value
~CURVE INFORMATION BLOCK
#MNEM UNIT       ERCB CURVE CODE    CURVE DESCRIPTION
#-----------   ------------------   ----------------------------------
DEPT.F        00 001 00 00         : DEPTH        - DEPTH
GR  .API      00 310 00 00         : GR           - GAMMA RAY
NPHI.V/V      00 330 00 00         : PHIN         - NEUTRON POROSITY (SANDSTONE)
ILD .OHMM     00 120 00 00         : RESD         - DEEP RESISTIVITY (DIL)
~PARAMETER INFORMATION
#MNEM.UNIT           DATA             DESCRIPTION OF MNEMONIC
#---------         -----------     ------------------------------
GL  .M        456.286              : gl           - GROUND LEVEL ELEVATION
EREF.M        457.505              : kb           - ELEVATION OF DEPTH REFERENCE
DATM.M        457.505              : datum        - DATUM ELEVATION
TDD .M        192.024              : tdd          - TOTAL DEPTH DRILLER
RUN .         ONE                  : Run          - RUN NUMBER
ENG .         BILL                 : Engineer     - RECORDING ENGINEER
WIT .         JIM                  : Witness      - WITNESSED BY
MUD .         GEL                  : Mud_type     - MUD TYPE
MATR.         SANDSTONE            : Logunit      - NEUTRON MATRIX
TMAX.F        50                   : BHT          - MAXIMUM RECORDED TEMPERATURE
BHTD.F        630                  : BHTDEP       - MAXIMUM RECORDED TEMPERATURE
RMT .F        50                   : MDTP         - TEMPERATURE OF MUD
MUDD.LB/G     9.5                  : MWT          - MUD DENSITY
NEUT.         1                    : NEUTRON      - NEUTRON TYPE
RESI.         0                    : RESIST       - RESISTIVITY TYPE
RM  .OHMM     2.45                 : RM           - RESISTIVITY OF MUD
RMC .OHMM     1.4                  : RMC          - RESISTIVITY OF MUD CAKE
RMF .OHMM     1.4                  : RMF          - RESISTIVITY OF MUD FILTRATE
SUFT.F        39.2                 : SUFT         - SURFACE TEMPERATURE
~A  DEPTH       GR     PHIN     RESD
# ...
  385.971   76.477    0.452    6.437
  386.791   77.697    0.453    6.337
  387.612   78.324    0.454    6.344
  388.432   78.934    0.455    6.479
  389.252   78.960    0.457    7.002
  390.072   78.978    0.457    6.522
  390.892   77.793    0.455    6.290
  391.713   76.613    0.453    6.545
  392.533   75.420    0.448    7.480
  393.353   73.638    0.441    6.963
  394.173   73.055    0.431    6.358
  394.993   73.673    0.432    6.489
  395.814   74.898    0.426    6.879
  396.634   77.320    0.414    7.158
  397.454   81.545    0.413    8.029
  398.274   84.564    0.409    9.171
  399.094   83.980    0.400    7.918
  399.915   80.404    0.387    7.230
  400.735   79.211    0.372    7.814
  401.555   78.026    0.377    9.093
  402.375   76.240    0.391   10.780
  403.196   73.854    0.405   12.789
  404.016   69.062    0.420    9.867
  404.836   68.483    0.416    6.939
  405.656   73.911    0.382    7.780
  406.476   78.737    0.361    9.580
  407.297   79.957    0.339   11.148
  408.117   76.973    0.321   13.995
  408.937   73.986    0.311   15.680
  409.757   70.998    0.303   18.257
  410.577   66.807    0.302   20.854
  411.398   60.814    0.303   21.698
  412.218   54.821    0.298   18.734
  413.038   56.040    0.289   16.176
  413.858   60.266    0.280   15.332
  414.678   63.890    0.267   19.597
  415.499   68.721    0.249   20.026
  416.319   68.141    0.220   20.062
  417.139   65.149    0.177   64.000
  417.959   62.166    0.180   71.835
  418.780   60.977    0.169   61.987
  419.600   58.590    0.142   66.988
  420.420   51.394    0.136   76.468
  421.240   45.401    0.127  115.609
  422.060   39.416    0.133  191.871
  422.881   35.822    0.143  118.347
  423.701   32.834    0.150   91.364
  424.521   32.251    0.154   93.306
  425.341   32.870    0.155  114.898
  426.161   32.892    0.163  144.065
  426.982   32.914    0.180  147.302
  427.802   32.326    0.220  150.433
  428.622   31.145    0.238  162.472
  429.442   30.562    0.267  175.371
  430.262   29.978    0.282  163.150
  431.083   33.598    0.297  110.535
  431.903   37.824    0.310  106.741
  432.723   44.458    0.332  173.879
  433.543   43.879    0.305  267.832
  434.364   38.482    0.283   72.662
  435.184   37.898    0.267   50.126
  436.004   44.528    0.256  114.302
  436.824   52.965    0.247  216.163
  437.644   48.775    0.236  303.313
  438.465   36.771    0.231  441.777
  439.285   30.777    0.231  543.685
  440.105   22.980    0.237  695.361
  440.925   18.189    0.240  646.518
  441.745   20.010    0.248  558.220
  442.566   23.033    0.256  455.750
  443.386   28.470    0.264  465.437
  444.206   32.089    0.271  541.629
  445.026   32.111    0.281  718.636
  445.846   30.326    0.289  733.910
  446.667   29.137    0.301  735.657
  447.487   26.754    0.309  840.764
  448.307   26.171    0.316  978.397
  449.127   26.794    0.320 1139.240
  449.948   28.009    0.327 1230.410
  450.768   29.834    0.331  881.589
  451.588   31.655    0.321  124.354
  452.408   33.476    0.312   85.836
  453.228   35.297    0.309   78.425
  454.049   38.325    0.309   83.186
  454.869   40.141    0.307   98.568
  455.689   37.153    0.305  125.916
  456.509   29.356    0.300  212.912
  457.329   26.970    0.294  183.834
  458.150   25.794    0.289  105.237
  458.970   31.822    0.288  103.600
  459.790   34.240    0.299  132.345
  460.610   36.666    0.309  145.801
  461.430   34.881    0.313  128.106
  462.251   32.489    0.317  114.814
  463.071   34.319    0.318  146.758
  463.891   36.136    0.310  198.385
  464.711   33.148    0.302  153.063
  465.531   30.761    0.298  139.764
  466.352   34.385    0.302  245.458
  467.172   35.614    0.308  270.255
  467.992   32.621    0.313  182.881
  468.812   30.840    0.308   70.760
  469.633   33.863    0.307   61.096
  470.453   34.482    0.310   67.228
  471.273   32.099    0.321   81.304
  472.093   31.511    0.324   86.137
  472.913   35.140    0.317   74.373
  473.734   35.157    0.312   74.594
  474.554   34.574    0.318   83.627
  475.374   36.992    0.325   95.518
  476.194   38.211    0.324   97.548
  477.014   34.622    0.317   99.622
  477.835   29.840    0.307   98.072
  478.655   26.246    0.301   91.237
  479.475   26.264    0.302   81.771
  480.295   28.690    0.308   82.014
  481.115   31.112    0.317   88.526
  481.936   32.328    0.324   99.304
  482.756   30.551    0.325   85.691
  483.576   31.169    0.325   74.031
  484.396   31.788    0.325   84.508
  485.217   31.806    0.324   98.459
  486.037   30.621    0.320   91.543
  486.857   28.831    0.318   62.021
  487.677   30.055    0.318   57.699
  488.497   32.477    0.318   50.757
  489.318   33.096    0.320   42.989
  490.138   30.108    0.318   49.131
  490.958   28.322    0.327   61.640
  491.778   27.743    0.336   64.135
  492.598   28.967    0.346   64.288
  493.419   29.582    0.333   68.150
  494.239   29.599    0.329   79.306
  495.059   26.010    0.327  111.279
  495.879   24.229    0.325  171.407
  496.699   26.651    0.323  139.943
  497.520   27.871    0.322   84.722
  498.340   24.286    0.324   69.170
  499.160   21.298    0.326   63.161
  499.980   24.317    0.326   73.500
  500.801   29.148    0.328   93.949
  501.621   30.363    0.330   92.433
  502.441   28.581    0.331   66.228
  503.261   26.805    0.334   61.649
  504.081   25.620    0.337   65.353
  504.902   25.629    0.343   69.237
  505.722   27.450    0.351   76.277
  506.542   26.866    0.353   79.365
  507.362   26.283    0.347   78.038
  508.182   28.112    0.343   78.223
  509.003   29.332    0.330   75.538
  509.823   30.556    0.325   70.274
  510.643   30.570    0.321   62.983
  511.463   29.990    0.320   56.482
  512.283   29.999    0.321   67.005
  513.104   28.823    0.323   70.988
  513.924   28.235    0.324   68.592
  514.744   27.652    0.321   59.189
  515.564   27.669    0.318   45.694
  516.385   29.490    0.315   38.009
  517.205   33.123    0.318   41.824
  518.025   34.343    0.321   36.111
  518.845   36.164    0.324   38.281
  519.665   35.581    0.330   72.395
  520.486   32.593    0.337  103.495
  521.306   30.201    0.342  139.903
  522.126   31.421    0.348  189.118
  522.946   36.252    0.346  212.144
  523.766   36.871    0.345  224.889
  524.587   36.291    0.349  205.228
  525.407   34.506    0.355  170.710
  526.227   32.119    0.363   97.725
  527.047   28.530    0.368  103.657
  527.867   27.345    0.365  140.038
  528.688   27.363    0.360  163.254
  529.508   28.583    0.355  176.110
  530.328   29.206    0.351  193.786
  531.148   29.223    0.353  243.122
  531.969   28.640    0.359  304.839
  532.789   29.258    0.363  214.380
  533.609   29.881    0.355  137.257
  534.429   31.101    0.343  118.511
  535.249   31.720    0.329  116.598
  536.070   31.136    0.319   91.709
  536.890   28.148    0.312   46.941
  537.710   25.762    0.305   47.052
  538.530   24.577    0.308   97.740
  539.350   25.797    0.319   57.039
  540.171   28.824    0.322   37.207
  540.991   30.044    0.325   35.266
  541.811   28.860    0.335   38.088
  542.631   25.275    0.344   44.323
  543.451   24.691    0.350   41.234
  544.272   24.704    0.341   32.432
  545.092   25.933    0.327   29.615
  545.912   25.942    0.319   35.794
  546.732   28.373    0.310   45.725
  547.552   32.598    0.300   64.160
  548.373   35.621    0.289   82.011
  549.193   36.845    0.281   50.585
  550.013   33.849    0.286   39.787
  550.833   29.658    0.297   37.036
  551.654   26.069    0.313   42.277
  552.474   25.490    0.337   57.150
  553.294   27.912    0.355   91.376
  554.114   29.738    0.330  154.600
  554.934   27.956    0.324  166.874
  555.755   24.959    0.315  229.825
  556.575   23.174    0.309  360.672
  557.395   21.392    0.311  396.873
  558.215   20.208    0.322  273.945
  559.035   20.225    0.331  140.217
  559.856   22.051    0.344   65.378
  560.676   25.074    0.336   42.647
  561.496   26.289    0.323   28.342
  562.316   31.721    0.332   15.934
  563.136   37.750    0.343   14.017
