~VERSION INFORMATION
 VERS.                 2.0:   CWLS LOG ASCII STANDARD -VERSION 2.0
 WRAP.                  NO:   ONE LINE PER DEPTH STEP
~WELL INFORMATION BLOCK
#MNEM.UNIT           DATA                    DESCRIPTION OF MNEMONIC
#---------    -------------------            -------------------------------
# Generated from Intellog Unique Number	CN_94_101/WELL/5024
WELL.         TEXACO                         : Well_name    - WELL
LOC .         AA/11-29-100-12W4/0            : Location     - LOCATION
UWI .         AA/11-29-100-12W400            : Uwi          - UNIQUE WELL ID
ENTR.         TIM                            : Entered      - ENTERED BY
SRVC.         SCHLUMBERGER                   : Scn          - SERVICE COMPANY
DATE.         08/13/92                       : Date         - LOG DATE
STRT.M        325                            : top_depth    - START DEPTH
STOP.M        575                            : bot_depth    - STOP DEPTH
STEP.M        0.25                           : increment    - STEP LENGTH
 NULL. -999.2500:NULL Value
~CURVE INFORMATION BLOCK
#MNEM UNIT       ERCB CURVE CODE    CURVE DESCRIPTION
#-----------   ------------------   ----------------------------------
DEPT.M        00 001 00 00         : DEPTH        - DEPTH
GR  .API      00 310 00 00         : GR           - GAMMA RAY
ILD .OHMM     00 120 00 00         : RESD         - DEEP RESISTIVITY (DIL)
NPHI.V/V      00 330 00 00         : PHIN         - NEUTRON POROSITY (SANDSTONE)
DPHI.V/V      00 890 00 00         : PHID         - DENSITY POROSITY (SANDSTONE)
~PARAMETER INFORMATION
#MNEM.UNIT           DATA             DESCRIPTION OF MNEMONIC
#---------         -----------     ------------------------------
GL  .M        776.4                : gl           - GROUND LEVEL ELEVATION
EREF.M        779.8                : kb           - ELEVATION OF DEPTH REFERENCE
DATM.M        779.8                : datum        - DATUM ELEVATION
TDD .M        634                  : tdd          - TOTAL DEPTH DRILLER
RUN .         ONE                  : Run          - RUN NUMBER
ENG .         BILL                 : Engineer     - RECORDING ENGINEER
WIT .         JIM                  : Witness      - WITNESSED BY
MUD .         GEL                  : Mud_type     - MUD TYPE
MATR.         SANDSTONE            : Logunit      - NEUTRON MATRIX
TMAX.C        28                   : BHT          - MAXIMUM RECORDED TEMPERATURE
BHTD.M        57634                : BHTDEP       - MAXIMUM RECORDED TEMPERATURE
RMT .C        25                   : MDTP         - TEMPERATURE OF MUD
MUDD.KG/M     1090                 : MWT          - MUD DENSITY
NEUT.         1                    : NEUTRON      - NEUTRON TYPE
RESI.         0                    : RESIST       - RESISTIVITY TYPE
RM  .OHMM     4.6                  : RM           - RESISTIVITY OF MUD
RMC .OHMM     4.6                  : RMC          - RESISTIVITY OF MUD CAKE
RMF .OHMM     4.6                  : RMF          - RESISTIVITY OF MUD FILTRATE
SUFT.C        4                    : SUFT         - SURFACE TEMPERATURE
~A  DEPTH       GR     RESD     PHIN     PHID
# ...
  455.500  133.193    2.629    0.512    0.341
  455.750  132.516    3.009    0.517    0.340
  456.000  129.264    3.721    0.509    0.334
  456.250  127.937    4.426    0.501    0.319
  456.500  129.162    5.162    0.490    0.307
  456.750  131.025    5.571    0.474    0.293
  457.000  133.538    5.785    0.448    0.288
  457.250  136.039    6.004    0.445    0.288
  457.500  140.453    6.230    0.438    0.286
  457.750  144.855    6.467    0.432    0.285
  458.000  147.356    6.583    0.426    0.282
  458.250  150.481    6.833    0.426    0.276
  458.500  151.094    6.956    0.426    0.269
  458.750  148.479    7.084    0.425    0.263
  459.000  145.876    7.347    0.424    0.258
  459.250  140.710    7.482    0.425    0.254
  459.500  137.470    7.473    0.428    0.260
  459.750  134.880    7.601    0.431    0.284
  460.000  132.277    7.592    0.428    0.284
  460.250  130.925    7.583    0.401    0.287
  460.500  132.176    7.567    0.394    0.288
  460.750  135.952    7.697    0.396    0.284
  461.000  137.165    7.690    0.410    0.255
  461.250  133.912    7.678    0.420    0.233
  461.500  131.960    7.816    0.419    0.240
  461.750  130.633    7.800    0.395    0.246
  462.000  131.858    7.640    0.404    0.250
  462.250  133.708    7.472    0.414    0.259
  462.500  134.946    7.465    0.424    0.266
  462.750  136.158    7.456    0.434    0.274
  463.000  136.120    7.298    0.442    0.285
  463.250  136.069    7.286    0.449    0.293
  463.500  136.006    7.274    0.459    0.288
  463.750  135.955    7.265    0.450    0.274
  464.000  135.917    7.389    0.423    0.242
  464.250  136.504    7.380    0.399    0.234
  464.500  136.453    7.510    0.386    0.234
  464.750  136.402    7.498    0.376    0.236
  465.000  136.989    7.488    0.377    0.236
  465.250  136.288    7.476    0.375    0.238
  465.500  134.961    7.317    0.374    0.238
  465.750  133.634    7.592    0.373    0.235
  466.000  130.381    7.887    0.368    0.234
  466.250  127.154    8.512    0.361    0.226
  466.500  121.362   10.124    0.351    0.119
  466.750  115.570   13.535    0.342    0.105
  467.000  107.852   14.319    0.318    0.086
  467.250  106.500   12.970    0.262    0.049
  467.500  110.302   11.527    0.215    0.050
  467.750  117.255    8.935    0.220    0.059
  468.000  121.682    6.528    0.258    0.089
  468.250  125.446    5.799    0.314    0.120
  468.500  127.959    5.250    0.352    0.216
  468.750  130.460    4.947    0.382    0.243
  469.000  132.948    4.660    0.445    0.258
  469.250  134.173    4.218    0.470    0.261
  469.500  135.411    3.894    0.479    0.265
  469.750  137.261    3.670    0.486    0.288
  470.000  139.774    3.320    0.496    0.294
  470.250  141.650    3.255    0.520    0.304
  470.500  144.138    3.125    0.526    0.316
  470.750  144.074    3.001    0.540    0.320
  471.000  142.110    2.881    0.547    0.323
  471.250  139.495    2.875    0.542    0.323
  471.500  138.193    2.928    0.518    0.320
  471.750  134.953    3.282    0.502    0.316
  472.000  132.351    3.477    0.466    0.312
  472.250  132.287    3.754    0.452    0.305
  472.500  134.163    4.295    0.452    0.297
  472.750  137.939    5.106    0.452    0.285
  473.000  141.703    5.302    0.451    0.271
  473.250  141.640    5.610    0.451    0.259
  473.500  140.326    5.713    0.451    0.242
  473.750  138.374    5.701    0.443    0.231
  474.000  136.397    5.692    0.435    0.230
  474.250  134.419    5.571    0.431    0.230
  474.500  132.455    5.564    0.414    0.233
  474.750  134.330    5.555    0.402    0.236
  475.000  136.193    5.652    0.397    0.237
  475.250  136.142    5.752    0.391    0.237
  475.500  133.527    5.747    0.397    0.234
  475.750  130.274    5.622    0.404    0.225
  476.000  128.960    5.616    0.404    0.198
  476.250  125.733    5.501    0.383    0.163
  476.500  121.204    5.280    0.369    0.145
  476.750  122.429    5.172    0.381    0.132
  477.000  131.947    5.062    0.403    0.177
  477.250  142.753    4.956    0.414    0.205
  477.500  142.689    4.757    0.419    0.260
  477.750  139.461    4.659    0.419    0.251
  478.000  132.381    4.560    0.422    0.248
  478.250  128.490    4.467    0.428    0.247
  478.500  127.814    4.370    0.436    0.252
  478.750  127.738    4.367    0.446    0.265
  479.000  128.338    4.274    0.456    0.270
  479.250  128.300    4.186    0.483    0.265
  479.500  128.223    4.099    0.491    0.262
  479.750  127.560    3.857    0.502    0.265
  480.000  127.471    3.778    0.516    0.266
  480.250  128.084    3.697    0.509    0.266
  480.500  128.045    3.691    0.500    0.269
  480.750  127.344    3.687    0.495    0.291
  481.000  124.742    3.608    0.489    0.300
  481.250  124.678    3.534    0.485    0.306
  481.500  125.903    3.459    0.485    0.313
  481.750  127.766    3.455    0.483    0.309
  482.000  129.003    3.517    0.475    0.287
  482.250  130.854    3.649    0.467    0.279
  482.500  132.066    3.788    0.463    0.273
  482.750  132.666    4.086    0.460    0.270
  483.000  133.240    4.243    0.446    0.262
  483.250  133.215    4.491    0.432    0.255
  483.500  133.151    4.753    0.426    0.232
  483.750  133.113    5.033    0.421    0.224
  484.000  133.700    5.123    0.417    0.209
  484.250  133.611    4.374    0.413    0.200
  484.500  133.586    3.963    0.409    0.192
  484.750  132.909    3.453    0.417    0.220
  485.000  130.920    3.008    0.448    0.285
  485.250  129.593    2.619    0.474    0.307
  485.500  127.628    2.515    0.494    0.318
  485.750  126.302    2.322    0.525    0.320
  486.000  124.337    2.275    0.542    0.320
  486.250  122.386    2.225    0.555    0.325
  486.500  121.059    2.224    0.561    0.333
  486.750  119.082    2.307    0.564    0.334
  487.000  117.130    2.489    0.566    0.339
  487.250  113.864    2.636    0.563    0.342
  487.500  112.550    3.015    0.554    0.346
  487.750  109.935    3.318    0.547    0.342
  488.000  108.609    3.721    0.528    0.335
  488.250  107.282    3.865    0.500    0.324
  488.500  107.244    4.090    0.454    0.311
  488.750  107.831    4.085    0.449    0.307
  489.000  109.694    4.076    0.454    0.321
  489.250  111.557    4.071    0.463    0.331
  489.500  110.868    4.065    0.467    0.334
  489.750  108.903    4.055    0.463    0.283
  490.000  105.625    4.050    0.457    0.276
  490.250  104.962    4.045    0.452    0.267
  490.500  103.622    3.960    0.451    0.288
  490.750  101.658    3.584    0.461    0.289
  491.000  103.533    3.375    0.470    0.265
  491.250  113.689    3.179    0.477    0.264
  491.500  118.728    2.993    0.482    0.259
  491.750  119.303    2.766    0.477    0.260
  492.000  119.902    2.870    0.473    0.272
  492.250  120.502    2.980    0.478    0.283
  492.500  123.628    3.034    0.488    0.277
  492.750  126.129    3.087    0.490    0.283
  493.000  129.267    3.142    0.500    0.305
  493.250  129.867    3.137    0.508    0.312
  493.500  127.890    3.194    0.515    0.318
  493.750  124.662    3.251    0.517    0.309
  494.000  119.508    3.308    0.511    0.286
  494.250  104.761    3.240    0.476    0.284
  494.500   88.138    3.171    0.444    0.290
  494.750   79.781    3.045    0.423    0.295
  495.000   65.059    3.040    0.374    0.290
  495.250   57.992    3.035    0.340    0.288
  495.500   46.446    3.029    0.306    0.285
  495.750   44.469    3.027    0.290    0.292
  496.000   44.431    3.022    0.302    0.295
  496.250   45.656    3.016    0.309    0.307
  496.500   49.419    3.011    0.315    0.314
  496.750   51.920    3.006    0.323    0.325
  497.000   55.072    3.001    0.328    0.327
  497.250   69.692    3.054    0.333    0.317
  497.500   72.843    3.171    0.338    0.303
  497.750   82.361    3.291    0.344    0.295
  498.000   91.878    3.619    0.361    0.289
  498.250  102.672    3.832    0.421    0.280
  498.500  116.029    4.137    0.436    0.273
  498.750  115.340    4.642    0.444    0.262
