~VERSION INFORMATION
 VERS.                 2.0:   CWLS LOG ASCII STANDARD -VERSION 2.0
 WRAP.                  NO:   ONE LINE PER DEPTH STEP
~WELL INFORMATION BLOCK
#MNEM.UNIT           DATA                    DESCRIPTION OF MNEMONIC
#---------    -------------------            -------------------------------
# Generated from Intellog Unique Number	CX_WELLS/WELL/3217
WELL.         ATLANTIC RICHFIELD             : Well_name    - WELL
LOC .         AA/10-11-083-11W4/0            : Location     - LOCATION
UWI .         AA/10-11-083-11W4/0            : Uwi          - UNIQUE WELL ID
ENTR.         T                              : Entered      - ENTERED BY
SRVC.         SCHLUMBERGER                   : Scn          - SERVICE COMPANY
STRT.F        900                            : top_depth    - START DEPTH
STOP.F        1639.83                        : bot_depth    - STOP DEPTH
STEP.F        0.82                           : increment    - STEP LENGTH
 NULL. -999.2500:NULL Value
~CURVE INFORMATION BLOCK
#MNEM UNIT       ERCB CURVE CODE    CURVE DESCRIPTION
#-----------   ------------------   ----------------------------------
DEPT.F        00 001 00 00         : DEPTH        - DEPTH
GR  .API      00 310 00 00         : GR           - GAMMA RAY
NPHI.V/V      00 330 00 00         : PHIN         - NEUTRON POROSITY (SANDSTONE)
ILD .OHMM     00 120 00 00         : RESD         - DEEP RESISTIVITY (DIL)
~PARAMETER INFORMATION
#MNEM.UNIT           DATA             DESCRIPTION OF MNEMONIC
#---------         -----------     ------------------------------
GL  .F        2392                 : gl           - GROUND LEVEL ELEVATION
EREF.F        2402                 : kb           - ELEVATION OF DEPTH REFERENCE
DATM.F        2402                 : datum        - DATUM ELEVATION
TDD .F        1635                 : tdd          - TOTAL DEPTH DRILLER
RUN .         ONE                  : Run          - RUN NUMBER
ENG .         BILL                 : Engineer     - RECORDING ENGINEER
WIT .         JIM                  : Witness      - WITNESSED BY
MUD .         GEL                  : Mud_type     - MUD TYPE
MATR.         SANDSTONE            : Logunit      - NEUTRON MATRIX
TMAX.F        70                   : BHT          - MAXIMUM RECORDED TEMPERATURE
BHTD.F        1632                 : BHTDEP       - MAXIMUM RECORDED TEMPERATURE
MATR.         1                    : LOGUNIT      - NEUTRON MATRIX
RMT .F        43                   : MDTP         - TEMPERATURE OF MUD
NEUT.         1                    : NEUTRON      - NEUTRON TYPE
RESI.         4.68                 : RESIST       - RESISTIVITY TYPE
RMC .OHMM     4.68                 : RMC          - RESISTIVITY OF MUD CAKE
RMF .OHMM     4.68                 : RMF          - RESISTIVITY OF MUD FILTRATE
SUFT.F        32                   : SUFT         - SURFACE TEMPERATURE
~A  DEPTH       GR     PHIN     RESD
  900.000  101.509    0.343    2.843
  900.820  101.090    0.335    2.917
  901.640  101.616    0.330    2.978
  902.461  101.691    0.327    2.994
  903.281   98.869    0.324    3.013
  904.101  100.371    0.321    3.092
  904.921  104.757    0.315    3.105
  905.741  105.809    0.310    3.121
  906.562  103.947    0.303    3.190
  907.382  101.590    0.303    3.269
  908.202  101.170    0.304    3.346
  909.022  102.688    0.309    3.429
  909.843  104.670    0.307    3.442
  910.663  105.196    0.307    3.528
  911.483  106.248    0.307    3.615
  912.303  105.363    0.310    3.630
  913.123  104.913    0.316    3.649
  913.944  104.493    0.322    3.603
  914.764  105.545    0.324    3.563
  915.584  106.071    0.324    3.455
  916.404  106.643    0.316    3.417
  917.224  106.673    0.308    3.369
  918.045  105.773    0.306    3.331
  918.865  106.825    0.307    3.345
  919.685  107.336    0.314    3.362
  920.505  108.403    0.318    3.385
  921.325  107.472    0.315    3.527
  922.146  105.130    0.309    3.609
  922.966  104.230    0.305    3.699
  923.786  105.763    0.307    3.718
  924.606  105.793    0.308    3.733
  925.427  105.854    0.310    3.763
  926.247  104.007    0.303    3.778
  927.067  100.689    0.289    3.740
  927.887   91.140    0.260    3.755
  928.707   79.653    0.225    3.775
  929.528   85.014    0.212    3.795
  930.348   91.802    0.268    3.954
  931.168   73.108    0.398    4.047
  931.988   62.117    0.408    4.217
  932.808   60.271    0.389    5.262
  933.629   60.812    0.380    7.863
  934.449   61.834    0.385   10.169
  935.269   63.816    0.392   12.919
  936.089   64.373    0.397   15.574
  936.909   65.409    0.398   17.455
  937.730   65.920    0.397   18.187
  938.550   67.422    0.398   18.589
  939.370   70.381    0.402   18.737
  940.190   72.379    0.403   18.811
  941.010   73.882    0.396   18.600
  941.831   72.501    0.381   18.366
  942.651   70.159    0.385   18.112
  943.471   71.180    0.400   16.671
  944.291   74.124    0.394   15.862
  945.112   81.408    0.378   14.600
  945.932   89.637    0.358   13.681
  946.752   93.557    0.360   13.235
  947.572   86.891    0.386   13.052
  948.392   75.404    0.401   12.905
  949.213   72.582    0.424   13.447
  950.033   77.447    0.480   14.282
  950.853   76.562    0.494   15.150
  951.673   71.802    0.481   15.827
  952.493   71.383    0.452   16.156
  953.314   69.071    0.439   16.556
  954.134   66.714    0.439   16.688
  954.954   63.396    0.437   16.754
  955.774   66.370    0.435   17.434
  956.594   70.275    0.425   19.918
  957.415   75.621    0.415   22.727
  958.235   88.190    0.402   23.649
  959.055  102.681    0.379   23.774
  959.875  108.508    0.354   22.248
  960.696  112.909    0.331   19.038
  961.516  104.320    0.326   14.877
  962.336   83.689    0.343   13.415
  963.156   73.178    0.374   12.128
  963.976   63.613    0.396   12.637
  964.797   62.713    0.345   13.405
  965.617   72.399    0.313   14.476
  966.437   89.293    0.298   15.396
  967.257  102.823    0.293   15.183
  968.077   99.520    0.328   14.209
  968.898  101.533    0.315   13.078
  969.718  104.462    0.284   12.427
  970.538  106.925    0.273   11.221
  971.358  104.583    0.285   10.501
  972.178  101.280    0.316   10.570
  972.999   94.614    0.330   10.818
  973.819   84.118    0.344   11.287
  974.639   80.815    0.351   11.536
  975.459   79.419    0.354   12.253
  976.280   79.015    0.356   12.784
  977.100   79.075    0.357   13.303
  977.920   81.073    0.355   13.861
  978.740   82.560    0.353   14.186
  979.560   85.984    0.345   14.280
  980.381   91.346    0.343   14.119
  981.201   91.407    0.335   14.175
  982.021   89.545    0.331   13.767
  982.841   88.645    0.328   13.595
  983.661   92.069    0.333   13.442
  984.482   94.548    0.334   13.256
  985.302   95.089    0.331   13.308
  986.122   96.111    0.335   13.379
  986.942   98.108    0.340   13.028
  987.762   98.650    0.350   13.063
  988.583   96.293    0.359   12.933
  989.403   91.548    0.379   12.967
  990.223   88.245    0.384   13.036
  991.043   80.618    0.390   13.600
  991.864   78.772    0.396   14.465
  992.684   78.817    0.401   15.052
  993.504   80.830    0.404   15.662
  994.324   82.782    0.395   17.265
  995.144   87.183    0.389   17.965
  995.965   89.646    0.384   18.768
  996.785   91.163    0.376   18.867
  997.605   93.642    0.369   18.606
  998.425   95.129    0.365   18.373
  999.245   99.034    0.343   17.504
 1000.070  103.915    0.339   16.699
 1000.890  105.897    0.340   15.627
 1001.710  102.610    0.334   14.625
 1002.530  100.268    0.322   13.915
 1003.350   99.833    0.292   13.022
 1004.170  107.116    0.272   12.170
 1004.990  111.982    0.248   10.808
 1005.810  116.383    0.206   10.284
 1006.630  115.002    0.188    9.133
 1007.450  113.621    0.203    8.678
 1008.270  120.424    0.233    7.836
 1009.090  120.485    0.246    6.949
 1009.910  121.506    0.262    6.275
 1010.730  123.009    0.274    5.768
 1011.550  124.541    0.279    5.295
 1012.370  123.641    0.284    4.781
 1013.190  121.299    0.312    4.323
 1014.010  119.422    0.339    4.040
 1014.830  115.639    0.348    3.918
 1015.650  113.312    0.365    3.874
 1016.470  111.436    0.378    3.965
 1017.290  104.273    0.390    3.981
 1018.110   99.529    0.405    4.630
 1018.930  100.070    0.414    5.770
 1019.750   99.185    0.393    9.099
 1020.570   97.324    0.369   13.598
 1021.390   95.478    0.352   15.220
 1022.210   94.592    0.348   16.479
 1023.030   94.157    0.371   16.545
 1023.850   94.218    0.378   16.632
 1024.670   95.735    0.374   16.132
 1025.490   97.718    0.357   15.390
 1026.310  100.647    0.333   15.197
 1027.130  106.473    0.311   15.257
 1027.950  112.315    0.318   15.960
 1028.770  117.662    0.328   16.003
 1029.590  114.839    0.337   14.193
 1030.410  110.575    0.353    9.948
 1031.230  107.288    0.355    7.914
 1032.050  109.286    0.359    7.966
 1032.870  109.842    0.364    8.603
 1033.690  108.431    0.372    9.471
 1034.510   96.479    0.380   10.628
 1035.330   92.680    0.389   11.493
 1036.150   80.247    0.384   11.731
 1036.980   77.890    0.374   12.239
 1037.800   81.330    0.365   12.753
 1038.620   90.551    0.351   13.069
 1039.440   92.999    0.338   13.121
 1040.260   96.903    0.326   13.446
 1041.080   97.940    0.335   13.518
 1041.900   94.157    0.348   13.589
 1042.720   89.878    0.349   13.454
 1043.540   76.499    0.360   13.251
 1044.360   73.662    0.374   11.964
 1045.180   73.242    0.384   10.803
 1046.000   78.108    0.384   10.478
 1046.820   83.469    0.383   10.533
 1047.640   83.530    0.381   10.589
 1048.460   81.684    0.380   10.659
 1049.280   80.303    0.375   10.716
 1050.100   78.922    0.370   10.773
 1050.920   78.983    0.363   10.844
 1051.740   80.500    0.359   10.887
 1052.560   82.468    0.348   10.750
 1053.380   86.868    0.345   10.256
 1054.200   94.136    0.341    9.921
 1055.020   97.576    0.335    9.452
 1055.840  101.481    0.327    9.168
 1056.660  105.385    0.318    8.591
 1057.480  111.708    0.310    7.897
 1058.300  116.108    0.302    7.514
 1059.120  118.076    0.295    6.916
 1059.940  118.647    0.299    6.708
 1060.760  119.189    0.304    6.507
 1061.580  119.249    0.311    6.417
 1062.400  119.325    0.323    6.232
 1063.220  119.371    0.336    6.154
 1064.040  118.966    0.361    6.178
 1064.860  116.128    0.370    6.340
 1065.680  107.525    0.380    6.488
 1066.500  101.339    0.393    6.752
 1067.320   96.114    0.417    6.910
 1068.140   91.850    0.374    7.072
 1068.960   89.012    0.337    7.247
 1069.780   90.530    0.333    7.551
 1070.600   92.543    0.318    7.729
 1071.420   92.573    0.292    8.368
 1072.240   92.649    0.295    8.576
 1073.060   92.710    0.323    8.598
 1073.880   93.266    0.347    8.491
 1074.700   93.342    0.361    8.257
 1075.520   92.426    0.364    8.279
 1076.350   90.550    0.364    8.334
 1077.170   81.000    0.366    8.541
