~VERSION INFORMATION
 VERS.                 2.0:   CWLS LOG ASCII STANDARD -VERSION 2.0
 WRAP.                  NO:   ONE LINE PER DEPTH STEP
~WELL INFORMATION BLOCK
#MNEM.UNIT           DATA                    DESCRIPTION OF MNEMONIC
#---------    -------------------            -------------------------------
# Generated from Intellog Unique Number	CN_94_101/WELL/5040
WELL.         14-14-101-14W4                 : Well_name    - WELL
LOC .         AA/14-14-101-14W4/0            : Location     - LOCATION
UWI .         AA/14-14-101-14W400            : Uwi          - UNIQUE WELL ID
ENTR.         TIM                            : Entered      - ENTERED BY
SRVC.         SCHLUMBERGER                   : Scn          - SERVICE COMPANY
DATE.         08/17/92                       : Date         - LOG DATE
STRT.M        304.8                          : top_depth    - START DEPTH
STOP.M        502.8                          : bot_depth    - STOP DEPTH
STEP.M        0.25                           : increment    - STEP LENGTH
NULL. -999.2500:NULL Value
~CURVE INFORMATION BLOCK
#MNEM UNIT       ERCB CURVE CODE    CURVE DESCRIPTION
#-----------   ------------------   ----------------------------------
DEPT.M        00 001 00 00         : DEPTH        - DEPTH
GR  .API      00 310 00 00         : GR           - GAMMA RAY
ILD .OHMM     00 120 00 00         : RESD         - DEEP RESISTIVITY (DIL)
NPHI.V/V      00 330 00 00         : PHIN         - NEUTRON POROSITY (SANDSTONE)
~PARAMETER INFORMATION
#MNEM.UNIT           DATA             DESCRIPTION OF MNEMONIC
#---------         -----------     ------------------------------
GL  .M        726.643              : gl           - GROUND LEVEL ELEVATION
EREF.M        729.996              : kb           - ELEVATION OF DEPTH REFERENCE
DATM.M        729.996              : datum        - DATUM ELEVATION
TDD .M        507.187              : tdd          - TOTAL DEPTH DRILLER
RUN .         ONE                  : Run          - RUN NUMBER
ENG .         BILL                 : Engineer     - RECORDING ENGINEER
WIT .         JIM                  : Witness      - WITNESSED BY
MUD .         GEL                  : Mud_type     - MUD TYPE
MATR.         SANDSTONE            : Logunit      - NEUTRON MATRIX
TMAX.C        19.4444              : BHT          - MAXIMUM RECORDED TEMPERATURE
BHTD.M        507.187              : BHTDEP       - MAXIMUM RECORDED TEMPERATURE
RMT .C        12.2222              : MDTP         - TEMPERATURE OF MUD
MUDD.KG/M     0                    : MWT          - MUD DENSITY
NEUT.         1                    : NEUTRON      - NEUTRON TYPE
RESI.         0                    : RESIST       - RESISTIVITY TYPE
RM  .OHMM     9.5                  : RM           - RESISTIVITY OF MUD
RMC .OHMM     5                    : RMC          - RESISTIVITY OF MUD CAKE
RMF .OHMM     10                   : RMF          - RESISTIVITY OF MUD FILTRATE
SUFT.C        4                    : SUFT         - SURFACE TEMPERATURE
~A  DEPTH       GR     RESD     PHIN
# ...
  359.050  105.604    2.071    0.516
  359.300  104.815    2.069    0.518
  359.550  104.793    2.067    0.523
  359.800  104.776    2.064    0.524
  360.050  104.373    2.062    0.528
  360.300  103.584    2.059    0.530
  360.550  102.404    2.057    0.533
  360.800  102.005    2.013    0.533
  361.050  100.822    2.012    0.527
  361.300  100.423    2.009    0.522
  361.550  100.020    2.007    0.517
  361.800   99.617    2.044    0.513
  362.050   99.600    2.042    0.508
  362.300   99.192    2.081    0.505
  362.550   99.175    2.078    0.501
  362.800   99.158    2.116    0.497
  363.050   99.127    2.155    0.495
  363.300   99.119    2.153    0.494
  363.550   99.487    2.193    0.492
  363.800  103.711    2.235    0.495
  364.050  106.399    2.321    0.499
  364.300  109.465    2.364    0.504
  364.550  109.838    2.362    0.508
  364.800  109.812    2.312    0.509
  365.050  109.414    2.136    0.506
  365.300  109.401    1.685    0.505
  365.550  108.221    1.411    0.504
  365.800  106.652    1.050    0.508
  366.050  105.867    0.862    0.510
  366.300  105.082    0.693    0.511
  366.550  103.903    0.603    0.515
  366.800  103.496    0.568    0.516
  367.050  102.707    0.762    0.519
  367.300  102.308    1.427    0.520
  367.550  101.905    1.804    0.523
  367.800  101.115    1.875    0.525
  368.050  100.318    1.871    0.525
  368.300   99.919    1.870    0.525
  368.550   99.516    1.795    0.524
  368.800   98.332    1.725    0.524
  369.050   97.929    1.560    0.523
  369.300   97.144    1.499    0.522
  369.550   95.579    1.412    0.522
  369.800   93.632    1.355    0.517
  370.050   92.076    1.355    0.512
  370.300   89.743    1.380    0.503
  370.550   86.634    1.491    0.498
  370.800   84.297    1.675    0.487
  371.050   83.126    1.810    0.474
  371.300   82.723    2.115    0.454
  371.550   82.311    2.329    0.434
  371.800   81.904    2.421    0.412
  372.050   81.510    2.616    0.406
  372.300   81.106    2.665    0.410
  372.550   81.085    2.879    0.415
  372.800   81.068    2.992    0.422
  373.050   81.050    3.231    0.428
  373.300   82.186    3.424    0.423
  373.550   83.717    3.487    0.394
  373.800   86.787    3.484    0.368
  374.050   91.787    3.346    0.365
  374.300   98.712    3.151    0.409
  374.550   95.612    2.908    0.481
  374.800   91.349    2.850    0.488
  375.050   85.539    2.682    0.490
  375.300   81.658    2.525    0.491
  375.550   82.799    2.523    0.488
  375.800   83.558    2.521    0.486
  376.050   85.080    2.518    0.483
  376.300   84.291    2.616    0.482
  376.550   82.344    2.665    0.481
  376.800   79.240    2.767    0.474
  377.050   76.521    2.763    0.444
  377.300   73.022    2.761    0.399
  377.550   72.237    2.758    0.386
  377.800   69.900    2.755    0.375
  378.050   70.273    2.807    0.378
  378.300   72.567    2.915    0.391
  378.550   75.637    3.087    0.399
  378.800   79.093    3.402    0.409
  379.050   83.321    3.677    0.430
  379.300   86.005    4.130    0.455
  379.550   87.527    4.209    0.462
  379.800   87.128    4.548    0.486
  380.050   85.953    4.818    0.489
  380.300   85.932    4.626    0.499
  380.550   87.068    4.027    0.511
  380.800   87.818    3.576    0.519
  381.050   88.196    3.113    0.519
  381.300   88.170    2.657    0.519
  381.550   88.157    2.223    0.522
  381.800   87.749    2.013    0.518
  382.050   87.728    1.934    0.509
  382.300   87.719    1.821    0.500
  382.550   87.702    1.854    0.488
  382.800   87.299    1.927    0.483
  383.050   85.352    2.081    0.484
  383.300   81.857    2.162    0.484
  383.550   81.836    2.247    0.479
  383.800   85.682    2.334    0.433
  384.050   90.682    2.424    0.413
  384.300   92.199    2.422    0.405
  384.550   91.805    2.373    0.458
  384.800   90.630    2.323    0.493
  385.050   89.451    2.274    0.519
  385.300   88.662    2.272    0.513
  385.550   87.478    2.270    0.504
  385.800   86.693    2.267    0.497
  386.050   85.522    2.310    0.491
  386.300   83.186    2.353    0.484
  386.550   80.849    2.443    0.476
  386.800   80.064    2.489    0.456
  387.050   80.046    2.586    0.453
  387.300   79.639    2.635    0.447
  387.550   79.618    2.683    0.438
  387.800   79.605    2.787    0.421
  388.050   79.969    2.841    0.406
  388.300   80.342    2.950    0.394
  388.550   81.092    3.005    0.403
  388.800   81.843    3.061    0.447
  389.050   81.435    3.118    0.477
  389.300   81.040    3.115    0.506
  389.550   79.865    3.111    0.505
  389.800   79.076    3.108    0.486
  390.050   78.287    2.926    0.464
  390.300   78.647    2.701    0.441
  390.550   79.788    2.544    0.418
  390.800   80.547    2.492    0.407
  391.050   81.687    2.489    0.391
  391.300   82.056    2.535    0.395
  391.550   82.425    2.583    0.419
  391.800   82.403    2.681    0.445
  392.050   82.382    2.732    0.471
  392.300   82.364    2.730    0.495
  392.550   82.352    2.726    0.505
  392.800   82.334    2.618    0.514
  393.050   82.699    2.616    0.523
  393.300   83.067    2.512    0.529
  393.550   83.050    2.412    0.536
  393.800   82.261    2.361    0.538
  394.050   80.700    2.314    0.538
  394.300   81.455    2.312    0.534
  394.550   84.525    2.307    0.528
  394.800   87.205    2.305    0.516
  395.050   87.955    2.302    0.511
  395.300   88.328    2.300    0.519
  395.550   88.311    2.298    0.526
  395.800   88.293    2.294    0.518
  396.050   87.882    2.292    0.482
  396.300   87.869    2.290    0.453
  396.550   87.461    2.287    0.434
  396.800   87.826    2.284    0.443
  397.050   88.589    2.282    0.467
  397.300   90.107    2.279    0.490
  397.550   90.870    2.322    0.503
  397.800   92.396    2.319    0.523
  398.050   94.304    2.408    0.542
  398.300   96.217    2.406    0.539
  398.550   97.357    2.402    0.533
  398.800   97.717    2.353    0.524
  399.050   97.709    2.305    0.516
  399.300   98.073    2.170    0.509
  399.550   98.056    2.085    0.508
  399.800   94.951    2.042    0.506
  400.050   89.913    1.999    0.502
  400.300   91.829    1.996    0.492
  400.550   94.509    2.034    0.486
  400.800   94.492    2.033    0.496
  401.050   94.471    2.070    0.504
  401.300   94.458    2.109    0.498
  401.550   94.436    2.147    0.492
  401.800   94.419    2.187    0.484
  402.050   94.016    2.185    0.477
  402.300   92.455    2.226    0.468
  402.550   90.504    2.267    0.461
  402.800   90.101    2.310    0.447
  403.050   90.083    2.400    0.438
  403.300   90.452    2.593    0.430
  403.550   90.435    2.914    0.431
  403.800   90.803    3.338    0.454
  404.050   90.782    3.536    0.463
  404.300   90.769    3.674    0.469
  404.550   90.748    3.743    0.463
  404.800   90.344    3.738    0.457
  405.050   90.323    3.660    0.450
  405.300   90.692    3.658    0.440
  405.550   91.060    3.581    0.423
  405.800   91.429    3.508    0.396
  406.050   92.569    3.434    0.398
  406.300   93.324    3.432    0.403
  406.550   93.693    3.427    0.408
  406.800   93.667    3.424    0.412
  407.050   93.272    3.421    0.398
  407.300   91.707    3.415    0.358
  407.550   90.142    3.412    0.342
  407.800   90.129    3.406    0.350
  408.050   90.107    3.404    0.358
  408.300   90.094    3.401    0.389
  408.550   90.454    3.395    0.393
  408.800   90.446    3.459    0.407
  409.050   89.262    3.455    0.425
  409.300   87.701    3.519    0.456
  409.550   86.526    3.514    0.480
  409.800   85.351    3.511    0.494
  410.050   84.558    3.507    0.499
  410.300   84.159    3.435    0.501
  410.550   84.519    3.234    0.504
  410.800   84.888    3.105    0.507
  411.050   85.265    3.042    0.509
  411.300   87.169    3.039    0.511
  411.550   88.318    3.036    0.512
  411.800   89.459    3.093    0.512
  412.050   90.213    3.150    0.511
  412.300   89.806    3.144    0.506
  412.550   89.403    3.143    0.488
  412.800   88.609    3.076    0.437
  413.050   88.206    3.015    0.402
