~VERSION INFORMATION
 VERS.                 2.0:   CWLS LOG ASCII STANDARD -VERSION 2.0
 WRAP.                  NO:   ONE LINE PER DEPTH STEP
~WELL INFORMATION BLOCK
#MNEM.UNIT           DATA                    DESCRIPTION OF MNEMONIC
#---------    -------------------            -------------------------------
# Generated from Intellog Unique Number	CN_94_101/WELL/5026
WELL.         11-35-097-11W4                 : Well_name    - WELL
LOC .         AA/11-35-097-11W4/0            : Location     - LOCATION
UWI .         AA/11-35-097-11W400            : Uwi          - UNIQUE WELL ID
ENTR.         JOETTE                         : Entered      - ENTERED BY
SRVC.         SCHLUMBERGER                   : Scn          - SERVICE COMPANY
DATE.         08/13/92                       : Date         - LOG DATE
STRT.M        0                              : top_depth    - START DEPTH
STOP.M        85                             : bot_depth    - STOP DEPTH
STEP.M        0.25                           : increment    - STEP LENGTH
 NULL. -999.2500:NULL Value
~CURVE INFORMATION BLOCK
#MNEM UNIT       ERCB CURVE CODE    CURVE DESCRIPTION
#-----------   ------------------   ----------------------------------
DEPT.M        00 001 00 00         : DEPTH        - DEPTH
GR  .API      00 310 00 00         : GR           - GAMMA RAY
ILD .OHMM     00 120 00 00         : RESD         - DEEP RESISTIVITY (DIL)
NPHI.V/V      00 330 00 00         : PHIN         - NEUTRON POROSITY (SANDSTONE)
DPHI.V/V      00 890 00 00         : PHID         - DENSITY POROSITY (SANDSTONE)
~PARAMETER INFORMATION
#MNEM.UNIT           DATA             DESCRIPTION OF MNEMONIC
#---------         -----------     ------------------------------
GL  .M        294.2                : gl           - GROUND LEVEL ELEVATION
EREF.M        294.2                : kb           - ELEVATION OF DEPTH REFERENCE
DATM.M        294.2                : datum        - DATUM ELEVATION
TDD .M        85.3                 : tdd          - TOTAL DEPTH DRILLER
RUN .         ONE                  : Run          - RUN NUMBER
ENG .         BILL                 : Engineer     - RECORDING ENGINEER
WIT .         JIM                  : Witness      - WITNESSED BY
MUD .         GEL                  : Mud_type     - MUD TYPE
MATR.         SANDSTONE            : Logunit      - NEUTRON MATRIX
TMAX.C        10                   : BHT          - MAXIMUM RECORDED TEMPERATURE
BHTD.M        85.3                 : BHTDEP       - MAXIMUM RECORDED TEMPERATURE
RMT .C        10                   : MDTP         - TEMPERATURE OF MUD
MUDD.KG/M     1090                 : MWT          - MUD DENSITY
NEUT.         1                    : NEUTRON      - NEUTRON TYPE
RESI.         0                    : RESIST       - RESISTIVITY TYPE
RM  .OHMM     13.1                 : RM           - RESISTIVITY OF MUD
RMC .OHMM     13.1                 : RMC          - RESISTIVITY OF MUD CAKE
RMF .OHMM     13.1                 : RMF          - RESISTIVITY OF MUD FILTRATE
SUFT.C        4                    : SUFT         - SURFACE TEMPERATURE
~A  DEPTH       GR     RESD     PHIN     PHID
# ...
   43.500   86.590   63.709    0.416    0.302
   43.750   93.119   56.918    0.422    0.307
   44.000  100.834   52.304    0.427    0.310
   44.250   95.505   48.065    0.412    0.306
   44.500   95.512   41.748    0.408    0.323
   44.750   97.297   38.908    0.434    0.323
   45.000   99.083   36.262    0.413    0.341
   45.250   99.092   33.796    0.394    0.349
   45.500  103.247   31.944    0.469    0.323
   45.750  103.256   33.798    0.514    0.358
   46.000   99.704   41.758    0.500    0.344
   46.250   90.224   49.456    0.492    0.342
   46.500   81.930   59.406    0.519    0.303
   46.750   78.379   82.156    0.523    0.336
   47.000   76.015   91.967    0.497    0.340
   47.250   74.245  113.625    0.484    0.349
   47.500   71.285  123.659    0.492    0.299
   47.750   73.664  138.426    0.490    0.295
   48.000   68.927  146.463    0.490    0.319
   48.250   79.014  136.500    0.487    0.326
   48.500   82.578  136.509    0.485    0.327
   48.750   77.842  142.410    0.428    0.287
   49.000   73.698  154.985    0.356    0.266
   49.250   74.298  146.496    0.502    0.290
   49.500   73.121  134.621    0.515    0.343
   49.750   70.163  144.457    0.497    0.316
   50.000   68.985  168.693    0.505    0.285
   50.250   67.806  166.341    0.503    0.257
   50.500   73.149  166.348    0.362    0.243
   50.750   68.412  176.004    0.330    0.253
   51.000   67.235  202.653    0.414    0.282
   51.250   70.798  240.014    0.453    0.315
   51.500   71.400  176.025    0.471    0.315
   51.750   79.112  148.640    0.489    0.304
   52.000   90.978  199.852    0.496    0.308
   52.250   72.606  246.918    0.469    0.308
   52.500   74.392  217.509    0.455    0.303
   52.750   79.140  140.515    0.486    0.310
   53.000   82.112  130.959    0.513    0.329
   53.250   64.331  208.530    0.510    0.320
   53.500   65.524  240.107    0.532    0.317
   53.750   64.347  148.692    0.526    0.343
   54.000   68.502   97.423    0.522    0.304
   54.250   84.518   90.796    0.529    0.303
   54.500   82.746  144.577    0.457    0.304
   54.750   76.824  191.669    0.484    0.289
   55.000   72.089  205.674    0.483    0.326
   55.250   74.466  183.749    0.494    0.282
   55.500   70.916  168.855    0.478    0.285
   55.750   67.367  181.193    0.475    0.299
   56.000   72.708  189.028    0.502    0.303
   56.250   71.529  178.675    0.507    0.293
   56.500   72.722  153.017    0.476    0.298
   56.750   77.472  110.652    0.444    0.326
   57.000   79.851   87.080    0.428    0.341
   57.250   84.601   83.478    0.431    0.319
   57.500   93.502  112.238    0.502    0.314
   57.750   87.579  132.928    0.545    0.325
   58.000   78.693  104.609    0.496    0.332
   58.250   92.337  106.100    0.451    0.298
   58.500   86.414  155.243    0.506    0.295
   58.750   79.308  178.753    0.513    0.301
   59.000   85.835  122.175    0.485    0.292
   59.250   96.515   89.605    0.451    0.301
   59.500   92.966   97.516    0.427    0.309
   59.750   90.599  115.492    0.432    0.303
   60.000   85.863  208.777    0.441    0.294
   60.250   74.012  351.725    0.523    0.292
   60.500   68.682  422.478    0.529    0.283
   60.750   69.877  447.002    0.531    0.284
   61.000   72.847  372.175    0.526    0.288
   61.250   73.448  138.755    0.500    0.279
   61.500   78.197  107.667    0.472    0.269
   61.750   82.947  117.173    0.468    0.281
   62.000   82.361  155.340    0.494    0.303
   62.250   82.370  169.061    0.509    0.334
   62.500   80.003  166.700    0.500    0.331
   62.750   69.338  157.568    0.488    0.299
   63.000   77.649  164.379    0.491    0.292
   63.250   75.282  184.009    0.510    0.299
   63.500   77.068  186.632    0.517    0.293
   63.750   83.004  189.289    0.486    0.299
   64.000   79.455  224.182    0.477    0.288
   64.250   72.938  332.679    0.481    0.278
   64.500   67.609  328.037    0.494    0.283
   64.750   69.987  318.933    0.501    0.279
   65.000   71.180  367.227    0.500    0.271
   65.250   65.853  441.098    0.512    0.286
   65.500   62.300  486.862    0.523    0.323
   65.750   58.752  428.874    0.499    0.297
   66.000   59.351  127.610    0.474    0.295
   66.250   59.950   93.590    0.485    0.309
   66.500   75.372  144.884    0.499    0.279
   66.750   71.822  174.030    0.469    0.353
   67.000   64.121   99.031    0.484    0.327
   67.250   70.057   91.005    0.515    0.309
   67.500   67.099  131.294    0.528    0.316
   67.750   62.956  184.155    0.523    0.320
   68.000   68.892  192.120    0.522    0.289
   68.250   71.865  192.128    0.527    0.288
   68.500   67.721  218.122    0.532    0.334
   68.750   63.578  293.274    0.538    0.299
   69.000   63.585  383.362    0.539    0.298
   69.250   63.592  394.341    0.536    0.293
   69.500   64.784  405.638    0.531    0.295
   69.750   62.418  411.405    0.533    0.288
   70.000   63.611  417.268    0.533    0.281
   70.250   64.212  417.291    0.528    0.291
   70.500   65.996  411.459    0.528    0.294
   70.750   65.410  394.440    0.536    0.320
   71.000   61.267  362.468    0.535    0.321
   71.250   67.796  306.076    0.531    0.293
   71.500   66.617  301.808    0.535    0.284
   71.750   57.137  293.432    0.540    0.287
   72.000   53.588  277.357    0.546    0.309
   72.250   53.595  258.491    0.543    0.316
   72.500   53.602  218.275    0.527    0.309
   72.750   57.758  124.210    0.516    0.287
   73.000   63.694   71.686    0.503    0.283
   73.250   73.189   64.953    0.512    0.298
   73.500   61.929   91.104    0.521    0.272
   73.750   57.785  186.967    0.524    0.267
   74.000   52.456  184.357    0.527    0.282
   74.250   48.313  181.784    0.532    0.268
   74.500   51.284  234.299    0.533    0.273
   74.750   53.070  258.607    0.522    0.276
   75.000   52.487  192.358    0.504    0.272
   75.250   51.898  179.273    0.510    0.287
   75.500   50.719  133.346    0.519    0.313
   75.750   56.062  115.820    0.519    0.283
   76.000   60.219  106.432    0.521    0.251
   76.250   50.740  147.193    0.525    0.245
   76.500   48.970  160.191    0.525    0.257
   76.750   50.754  147.208    0.519    0.256
   77.000   47.203  241.104    0.495    0.230
   77.250   45.431  114.228    0.462    0.239
   77.500   57.889  107.972    0.467    0.241
   77.750   53.153  141.136    0.474    0.234
   78.000   54.940  167.154    0.482    0.240
   78.250   71.549   59.739    0.483    0.246
   78.500   94.679   30.800    0.361    0.121
   78.750   93.500   12.496    0.302    0.065
   79.000   80.465   13.410    0.245    0.026
   79.250   82.249   18.545    0.186    0.010
   79.500   81.663   20.469    0.181    0.034
   79.750   82.263   22.593    0.192    0.038
   80.000   87.606   22.594    0.193    0.064
   80.250   91.765   22.279    0.193    0.116
   80.500   92.958   21.357    0.207    0.158
   80.750   95.334   19.905    0.217    0.116
   81.000   90.600   19.352    0.219    0.111
   81.250   88.233   18.815    0.198    0.117
   81.500   92.392   18.816    0.193    0.118
   81.750   98.328   20.191    0.187    0.094
   82.000  103.077   20.769    0.198    0.094
   82.250  106.048   19.631    0.221    0.103
   82.500  101.907   18.040    0.229    0.152
   82.750  104.283   16.813    0.240    0.181
   83.000  104.294   16.579    0.254    0.184
   83.250  102.519   15.671    0.296    0.164
   83.500  106.676   14.400    0.333    0.163
   83.750  109.647   13.805    0.372    0.166
   84.000  108.470   13.612    0.351    0.163
   84.250  111.440   14.607    0.217    0.153
   84.500  114.411   16.583    0.205    0.148
   84.750  107.303   16.123    0.224    0.138
   85.000  107.310   14.816    0.233    0.131
