~VERSION INFORMATION
 VERS.                 2.0:   CWLS LOG ASCII STANDARD -VERSION 2.0
 WRAP.                  NO:   ONE LINE PER DEPTH STEP
~WELL INFORMATION BLOCK
#MNEM.UNIT           DATA                    DESCRIPTION OF MNEMONIC
#---------    -------------------            -------------------------------
# Generated from Intellog Unique Number	CN_94_101/WELL/3200
WELL.         SHELL CANADA LTD.              : Well_name    - WELL
LOC .         AA/13-07-095-14W4/0            : Location     - LOCATION
UWI .         AA/13-07-095-14W4/0            : Uwi          - UNIQUE WELL ID
ENTR.         JOETTE                         : Entered      - ENTERED BY
SRVC.         SCHLUMBERGER                   : Scn          - SERVICE COMPANY
DATE.         07/20/92                       : Date         - LOG DATE
STRT.F        200                            : top_depth    - START DEPTH
STOP.F        889.797                        : bot_depth    - STOP DEPTH
STEP.F        0.82                           : increment    - STEP LENGTH
 NULL. -999.2500:NULL Value
~CURVE INFORMATION BLOCK
#MNEM UNIT       ERCB CURVE CODE    CURVE DESCRIPTION
#-----------   ------------------   ----------------------------------
DEPT.F        00 001 00 00         : DEPTH        - DEPTH
GR  .API      00 310 00 00         : GR           - GAMMA RAY
DPHI.V/V      00 890 00 00         : PHID         - DENSITY POROSITY (SANDSTONE)
ILD .OHMM     00 120 00 00         : RESD         - DEEP RESISTIVITY (DIL)
~PARAMETER INFORMATION
#MNEM.UNIT           DATA             DESCRIPTION OF MNEMONIC
#---------         -----------     ------------------------------
GL  .F        1723.2               : gl           - GROUND LEVEL ELEVATION
EREF.F        1733.2               : kb           - ELEVATION OF DEPTH REFERENCE
DATM.F        1733.2               : datum        - DATUM ELEVATION
TDD .F        911                  : tdd          - TOTAL DEPTH DRILLER
RUN .         ONE                  : Run          - RUN NUMBER
ENG .         BILL                 : Engineer     - RECORDING ENGINEER
WIT .         JIM                  : Witness      - WITNESSED BY
MUD .         GEL                  : Mud_type     - MUD TYPE
MATR.         SANDSTONE            : Logunit      - NEUTRON MATRIX
TMAX.F        56                   : BHT          - MAXIMUM RECORDED TEMPERATURE
BHTD.F        911                  : BHTDEP       - MAXIMUM RECORDED TEMPERATURE
RMT .F        56                   : MDTP         - TEMPERATURE OF MUD
MUDD.LB/G     9.3                  : MWT          - MUD DENSITY
NEUT.         1                    : NEUTRON      - NEUTRON TYPE
RESI.         0                    : RESIST       - RESISTIVITY TYPE
RM  .OHMM     3.27                 : RM           - RESISTIVITY OF MUD
RMC .OHMM     3.27                 : RMC          - RESISTIVITY OF MUD CAKE
RMF .OHMM     3.27                 : RMF          - RESISTIVITY OF MUD FILTRATE
SUFT.F        39.2                 : SUFT         - SURFACE TEMPERATURE
~A  DEPTH       GR     PHID     RESD
  200.000   80.976    0.333    5.622
  200.820   83.778    0.347    5.136
  201.640   88.171    0.352    4.685
  202.461   87.451    0.340    4.358
  203.281   83.154    0.330    4.621
  204.101   75.716    0.322    5.694
  204.921   72.208    0.330    8.310
  205.741   73.079    0.334    8.979
  206.562   73.529    0.340    7.325
  207.382   73.570    0.333    6.687
  208.202   71.667    0.321    8.394
  209.022   69.736    0.291    7.956
  209.843   67.031    0.271    6.251
  210.663   65.903    0.236    6.630
  211.483   66.746    0.229    7.721
  212.303   70.746    0.274    7.053
  213.123   73.575    0.339    6.935
  213.944   71.645    0.332    8.712
  214.764   68.545    0.335   10.937
  215.584   66.233    0.341   12.510
  216.404   64.711    0.340    9.641
  217.224   63.597    0.343    8.320
  218.045   65.216    0.338    7.595
  218.865   69.623    0.327    7.614
  219.685   73.228    0.326    7.778
  220.505   78.424    0.333    8.891
  221.325   78.084    0.342    7.817
  222.146   73.407    0.347    6.029
  222.966   69.110    0.347    5.301
  223.786   70.348    0.334    5.521
  224.606   70.022    0.320    4.854
  225.427   68.894    0.301    4.346
  226.247   72.499    0.282    3.892
  227.067   78.470    0.280    4.709
  227.887   77.356    0.322    8.134
  228.707   75.031    0.308   14.317
  229.528   64.029    0.305   13.569
  230.348   58.182    0.310    9.351
  231.168   59.420    0.326    7.482
  231.988   58.687    0.364   11.125
  232.808   54.798    0.386   20.330
  233.629   53.261    0.396   20.004
  234.449   46.598    0.415   17.262
  235.269   41.934    0.429   20.118
  236.089   40.412    0.424   18.354
  236.909   43.214    0.415   11.296
  237.730   49.199    0.400    9.748
  238.550   50.043    0.381    8.103
  239.370   60.760    0.334    8.756
  240.190   58.055    0.326   10.601
  241.010   58.110    0.332   11.235
  241.831   62.517    0.325    9.339
  242.651   66.516    0.322    9.374
  243.471   68.938    0.320    9.751
  244.291   67.823    0.325   10.149
  245.112   68.273    0.334    9.613
  245.932   71.089    0.342    7.413
  246.752   75.482    0.348    4.478
  247.572   79.115    0.357    4.930
  248.392   80.339    0.349    5.432
  249.213   80.394    0.343    5.977
  250.033   78.872    0.345    5.999
  250.853   74.602    0.344    5.372
  251.673   75.841    0.341    5.385
  252.493   76.276    0.341    5.612
  253.314   73.965    0.342    5.729
  254.134   68.499    0.339    5.856
  254.954   69.343    0.336    5.864
  255.774   71.764    0.330    5.773
  256.594   70.636    0.333    5.784
  257.415   66.747    0.328    5.916
  258.235   64.450    0.324    6.154
  259.055   60.533    0.325    6.775
  259.875   49.940    0.331    7.460
  260.696   42.107    0.363    7.479
  261.516   44.120    0.374   11.121
  262.336   49.316    0.371   13.710
  263.156   50.963    0.365    9.095
  263.976   47.849    0.362    9.297
  264.797   39.608    0.365   11.033
  265.617   36.113    0.372   13.085
  266.437   36.169    0.378   17.387
  267.257   35.829    0.381   16.801
  268.077   36.293    0.376   15.922
  268.898   38.320    0.374   18.533
  269.718   37.600    0.368   17.897
  270.538   38.444    0.359   16.034
  271.358   41.246    0.354   19.413
  272.178   43.273    0.359   16.742
  272.999   42.553    0.368   13.395
  273.819   45.763    0.381   10.526
  274.639   46.213    0.366   12.259
  275.459   41.535    0.387   15.691
  276.280   37.646    0.395   17.276
  277.100   39.687    0.391   14.909
  277.920   41.714    0.390   13.109
  278.740   43.347    0.393   12.432
  279.560   40.233    0.394   13.434
  280.381   37.147    0.394   13.722
  281.201   37.583    0.394   13.502
  282.021   40.793    0.386   14.053
  282.841   44.031    0.376   14.355
  283.661   41.312    0.362   14.655
  284.482   43.339    0.367   16.156
  285.302   46.943    0.378   13.420
  286.122   51.364    0.393   10.738
  286.942   50.631    0.404   11.603
  287.762   48.700    0.414   12.784
  288.583   45.206    0.420   10.820
  289.403   42.486    0.428   11.262
  290.223   40.977    0.430   13.884
  291.043   42.202    0.422   14.451
  291.864   46.215    0.401   12.947
  292.684   49.820    0.383    9.617
  293.504   52.269    0.365    7.700
  294.324   48.747    0.365   11.442
  295.144   43.675    0.378   15.204
  295.965   47.279    0.382   11.287
  296.785   52.489    0.371    8.542
  297.605   52.939    0.369    7.230
  298.425   51.811    0.386   21.943
  299.245   41.978    0.411   24.617
  300.066   38.878    0.398   20.462
  300.886   47.624    0.384   13.574
  301.706   56.764    0.373   10.468
  302.526   58.397    0.362    8.534
  303.346   61.213    0.347    6.833
  304.167   62.859    0.331    7.246
  304.987   62.914    0.320    7.685
  305.807   59.814    0.310    6.889
  306.627   57.503    0.294    6.408
  307.448   52.023    0.297   10.857
  308.268   49.725    0.306   12.654
  309.088   46.611    0.383    9.571
  309.908   42.328    0.381   11.147
  310.728   40.411    0.379   18.548
  311.549   44.016    0.376   15.418
  312.369   48.409    0.370   12.585
  313.189   55.183    0.358   10.652
  314.009   62.351    0.341    8.684
  314.829   68.717    0.331    5.352
  315.650   81.420    0.324    4.792
  316.470   79.109    0.329    4.627
  317.290   85.080    0.331    5.919
  318.110   82.769    0.309    5.715
  318.930   84.007    0.308    4.751
  319.751   85.640    0.319    5.237
  320.571   85.709    0.321    5.763
  321.391   83.792    0.311    6.465
  322.211   81.861    0.314    7.257
  323.031   78.367    0.326    6.625
  323.852   75.661    0.345    5.932
  324.672   72.166    0.336    6.291
  325.492   69.461    0.326    9.010
  326.312   73.066    0.331    6.442
  327.133   70.374    0.338    5.566
  327.953   69.640    0.337    6.011
  328.773   68.104    0.333    6.496
  329.593   63.426    0.331    6.761
  330.413   49.650    0.316   17.639
  331.234   36.690    0.268   47.809
  332.054   35.575    0.275   42.037
  332.874   37.194    0.357   33.656
  333.694   39.630    0.386   27.958
  334.514   40.065    0.416   22.807
  335.335   39.726    0.419   25.111
  336.155   40.176    0.424   27.170
  336.975   41.836    0.418   27.754
  337.795   40.300    0.414   27.825
  338.615   39.172    0.409   27.360
  339.436   37.635    0.403   27.464
  340.256   35.324    0.392   27.499
  341.076   37.379    0.398   27.587
  341.896   36.631    0.397   27.639
  342.717   35.109    0.403   28.252
  343.537   33.981    0.414   28.841
  344.357   32.050    0.416   29.480
  345.177   30.950    0.418   29.573
  345.997   32.977    0.415   30.190
  346.818   34.201    0.406   32.058
  347.638   33.468    0.399   32.140
  348.458   30.367    0.393   32.789
  349.278   28.845    0.392   32.914
  350.098   28.900    0.395   32.956
  350.919   29.350    0.423   33.082
  351.739   27.433    0.426   33.124
  352.559   28.277    0.421   34.520
  353.379   29.910    0.402   32.129
  354.199   27.993    0.395   30.411
  355.020   27.667    0.196  103.211
  355.840   28.511    0.140  384.699
  356.660   26.200    0.133  915.062
  357.480   25.452    0.160  441.139
  358.301   30.268    0.197  225.109
  359.121   31.901    0.234  119.183
  359.941   34.322    0.361   56.425
  360.761   36.743    0.377   28.793
  361.581   36.404    0.391   17.070
  362.402   36.459    0.405   18.794
  363.222   36.120    0.400   21.098
  364.042   35.386    0.401   21.959
  364.862   33.089    0.406   22.460
  365.682   33.919    0.412   22.503
  366.503   37.143    0.405   22.560
  367.323   39.578    0.393   22.617
  368.143   41.606    0.394   22.254
  368.963   42.844    0.395   22.325
  369.783   45.265    0.390   23.236
  370.604   46.517    0.386   24.169
  371.424   46.953    0.388   23.796
  372.244   47.403    0.395   22.552
  373.064   46.288    0.402   21.778
  373.885   44.358    0.399   21.833
  374.705   43.243    0.389   23.169
  375.525   42.918    0.381   24.085
  376.345   43.354    0.383   25.068
  377.165   44.184    0.397   23.758
