~VERSION INFORMATION
 VERS.                 2.0:   CWLS LOG ASCII STANDARD -VERSION 2.0
 WRAP.                  NO:   ONE LINE PER DEPTH STEP
~WELL INFORMATION BLOCK
#MNEM.UNIT           DATA                    DESCRIPTION OF MNEMONIC
#---------    -------------------            -------------------------------
# Generated from Intellog Unique Number	CN_94_101/WELL/5019
WELL.         TEXACO EXPLOORATION            : Well_name    - WELL
LOC .         AA/11-09-099-15W4/0            : Location     - LOCATION
UWI .         AA/11-09-099-15W400            : Uwi          - UNIQUE WELL ID
ENTR.         TIM                            : Entered      - ENTERED BY
SRVC.         SCHLUMBERGER                   : Scn          - SERVICE COMPANY
DATE.         08/13/92                       : Date         - LOG DATE
STRT.M        270                            : top_depth    - START DEPTH
STOP.M        460                            : bot_depth    - STOP DEPTH
STEP.M        0.25                           : increment    - STEP LENGTH
 NULL. -999.2500:NULL Value
~CURVE INFORMATION BLOCK
#MNEM UNIT       ERCB CURVE CODE    CURVE DESCRIPTION
#-----------   ------------------   ----------------------------------
DEPT.M        00 001 00 00         : DEPTH        - DEPTH
GR  .API      00 310 00 00         : GR           - GAMMA RAY
ILD .OHMM     00 120 00 00         : RESD         - DEEP RESISTIVITY (DIL)
NPHI.V/V      00 330 00 00         : PHIN         - NEUTRON POROSITY (SANDSTONE)
DPHI.V/V      00 890 00 00         : PHID         - DENSITY POROSITY (SANDSTONE)
~PARAMETER INFORMATION
#MNEM.UNIT           DATA             DESCRIPTION OF MNEMONIC
#---------         -----------     ------------------------------
GL  .M        723.9                : gl           - GROUND LEVEL ELEVATION
EREF.M        727.3                : kb           - ELEVATION OF DEPTH REFERENCE
DATM.M        727.3                : datum        - DATUM ELEVATION
TDD .M        462                  : tdd          - TOTAL DEPTH DRILLER
RUN .         ONE                  : Run          - RUN NUMBER
ENG .         BILL                 : Engineer     - RECORDING ENGINEER
WIT .         JIM                  : Witness      - WITNESSED BY
MUD .         GEL                  : Mud_type     - MUD TYPE
MATR.         SANDSTONE            : Logunit      - NEUTRON MATRIX
TMAX.C        31.1                 : BHT          - MAXIMUM RECORDED TEMPERATURE
BHTD.M        462                  : BHTDEP       - MAXIMUM RECORDED TEMPERATURE
RMT .C        31.1                 : MDTP         - TEMPERATURE OF MUD
MUDD.KG/M     1130                 : MWT          - MUD DENSITY
NEUT.         1                    : NEUTRON      - NEUTRON TYPE
RESI.         0                    : RESIST       - RESISTIVITY TYPE
RM  .OHMM     6                    : RM           - RESISTIVITY OF MUD
RMC .OHMM     6                    : RMC          - RESISTIVITY OF MUD CAKE
RMF .OHMM     6                    : RMF          - RESISTIVITY OF MUD FILTRATE
SUFT.C        4                    : SUFT         - SURFACE TEMPERATURE
~A  DEPTH       GR     RESD     PHIN     PHID
# ...
  357.000  129.691    5.776    0.531    0.291
  357.250  127.244    5.566    0.524    0.298
  357.500  124.798    4.936    0.513    0.304
  357.750  122.351    4.514    0.502    0.304
  358.000  118.681    4.093    0.502    0.291
  358.250  116.847    3.880    0.502    0.282
  358.500  116.238    4.086    0.498    0.286
  358.750  115.017    4.292    0.493    0.299
  359.000  112.573    4.707    0.484    0.313
  359.250  110.126    5.122    0.463    0.313
  359.500  108.291    5.536    0.458    0.310
  359.750  107.070    5.531    0.453    0.305
  360.000  109.526    5.528    0.445    0.300
  360.250  115.045    5.526    0.447    0.294
  360.500  119.952    5.313    0.472    0.286
  360.750  124.245    5.311    0.477    0.275
  361.000  126.702    5.308    0.473    0.263
  361.250  126.094    5.095    0.498    0.261
  361.500  125.486    5.093    0.527    0.267
  361.750  125.490    4.881    0.540    0.275
  362.000  126.720    4.876    0.544    0.276
  362.250  128.564    4.874    0.549    0.279
  362.500  127.344    5.079    0.580    0.280
  362.750  125.508    5.076    0.584    0.282
  363.000  119.999    5.074    0.559    0.282
  363.250  120.004    5.071    0.508    0.277
  363.500  123.684    5.276    0.465    0.268
  363.750  129.203    5.273    0.441    0.253
  364.000  132.886    5.479    0.481    0.233
  364.250  132.277    5.685    0.492    0.224
  364.500  129.832    5.890    0.493    0.228
  364.750  127.998    5.678    0.464    0.239
  365.000  128.614    5.465    0.460    0.247
  365.250  133.521    5.044    0.452    0.253
  365.500  137.815    4.833    0.444    0.257
  365.750  139.045    4.829    0.454    0.256
  366.000  139.663    5.036    0.476    0.255
  366.250  141.507    5.032    0.489    0.251
  366.500  142.735    4.819    0.510    0.249
  366.750  146.416    4.188    0.529    0.248
  367.000  151.936    3.978    0.563    0.249
  367.250  155.003    3.974    0.559    0.247
  367.500  157.460    3.970    0.530    0.225
  367.750  154.401    3.968    0.513    0.194
  368.000  151.954    3.964    0.540    0.161
  368.250  148.282    3.960    0.508    0.140
  368.500  145.223    3.958    0.454    0.131
  368.750  139.100    3.955    0.425    0.160
  369.000  136.654    3.951    0.467    0.170
  369.250  142.786    3.949    0.520    0.186
  369.500  150.143    4.154    0.529    0.209
  369.750  153.824    4.360    0.516    0.234
  370.000  153.831    4.565    0.503    0.251
  370.250  153.222    4.562    0.470    0.244
  370.500  153.228    4.768    0.453    0.238
  370.750  153.844    4.765    0.438    0.227
  371.000  155.689    5.179    0.433    0.217
  371.250  156.304    5.595    0.412    0.218
  371.500  156.310    6.217    0.411    0.224
  371.750  153.250    6.632    0.402    0.229
  372.000  150.191    6.839    0.398    0.229
  372.250  146.520    7.253    0.401    0.220
  372.500  145.911    7.666    0.409    0.219
  372.750  146.528    7.874    0.420    0.229
  373.000  147.146    8.079    0.439    0.242
  373.250  144.087    8.075    0.463    0.254
  373.500  140.417    7.446    0.472    0.270
  373.750  140.420    6.816    0.463    0.266
  374.000  140.424    6.604    0.451    0.233
  374.250  140.430    6.600    0.421    0.222
  374.500  140.435    7.014    0.417    0.217
  374.750  140.438    7.428    0.424    0.212
  375.000  141.670    7.635    0.434    0.214
  375.250  141.673    7.840    0.438    0.228
  375.500  141.679    8.045    0.430    0.223
  375.750  141.072    8.044    0.411    0.201
  376.000  141.075    8.040    0.414    0.199
  376.250  141.079    7.828    0.435    0.200
  376.500  141.697    7.615    0.440    0.208
  376.750  141.701    7.613    0.444    0.236
  377.000  141.094    7.610    0.441    0.241
  377.250  140.486    7.816    0.433    0.243
  377.500  141.102    8.021    0.426    0.234
  377.750  143.558    8.227    0.424    0.229
  378.000  144.789    8.224    0.429    0.238
  378.250  143.568    8.012    0.434    0.247
  378.500  142.347    7.800    0.431    0.246
  378.750  144.191    7.169    0.427    0.237
  379.000  146.647    6.539    0.426    0.243
  379.250  147.263    6.119    0.427    0.246
  379.500  145.431    5.698    0.430    0.243
  379.750  144.821    5.903    0.431    0.234
  380.000  144.828    6.109    0.435    0.238
  380.250  146.056    6.524    0.436    0.246
  380.500  148.512    6.937    0.432    0.243
  380.750  149.742    6.935    0.434    0.242
  381.000  149.135    6.306    0.459    0.246
  381.250  147.300    5.467    0.488    0.252
  381.500  143.016    4.836    0.501    0.258
  381.750  137.506    4.834    0.494    0.261
  382.000  125.258    4.829    0.473    0.263
  382.250  122.810    5.244    0.446    0.268
  382.500  117.300    6.076    0.318    0.263
  382.750  113.628    6.908    0.278    0.251
  383.000  113.021    7.532    0.292    0.249
  383.250  119.152    7.947    0.318    0.281
  383.500  128.348    7.944    0.371    0.319
  383.750  137.543    7.105    0.402    0.462
  384.000  145.514    6.267    0.446    0.454
  384.250  143.682    5.009    0.550    0.427
  384.500  143.072    3.961    0.523    0.392
  384.750  140.628    3.540    0.508    0.320
  385.000  140.017    3.329    0.498    0.263
  385.250  141.860    3.117    0.509    0.247
  385.500  145.541    3.111    0.532    0.257
  385.750  147.386    3.318    0.537    0.270
  386.000  148.003    3.316    0.557    0.273
  386.250  148.008    3.522    0.580    0.268
  386.500  148.626    3.726    0.617    0.273
  386.750  148.017    3.724    0.614    0.277
  387.000  145.571    3.512    0.592    0.273
  387.250  144.349    3.509    0.560    0.272
  387.500  143.128    3.714    0.522    0.266
  387.750  143.134    3.921    0.480    0.263
  388.000  143.138    4.543    0.464    0.259
  388.250  144.981    4.959    0.464    0.251
  388.500  148.049    5.372    0.474    0.243
  388.750  151.731    5.579    0.474    0.219
  389.000  149.899    5.157    0.448    0.215
  389.250  148.675    5.363    0.437    0.218
  389.500  146.230    5.361    0.426    0.218
  389.750  144.398    5.567    0.412    0.218
  390.000  143.788    5.771    0.396    0.214
  390.250  142.567    6.185    0.402    0.210
  390.500  148.699    6.392    0.407    0.208
  390.750  155.443    6.804    0.413    0.205
  391.000  158.513    6.803    0.410    0.204
  391.250  156.679    6.800    0.407    0.200
  391.500  155.458    6.797    0.403    0.199
  391.750  153.626    6.793    0.412    0.198
  392.000  151.179    6.789    0.416    0.199
  392.250  148.732    6.787    0.421    0.205
  392.500  147.513    6.784    0.419    0.213
  392.750  148.128    6.780    0.411    0.220
  393.000  149.359    6.777    0.412    0.221
  393.250  148.752    6.774    0.416    0.221
  393.500  146.919    6.771    0.419    0.216
  393.750  146.309    6.558    0.425    0.213
  394.000  145.702    6.555    0.430    0.211
  394.250  145.706    6.344    0.429    0.211
  394.500  145.712    6.340    0.421    0.211
  394.750  146.328    6.337    0.412    0.210
  395.000  148.785    6.334    0.415    0.209
  395.250  151.854    6.331    0.417    0.209
  395.500  153.697    6.327    0.417    0.209
  395.750  153.086    6.324    0.413    0.211
  396.000  150.640    6.320    0.411    0.223
  396.250  148.807    6.318    0.417    0.247
  396.500  148.811    6.315    0.426    0.253
  396.750  147.593    6.312    0.439    0.253
  397.000  146.370    7.144    0.445    0.242
  397.250  142.699    8.185    0.432    0.232
  397.500  140.253    8.182    0.415    0.230
  397.750  138.419    7.135    0.410    0.235
  398.000  138.424    6.505    0.431    0.238
  398.250  138.427    7.754    0.434    0.242
  398.500  137.819    9.213    0.429    0.251
  398.750  135.986   10.255    0.422    0.258
  399.000  135.992   10.669    0.418    0.266
  399.250  136.610   10.248    0.422    0.235
  399.500  136.614    9.201    0.424    0.228
  399.750  134.167    8.571    0.417    0.220
  400.000  129.882    8.986    0.389    0.192
  400.250  123.759    9.609    0.321    0.142
