~VERSION INFORMATION
 VERS.                 2.0:   CWLS LOG ASCII STANDARD -VERSION 2.0
 WRAP.                  NO:   ONE LINE PER DEPTH STEP
~WELL INFORMATION BLOCK
#MNEM.UNIT           DATA                    DESCRIPTION OF MNEMONIC
#---------    -------------------            -------------------------------
# Generated from Intellog Unique Number	CN_94_101/WELL/5033
WELL.         FRENCH PETROLEUM               : Well_name    - WELL
LOC .         AA/13-14-099-08W4/0            : Location     - LOCATION
UWI .         AA/13-14-099-08W400            : Uwi          - UNIQUE WELL ID
ENTR.         T                              : Entered      - ENTERED BY
SRVC.         SCHLUMBERGER                   : Scn          - SERVICE COMPANY
DATE.         08/17/92                       : Date         - LOG DATE
STRT.M        3.048                          : top_depth    - START DEPTH
STOP.M        48.798                         : bot_depth    - STOP DEPTH
STEP.M        0.25                           : increment    - STEP LENGTH
 NULL. -999.2500:NULL Value
~CURVE INFORMATION BLOCK
#MNEM UNIT       ERCB CURVE CODE    CURVE DESCRIPTION
#-----------   ------------------   ----------------------------------
DEPT.M        00 001 00 00         : DEPTH        - DEPTH
GR  .API      00 310 00 00         : GR           - GAMMA RAY
NPHI.V/V      00 330 00 00         : PHIN         - NEUTRON POROSITY (SANDSTONE)
ILD .OHMM     00 120 00 00         : RESD         - DEEP RESISTIVITY (DIL)
~PARAMETER INFORMATION
#MNEM.UNIT           DATA             DESCRIPTION OF MNEMONIC
#---------         -----------     ------------------------------
GL  .M        290.718              : gl           - GROUND LEVEL ELEVATION
EREF.M        290.718              : kb           - ELEVATION OF DEPTH REFERENCE
DATM.M        290.718              : datum        - DATUM ELEVATION
TDD .M        49.3776              : tdd          - TOTAL DEPTH DRILLER
RUN .         ONE                  : Run          - RUN NUMBER
ENG .         BILL                 : Engineer     - RECORDING ENGINEER
WIT .         JIM                  : Witness      - WITNESSED BY
MUD .         GEL                  : Mud_type     - MUD TYPE
MATR.         SANDSTONE            : Logunit      - NEUTRON MATRIX
TMAX.C        20                   : BHT          - MAXIMUM RECORDED TEMPERATURE
BHTD.M        49.3776              : BHTDEP       - MAXIMUM RECORDED TEMPERATURE
RMT .C        20                   : MDTP         - TEMPERATURE OF MUD
MUDD.KG/M     1030                 : MWT          - MUD DENSITY
NEUT.         1                    : NEUTRON      - NEUTRON TYPE
RESI.         0                    : RESIST       - RESISTIVITY TYPE
RM  .OHMM     12                   : RM           - RESISTIVITY OF MUD
RMC .OHMM     8.4                  : RMC          - RESISTIVITY OF MUD CAKE
RMF .OHMM     11.4                 : RMF          - RESISTIVITY OF MUD FILTRATE
SUFT.C        4                    : SUFT         - SURFACE TEMPERATURE
~A  DEPTH       GR     PHIN     RESD
    3.048   73.512    0.268   95.966
    3.298   80.847    0.264   96.029
    3.548   84.505    0.274   95.684
    3.798   99.304    0.287   94.981
    4.048   94.567    0.306   94.303
    4.298   96.343    0.328   94.328
    4.548  102.770    0.352   94.378
    4.798   99.872    0.360   95.168
    5.048   95.157    0.359   94.835
    5.298   91.330    0.362   93.405
    5.548   97.757    0.368   91.949
    5.798  107.905    0.362   89.766
    6.048  116.171    0.354   86.498
    6.298  110.525    0.343   87.275
    6.548   95.556    0.346   88.793
    6.798   70.333    0.354   88.831
    7.048   66.527    0.360   77.025
    7.298   82.256    0.375   68.538
    7.548   97.985    0.381   62.284
    7.798  102.552    0.388   39.721
    8.048  105.236    0.383   32.356
    8.298  101.451    0.370   25.732
    8.548   90.160    0.351   20.958
    8.798   85.424    0.328   17.295
    9.048   82.548    0.320   15.494
    9.298   86.184    0.324  209.142
    9.548   89.820    0.329  471.082
    9.798   84.154    0.355  425.060
   10.048   77.557    0.356  356.235
   10.298   70.960    0.360  298.605
   10.548   72.714    0.376  309.697
   10.798   79.162    0.375  332.088
   11.048   90.240    0.372  354.376
   11.298   99.458    0.361  361.668
   11.548  104.954    0.344  372.657
   11.798   99.266    0.328  383.440
   12.048   90.809    0.333  390.732
   12.298   79.561    0.349  390.319
   12.548   70.152    0.353  382.305
   12.798   66.325    0.351  362.888
   13.048   62.540    0.350  366.173
   13.298   58.712    0.353  369.767
   13.548   70.721    0.363  361.649
   13.798   78.099    0.354  357.436
   14.048   85.456    0.336  341.820
   14.298   74.187    0.328  330.005
   14.548   70.359    0.339  325.791
   14.798   79.598    0.351  321.474
   15.048   86.955    0.348  313.460
   15.298   92.452    0.345  309.350
   15.548   87.694    0.343  312.738
   15.798   82.958    0.334  312.325
   16.048   89.384    0.334  308.111
   16.298   89.299    0.354  303.691
   16.548   75.260    0.363  318.378
   16.798   76.106    0.364  321.972
   17.048   82.532    0.362  325.360
   17.298   90.820    0.351  321.146
   17.548   86.992    0.336  316.829
   17.798   76.674    0.334  316.416
   18.048   70.056    0.346  319.701
   18.298   70.902    0.349  323.295
   18.548   72.677    0.343  319.081
   18.798   75.383    0.328  314.868
   19.048   78.067    0.310  318.256
   19.298   77.073    0.294  302.433
   19.548   74.197    0.298  286.921
   19.798   74.112    0.305  297.910
   20.048   79.609    0.314  316.501
   20.298   78.551    0.324  323.689
   20.548   77.536    0.328  319.476
   20.798   72.820    0.319  315.262
   21.048   67.154    0.329  318.650
   21.298   65.187    0.333  325.838
   21.548   73.496    0.333  295.020
   21.798   89.225    0.341  275.500
   22.048   96.582    0.346  316.998
   22.298   86.243    0.345  327.987
   22.548   79.646    0.345  308.468
   22.798   71.167    0.342  296.653
   23.048   64.570    0.331  284.837
   23.298   54.253    0.331  273.022
   23.548   56.028    0.336  261.104
   23.798   62.455    0.338  252.987
   24.048   73.533    0.338  256.581
   24.298   81.820    0.337  282.670
   24.548   81.735    0.339  305.164
   24.798   78.838    0.347  335.157
   25.048   76.871    0.352  353.644
   25.298   77.716    0.346  334.331
   25.548   80.443    0.330  330.014
   25.798   78.498    0.333  344.804
   26.048   79.343    0.336  294.982
   26.298   77.397    0.340  290.768
   26.548   70.758    0.343  339.662
   26.798   68.834    0.342  293.743
   27.048   75.260    0.339  327.537
   27.298   77.966    0.342  270.113
   27.548   76.021    0.362  246.793
   27.798   82.426    0.378  253.981
   28.048   87.944    0.375  253.568
   28.298   92.489    0.372  249.355
   28.548   98.007    0.373  245.141
   28.798  100.712    0.365  237.127
   29.048   95.933    0.357  236.714
   29.298   93.058    0.364  240.102
   29.548   97.645    0.366  235.888
   29.798  104.051    0.366  220.066
   30.048  103.035    0.366  215.852
   30.298   98.299    0.374  207.838
   30.548   89.842    0.381  199.824
   30.798   81.384    0.388  195.610
   31.048   74.745    0.351  191.500
   31.298   78.402    0.337  183.485
   31.548   90.432    0.351  179.272
   31.798  111.743    0.367  167.250
   32.048  129.332    0.382  163.036
   32.298  124.596    0.404  166.527
   32.548  104.954    0.409  173.716
   32.798   93.706    0.385  173.097
   33.048   86.179    0.386  172.890
   33.298   92.585    0.412  168.677
   33.548  102.754    0.444  160.662
   33.798  117.553    0.460  160.249
   34.048  145.354    0.486  129.327
   34.298  141.569    0.494   67.078
   34.548  133.091    0.480   38.816
   34.798  130.215    0.466   45.235
   35.048  138.502    0.458   46.705
   35.298  145.838    0.459   44.723
   35.548  146.704    0.459   46.193
   35.798  141.968    0.458   48.438
   36.048  133.489    0.463   44.185
   36.298  125.962    0.469   41.848
   36.548  129.598    0.459   40.641
   36.798  136.934    0.452   44.762
   37.048  142.452    0.446   42.820
   37.298  147.948    0.441   42.006
   37.548  150.654    0.440   41.179
   37.798  148.708    0.441   40.352
   38.048  149.553    0.431   39.919
   38.298  160.632    0.420   39.092
   38.548  149.383    0.401   37.516
   38.798  133.463    0.407   37.845
   39.048  131.517    0.418   40.063
   39.298  146.316    0.434   38.882
   39.548  150.882    0.438   36.913
   39.798  156.379    0.433   36.860
   40.048  164.645    0.425   37.188
   40.298  163.630    0.418   36.335
   40.548  165.405    0.412   35.915
   40.798  167.181    0.402   35.862
   41.048  166.165    0.407   36.191
   41.298  172.571    0.418   37.635
   41.548  178.997    0.427   37.989
   41.798  184.515    0.428   38.317
   42.048  190.012    0.425   38.238
   42.298  185.254    0.423   38.173
   42.548  177.748    0.420   38.895
   42.798  158.107    0.414   40.365
   43.048  156.161    0.409   41.441
   43.298  163.518    0.399   43.292
   43.548  163.433    0.403   47.060
   43.798  155.885    0.407   50.039
   44.048  139.985    0.411   59.911
   44.298  140.830    0.412   70.517
   44.548  146.327    0.417   67.039
   44.798  154.614    0.412   40.299
   45.048  159.159    0.404   41.376
   45.298  152.562    0.409   38.278
   45.548  158.989    0.411   36.676
   45.798  171.928    0.416   36.650
   46.048  178.333    0.426   36.191
   46.298  176.409    0.439   35.390
   46.548  169.812    0.435   34.944
   46.798  160.424    0.438   34.891
   47.048  162.178    0.441   34.839
   47.298  162.093    0.451   34.773
   47.548  157.357    0.460   33.959
   47.798  146.109    0.389    8.729
   48.048  139.491    0.235   10.974
   48.298  150.569    0.213   12.063
   48.548  158.856    0.220   15.437
   48.798  166.213    0.232   18.811
