~VERSION INFORMATION
 VERS.                 2.0:   CWLS LOG ASCII STANDARD -VERSION 2.0
 WRAP.                  NO:   ONE LINE PER DEPTH STEP
~WELL INFORMATION BLOCK
#MNEM.UNIT           DATA                    DESCRIPTION OF MNEMONIC
#---------    -------------------            -------------------------------
# Generated from Intellog Unique Number	CC_80_83/WELL/2427
NULL.         -999.25                        : NULL_VALUE
WELL.         ARCO ACI McMURRAY              : Well_name    - WELL              
LOC .         12-08-083-12W4                 : Location     - LOCATION          
UWI .         AA/12-08-083-12W400            : Uwi          - UNIQUE WELL ID    
ENTR.         DW                             : Entered      - ENTERED BY        
SRVC.         SCHLUMBERGER                   : Scn          - SERVICE COMPANY   
DATE.         06 MAR 74                      : Date         - LOG DATE
STRT.M        121.92                         : top_depth    - START DEPTH       
STOP.M        384.05                         : bot_depth    - STOP DEPTH        
STEP.M        0.305                          : increment    - STEP LENGTH       
~CURVE INFORMATION BLOCK
#MNEM UNIT       ERCB CURVE CODE    CURVE DESCRIPTION
#-----------   ------------------   ----------------------------------
DEPT.M        00 001 00 00         : DEPTH        - DEPTH                       
DPHI.V/V      00 890 00 00         : PHID         - DENSITY POROSITY (LIMESTONE)
GR  .API      00 310 00 00         : GR           - GAMMA RAY                   
NPHI.V/V      00 330 00 00         : PHIN         - NEUTRON POROSITY (LIMESTONE)
ILD .OHMM     00 120 00 00         : RESD         - DEEP RESISTIVITY (DIL)      
~PARAMETER INFORMATION       
#MNEM.UNIT           DATA             DESCRIPTION OF MNEMONIC
#---------         -----------     ------------------------------
GL  .M        611.734              : gl           - GROUND LEVEL ELEVATION      
EREF.M        613.41               : kb           - ELEVATION OF DEPTH REFERENCE
DATM.M        613.41               : datum        - DATUM ELEVATION             
TDD .M        384.658              : tdd          - TOTAL DEPTH DRILLER         
RUN .         ONE                  : Run          - RUN NUMBER                  
ENG .         BILL                 : Engineer     - RECORDING ENGINEER          
WIT .         JIM                  : Witness      - WITNESSED BY                
MUD .         GEL                  : Mud_type     - MUD TYPE                    
MATR.         LIMESTONE            : Logunit      - NEUTRON MATRIX              
TMAX.C        21.1111              : BHT          - MAXIMUM RECORDED TEMPERATURE
BHTD.M        384.658              : BHTDEP       - MAXIMUM RECORDED TEMPERATURE
MATR.         1                    : LOGUNIT      - NEUTRON MATRIX              
RMT .C        25                   : MDTP         - TEMPERATURE OF MUD          
NEUT.         0                    : NEUTRON      - NEUTRON TYPE                
RESI.         0                    : RESIST       - RESISTIVITY TYPE            
RMC .OHMM     0.25                 : RMC          - RESISTIVITY OF MUD CAKE     
RMF .OHMM     0.25                 : RMF          - RESISTIVITY OF MUD FILTRATE 
SUFT.C        4                    : SUFT         - SURFACE TEMPERATURE         
~A  DEPTH     PHID       GR     PHIN     RESD
# ...
  227.989    0.354   42.189    0.375   14.314
  228.293    0.348   41.777    0.389   14.316
  228.598    0.351   41.772    0.378   14.318
  228.903    0.367   42.575    0.365   14.319
  229.208    0.365   40.948    0.354   14.322
  229.513    0.359   42.561    0.342   14.323
  229.817    0.365   43.364    0.347   14.594
  230.122    0.366   40.522    0.361   14.595
  230.427    0.355   40.110    0.350   14.597
  230.732    0.357   41.320    0.349   14.598
  231.037    0.357   42.932    0.359   14.601
  231.341    0.371   44.545    0.371   14.334
  231.646    0.369   46.158    0.376   14.071
  231.951    0.365   46.151    0.373   14.074
  232.256    0.349   48.169    0.363   13.817
  232.560    0.336   48.971    0.338   13.818
  232.865    0.358   48.154    0.342   13.819
  233.170    0.357   46.529    0.350   13.821
  233.475    0.357   43.283    0.355   13.823
  233.780    0.362   42.062    0.359   13.825
  234.084    0.352   42.865    0.348   14.349
  234.389    0.365   46.097    0.354   14.894
  234.694    0.357   50.544    0.384   16.651
  234.999    0.350   47.297    0.379   17.608
  235.304    0.347   48.910    0.373   17.286
  235.608    0.340   52.548    0.360   16.658
  235.913    0.333   48.088    0.334   15.467
  236.218    0.323   46.461    0.315   14.097
  236.523    0.273   35.928    0.211   13.840
  236.828    0.108   41.184    0.155   14.634
  237.132    0.134   49.681    0.240   17.299
  237.437    0.316   56.151    0.353   22.858
  237.742    0.350   56.144    0.368   23.289
  238.047    0.363   55.733    0.368   22.863
  238.352    0.353   50.462    0.366   20.839
  238.656    0.350   52.480    0.368   16.070
  238.961    0.349   52.069    0.378   13.853
  239.266    0.345   52.467    0.384   12.627
  239.571    0.345   54.889    0.377   12.396
  239.876    0.355   53.263    0.364   12.398
  240.180    0.357   52.446    0.370   12.399
  240.485    0.343   54.465    0.387   12.633
  240.790    0.321   57.696    0.366   12.634
  241.095    0.334   56.878    0.368   12.636
  241.400    0.349   56.467    0.350   12.637
  241.704    0.344   56.461    0.340   12.407
  242.009    0.337   56.859    0.340   12.408
  242.314    0.335   56.043    0.365   12.182
  242.619    0.336   51.582    0.388   12.183
  242.923    0.340   51.172    0.382   11.960
  243.228    0.348   56.833    0.379   11.742
  243.533    0.337   59.660    0.382   11.315
  243.838    0.325   60.462    0.370   10.704
  244.143    0.326   60.860    0.349   10.507
  244.447    0.330   60.045    0.373   10.126
  244.752    0.320   55.179    0.372   10.127
  245.057    0.313   56.791    0.352    9.942
  245.362    0.320   57.189    0.337    9.943
  245.667    0.309   59.208    0.348    9.582
  245.971    0.299   56.368    0.354    9.407
  246.276    0.303   60.005    0.368    9.408
  246.581    0.298   65.261    0.355    9.409
  246.886    0.287   68.493    0.348    9.237
  247.191    0.271   62.411    0.341    8.576
  247.495    0.292   59.977    0.332    6.738
  247.800    0.318   60.779    0.353    6.615
  248.105    0.323   61.582    0.364    7.126
  248.410    0.302   61.981    0.356    7.820
  248.715    0.300   57.521    0.332    8.269
  249.019    0.319   61.563    0.339    9.075
  249.324    0.296   68.439    0.348    9.076
  249.629    0.308   66.408    0.355    8.746
  249.934    0.303   69.235    0.362    7.401
  250.239    0.331   70.038    0.405    6.499
  250.543    0.343   70.435    0.426    6.148
  250.848    0.359   74.477    0.430    5.709
  251.153    0.309   73.257    0.426    5.108
  251.458    0.313   68.796    0.425    4.831
  251.763    0.299   70.004    0.415    4.486
  252.067    0.308   72.427    0.383    4.089
  252.372    0.303   69.990    0.401    3.796
  252.677    0.295   71.198    0.388    3.797
  252.982    0.310   70.383    0.362    3.797
  253.286    0.325   65.517    0.371    3.942
  253.591    0.323   63.486    0.375    4.326
  253.896    0.312   65.504    0.375    4.747
  254.201    0.299   67.521    0.392    5.114
  254.506    0.321   72.778    0.415    5.407
  254.810    0.310   70.747    0.386    5.408
  255.115    0.312   67.096    0.351    5.212
  255.420    0.315   68.304    0.361    5.212
  255.725    0.296   73.156    0.368    5.410
  256.030    0.306   75.172    0.383    4.931
  256.334    0.313   75.975    0.439    4.251
  256.639    0.303   81.233    0.435    3.733
  256.944    0.307   76.772    0.400    3.101
  257.249    0.320   69.478    0.420    2.624
  257.554    0.344   65.423    0.416    2.528
  257.859    0.358   65.821    0.373    2.724
  258.163    0.346   67.028    0.336    3.045
  258.468    0.329   69.451    0.342    3.667
  258.773    0.312   72.278    0.346    4.499
  259.078    0.301   72.676    0.324    6.056
  259.383    0.286   73.480    0.331    6.524
  259.687    0.294   75.093    0.368    6.287
  259.992    0.285   74.680    0.377    5.625
  260.297    0.276   71.838    0.367    5.420
  260.602    0.300   71.426    0.376    5.033
  260.907    0.298   71.421    0.369    4.941
  261.211    0.320   67.770    0.352    5.128
  261.516    0.330   64.121    0.338    5.225
  261.821    0.338   58.446    0.318    5.841
  262.126    0.337   54.391    0.337    6.778
  262.431    0.348   52.359    0.354    8.012
  262.735    0.364   53.973    0.357    8.957
  263.040    0.358   60.038    0.351    9.297
  263.345    0.344   60.436    0.348    9.473
  263.650    0.316   58.811    0.358    9.474
  263.955    0.338   53.946    0.363    9.475
  264.260    0.331   53.938    0.348    9.131
  264.564    0.333   55.147    0.333    9.132
  264.869    0.331   49.877    0.333    9.133
  265.174    0.341   49.870    0.329    9.306
  265.479    0.327   48.245    0.324    9.659
  265.784    0.295   46.213    0.108   10.600
  266.088    0.058   37.300    0.127   12.530
  266.393    0.120   38.508    0.228   14.810
  266.698    0.236   43.359    0.332   19.937
  267.003    0.346   53.878    0.365   18.859
  267.308    0.359   55.896    0.341   15.376
  267.612    0.368   51.841    0.318   11.858
  267.917    0.351   53.453    0.328    9.849
  268.222    0.343   53.042    0.351    9.317
  268.527    0.368   52.225    0.369    9.146
  268.832    0.362   54.648    0.356    9.147
  269.136    0.353   53.426    0.339    9.673
  269.441    0.356   50.584    0.350    9.856
  269.746    0.351   52.602    0.328    9.857
  270.051    0.350   54.215    0.354    9.677
  270.356    0.346   59.876    0.363    9.500
  270.661    0.362   57.846    0.355    9.326
  270.965    0.367   52.981    0.362    9.156
  271.270    0.364   53.784    0.362    9.157
  271.575    0.358   51.348    0.357    9.158
  271.880    0.352   48.508    0.352    8.991
  272.185    0.355   49.309    0.366    8.992
  272.489    0.358   50.518    0.374    8.993
  272.794    0.358   49.702    0.348    9.162
  273.099    0.364   50.910    0.353    9.164
  273.404    0.354   54.142    0.370    9.336
  273.709    0.344   49.277    0.342    9.513
  274.013    0.321   45.627    0.324    9.874
  274.318    0.277   46.835    0.296   12.113
  274.623    0.290   49.256    0.251   13.542
  274.928    0.362   52.489    0.280   13.543
  275.233    0.369   49.647    0.340   11.895
  275.537    0.361   47.212    0.360   10.841
  275.842    0.352   47.206    0.350    9.521
  276.147    0.345   49.223    0.338    9.522
  276.452    0.353   48.812    0.322    9.349
  276.757    0.346   49.614    0.315    9.525
  277.062    0.336   56.491    0.348    9.525
  277.366    0.299   52.840    0.330    9.706
  277.671    0.315   52.832    0.313    9.706
  277.976    0.351   54.445    0.346    9.182
  278.281    0.349   53.224    0.351    9.014
  278.586    0.355   50.384    0.329    9.185
  278.890    0.347   49.568    0.329    9.358
  279.195    0.360   50.370    0.345    9.534
  279.500    0.356   50.363    0.356    9.535
  279.805    0.356   51.977    0.359    9.536
  280.110    0.356   55.208    0.364    9.362
  280.414    0.344   57.226    0.359    8.693
  280.719    0.324   60.052    0.340    8.534
