~VERSION INFORMATION
 VERS.                 2.0:   CWLS LOG ASCII STANDARD -VERSION 2.0
 WRAP.                  NO:   ONE LINE PER DEPTH STEP
~WELL INFORMATION BLOCK
#MNEM.UNIT           DATA                    DESCRIPTION OF MNEMONIC
#---------    -------------------            -------------------------------
# Generated from Intellog Unique Number	CC_88_90/WELL/2296
WELL.         10-26-089-16W4                 : Well_name    - WELL
LOC .         AA/10-26-089-16W4/0            : Location     - LOCATION
UWI .         AA/10-26-089-16W400            : Uwi          - UNIQUE WELL ID
ENTR.         DW                             : Entered      - ENTERED BY
SRVC.         SCHLUMBERGER                   : Scn          - SERVICE COMPANY
STRT.M        75                             : top_depth    - START DEPTH
STOP.M        224.75                         : bot_depth    - STOP DEPTH
STEP.M        0.25                           : increment    - STEP LENGTH
 NULL. -999.2500:NULL Value
~CURVE INFORMATION BLOCK
#MNEM UNIT       ERCB CURVE CODE    CURVE DESCRIPTION
#-----------   ------------------   ----------------------------------
DEPT.M        00 001 00 00         : DEPTH        - DEPTH
GR  .API      00 310 00 00         : GR           - GAMMA RAY
DPHI.V/V      00 890 00 00         : PHID         - DENSITY POROSITY (SANDSTONE)
NPHI.V/V      00 330 00 00         : PHIN         - NEUTRON POROSITY (SANDSTONE)
ILD .OHMM     00 120 00 00         : RESD         - DEEP RESISTIVITY (DIL)
~PARAMETER INFORMATION
#MNEM.UNIT           DATA             DESCRIPTION OF MNEMONIC
#---------         -----------     ------------------------------
GL  .M        480.8                : gl           - GROUND LEVEL ELEVATION
EREF.M        484.09               : kb           - ELEVATION OF DEPTH REFERENCE
DATM.M        484.09               : datum        - DATUM ELEVATION
TDD .M        232                  : tdd          - TOTAL DEPTH DRILLER
RUN .         ONE                  : Run          - RUN NUMBER
ENG .         BILL                 : Engineer     - RECORDING ENGINEER
WIT .         JIM                  : Witness      - WITNESSED BY
MUD .         GEL                  : Mud_type     - MUD TYPE
MATR.         SANDSTONE            : Logunit      - NEUTRON MATRIX
TMAX.C        25                   : BHT          - MAXIMUM RECORDED TEMPERATURE
BHTD.M        232                  : BHTDEP       - MAXIMUM RECORDED TEMPERATURE
MATR.         1                    : LOGUNIT      - NEUTRON MATRIX
RMT .C        25                   : MDTP         - TEMPERATURE OF MUD
NEUT.         1                    : NEUTRON      - NEUTRON TYPE
RESI.         0                    : RESIST       - RESISTIVITY TYPE
RMC .OHMM     0.25                 : RMC          - RESISTIVITY OF MUD CAKE
RMF .OHMM     0.25                 : RMF          - RESISTIVITY OF MUD FILTRATE
SUFT.C        15                   : SUFT         - SURFACE TEMPERATURE
~A  DEPTH       GR     PHID     PHIN     RESD
# ...
  118.500   60.672    0.309    0.456   21.169
  118.750   61.335    0.293    0.417   21.570
  119.000   71.308    0.266    0.414   21.261
  119.250   78.440    0.266    0.440   19.427
  119.500   79.663    0.271    0.461   15.217
  119.750   79.402    0.263    0.468   11.350
  120.000   74.876    0.264    0.455   11.554
  120.250   69.052    0.240    0.405   13.522
  120.500   65.372    0.167    0.356   18.096
  120.750   63.219    0.142    0.372   22.036
  121.000   65.688    0.215    0.424   23.853
  121.250   70.360    0.287    0.442   24.781
  121.500   68.709    0.270    0.431   25.109
  121.750   66.313    0.275    0.446   24.189
  122.000   68.389    0.290    0.431   21.004
  122.250   77.263    0.286    0.423   18.095
  122.500   84.920    0.280    0.442   15.194
  122.750   83.036    0.252    0.465   11.992
  123.000   75.505    0.195    0.486   10.716
  123.250   70.710    0.233    0.502    9.874
  123.500   66.868    0.227    0.495    9.680
  123.750   64.588    0.225    0.487   11.508
  124.000   64.610    0.255    0.498   13.527
  124.250   64.971    0.271    0.506   14.903
  124.500   65.012    0.280    0.476   17.522
  124.750   67.993    0.299    0.428   19.366
  125.000   71.197    0.307    0.427   20.401
  125.250   74.400    0.292    0.453   19.732
  125.500   76.818    0.272    0.479   17.697
  125.750   75.414    0.247    0.488   15.058
  126.000   73.038    0.222    0.466   12.019
  126.250   80.143    0.245    0.442   10.190
  126.500   84.669    0.236    0.448    9.203
  126.750   83.970    0.234    0.459    9.093
  127.000   80.923    0.240    0.451    9.223
  127.250   77.357    0.223    0.445   10.745
  127.500   74.914    0.212    0.453   15.058
  127.750   73.769    0.199    0.426   17.812
  128.000   73.792    0.178    0.395   19.604
  128.250   75.585    0.153    0.379   20.052
  128.500   77.038    0.155    0.380   18.349
  128.750   76.653    0.194    0.411   15.872
  129.000   76.150    0.216    0.459   13.988
  129.250   77.410    0.177    0.466   10.620
  129.500   86.944    0.203    0.464    7.986
  129.750   96.633    0.268    0.498    6.677
  130.000  100.645    0.290    0.559    5.600
  130.250  102.550    0.275    0.598    4.087
  130.500  103.326    0.271    0.580    2.749
  130.750   97.198    0.257    0.547    2.530
  131.000   92.809    0.246    0.566    2.544
  131.250   89.214    0.235    0.589    2.607
  131.500   85.247    0.228    0.578    2.879
  131.750   82.441    0.206    0.549    3.473
  132.000   81.707    0.150    0.504    4.747
  132.250   86.214    0.127    0.439    7.056
  132.500   90.392    0.164    0.416    9.884
  132.750   93.002    0.195    0.416   11.289
  133.000   91.359    0.207    0.430   11.334
  133.250   88.569    0.220    0.456   11.047
  133.500   92.810    0.217    0.472   10.530
  133.750   97.263    0.209    0.485   10.516
  134.000   98.363    0.185    0.491   10.506
  134.250   98.517    0.176    0.474   10.774
  134.500   94.653    0.167    0.447   12.522
  134.750   86.461    0.163    0.430   15.289
  135.000   82.960    0.205    0.420   17.218
  135.250   85.998    0.228    0.417   18.528
  135.500   87.558    0.215    0.439   17.968
  135.750   86.421    0.202    0.459   17.290
  136.000   83.288    0.225    0.444   17.159
  136.250   79.172    0.246    0.429   17.355
  136.500   77.412    0.221    0.458   18.577
  136.750   79.295    0.226    0.459   20.109
  137.000   81.680    0.228    0.431   21.597
  137.250   80.224    0.217    0.421   22.379
  137.500   75.341    0.198    0.450   22.437
  137.750   71.364    0.199    0.465   22.515
  138.000   71.240    0.235    0.435   23.321
  138.250   73.106    0.240    0.466   24.876
  138.500   71.105    0.186    0.496   25.757
  138.750   69.848    0.183    0.451   24.907
  139.000   74.370    0.163    0.391   22.988
  139.250   79.861    0.105    0.362   20.728
  139.500   82.340    0.163    0.336   18.250
  139.750   90.522    0.210    0.391   16.802
  140.000   90.989    0.136    0.420   15.908
  140.250   86.593    0.104    0.395   15.555
  140.500   82.676    0.149    0.382   15.892
  140.750   79.370    0.188    0.412   16.818
  141.000   77.438    0.200    0.435   18.238
  141.250   75.923    0.130    0.412   20.283
  141.500   74.017    0.101    0.373   23.789
  141.750   71.900    0.119    0.353   30.790
  142.000   73.003    0.117    0.339   37.500
  142.250   76.749    0.108    0.340   39.856
  142.500   77.440    0.149    0.390   39.653
  142.750   76.007    0.188    0.424   37.972
  143.000   74.243    0.178    0.419   34.958
  143.250   76.063    0.182    0.375   31.050
  143.500   80.271    0.215    0.359   27.412
  143.750   83.584    0.223    0.394   23.194
  144.000   85.467    0.191    0.411   17.591
  144.250   84.926    0.160    0.422   15.250
  144.500   84.581    0.065    0.383   14.985
  144.750   77.618    0.073    0.326   15.423
  145.000   68.452    0.159    0.334   16.522
  145.250   72.447    0.198    0.397   17.741
  145.500   88.514    0.212    0.427   17.582
  145.750   92.462    0.177    0.445   15.796
  146.000   91.483    0.183    0.444   14.175
  146.250   90.263    0.190    0.437   13.298
  146.500   89.865    0.180    0.445   12.822
  146.750   89.508    0.188    0.475   12.811
  147.000   86.728    0.210    0.500   13.740
  147.250   85.136    0.229    0.468   15.187
  147.500   89.124    0.219    0.460   15.707
  147.750   92.259    0.199    0.485   15.639
  148.000   90.493    0.197    0.493   15.072
  148.250   86.593    0.196    0.469   14.125
  148.500   83.644    0.175    0.442   13.494
  148.750   82.087    0.161    0.442   12.657
  149.000   80.796    0.150    0.448   12.138
  149.250   83.421    0.136    0.453   11.976
  149.500   87.175    0.144    0.456   12.183
  149.750   89.051    0.166    0.451   12.558
  150.000   91.048    0.156    0.438   12.511
  150.250   89.483    0.148    0.433   11.855
  150.500   89.597    0.176    0.443   10.304
  150.750   91.896    0.212    0.466    9.517
  151.000   92.902    0.219    0.460    9.683
  151.250   89.244    0.203    0.422   10.401
  151.500   84.877    0.183    0.404   12.041
  151.750   91.426    0.151    0.412   13.297
  152.000   95.630    0.160    0.435   14.201
  152.250   96.433    0.185    0.443   15.092
  152.500   96.386    0.200    0.434   15.373
  152.750   93.094    0.205    0.455   14.655
  153.000   87.372    0.191    0.501   13.759
  153.250   86.923    0.177    0.464   13.452
  153.500   89.685    0.203    0.429   13.987
  153.750   93.069    0.224    0.425   14.627
  154.000   95.544    0.229    0.430   14.924
  154.250   95.858    0.225    0.432   15.207
  154.500   94.772    0.201    0.427   15.706
  154.750   95.629    0.200    0.408   15.962
  155.000   97.667    0.205    0.401   16.230
  155.250   99.398    0.200    0.399   16.346
  155.500   99.447    0.165    0.395   16.297
  155.750   97.309    0.135    0.394   16.337
  156.000   95.394    0.165    0.396   16.318
  156.250   97.766    0.180    0.407   15.635
  156.500  100.806    0.184    0.416   14.380
  156.750  102.097    0.187    0.438   12.842
  157.000  102.197    0.198    0.451   12.307
  157.250  103.187    0.206    0.440   12.829
  157.500  105.273    0.190    0.449   13.002
  157.750  103.830    0.149    0.481   13.622
  158.000   96.809    0.119    0.469   14.102
  158.250   90.176    0.125    0.464   13.526
  158.500   93.402    0.163    0.470   12.250
  158.750  102.053    0.203    0.459   10.894
  159.000  103.429    0.213    0.452    9.259
  159.250  103.462    0.200    0.434    7.678
  159.500   97.139    0.161    0.447    7.578
  159.750   89.410    0.130    0.444    8.101
  160.000   90.759    0.157    0.421    9.101
  160.250   99.361    0.209    0.424   10.319
  160.500  104.043    0.207    0.444   10.175
  160.750  106.616    0.201    0.447    9.096
  161.000  108.472    0.189    0.472    8.585
  161.250  101.469    0.155    0.491    8.639
  161.500   92.022    0.104    0.474    8.833
  161.750   91.730    0.078    0.435    9.439
