~VERSION INFORMATION
 VERS.                 2.0:   CWLS LOG ASCII STANDARD -VERSION 2.0
 WRAP.                  NO:   ONE LINE PER DEPTH STEP
~WELL INFORMATION BLOCK
#MNEM.UNIT           DATA                    DESCRIPTION OF MNEMONIC
#---------    -------------------            -------------------------------
# Generated from Intellog Unique Number	CX_WELLS/WELL/3904
WELL.         PEX PETRO                      : Well_name    - WELL
LOC .         AA/10-08-089-14W4/0            : Location     - LOCATION
UWI .         AA/10-08-089-14W400            : Uwi          - UNIQUE WELL ID
ENTR.         T                              : Entered      - ENTERED BY
SRVC.         SCHLUMBERGER                   : Scn          - SERVICE COMPANY
STRT.M        125                            : top_depth    - START DEPTH
STOP.M        220                            : bot_depth    - STOP DEPTH
STEP.M        0.25                           : increment    - STEP LENGTH
 NULL. -999.2500:NULL Value
~CURVE INFORMATION BLOCK
#MNEM UNIT       ERCB CURVE CODE    CURVE DESCRIPTION
#-----------   ------------------   ----------------------------------
DEPT.M        00 001 00 00         : DEPTH        - DEPTH
GR  .API      00 310 00 00         : GR           - GAMMA RAY
NPHI.V/V      00 330 00 00         : PHIN         - NEUTRON POROSITY (SANDSTONE)
DPHI.V/V      00 890 00 00         : PHID         - DENSITY POROSITY (SANDSTONE)
ILD .OHMM     00 120 00 00         : RESD         - DEEP RESISTIVITY (DIL)
~PARAMETER INFORMATION
#MNEM.UNIT           DATA             DESCRIPTION OF MNEMONIC
#---------         -----------     ------------------------------
GL  .M        493.7                : gl           - GROUND LEVEL ELEVATION
EREF.M        496                  : kb           - ELEVATION OF DEPTH REFERENCE
DATM.M        496                  : datum        - DATUM ELEVATION
TDD .M        225                  : tdd          - TOTAL DEPTH DRILLER
RUN .         ONE                  : Run          - RUN NUMBER
ENG .         BILL                 : Engineer     - RECORDING ENGINEER
WIT .         JIM                  : Witness      - WITNESSED BY
MUD .         GEL                  : Mud_type     - MUD TYPE
MATR.         SANDSTONE            : Logunit      - NEUTRON MATRIX
TMAX.C        22                   : BHT          - MAXIMUM RECORDED TEMPERATURE
BHTD.M        225                  : BHTDEP       - MAXIMUM RECORDED TEMPERATURE
MATR.         1                    : LOGUNIT      - NEUTRON MATRIX
RMT .C        22                   : MDTP         - TEMPERATURE OF MUD
NEUT.         1                    : NEUTRON      - NEUTRON TYPE
RESI.         8                    : RESIST       - RESISTIVITY TYPE
RMC .OHMM     7                    : RMC          - RESISTIVITY OF MUD CAKE
RMF .OHMM     7                    : RMF          - RESISTIVITY OF MUD FILTRATE
SUFT.C        15                   : SUFT         - SURFACE TEMPERATURE
~A  DEPTH       GR     PHIN     PHID     RESD
# ...
  168.500   74.025    0.487    0.256    7.909
  168.750   74.220    0.507    0.254    7.952
  169.000   74.948    0.511    0.250    8.130
  169.250   75.793    0.501    0.245    8.473
  169.500   74.765    0.475    0.242    8.831
  169.750   73.086    0.469    0.242    9.213
  170.000   70.874    0.465    0.237    9.427
  170.250   70.458    0.452    0.230    9.469
  170.500   71.264    0.448    0.224    9.504
  170.750   73.293    0.449    0.236    9.555
  171.000   74.710    0.456    0.228    9.598
  171.250   74.944    0.469    0.224    9.659
  171.500   72.693    0.470    0.243    9.508
  171.750   73.577    0.439    0.250    9.551
  172.000   76.751    0.435    0.242    9.418
  172.250   80.080    0.436    0.239    9.461
  172.500   80.886    0.437    0.239    9.503
  172.750   81.653    0.440    0.234    9.555
  173.000   78.791    0.442    0.227    9.598
  173.250   77.151    0.439    0.222    9.658
  173.500   76.735    0.436    0.213    9.693
  173.750   78.191    0.446    0.197    9.728
  174.000   80.220    0.444    0.191    9.772
  174.250   81.637    0.442    0.193    9.816
  174.500   83.705    0.446    0.222    9.878
  174.750   85.122    0.444    0.236    9.914
  175.000   85.928    0.445    0.236    9.967
  175.250   88.035    0.452    0.213    9.820
  175.500   88.802    0.476    0.235    9.684
  175.750   83.495    0.487    0.226    9.559
  176.000   77.537    0.473    0.205    9.254
  176.250   80.255    0.473    0.233    8.951
  176.500   82.244    0.488    0.243    8.056
  176.750   82.517    0.504    0.246    6.848
  177.000   82.061    0.510    0.225    5.826
  177.250   83.557    0.469    0.203    5.857
  177.500   84.363    0.491    0.214    5.988
  177.750   83.296    0.489    0.227    6.369
  178.000   82.879    0.471    0.200    6.523
  178.250   84.947    0.472    0.194    6.315
  178.500   85.714    0.499    0.184    6.113
  178.750   85.336    0.503    0.200    6.028
  179.000   86.103    0.497    0.226    6.045
  179.250   88.249    0.492    0.231    6.072
  179.500   90.278    0.481    0.204    6.458
  179.750   91.045    0.441    0.204    6.850
  180.000   88.794    0.432    0.214    7.408
  180.250   85.932    0.457    0.228    8.491
  180.500   83.031    0.481    0.236    8.834
  180.750   79.023    0.494    0.238    9.740
  181.000   79.752    0.472    0.265   10.351
  181.250   84.265    0.413    0.270   10.581
  181.500   87.555    0.423    0.231   10.648
  181.750   85.877    0.432    0.189   10.120
  182.000   84.315    0.430    0.221    9.442
  182.250   83.860    0.428    0.198    8.810
  182.500   83.443    0.434    0.184    8.672
  182.750   82.415    0.438    0.184    8.396
  183.000   80.814    0.440    0.233    8.591
  183.250   79.786    0.431    0.233    9.137
  183.500   78.719    0.425    0.242    9.523
  183.750   78.342    0.421    0.248   10.308
  184.000   77.886    0.411    0.243   10.538
  184.250   78.120    0.404    0.206   10.993
  184.500   78.314    0.407    0.184   11.043
  184.750   77.898    0.413    0.211   11.083
  185.000   78.092    0.413    0.222   10.739
  185.250   77.676    0.412    0.230   10.590
  185.500   77.298    0.413    0.221   10.453
  185.750   77.454    0.415    0.224   10.317
  186.000   77.076    0.417    0.227   10.345
  186.250   74.903    0.421    0.205   10.024
  186.500   73.758    0.427    0.161    9.527
  186.750   72.769    0.434    0.129    8.726
  187.000   76.020    0.444    0.120    7.986
  187.250   79.922    0.475    0.192    6.794
  187.500   81.379    0.496    0.223    5.775
  187.750   80.923    0.512    0.252    4.481
  188.000   78.711    0.528    0.276    5.121
  188.250   76.460    0.532    0.273    7.872
  188.500   73.637    0.505    0.265    9.696
  188.750   71.347    0.493    0.249   11.953
  189.000   69.096    0.471    0.234   13.155
  189.250   67.418    0.429    0.236   13.461
  189.500   65.206    0.411    0.237   12.571
  189.750   63.567    0.403    0.233   11.304
  190.000   61.888    0.391    0.242    9.433
  190.250   59.676    0.421    0.278    6.425
  190.500   58.609    0.451    0.320    4.626
  190.750   57.009    0.496    0.340    5.391
  191.000   51.701    0.531    0.339    8.757
  191.250   47.538    0.512    0.316   13.485
  191.500   39.174    0.459    0.316   16.276
  191.750   38.224    0.429    0.322   20.421
  192.000   39.602    0.430    0.317   25.620
  192.250   40.369    0.439    0.306   27.201
  192.500   42.476    0.434    0.312   27.832
  192.750   45.727    0.420    0.309   27.958
  193.000   48.979    0.410    0.293   26.133
  193.250   52.842    0.409    0.295   23.028
  193.500   60.451    0.413    0.293   15.686
  193.750   64.925    0.420    0.283    9.933
  194.000   70.050    0.430    0.249    6.402
  194.250   75.747    0.461    0.234    4.365
  194.500   80.871    0.492    0.254    3.846
  194.750   79.310    0.543    0.292    3.275
  195.000   79.427    0.581    0.304    3.230
  195.250   79.660    0.596    0.302    3.247
  195.500   79.933    0.580    0.272    3.320
  195.750   80.089    0.503    0.268    3.397
  196.000   80.244    0.504    0.265    3.543
  196.250   81.050    0.502    0.256    3.559
  196.500   83.768    0.498    0.247    3.576
  196.750   83.924    0.523    0.238    3.659
  197.000   83.546    0.545    0.278    3.817
  197.250   81.868    0.553    0.264    4.048
  197.500   75.949    0.498    0.223    4.464
  197.750   71.214    0.442    0.210    5.102
  198.000   64.072    0.398    0.209    6.642
  198.250   62.510    0.398    0.223   10.991
  198.500   62.627    0.397    0.227   11.897
  198.750   62.210    0.395    0.214   10.113
  199.000   61.794    0.397    0.202    6.524
  199.250   59.582    0.400    0.198    6.553
  199.500   57.903    0.426    0.255    7.353
  199.750   56.264    0.480    0.276   10.902
  200.000   58.371    0.431    0.278   11.790
  200.250   61.011    0.409    0.283   13.728
  200.500   63.001    0.397    0.277   16.311
  200.750   66.942    0.398    0.272   15.790
  201.000   68.931    0.400    0.265   15.287
  201.250   70.427    0.399    0.261   14.799
  201.500   71.805    0.408    0.256   14.594
  201.750   75.096    0.427    0.250   14.129
  202.000   78.959    0.435    0.243   13.945
  202.250   83.472    0.442    0.232   13.983
  202.500   84.889    0.446    0.238   13.802
  202.750   85.123    0.446    0.245   13.876
  203.000   82.872    0.438    0.242   14.746
  203.250   78.748    0.414    0.234   15.341
  203.500   77.147    0.394    0.230   16.606
  203.750   78.604    0.386    0.227   17.646
  204.000   80.633    0.374    0.219   18.392
  204.250   81.400    0.362    0.231   18.475
  204.500   79.149    0.364    0.239   18.575
  204.750   76.326    0.363    0.228   18.318
  205.000   70.368    0.361    0.215   17.734
  205.250   69.301    0.360    0.205   17.153
  205.500   70.146    0.364    0.210   16.018
  205.750   72.213    0.373    0.213   14.959
  206.000   72.981    0.378    0.211   14.204
  206.250   73.253    0.384    0.211   13.995
  206.500   74.059    0.397    0.211   13.561
  206.750   74.254    0.409    0.213   13.373
  207.000   74.448    0.416    0.208   12.946
  207.250   74.604    0.408    0.203   12.755
  207.500   72.392    0.413    0.202   12.824
  207.750   71.976    0.414    0.202   13.122
  208.000   72.782    0.410    0.201   13.427
  208.250   73.666    0.406    0.215   13.995
  208.500   73.249    0.403    0.210   14.319
  208.750   73.366    0.401    0.195   14.678
  209.000   73.066    0.400    0.193   15.033
  209.250   72.610    0.397    0.222   15.382
  209.500   72.766    0.399    0.230   15.725
  209.750   69.943    0.403    0.224   16.090
  210.000   65.168    0.419    0.219   16.478
  210.250   66.625    0.406    0.224   16.845
  210.500   66.897    0.397    0.238   17.573
  210.750   64.569    0.397    0.241   18.300
  211.000   60.523    0.393    0.233   19.446
  211.250   60.717    0.388    0.215   20.646
  211.500   60.301    0.387    0.212   23.209
  211.750   59.234    0.386    0.225   25.099
