~VERSION INFORMATION
 VERS.                 2.0:   CWLS LOG ASCII STANDARD -VERSION 2.0
 WRAP.                  NO:   ONE LINE PER DEPTH STEP
~WELL INFORMATION BLOCK
#MNEM.UNIT           DATA                    DESCRIPTION OF MNEMONIC
#---------    -------------------            -------------------------------
# Generated from Intellog Unique Number	CN_91_93/WELL/3550
WELL.         10-24-093-08W4                 : Well_name    - WELL
LOC .         AA/10-24-093-08W4/0            : Location     - LOCATION
UWI .         AA/10-24-093-08W400            : Uwi          - UNIQUE WELL ID
ENTR.         JOETTE                         : Entered      - ENTERED BY
SRVC.         SCHLUMBERGER                   : Scn          - SERVICE COMPANY
DATE.         03/16/92                       : Date         - LOG DATE
STRT.M        5                              : top_depth    - START DEPTH
STOP.M        225                            : bot_depth    - STOP DEPTH
STEP.M        0.25                           : increment    - STEP LENGTH
 NULL. -999.2500:NULL Value
~CURVE INFORMATION BLOCK
#MNEM UNIT       ERCB CURVE CODE    CURVE DESCRIPTION
#-----------   ------------------   ----------------------------------
DEPT.M        00 001 00 00         : DEPTH        - DEPTH
GR  .API      00 310 00 00         : GR           - GAMMA RAY
CALI.MM       00 280 01 00         : CAL          - CALIPER
NPHI.V/V      00 330 00 00         : PHIN         - NEUTRON POROSITY (SANDSTONE)
DPHI.V/V      00 890 00 00         : PHID         - DENSITY POROSITY (SANDSTONE)
ILD .OHMM     00 120 00 00         : RESD         - DEEP RESISTIVITY (DIL)
~PARAMETER INFORMATION
#MNEM.UNIT           DATA             DESCRIPTION OF MNEMONIC
#---------         -----------     ------------------------------
GL  .M        486.6                : gl           - GROUND LEVEL ELEVATION
EREF.M        486.6                : kb           - ELEVATION OF DEPTH REFERENCE
DATM.M        486.6                : datum        - DATUM ELEVATION
TDD .M        226.7                : tdd          - TOTAL DEPTH DRILLER
RUN .         ONE                  : Run          - RUN NUMBER
ENG .         BILL                 : Engineer     - RECORDING ENGINEER
WIT .         JIM                  : Witness      - WITNESSED BY
MUD .         GEL                  : Mud_type     - MUD TYPE
MATR.         SANDSTONE            : Logunit      - NEUTRON MATRIX
TMAX.C        18                   : BHT          - MAXIMUM RECORDED TEMPERATURE
BHTD.M        226.7                : BHTDEP       - MAXIMUM RECORDED TEMPERATURE
RMT .C        16                   : MDTP         - TEMPERATURE OF MUD
MUDD.KG/M     1.01                 : MWT          - MUD DENSITY
NEUT.         1                    : NEUTRON      - NEUTRON TYPE
RESI.         0                    : RESIST       - RESISTIVITY TYPE
RM  .OHMM     4.5                  : RM           - RESISTIVITY OF MUD
RMC .OHMM     4.5                  : RMC          - RESISTIVITY OF MUD CAKE
RMF .OHMM     4.5                  : RMF          - RESISTIVITY OF MUD FILTRATE
SUFT.C        4                    : SUFT         - SURFACE TEMPERATURE
~A  DEPTH       GR      CAL     PHIN     PHID     RESD
    5.000   53.135  162.470    0.199    0.156    0.000
    5.250   58.698  166.534    0.216    0.175    0.000
    5.500   58.651  169.530    0.243    0.143    0.000
    5.750   56.090  170.494    0.232    0.122    0.000
    6.000   59.778  172.500    0.249    0.136    0.000
    6.250   64.716  174.481    0.264    0.133    0.000
    6.500   70.278  176.435    0.272    0.095    0.000
    6.750   73.966  176.332    0.254    0.061    0.000
    7.000   67.655  177.245    0.254    0.024    0.000
    7.250   62.578  177.194    0.259    0.024    0.000
    7.500   65.032  177.039    0.250    0.050    0.000
    7.750   71.204  176.962    0.239    0.056    0.000
    8.000   67.393  179.958    0.246    0.029    0.000
    8.250   67.956  176.757    0.252    0.037    0.000
    8.500   68.519  176.679    0.257    0.059    0.000
    8.750   67.208  176.576    0.266    0.060    0.000
    9.000   68.396  177.464    0.261    0.026    0.000
    9.250   62.085  177.412    0.261    0.025    0.000
    9.500   67.632  176.216    0.269    0.030    0.000
    9.750   68.211  176.139    0.272    0.037    0.000
   10.000   80.648  176.036    0.277    0.057    0.000
   10.250   76.836  175.934    0.265    0.060    0.000
   10.500   75.525  175.831    0.263    0.065    0.000
   10.750   76.072  175.728    0.268    0.071    0.000
   11.000   76.636  174.558    0.273    0.042    0.000
   11.250   69.715  174.455    0.266    0.028    0.000
   11.500   67.154  174.378    0.266    0.036    0.000
   11.750   70.216  174.198    0.271    0.036    0.000
   12.000   67.655  174.146    0.270    0.025    0.000
   12.250   58.829  175.111    0.217    0.016    0.000
   12.500   51.268  175.008    0.209    0.031    0.000
   12.750   44.957  176.962    0.201    0.059    0.000
   13.000   42.989  177.875    0.205    0.085    0.000
   13.250   44.803  177.772    0.207    0.100    0.000
   13.500   47.881  177.695    0.211    0.114    0.000
   13.750   52.209  178.660    0.225    0.119    0.000
   14.000   59.022  178.505    0.242    0.172    0.000
   14.250   61.444  179.470    0.251    0.187    0.000
   14.500   58.898  179.341    0.246    0.142    0.000
   14.750   55.712  179.264    0.249    0.096    0.000
   15.000   51.885  179.187    0.247    0.085    0.000
   15.250   51.183  180.074    0.244    0.111    0.000
   15.500   53.636  179.997    0.243    0.118    0.000
   15.750   58.559  180.884    0.246    0.136    0.000
   16.000   61.622  180.833    0.250    0.142    0.000
   16.250   64.060  180.704    0.260    0.178    0.000
   16.500   63.389  180.601    0.322    0.214    0.000
   16.750   53.953  180.524    0.270    0.173    0.000
   17.000   44.517  179.380    0.250    0.143    0.000
   17.250   37.566  179.251    0.235    0.195    0.000
   17.500   41.878  179.174    0.238    0.137    0.000
   17.750   42.426  179.071    0.226    0.091    0.000
   18.000   44.880  178.943    0.237    0.038    0.000
   18.250   49.833  178.840    0.261    0.033    0.000
   18.500   51.630  178.737    0.246    0.079    0.000
   18.750   47.194  178.634    0.236    0.043    0.000
   19.000   42.758  179.598    0.236    0.062    0.000
   19.250   44.556  179.495    0.231    0.082    0.000
   19.500   46.994  180.434    0.223    0.039    0.000
   19.750   50.681  180.331    0.226    0.034    0.000
   20.000   54.979  181.244    0.232    0.048    0.000
   20.250   55.573  182.183    0.246    0.046    0.000
   20.500   54.261  182.080    0.247    0.022    0.000
   20.750   49.200  183.019    0.241    0.017    0.000
   21.000   47.873  182.916    0.235    0.027    0.000
   21.250   50.327  183.829    0.231    0.032    0.000
   21.500   50.265  183.726    0.226    0.040    0.000
   21.750   45.204  184.639    0.225    0.047    0.000
   22.000   44.502  184.562    0.232    0.061    0.000
   22.250   42.565  185.526    0.239    0.076    0.000
   22.500   36.864  186.439    0.247    0.083    0.000
   22.750   36.177  186.336    0.252    0.079    0.000
   23.000   36.115  187.301    0.242    0.069    0.000
   23.250   35.444  187.198    0.226    0.067    0.000
   23.500   34.726  188.111    0.229    0.074    0.000
   23.750   35.320  187.982    0.239    0.099    0.000
   24.000   38.383  187.905    0.233    0.105    0.000
   24.250   40.197  187.802    0.227    0.094    0.000
   24.500   38.885  187.674    0.225    0.080    0.000
   24.750   35.668  187.622    0.222    0.093    0.000
   25.000   38.136  186.426    0.227    0.109    0.000
   25.250   35.560  186.298    0.232    0.061    0.000
   25.500   32.983  185.205    0.237    0.092    0.000
   25.750   34.171  184.060    0.236    0.122    0.000
   26.000   37.249  182.890    0.227    0.119    0.000
   26.250   41.562  182.762    0.230    0.067    0.000
   26.500   45.265  182.710    0.246    0.047    0.000
   26.750   47.688  181.540    0.251    0.088    0.000
   27.000   48.251  181.437    0.253    0.094    0.000
   27.250   47.549  180.293    0.248    0.096    0.000
   27.500   45.613  179.174    0.238    0.085    0.000
   27.750   43.067  179.071    0.225    0.077    0.000
   28.000   40.505  178.943    0.227    0.081    0.000
   28.250   37.288  178.865    0.232    0.080    0.000
   28.500   37.257  178.711    0.242    0.058    0.000
   28.750   40.945  177.592    0.253    0.025    0.000
   29.000   47.757  177.438    0.267    0.037    0.000
   29.250   55.195  177.387    0.278    0.018    0.000
   29.500   64.523  176.165    0.290    0.029    0.000
   29.750   80.069  176.088    0.301    0.053    0.000
   30.000   76.898  177.078    0.299    0.060    0.000
   30.250   71.212  176.975    0.291    0.060    0.000
   30.500   68.025  177.914    0.296    0.089    0.000
   30.750   76.088  178.852    0.300    0.144    0.000
   31.000   68.496  178.750    0.267    0.162    0.000
   31.250   67.809  179.688    0.261    0.087    0.000
   31.500   65.263  180.550    0.244    0.055    0.000
   31.750   57.078  180.498    0.229    0.057    0.000
   32.000   47.626  180.421    0.232    0.104    0.000
   32.250   41.315  181.360    0.238    0.119    0.000
   32.500   41.254  181.257    0.232    0.128    0.000
   32.750   46.191  181.128    0.225    0.077    0.000
   33.000   46.130  181.051    0.217    0.023    0.000
   33.250   44.193  180.897    0.225    0.017    0.000
   33.500   44.131  180.768    0.241    0.045    0.000
   33.750   43.429  180.717    0.257    0.040    0.000
   34.000   47.757  180.588    0.259    0.042    0.000
   34.250   48.930  180.486    0.245    0.051    0.000
   34.500   45.744  180.357    0.230    0.061    0.000
   34.750   43.807  180.306    0.216    0.083    0.000
   35.000   40.621  180.151    0.221    0.092    0.000
   35.250   34.279  181.116    0.227    0.110    0.000
   35.500   33.623  181.013    0.215    0.099    0.000
   35.750   32.936  180.910    0.225    0.100    0.000
   36.000   37.874  181.874    0.230    0.114    0.000
   36.250   33.438  181.746    0.224    0.120    0.000
   36.500   31.501  181.669    0.226    0.125    0.000
   36.750   38.314  181.540    0.241    0.144    0.000
   37.000   42.002  181.411    0.239    0.144    0.000
   37.250   38.800  181.360    0.238    0.150    0.000
   37.500   40.613  181.231    0.242    0.165    0.000
   37.750   38.067  181.103    0.259    0.152    0.000
   38.000   32.365  181.000    0.500    0.201    0.000
   38.250   36.038  180.871    0.507    0.206    0.000
   38.500   37.257  180.820    0.520    0.177    0.000
   38.750   42.804  180.717    0.534    0.156    0.000
   39.000   44.633  180.588    0.526    0.161    0.000
   39.250   43.946  180.460    0.507    0.152    0.000
   39.500   45.134  180.408    0.506    0.144    0.000
   39.750   44.448  180.280    0.516    0.143    0.000
   40.000   46.886  180.203    0.532    0.147    0.000
   40.250   49.933  180.074    0.550    0.152    0.000
   40.500   49.871  178.904    0.561    0.128    0.000
   40.750   47.310  178.827    0.572    0.131    0.000
   41.000   45.373  178.724    0.571    0.142    0.000
   41.250   48.436  178.647    0.554    0.136    0.000
