~VERSION INFORMATION
 VERS.                 2.0:   CWLS LOG ASCII STANDARD -VERSION 2.0
 WRAP.                  NO:   ONE LINE PER DEPTH STEP
~WELL INFORMATION BLOCK
#MNEM.UNIT           DATA                    DESCRIPTION OF MNEMONIC
#---------    -------------------            -------------------------------
# Generated from Intellog Unique Number	CC_88_90/WELL/2304
WELL.         11-14-090-09W4                 : Well_name    - WELL
LOC .         AA/11-14-090-09W4/0            : Location     - LOCATION
UWI .         AA/11-14-090-09W400            : Uwi          - UNIQUE WELL ID
ENTR.         DW                             : Entered      - ENTERED BY
SRVC.         SCHLUMBERGER                   : Scn          - SERVICE COMPANY
STRT.M        15.24                          : top_depth    - START DEPTH
STOP.M        133.74                         : bot_depth    - STOP DEPTH
STEP.M        0.25                           : increment    - STEP LENGTH
 NULL. -999.2500:NULL Value
~CURVE INFORMATION BLOCK
#MNEM UNIT       ERCB CURVE CODE    CURVE DESCRIPTION
#-----------   ------------------   ----------------------------------
DEPT.M        00 001 00 00         : DEPTH        - DEPTH
GR  .API      00 310 00 00         : GR           - GAMMA RAY
DPHI.V/V      00 890 00 00         : PHID         - DENSITY POROSITY (SANDSTONE)
NPHI.V/V      00 330 00 00         : PHIN         - NEUTRON POROSITY (SANDSTONE)
ILD .OHMM     00 120 00 00         : RESD         - DEEP RESISTIVITY (DIL)
~PARAMETER INFORMATION
#MNEM.UNIT           DATA             DESCRIPTION OF MNEMONIC
#---------         -----------     ------------------------------
GL  .M        369.113              : gl           - GROUND LEVEL ELEVATION
EREF.M        370.332              : kb           - ELEVATION OF DEPTH REFERENCE
DATM.M        370.332              : datum        - DATUM ELEVATION
TDD .M        134.112              : tdd          - TOTAL DEPTH DRILLER
RUN .         ONE                  : Run          - RUN NUMBER
ENG .         BILL                 : Engineer     - RECORDING ENGINEER
WIT .         JIM                  : Witness      - WITNESSED BY
MUD .         GEL                  : Mud_type     - MUD TYPE
MATR.         SANDSTONE            : Logunit      - NEUTRON MATRIX
TMAX.C        23.8889              : BHT          - MAXIMUM RECORDED TEMPERATURE
BHTD.M        134.112              : BHTDEP       - MAXIMUM RECORDED TEMPERATURE
MATR.         1                    : LOGUNIT      - NEUTRON MATRIX
RMT .C        25                   : MDTP         - TEMPERATURE OF MUD
NEUT.         0                    : NEUTRON      - NEUTRON TYPE
RESI.         0                    : RESIST       - RESISTIVITY TYPE
RMC .OHMM     0.25                 : RMC          - RESISTIVITY OF MUD CAKE
RMF .OHMM     0.25                 : RMF          - RESISTIVITY OF MUD FILTRATE
SUFT.C        4                    : SUFT         - SURFACE TEMPERATURE
~A  DEPTH       GR     PHID     PHIN     RESD
   15.240   60.374    0.236    0.344   36.970
   15.490   63.571    0.251    0.349   35.989
   15.740   67.318    0.260    0.339   37.539
   15.990   70.363    0.247    0.326   38.490
   16.240   71.989    0.231    0.330   34.656
   16.490   71.309    0.227    0.353   28.388
   16.740   67.851    0.216    0.355   28.559
   16.990   64.757    0.219    0.282   31.119
   17.240   63.784    0.189    0.259   31.146
   17.490   63.670    0.175    0.277   29.816
   17.740   63.190    0.199    0.281   29.892
   17.990   62.883    0.203    0.296   31.408
   18.240   62.953    0.191    0.313   33.705
   18.490   61.821    0.180    0.304   37.774
   18.740   60.579    0.182    0.269   42.443
   18.990   60.368    0.204    0.256   46.629
   19.240   57.882    0.237    0.289   49.807
   19.490   56.691    0.261    0.337   48.118
   19.740   75.392    0.293    0.380   36.199
   19.990   72.660    0.300    0.340   32.064
   20.240   61.910    0.254    0.304   38.302
   20.490   64.780    0.209    0.320   45.569
   20.740   69.659    0.211    0.320   48.047
   20.990   69.585    0.199    0.291   44.691
   21.240   61.356    0.205    0.263   38.608
   21.490   63.868    0.201    0.253   36.060
   21.740   66.655    0.196    0.258   34.545
   21.990   58.973    0.206    0.274   33.185
   22.240   57.882    0.203    0.297   37.893
   22.490   60.400    0.215    0.315   41.489
   22.740   65.671    0.240    0.352   30.375
   22.990   69.285    0.283    0.425   16.545
   23.240   68.634    0.308    0.471   11.509
   23.490   65.119    0.290    0.450   12.203
   23.740   60.896    0.287    0.449   14.757
   23.990   61.118    0.296    0.442   15.099
   24.240   64.588    0.297    0.420   14.974
   24.490   67.636    0.292    0.422   15.339
   24.740   68.677    0.285    0.442   14.979
   24.990   67.392    0.275    0.432   13.568
   25.240   63.353    0.277    0.398   13.546
   25.490   63.778    0.281    0.385   19.200
   25.740   66.892    0.286    0.404   26.153
   25.990   69.028    0.295    0.435   29.277
   26.240   70.635    0.302    0.447   26.519
   26.490   71.121    0.297    0.440   18.044
   26.740   65.899    0.288    0.449   11.255
   26.990   63.386    0.297    0.439   10.716
   27.240   64.133    0.298    0.421   12.130
   27.490   63.499    0.286    0.423   13.453
   27.740   63.411    0.289    0.431   16.994
   27.990   68.660    0.283    0.414   18.041
   28.240   72.752    0.277    0.409   13.902
   28.490   73.503    0.274    0.413   12.216
   28.740   70.769    0.271    0.394   14.108
   28.990   66.982    0.269    0.376   15.171
   29.240   66.789    0.273    0.410   15.854
   29.490   67.700    0.283    0.410   15.772
   29.740   71.087    0.286    0.412   14.772
   29.990   72.136    0.287    0.412   12.928
   30.240   68.463    0.293    0.401   10.804
   30.490   66.345    0.301    0.404   10.153
   30.740   70.081    0.309    0.415   11.587
   30.990   71.409    0.309    0.443    8.857
   31.240   68.841    0.297    0.442    7.098
   31.490   66.329    0.279    0.428   12.934
   31.740   65.066    0.270    0.433   18.428
   31.990   62.279    0.272    0.421   12.399
   32.240   58.401    0.275    0.385    9.475
   32.490   56.514    0.278    0.371    9.887
   32.740   56.354    0.289    0.380   10.353
   32.990   59.388    0.300    0.389   14.450
   33.240   65.484    0.289    0.399   19.671
   33.490   67.292    0.257    0.409   12.866
   33.740   64.601    0.225    0.399    8.681
   33.990   56.668    0.169    0.300    8.949
   34.240   48.516    0.107    0.186   11.371
   34.490   46.611    0.108    0.154   73.146
   34.740   51.042    0.186    0.186  167.814
   34.990   57.184    0.241    0.264   53.549
   35.240   61.011    0.285    0.359    5.500
   35.490   60.397    0.311    0.410   18.576
   35.740   60.191    0.312    0.411   12.168
   35.990   64.983    0.307    0.402   15.831
   36.240   68.876    0.303    0.401   15.757
   36.490   65.579    0.300    0.427   13.495
   36.740   62.327    0.300    0.421   12.388
   36.990   61.799    0.305    0.402   14.437
   37.240   63.322    0.320    0.401   18.876
   37.490   66.698    0.332    0.402   22.695
   37.740   67.587    0.305    0.424   22.724
   37.990   69.920    0.295    0.434   13.399
   38.240   70.107    0.291    0.435    8.071
   38.490   66.308    0.298    0.432    9.900
   38.740   63.165    0.318    0.425   10.292
   38.990   64.252    0.307    0.428    8.938
   39.240   66.560    0.290    0.441    7.173
   39.490   66.381    0.285    0.461    7.586
   39.740   64.138    0.281    0.460    8.440
   39.990   64.034    0.276    0.440    8.986
   40.240   67.251    0.286    0.428   10.682
   40.490   68.093    0.309    0.412   11.315
   40.740   66.944    0.321    0.436   10.445
   40.990   65.435    0.321    0.447   10.562
   41.240   63.302    0.314    0.437   11.879
   41.490   60.633    0.305    0.430   13.509
   41.740   60.010    0.307    0.415   15.484
   41.990   63.068    0.310    0.434   15.560
   42.240   66.007    0.293    0.427   16.019
   42.490   66.378    0.268    0.421   17.250
   42.740   65.510    0.255    0.409   14.522
   42.990   65.693    0.250    0.367    8.743
   43.240   67.240    0.249    0.386   10.568
   43.490   70.010    0.282    0.412   11.806
   43.740   71.618    0.297    0.418   10.338
   43.990   75.497    0.294    0.412    8.110
   44.240   79.850    0.301    0.421    6.449
   44.490   77.333    0.302    0.456    5.750
   44.740   75.839    0.301    0.469    5.455
   44.990   71.727    0.305    0.482    5.339
   45.240   69.581    0.325    0.494    5.264
   45.490   71.837    0.353    0.521    5.170
   45.740   73.467    0.362    0.561    4.973
   45.990   72.999    0.343    0.558    4.531
   46.240   73.573    0.325    0.520    4.141
   46.490   71.685    0.311    0.499    4.037
   46.740   70.768    0.289    0.494    4.271
   46.990   69.461    0.272    0.478    4.840
   47.240   65.124    0.279    0.461    5.939
   47.490   73.537    0.275    0.455    7.588
   47.740   75.317    0.272    0.462    8.076
   47.990   72.215    0.273    0.449    7.894
   48.240   71.406    0.280    0.424    7.489
   48.490   72.080    0.291    0.418    7.857
   48.740   74.145    0.293    0.418   10.612
   48.990   74.626    0.285    0.418   11.746
   49.240   75.169    0.259    0.406   10.200
   49.490   76.435    0.243    0.406    8.374
   49.740   77.728    0.246    0.412    8.372
   49.990   78.202    0.242    0.394    9.867
   50.240   76.329    0.238    0.376   11.401
   50.490   73.019    0.234    0.369   12.025
   50.740   66.826    0.241    0.383   12.717
   50.990   58.588    0.206    0.401   12.122
   51.240   52.379    0.113    0.358   11.287
   51.490   50.196    0.062    0.228   10.459
   51.740   49.254    0.089    0.147    6.775
   51.990   52.372    0.154    0.173   67.763
   52.240   57.786    0.216    0.242   70.873
   52.490   60.936    0.256    0.306    8.358
   52.740   62.185    0.269    0.362   11.546
   52.990   65.896    0.269    0.380   10.706
   53.240   67.942    0.274    0.400    9.630
   53.490   68.060    0.279    0.422    9.949
   53.740   68.242    0.282    0.409    9.207
   53.990   69.529    0.282    0.381    9.146
   54.240   71.179    0.278    0.399    9.899
   54.490   71.623    0.273    0.416   10.778
   54.740   74.320    0.255    0.437   10.794
   54.990   78.406    0.243    0.430   10.061
   55.240   80.111    0.245    0.398    9.065
   55.490   79.620    0.244    0.388    8.348
   55.740   81.253    0.237    0.397    8.479
   55.990   83.137    0.233    0.400    8.419
   56.240   83.711    0.229    0.396    8.221
   56.490   80.232    0.227    0.388    8.148
   56.740   75.873    0.232    0.365    8.393
   56.990   76.569    0.240    0.343    9.553
   57.240   76.361    0.246    0.373   12.280
   57.490   78.730    0.242    0.380   15.428
   57.740   82.236    0.240    0.370   13.587
   57.990   81.708    0.246    0.375   10.224
   58.240   77.792    0.253    0.384   11.163
   58.490   76.525    0.256    0.392   11.338
