~VERSION INFORMATION
 VERS.                 2.0:   CWLS LOG ASCII STANDARD -VERSION 2.0
 WRAP.                  NO:   ONE LINE PER DEPTH STEP
~WELL INFORMATION BLOCK
#MNEM.UNIT           DATA                    DESCRIPTION OF MNEMONIC
#---------    -------------------            -------------------------------
# Generated from Intellog Unique Number	CN_91_93/WELL/1149
WELL.         10-26-091-15W4                 : Well_name    - WELL
LOC .         AA/10-26-091-15W4/0            : Location     - LOCATION
UWI .         AA/10-26-091-15W400            : Uwi          - UNIQUE WELL ID
ENTR.         JOETTE                         : Entered      - ENTERED BY
SRVC.         SCHLUMBERGER                   : Scn          - SERVICE COMPANY
STRT.F        213.255                        : top_depth    - START DEPTH
STOP.F        672.572                        : bot_depth    - STOP DEPTH
STEP.F        0.82                           : increment    - STEP LENGTH
 NULL. -999.2500:NULL Value
~CURVE INFORMATION BLOCK
#MNEM UNIT       ERCB CURVE CODE    CURVE DESCRIPTION
#-----------   ------------------   ----------------------------------
DEPT.F        00 001 00 00         : DEPTH        - DEPTH
ILD .OHMM     00 120 00 00         : RESD         - DEEP RESISTIVITY (DIL)
DPHI.V/V      00 890 00 00         : PHID         - DENSITY POROSITY (SANDSTONE)
NPHI.V/V      00 330 00 00         : PHIN         - NEUTRON POROSITY (SANDSTONE)
CALI.IN       00 280 01 00         : CAL          - CALIPER
GR  .API      00 310 00 00         : GR           - GAMMA RAY
~PARAMETER INFORMATION
#MNEM.UNIT           DATA             DESCRIPTION OF MNEMONIC
#---------         -----------     ------------------------------
GL  .M        474.15               : gl           - GROUND LEVEL ELEVATION
EREF.M        477.15               : kb           - ELEVATION OF DEPTH REFERENCE
DATM.M        477.15               : datum        - DATUM ELEVATION
TDD .M        216                  : tdd          - TOTAL DEPTH DRILLER
RUN .         ONE                  : Run          - RUN NUMBER
ENG .         BILL                 : Engineer     - RECORDING ENGINEER
WIT .         JIM                  : Witness      - WITNESSED BY
MUD .         GEL                  : Mud_type     - MUD TYPE
MATR.         SANDSTONE            : Logunit      - NEUTRON MATRIX
TMAX.F        140                  : BHT          - MAXIMUM RECORDED TEMPERATURE
BHTD.F        6797.9               : BHTDEP       - MAXIMUM RECORDED TEMPERATURE
RMT .F        77                   : MDTP         - TEMPERATURE OF MUD
MUDD.LB/G     9.04166              : MWT          - MUD DENSITY
NEUT.         1                    : NEUTRON      - NEUTRON TYPE
RESI.         0                    : RESIST       - RESISTIVITY TYPE
RM  .OHMM     7.6                  : RM           - RESISTIVITY OF MUD
RMC .OHMM     0.25                 : RMC          - RESISTIVITY OF MUD CAKE
RMF .OHMM     6.9                  : RMF          - RESISTIVITY OF MUD FILTRATE
SUFT.F        39.2                 : SUFT         - SURFACE TEMPERATURE
~A  DEPTH     RESD     PHID     PHIN      CAL       GR
# ...
  452.756   27.920    0.131    0.430   10.980   81.473
  453.576   25.902    0.186    0.470   11.099   89.024
  454.396   26.874    0.187    0.472   11.179   89.038
  455.217   25.118    0.158    0.425   11.239   90.253
  456.037   24.188    0.228    0.428   11.339   93.885
  456.857   24.543    0.226    0.424   11.518   94.802
  457.677   24.348    0.234    0.419   11.716   93.004
  458.497   23.977    0.232    0.442   11.856   93.920
  459.318   22.409    0.228    0.437   11.857   96.041
  460.138   21.742    0.220    0.428   11.838   93.641
  460.958   21.734    0.214    0.442   11.819   91.843
  461.778   21.563    0.223    0.433   11.799   91.551
  462.598   20.920    0.233    0.422   11.761   91.565
  463.419   19.550    0.236    0.460   11.742   91.276
  464.239   18.686    0.235    0.477   11.683   90.983
  465.059   18.266    0.212    0.484   11.525   96.725
  465.879   18.953    0.217    0.493   11.388   96.133
  466.699   20.414    0.214    0.501   11.309   90.717
  467.520   22.485    0.188    0.496   11.191   88.917
  468.340   22.643    0.139    0.444   11.014   88.326
  469.160   21.807    0.142    0.431   10.797   89.243
  469.980   20.227    0.178    0.455   10.639   90.461
  470.801   21.146    0.225    0.444   10.640   88.361
  471.621   22.606    0.219    0.459   10.582   94.404
  472.441   23.810    0.230    0.463   10.543   97.433
  473.261   25.076    0.233    0.469   10.444   99.555
  474.081   25.068    0.228    0.451   10.326  101.679
  474.902   25.245    0.229    0.460   10.149  103.500
  475.722   26.194    0.216    0.453    9.972  104.114
  476.542   27.796    0.188    0.421    9.715   99.902
  477.362   29.496    0.154    0.423    9.419   95.694
  478.182   28.402    0.101    0.372    9.123   94.497
  479.003   25.957    0.111    0.360    8.906   96.920
  479.823   23.370    0.173    0.397    8.808  103.266
  480.643   22.673    0.231    0.424    8.828  105.992
  481.463   22.329    0.227    0.437    8.908  106.308
  482.283   21.989    0.213    0.444    8.929  109.333
  483.104   21.492    0.205    0.464    8.890  106.327
  483.924   21.805    0.116    0.476    8.891  101.212
  484.744   23.840    0.088    0.430    8.753   93.988
  485.564   20.834    0.083    0.459    8.378   99.125
  486.385   18.342    0.184    0.495    8.438  100.344
  487.205   16.890    0.237    0.501    8.676  103.066
  488.025   15.550    0.206    0.515    8.717   97.952
  488.845   16.135    0.182    0.504    8.717   94.044
  489.665   17.121    0.069    0.404    8.659   94.057
  490.486   16.735    0.107    0.411    8.679  106.734
  491.306   16.735    0.167    0.423    9.016  110.063
  492.126   16.719    0.188    0.427    9.334  111.883
  492.946   17.094    0.245    0.429    9.532  110.085
  493.766   17.215    0.239    0.439    9.612  109.193
  494.587   16.576    0.237    0.450    9.653  109.203
  495.407   16.082    0.236    0.469    9.693  110.722
  496.227   15.720    0.233    0.475    9.713  109.527
  497.047   16.681    0.212    0.478    9.734  108.332
  497.867   18.373    0.204    0.468    9.755  107.743
  498.688   19.207    0.213    0.485    9.795  105.642
  499.508   19.198    0.220    0.509    9.855  112.288
  500.328   19.049    0.222    0.536    9.915  114.714
  501.148   18.759    0.226    0.458    9.936  118.343
  501.969   19.464    0.226    0.412    9.937  110.212
  502.789   23.274    0.218    0.406    9.917  108.413
  503.609   24.698    0.199    0.391    9.899  106.013
  504.429   26.800    0.203    0.407    9.879  105.419
  505.249   27.601    0.213    0.410    9.860  106.035
  506.070   27.590    0.186    0.395    9.822  103.031
  506.890   25.788    0.171    0.381    9.822  105.455
  507.710   21.871    0.198    0.424    9.823  108.785
  508.530   21.061    0.230    0.440    9.784  108.193
  509.350   20.583    0.223    0.462    9.745  105.790
  510.171   21.199    0.224    0.452    9.726  100.073
  510.991   21.199    0.222    0.450    9.727   99.179
  511.811   21.823    0.211    0.437    9.728   99.179
  512.631   23.160    0.215    0.430    9.689   99.201
  513.451   23.160    0.220    0.422    9.631   99.515
  514.272   23.312    0.219    0.417    9.552   99.528
  515.092   23.478    0.219    0.423    9.434   98.634
  515.912   22.608    0.215    0.435    9.296   99.550
  516.732   20.973    0.194    0.446    9.119  101.370
  517.552   19.457    0.204    0.455    8.902  104.095
  518.373   16.380    0.231    0.476    8.645  108.330
  519.193   14.101    0.245    0.515    8.389  103.215
  520.013   12.983    0.258    0.496    8.172   99.004
  520.833   13.675    0.253    0.485    7.955   75.489
  521.654   15.289    0.240    0.468    7.837   69.469
  522.474   17.095    0.231    0.445    7.739   58.924
  523.294   22.358    0.267    0.428    7.621   50.491
  524.114   27.753    0.284    0.420    7.503   44.772
  524.934   31.971    0.310    0.421    7.385   37.245
  525.755   39.684    0.314    0.451    7.326   34.541
  526.575   55.514    0.305    0.477    7.288   34.855
  527.395   68.908    0.304    0.472    7.486   35.771
  528.215   92.166    0.323    0.426    7.724   36.087
  529.035  111.031    0.321    0.403    7.923   36.095
  529.856  121.397    0.312    0.407    8.102   36.107
  530.676  128.817    0.313    0.397    8.221   36.419
  531.496  135.668    0.317    0.397    8.341   36.732
  532.316  141.812    0.319    0.401    8.461   38.256
  533.136  143.902    0.327    0.404    8.540   39.471
  533.957  148.190    0.327    0.403    8.660   40.085
  534.777  150.374    0.321    0.420    8.760   40.098
  535.597  150.305    0.325    0.426    8.839   41.616
  536.417  138.403    0.331    0.437    8.900   45.248
  537.238  100.346    0.342    0.453    8.940   45.864
  538.058   72.216    0.345    0.454    8.941   47.684
  538.878   60.343    0.344    0.442    8.922   50.710
  539.698   52.337    0.330    0.458    8.922   56.452
  540.518   45.734    0.312    0.475    8.923   62.797
  541.339   39.670    0.300    0.485    8.924   67.332
  542.159   35.450    0.279    0.470    8.905   67.949
  542.979   34.653    0.239    0.443    8.905   67.356
  543.799   30.963    0.222    0.456    8.906   67.669
  544.619   31.418    0.241    0.457    8.927   69.491
  545.440   33.339    0.272    0.469    8.928   69.502
  546.260   36.724    0.304    0.490    8.909   68.912
  547.080   41.058    0.298    0.466    8.909   69.222
  547.900   42.288    0.287    0.460    8.890   69.238
  548.720   37.231    0.249    0.485    8.852   68.945
  549.541   18.445    0.199    0.472    8.773   71.972
  550.361   15.644    0.186    0.453    8.655   79.824
  551.181   12.406    0.223    0.517    8.458   88.582
  552.001   10.922    0.281    0.581    8.419  100.357
  552.822    9.834    0.288    0.563    8.400  101.576
  553.642    9.329    0.289    0.554    8.400  102.189
  554.462    9.119    0.273    0.542    8.382  102.200
  555.282    9.183    0.232    0.544    8.304  105.831
  556.102    9.528    0.229    0.563    8.225  104.937
  556.923   10.187    0.243    0.551    8.147  100.123
  557.743   11.137    0.249    0.531    8.167  103.453
  558.563   11.215    0.257    0.468    8.168  101.655
  559.383   10.800    0.258    0.473    8.129   86.588
  560.203   11.633    0.232    0.454    8.031   80.265
  561.024   15.912    0.186    0.426    7.933   71.228
  561.844   19.900    0.195    0.419    7.834   70.938
  562.664   24.887    0.218    0.427    7.736   73.062
  563.484   29.100    0.231    0.431    7.717   73.373
  564.304   32.053    0.241    0.438    7.718   71.576
  565.125   33.256    0.239    0.445    7.739   68.269
  565.945   33.997    0.244    0.457    7.818   64.662
  566.765   31.538    0.209    0.469    7.918   66.180
  567.585   29.699    0.220    0.475    7.978   70.415
  568.406   27.753    0.243    0.485    7.939   72.538
  569.226   28.162    0.271    0.495    7.802   69.232
  570.046   32.200    0.290    0.466    7.545   57.782
  570.866   38.505    0.301    0.463    7.605   54.779
  571.686   47.795    0.311    0.463    7.725   56.300
