~VERSION INFORMATION
 VERS.                 2.0:   CWLS LOG ASCII STANDARD -VERSION 2.0
 WRAP.                  NO:   ONE LINE PER DEPTH STEP
~WELL INFORMATION BLOCK
#MNEM.UNIT           DATA                    DESCRIPTION OF MNEMONIC
#---------    -------------------            -------------------------------
# Generated from Intellog Unique Number	CX_WELLS/WELL/3697
WELL.         HANGINGSTONE OV 11-6           : Well_name    - WELL
LOC .         AA/11-06-085-11W4/0            : Location     - LOCATION
UWI .         AA/11-06-085-11W400            : Uwi          - UNIQUE WELL ID
ENTR.         T                              : Entered      - ENTERED BY
SRVC.         SCHLUMBERGER                   : Scn          - SERVICE COMPANY
STRT.M        95                             : top_depth    - START DEPTH
STOP.M        285                            : bot_depth    - STOP DEPTH
STEP.M        0.25                           : increment    - STEP LENGTH
 NULL. -999.2500:NULL Value
~CURVE INFORMATION BLOCK
#MNEM UNIT       ERCB CURVE CODE    CURVE DESCRIPTION
#-----------   ------------------   ----------------------------------
DEPT.M        00 001 00 00         : DEPTH        - DEPTH
GR  .API      00 310 00 00         : GR           - GAMMA RAY
NPHI.V/V      00 330 00 00         : PHIN         - NEUTRON POROSITY (SANDSTONE)
DPHI.V/V      00 890 00 00         : PHID         - DENSITY POROSITY (SANDSTONE)
ILD .OHMM     00 120 00 00         : RESD         - DEEP RESISTIVITY (OTHER)
~PARAMETER INFORMATION
#MNEM.UNIT           DATA             DESCRIPTION OF MNEMONIC
#---------         -----------     ------------------------------
GL  .M        532                  : gl           - GROUND LEVEL ELEVATION
EREF.M        537.2                : kb           - ELEVATION OF DEPTH REFERENCE
DATM.M        537.2                : datum        - DATUM ELEVATION
TDD .M        292                  : tdd          - TOTAL DEPTH DRILLER
RUN .         ONE                  : Run          - RUN NUMBER
ENG .         BILL                 : Engineer     - RECORDING ENGINEER
WIT .         JIM                  : Witness      - WITNESSED BY
MUD .         GEL                  : Mud_type     - MUD TYPE
MATR.         SANDSTONE            : Logunit      - NEUTRON MATRIX
TMAX.C        20                   : BHT          - MAXIMUM RECORDED TEMPERATURE
BHTD.M        292                  : BHTDEP       - MAXIMUM RECORDED TEMPERATURE
MATR.         1                    : LOGUNIT      - NEUTRON MATRIX
RMT .C        25                   : MDTP         - TEMPERATURE OF MUD
NEUT.         1                    : NEUTRON      - NEUTRON TYPE
RESI.         3.4                  : RESIST       - RESISTIVITY TYPE
RMC .OHMM     2.9                  : RMC          - RESISTIVITY OF MUD CAKE
RMF .OHMM     2.07                 : RMF          - RESISTIVITY OF MUD FILTRATE
SUFT.C        4                    : SUFT         - SURFACE TEMPERATURE
~A  DEPTH       GR     PHIN     PHID     RESD
# ...
  138.500  124.252    0.407    0.226    8.825
  138.750  123.060    0.407    0.227    8.829
  139.000  123.693    0.410    0.228    8.835
  139.250  125.576    0.418    0.220    8.678
  139.500  127.459    0.426    0.190    8.522
  139.750  121.942    0.444    0.181    8.526
  140.000  119.509    0.456    0.203    8.861
  140.250  123.242    0.451    0.213    8.865
  140.500  127.591    0.449    0.221    9.038
  140.750  130.091    0.448    0.222    9.046
  141.000  127.657    0.452    0.224    9.050
  141.250  124.623    0.453    0.227    8.886
  141.500  124.640    0.451    0.228    8.567
  141.750  125.914    0.449    0.230    8.571
  142.000  125.964    0.452    0.234    8.416
  142.250  126.605    0.454    0.233    8.264
  142.500  126.630    0.450    0.228    8.269
  142.750  128.521    0.447    0.214    8.120
  143.000  129.163    0.442    0.188    8.125
  143.250  130.429    0.441    0.182    8.130
  143.500  130.462    0.451    0.188    7.983
  143.750  132.353    0.459    0.198    7.842
  144.000  133.619    0.452    0.206    7.700
  144.250  133.652    0.446    0.233    7.560
  144.500  132.452    0.439    0.247    7.288
  144.750  131.243    0.440    0.254    7.291
  145.000  131.285    0.456    0.258    7.160
  145.250  129.459    0.472    0.265    7.030
  145.500  122.092    0.482    0.272    6.651
  145.750  117.192    0.453    0.276    6.653
  146.000  120.925    0.438    0.262    6.533
  146.250  124.041    0.422    0.251    6.297
  146.500  128.407    0.424    0.273    6.184
  146.750  125.966    0.438    0.278    6.072
  147.000  121.690    0.443    0.277    6.075
  147.250  119.248    0.437    0.268    6.080
  147.500  115.589    0.433    0.260    6.082
  147.750  114.389    0.434    0.255    6.203
  148.000  112.572    0.437    0.263    6.323
  148.250  110.138    0.443    0.267    6.571
  148.500  107.697    0.443    0.275    6.698
  148.750  105.263    0.439    0.279    6.959
  149.000  102.221    0.430    0.278    7.368
  149.250  100.404    0.427    0.279    7.949
  149.500   99.820    0.424    0.270    8.905
  149.750   98.011    0.413    0.045    9.973
  150.000   94.328    0.361    0.095   11.601
  150.250   85.103    0.323    0.153   13.238
  150.500   72.803    0.355    0.227   15.988
  150.750   70.369    0.376    0.264   17.245
  151.000   76.569    0.411    0.291   17.256
  151.250   85.251    0.424    0.298   16.945
  151.500   85.893    0.436    0.298   15.730
  151.750   89.626    0.451    0.301   15.161
  152.000   92.750    0.459    0.304   14.883
  152.250   91.550    0.446    0.298   14.615
  152.500   90.349    0.433    0.294   12.821
  152.750   90.999    0.458    0.293   11.040
  153.000   95.340    0.465    0.289   10.245
  153.250  103.398    0.455    0.288    9.332
  153.500   98.498    0.444    0.284    8.825
  153.750   92.973    0.433    0.279    9.171
  154.000   93.014    0.427    0.275   10.467
  154.250   92.438    0.417    0.273   11.946
  154.500   91.847    0.417    0.269   13.635
  154.750   91.271    0.417    0.276   15.564
  155.000   90.071    0.417    0.288   16.171
  155.250   89.487    0.425    0.297   16.490
  155.500   87.053    0.435    0.306   16.809
  155.750   80.912    0.447    0.311   17.138
  156.000   79.103    0.452    0.313   17.474
  156.250   79.752    0.442    0.311   17.485
  156.500   82.252    0.434    0.308   17.170
  156.750   83.518    0.430    0.304   15.640
  157.000   84.176    0.437    0.293   14.245
  157.250   85.426    0.448    0.255   12.499
  157.500   86.701    0.448    0.246   12.744
  157.750   84.267    0.443    0.239   13.750
  158.000   84.292    0.433    0.279   15.116
  158.250   90.499    0.427    0.292   15.700
  158.500   93.608    0.433    0.279   16.627
  158.750   97.974    0.460    0.282   16.948
  159.000  100.473    0.465    0.287   15.730
  159.250  102.965    0.450    0.294   12.098
  159.500  101.148    0.438    0.299    9.662
  159.750   91.931    0.435    0.294    9.850
  160.000   87.030    0.434    0.293   10.627
  160.250   91.380    0.433    0.291   11.464
  160.500   93.880    0.431    0.289   12.137
  160.750   95.763    0.430    0.285   12.375
  161.000   95.179    0.428    0.282   12.618
  161.250   89.662    0.425    0.280   12.390
  161.500   88.462    0.423    0.284   11.720
  161.750   88.503    0.418    0.285   11.083
  162.000   87.919    0.416    0.286   10.679
  162.250   85.485    0.453    0.286   10.101
  162.500   86.135    0.461    0.287    9.917
  162.750   89.251    0.446    0.288    9.560
  163.000   92.984    0.443    0.291    9.565
  163.250   97.342    0.476    0.297    9.218
  163.500  101.700    0.489    0.303    8.883
  163.750  102.950    0.491    0.308    8.561
  164.000  105.449    0.461    0.303    7.947
  164.250  107.957    0.452    0.273    7.105
  164.500  103.049    0.449    0.272    6.845
  164.750   96.915    0.464    0.273    7.111
  165.000   92.631    0.474    0.275    8.272
  165.250   96.364    0.481    0.283    9.093
  165.500  100.714    0.497    0.285    9.445
  165.750  105.680    0.515    0.286    9.453
  166.000  116.821    0.505    0.284    8.938
  166.250  118.088    0.497    0.279    7.411
  166.500  116.271    0.490    0.276    6.381
  166.750  115.079    0.487    0.281    5.493
  167.000  114.495    0.484    0.286    4.819
  167.250  113.911    0.483    0.292    4.474
  167.500  110.861    0.480    0.303    4.393
  167.750  107.811    0.474    0.309    4.313
  168.000  105.994    0.466    0.308    4.236
  168.250  104.785    0.459    0.308    4.238
  168.500  102.984    0.464    0.315    4.240
  168.750  103.001    0.470    0.310    4.324
  169.000  102.417    0.474    0.249    4.493
  169.250   99.984    0.475    0.239    4.847
  169.500   98.167    0.470    0.204    5.328
  169.750   97.583    0.457    0.208    5.968
  170.000   98.849    0.432    0.232    6.684
  170.250  101.965    0.426    0.272    7.487
  170.500  106.323    0.427    0.274    8.231
  170.750  106.348    0.434    0.274    8.082
  171.000  100.831    0.445    0.269    7.644
  171.250   92.856    0.454    0.268    7.649
  171.500   87.947    0.438    0.273    7.654
  171.750   91.680    0.420    0.279    7.658
  172.000   95.413    0.435    0.281    8.109
  172.250   95.454    0.444    0.284    8.265
  172.500  100.421    0.435    0.286    8.118
  172.750  105.395    0.421    0.272    7.676
  173.000  102.353    0.408    0.217    6.863
  173.250  101.136    0.400    0.190    6.867
  173.500   96.244    0.395    0.212    7.269
  173.750   93.186    0.385    0.234    8.455
  174.000   88.285    0.377    0.245   10.020
  174.250   87.085    0.308    0.257   12.801
  174.500   90.818    0.266    0.016   15.461
  174.750   90.851    0.241    0.094   16.365
  175.000   85.334    0.310    0.175   17.654
  175.250   73.650    0.380    0.213   18.000
  175.500   70.600    0.431    0.244   17.350
  175.750   86.666    0.469    0.274   17.040
  176.000   99.649    0.464    0.293   17.045
  176.250  104.623    0.451    0.305   17.058
  176.500   91.698    0.448    0.312   17.069
  176.750   82.481    0.461    0.324   16.455
  177.000   82.514    0.460    0.332   15.560
  177.250   85.022    0.457    0.332   14.992
  177.500   85.672    0.451    0.321   13.656
  177.750   84.472    0.452    0.308   13.412
  178.000   83.896    0.455    0.300   13.173
  178.250   81.462    0.451    0.292   13.177
  178.500   78.412    0.450    0.296   12.943
  178.750   79.053    0.447    0.297   12.949
  179.000   91.420    0.451    0.301   12.955
  179.250   76.669    0.459    0.302   12.963
  179.500   74.836    0.460    0.302   12.972
  179.750   65.002    0.454    0.300   12.980
  180.000   62.577    0.441    0.297   12.990
  180.250   65.685    0.432    0.297   12.998
  180.500   71.893    0.432    0.298   13.008
  180.750   73.167    0.445    0.299   13.012
  181.000   73.809    0.463    0.300   13.269
  181.250   77.542    0.467    0.306   13.277
  181.500   80.033    0.467    0.312   13.284
  181.750   85.624    0.465    0.314   12.805
