~VERSION INFORMATION
 VERS.                 2.0:   CWLS LOG ASCII STANDARD -VERSION 2.0
 WRAP.                  NO:   ONE LINE PER DEPTH STEP
~WELL INFORMATION BLOCK
#MNEM.UNIT           DATA                    DESCRIPTION OF MNEMONIC
#---------    -------------------            -------------------------------
# Generated from Intellog Unique Number	CC_84_87/WELL/2550
WELL.         ARCO ACT MCMURRAY              : Well_name    - WELL
LOC .         AA/15-29-084-12W4/0            : Location     - LOCATION
UWI .         AA/15-29-084-12W400            : Uwi          - UNIQUE WELL ID
ENTR.         DW                             : Entered      - ENTERED BY
SRVC.         SCHLUMBERGER                   : Scn          - SERVICE COMPANY
STRT.M        213.36                         : top_depth    - START DEPTH
STOP.M        286.36                         : bot_depth    - STOP DEPTH
STEP.M        0.25                           : increment    - STEP LENGTH
 NULL. -999.2500:NULL Value
~CURVE INFORMATION BLOCK
#MNEM UNIT       ERCB CURVE CODE    CURVE DESCRIPTION
#-----------   ------------------   ----------------------------------
DEPT.M        00 001 00 00         : DEPTH        - DEPTH
ILD .OHMM     00 120 00 00         : RESD         - DEEP RESISTIVITY (DIL)
NPHI.V/V      00 330 00 00         : PHIN         - NEUTRON POROSITY (SANDSTONE)
DPHI.V/V      00 890 00 00         : PHID         - DENSITY POROSITY (SANDSTONE)
GR  .API      00 310 00 00         : GR           - GAMMA RAY
~PARAMETER INFORMATION
#MNEM.UNIT           DATA             DESCRIPTION OF MNEMONIC
#---------         -----------     ------------------------------
GL  .M        558.119              : gl           - GROUND LEVEL ELEVATION
EREF.M        559.796              : kb           - ELEVATION OF DEPTH REFERENCE
DATM.M        559.796              : datum        - DATUM ELEVATION
TDD .M        288.646              : tdd          - TOTAL DEPTH DRILLER
RUN .         ONE                  : Run          - RUN NUMBER
ENG .         BILL                 : Engineer     - RECORDING ENGINEER
WIT .         JIM                  : Witness      - WITNESSED BY
MUD .         GEL                  : Mud_type     - MUD TYPE
MATR.         SANDSTONE            : Logunit      - NEUTRON MATRIX
TMAX.C        0                    : BHT          - MAXIMUM RECORDED TEMPERATURE
BHTD.M        288.646              : BHTDEP       - MAXIMUM RECORDED TEMPERATURE
MATR.         1                    : LOGUNIT      - NEUTRON MATRIX
RMT .C        25                   : MDTP         - TEMPERATURE OF MUD
NEUT.         1                    : NEUTRON      - NEUTRON TYPE
RESI.         0                    : RESIST       - RESISTIVITY TYPE
RMC .OHMM     0.25                 : RMC          - RESISTIVITY OF MUD CAKE
RMF .OHMM     0.25                 : RMF          - RESISTIVITY OF MUD FILTRATE
SUFT.C        15                   : SUFT         - SURFACE TEMPERATURE
~A  DEPTH     RESD     PHIN     PHID       GR
  213.360    7.277    0.331    0.004   98.521
  213.610    6.584    0.331    0.003   97.617
  213.860    5.786    0.331    0.002   96.479
  214.110    5.366    0.330    0.001   96.168
  214.360    5.353    0.324    0.002   96.101
  214.610    5.450    0.315    0.001   95.621
  214.860    5.615    0.310    0.000   95.665
  215.110    6.026    0.301    0.001   95.689
  215.360    6.546    0.287    0.002   95.786
  215.610    6.959    0.284    0.001   95.523
  215.860    7.246    0.296    0.001   95.159
  216.110    7.455    0.303    0.001   95.190
  216.360    7.471    0.298    0.001   94.683
  216.610    7.376    0.290    0.000   94.722
  216.860    7.253    0.284   -0.000   94.118
  217.110    7.184    0.278    0.000   93.358
  217.360    7.208    0.278   -0.000   93.549
  217.610    7.438    0.289   -0.000   93.563
  217.860    8.228    0.300   -0.000   93.064
  218.110    9.145    0.298    0.000   92.995
  218.360    9.752    0.291   -0.000   92.793
  218.610   10.174    0.257    0.000   92.374
  218.860   10.645    0.202   -0.000   91.097
  219.110   10.843    0.214   -0.000   85.482
  219.360   10.565    0.239    0.003   76.553
  219.610   10.332    0.274    0.008   72.701
  219.860    9.699    0.293    0.021   75.759
  220.110    8.757    0.277    0.035   81.825
  220.360    8.555    0.269    0.036   87.658
  220.610    8.202    0.269    0.046   88.385
  220.860    7.876    0.276    0.055   81.951
  221.110    7.796    0.287    0.069   81.964
  221.360    7.804    0.299    0.089   87.936
  221.610    7.825    0.310    0.116   89.952
  221.860    7.967    0.321    0.160   94.006
  222.110    7.776    0.327    0.186   95.279
  222.360    7.600    0.321    0.283   86.570
  222.610    7.483    0.327    0.373   84.115
  222.860    7.434    0.425    0.390   89.191
  223.110    7.694    0.566    0.410   85.089
  223.360    7.949    0.469    0.405   88.594
  223.610    8.093    0.420    0.350   83.592
  223.860    8.184    0.448    0.301   79.943
  224.110    7.739    0.516    0.306   85.798
  224.360    6.680    0.574    0.324   94.567
  224.610    5.932    0.493    0.290  101.719
  224.860    5.259    0.465    0.295   98.638
  225.110    4.754    0.459    0.313   90.716
  225.360    4.603    0.469    0.319   91.987
  225.610    4.914    0.512    0.327   99.536
  225.860    5.673    0.530    0.324  101.499
  226.110    6.548    0.469    0.264  107.668
  226.360    6.994    0.455    0.242  114.971
  226.610    7.124    0.453    0.258  120.605
  226.860    6.964    0.435    0.261  122.546
  227.110    6.513    0.431    0.246  121.870
  227.360    6.136    0.436    0.254  121.047
  227.610    5.938    0.449    0.288  113.985
  227.860    5.806    0.464    0.293  108.705
  228.110    5.852    0.456    0.287  106.778
  228.360    6.072    0.429    0.300  103.488
  228.610    6.374    0.409    0.308  101.212
  228.860    6.966    0.401    0.286  108.122
  229.110    7.816    0.421    0.271  113.415
  229.360    8.930    0.409    0.302  114.885
  229.610    9.783    0.358    0.293  113.239
  229.860   10.142    0.324    0.226  106.987
  230.110   10.459    0.331    0.224  101.152
  230.360   10.508    0.341    0.234  109.464
  230.610   10.357    0.350    0.249  114.896
  230.860   10.278    0.374    0.257  115.170
  231.110   10.310    0.396    0.250  115.910
  231.360   10.306    0.397    0.238  116.256
  231.610   10.303    0.405    0.233  112.427
  231.860   10.368    0.418    0.232  100.364
  232.110   10.059    0.426    0.245  103.008
  232.360    9.629    0.436    0.266  112.112
  232.610    9.091    0.458    0.272  112.057
  232.860    8.159    0.463    0.264  109.997
  233.110    7.893    0.414    0.277  102.206
  233.360    7.615    0.383    0.284   92.488
  233.610    7.770    0.367    0.292   86.908
  233.860    8.285    0.363    0.281   92.332
  234.110    8.880    0.381    0.251  104.920
  234.360   10.084    0.379    0.265  108.823
  234.610   10.261    0.374    0.269  106.657
  234.860   10.163    0.372    0.277   99.080
  235.110   10.176    0.365    0.281   90.564
  235.360    9.929    0.356    0.271   85.257
  235.610    9.482    0.356    0.267   80.845
  235.860    9.286    0.361    0.257   74.984
  236.110    9.620    0.364    0.263   75.299
  236.360   10.115    0.377    0.285   80.063
  236.610   10.588    0.394    0.303   79.477
  236.860   11.058    0.408    0.309   72.487
  237.110   11.391    0.418    0.311   72.026
  237.360   11.786    0.380    0.274   82.141
  237.610   11.842    0.359    0.241   87.999
  237.860   11.393    0.379    0.228   86.633
  238.110   10.631    0.406    0.225   88.447
  238.360    9.872    0.432    0.241   97.460
  238.610    9.423    0.461    0.283  103.264
  238.860    9.219    0.382    0.275  104.604
  239.110    9.251    0.338    0.253  103.752
  239.360    9.475    0.357    0.250   97.596
  239.610    9.781    0.347    0.249   87.822
  239.860   10.083    0.309    0.237   80.268
  240.110   10.294    0.257    0.210   68.040
  240.360   10.139    0.237    0.185   83.766
  240.610    9.700    0.275    0.171   97.618
  240.860    9.329    0.336    0.200   88.462
  241.110    9.241    0.366    0.260   83.248
  241.360    9.376    0.370    0.262   90.382
  241.610    9.655    0.382    0.266   94.180
  241.860    9.932    0.372    0.277   98.059
  242.110    9.879    0.360    0.285  100.740
  242.360    9.565    0.377    0.290   96.385
  242.610    9.286    0.402    0.298   89.455
  242.860    8.535    0.426    0.327   86.395
  243.110    7.727    0.426    0.357   83.469
  243.360    7.203    0.411    0.364   87.678
  243.610    6.262    0.425    0.350   95.910
  243.860    4.682    0.482    0.339   99.944
  244.110    3.890    0.537    0.352  106.938
  244.360    3.763    0.553    0.372  112.898
  244.610    3.513    0.497    0.335  117.033
  244.860    3.967    0.426    0.277  121.061
  245.110    5.191    0.389    0.253  121.732
  245.360    6.090    0.362    0.251  114.688
  245.610    7.676    0.353    0.269  106.158
  245.860    8.988    0.356    0.255  100.446
  246.110    9.576    0.365    0.228  100.494
  246.360   10.079    0.376    0.232   99.824
  246.610   10.650    0.372    0.250   96.123
  246.860   10.477    0.346    0.230   99.361
  247.110   10.143    0.333    0.218  102.069
  247.360    9.960    0.339    0.225  105.008
  247.610    9.808    0.348    0.237  109.986
  247.860    9.720    0.350    0.242  106.986
  248.110    9.904    0.355    0.236   92.614
  248.360   10.217    0.371    0.232   91.097
  248.610   10.438    0.417    0.226   97.567
  248.860   10.447    0.456    0.243  101.456
  249.110   10.131    0.457    0.271  101.920
  249.360    9.460    0.477    0.279  101.630
  249.610    8.766    0.549    0.262   99.123
  249.860    8.343    0.509    0.233   95.418
  250.110    6.320    0.475    0.353   90.350
  250.360    4.004    0.522    0.458   81.388
  250.610    3.149    0.581    0.475   68.586
  250.860    3.528    0.563    0.498   58.117
  251.110    4.849    0.481    0.400   56.438
  251.360    6.586    0.466    0.340   57.316
  251.610    8.279    0.500    0.320   59.136
  251.860    9.047    0.486    0.314   64.927
  252.110    8.928    0.438    0.334   73.445
  252.360    8.669    0.448    0.350   80.170
  252.610    7.196    0.468    0.310   88.238
  252.860    6.155    0.442    0.290   92.637
  253.110    5.885    0.459    0.294   83.458
  253.360    5.899    0.491    0.300   73.983
  253.610    6.112    0.457    0.313   82.113
  253.860    6.481    0.461    0.334   93.318
  254.110    7.104    0.454    0.350   97.169
  254.360    7.614    0.436    0.364   97.493
  254.610    7.764    0.453    0.382   86.404
  254.860    7.109    0.503    0.363   74.778
  255.110    5.515    0.544    0.287   87.554
  255.360    4.405    0.578    0.279   99.808
  255.610    3.899    0.513    0.308  105.617
  255.860    3.742    0.436    0.323  108.746
  256.110    3.876    0.414    0.324  109.172
  256.360    4.191    0.406    0.296  105.625
  256.610    4.383    0.401    0.208  102.548
