~Version : LASO    vs 4.00
VERS.                2.00:   CWLS Log ASCII Standard -VERSION 2.0
WRAP.                  NO:
~Well Information Block
#MNEM.UNIT       Data                        Description of Mnemonic
#----.----      -------------------------- : -----------------------------
STRT.M            21.0000:
STOP.M           215.4000:
STEP.M             0.2000:
NULL.           -999.2500:
COMP.  MOBIL OIL CANADA                 :COMPANY
WELL.  MOBIL CLARKE OV PROG. 2-81       :WELL
FLD.                                    :FIELD
LOC.   13-28-089-07W4                   :LOCATION
CTRY.  CANADA                           :COUNTRY
PROV.  ALBERTA                          :PROVINCE
SRVC.  SCHLUMBERGER                     :SERVICE COMPANY
DATE.  31-JAN-81                        :LOG DATE
UWI.   AA/13-28-089-07W400              :UNIQUE WELL ID
~Parameter Information Block
#MNEM.UNIT       Data                        Description of Mnemonic
#----.----      -------------------------- : -----------------------------
RUN .                   1                 : Run Number
GL  .M           458.5000                 : Ground Level Elevation
DREF.                  GD                 : Depth Reference
EREF.M           458.5000                 : Elevation of Depth Reference
TDL .M           216.0000                 : Total Depth Logger
TDD .M           216.0000                 : Total Depth Driller
CSGL.M            22.0000                 : Casing Bottom Logger
CSGD.M            22.0000                 : Casing Bottom Driller
CSGS.MM          219.0000                 : Casing Size
CSGW.KG/M          0.0000                 : Casing Weight
BHT .DEGC         12.0000                 : Bottom Hole Temperature
BS  .MM          171.0000                 : Bit Size
DFD .           9999.0000                 : Mud Weight (Density)
DFV .             45.0000                 : Mud Viscosity
DFPH.             11.0000                 : Mud pH
RM  .OHMM          5.7400                 : Mud Resistivity
RMT .DEGC         12.0000                 : Mud Resistivity Temperature
~Curve Information Block
#MNEM.UNIT        API CODE    Curve Description
#---------    ------------    -------------------------------------------
DEPT.M                    :   DEPTH
CALI.MM       42 280  1  1:   3 DENSITY CALIPER
DPHI.V/V                  :   DPHI
DT  .US/M     60 520  0  1:   2 SONIC INTERVAL TRANSIT TIME (COMPENSATED)
GR  .GAPI     42 310  1  1:   4 GAMMA RAY
ILD .OHMM      5 120 46  1:   7 DEEP INDUCTION
ILM .OHMM      5 120 44  1:   8 MEDIUM INDUCTION
NPHI.V/V      42 890  3  1:   5 NEUTRON POROSITY (SANDSTONE)
RHOB.K/M3     42 350  1  1:   6 BULK DENSITY
SFLU.OHMM      5 220  1  1:   9 FOCUSSED RESISTIVITY
SP  .MV        5  10  1  1:   10 SPONTANEOUS POTENTIAL
~A  Depth           CALI        DPHI          DT          GR         ILD         ILM        NPHI        RHOB        SFLU          SP
# ...
69.8000         197.5000      0.2153    526.1200    112.1550      7.8674      7.3626      0.5165   2339.5000      7.6812    -68.1750
70.0000         197.9500      0.2122    528.9200    112.0650      7.5828      7.1028      0.5180   2334.1001      7.4719    -68.4150
70.2000         198.4000      0.2083    533.1600    112.0950      7.4444      6.9732      0.5175   2324.8000      7.0054    -67.9200
70.4000         199.2750      0.2005    536.1600    111.7950      7.0442      6.7209      0.5112   2316.3000      6.5077    -67.1700
70.6000         199.7250      0.1936    535.2800    111.3000      6.9156      6.5378      0.5049   2335.5000      6.5680    -67.1700
70.8000         199.6250      0.1859    534.4400    111.7350      6.7894      6.3013      0.4985   2335.1001      6.4481    -67.1700
71.0000         199.2000      0.1824    531.4400    113.9250      6.6655      6.3013      0.5031   2341.3000      6.1522    -67.1700
71.2000         198.3500      0.1831    530.6000    113.6550      6.5438      6.1863      0.5077   2353.5000      6.4481    -67.4250
71.4000         197.5000      0.1878    529.7600    113.3100      6.4244      6.0734      0.5111   2359.5000      6.8144    -67.9200
71.6000         196.3000      0.1897    532.7200    114.5850      6.0790      5.7469      0.5216   2343.0000      6.4481    -68.4150
71.8000         195.7500      0.1948    535.7200    115.5300      5.9680      5.5902      0.5225   2339.8999      6.1522    -68.4150
72.0000         195.5500      0.2008    536.1600    115.6800      5.8591      5.3880      0.5198   2345.8999      5.9297    -68.1750
72.2000         196.6250      0.2108    537.4400    113.4750      5.6994      5.1931      0.5212   2317.6001      5.0238    -67.4250
72.4000         197.1500      0.2125    535.2800    111.5250      5.6994      5.2412      0.5242   2305.5000      4.8421    -67.6800
72.6000         197.2000      0.2152    534.0000    109.3200      5.7521      5.3386      0.5233   2306.2000      5.0703    -67.9200
72.8000         197.1750      0.2102    533.6000    105.3450      6.0232      5.5902      0.5063   2299.3000      6.5077    -68.1750
73.0000         197.2250      0.2026    535.7200    103.8900      6.2493      5.8000      0.5129   2295.3000      6.5680    -68.4150
73.2000         197.4250      0.2032    537.4400    103.0050      6.6043      6.0734      0.5161   2309.0000      6.6901    -68.4150
73.4000         197.6500      0.2031    536.5600    102.3450      6.9796      6.4778      0.5147   2308.5000      6.6287    -68.4150
73.6000         198.4250      0.2069    523.8000    101.4300      7.5828      7.2951      0.5026   2314.0000      8.3451    -68.9250
73.8000         197.6250      0.2125    518.6801    101.9850      7.9402      7.4995      0.5079   2312.1001      9.4936    -69.6600
74.0000         196.5750      0.2206    518.2400    102.3000      8.2382      7.8529      0.5100   2304.3000      9.0663    -69.9150
74.2000         194.6500      0.2201    520.1600    102.8850      8.6264      8.4534      0.5095   2311.1001      9.4065    -70.4100
74.4000         193.6750      0.2089    517.2000    101.0400      8.3913      8.3759      0.5089   2358.3000     10.7110    -70.9050
74.6000         192.6750      0.2018    514.4000     99.7800      8.0878      7.9989      0.5105   2345.1001     10.9101    -71.1600
74.8000         189.3250      0.1989    521.6400    102.0600      7.2415      6.8459      0.5244   2315.6001      8.4223    -71.9100
75.0000         187.8500      0.2097    525.9200    103.6500      6.8522      6.3013      0.5323   2306.3000      7.2683    -71.4000
75.2000         186.7250      0.2087    526.7600    105.3600      6.5438      5.8537      0.5342   2299.3000      6.2091    -71.1600
75.4000         189.2250      0.2219    526.7600    105.5250      5.9133      5.4882      0.5297   2296.8000      5.1645    -70.6650
75.6000         191.4750      0.2188    527.6400    104.6250      5.7521      5.2897      0.5324   2300.6001      5.7152    -70.6650
75.8000         191.7250      0.2129    526.5600    104.8350      5.6472      5.2412      0.5360   2321.8000      5.8214    -70.9050
76.0000         191.1750      0.2155    523.5600    106.1550      5.6472      5.2412      0.5389   2296.6001      5.5085    -71.4000
76.2000         191.7250      0.2176    523.8000    105.4050      5.6472      5.2897      0.5315   2285.8999      5.7681    -71.6550
76.4000         192.9250      0.2212    525.4800    103.5000      5.6994      5.3880      0.5296   2286.8999      6.3304    -71.9100
76.6000         194.3500      0.2285    526.3600    102.1200      5.7521      5.3880      0.5336   2304.1001      6.4481    -71.6550
76.8000         196.2500      0.2210    529.3200    100.8150      5.8591      5.4882      0.5515   2280.3000      5.7681    -70.6650
77.0000         196.5500      0.2122    531.8800    101.2350      5.9680      5.5902      0.5578   2267.7000      5.6628    -70.4100
77.2000         196.4750      0.2072    532.3200    101.6550      6.0790      5.6942      0.5570   2307.3999      5.9845    -70.6650
77.4000         194.3500      0.2148    531.6801    104.6850      6.3071      6.0177      0.5314   2299.7000      5.9845    -71.1600
77.6000         193.2750      0.2159    528.9200    105.5850      6.4244      6.2435      0.5252   2288.1001      6.7520    -70.9050
77.8000         192.1750      0.2078    527.2000    106.4400      6.5438      6.3013      0.5202   2276.7000      7.6108    -70.9050
78.0000         194.8000      0.2024    524.6400    101.4150      6.7894      6.3013      0.5244   2319.1001      7.3355    -70.6650
78.2000         196.3500      0.2181    523.8000     98.7750      6.9156      6.3596      0.5312   2303.3000      6.8775    -70.9050
78.4000         197.8500      0.2113    522.2800     96.3000      7.0442      6.5378      0.5314   2287.8999      6.4481    -70.9050
78.6000         198.4500      0.1995    520.3600     92.5050      7.3085      6.9732      0.5096   2273.0000      7.0054    -71.1600
78.8000         198.7500      0.2005    512.4800     91.9650      7.4444      7.2349      0.5063   2324.2000      7.9695    -71.4000
79.0000         199.3000      0.2060    500.1200     92.5200      7.5828      7.3626      0.5080   2330.8999      8.9832    -71.9100
79.2000         198.0750      0.2055    493.5200     93.2400      7.9402      7.5689      0.5281   2314.7000      9.1502    -72.6450
79.4000         196.2750      0.2100    496.9600     93.2400      8.0136      7.7809      0.5325   2294.1001      8.8192    -72.9000
79.6000         194.0000      0.2173    511.0000     93.2550      8.0136      7.7809      0.5282   2284.8999      9.3203    -72.6450
79.8000         191.8250      0.2271    527.6400     93.4800      7.8674      7.7096      0.5171   2272.2000      9.4936    -72.4050
80.0000         193.3500      0.2356    530.6000     95.3550      7.5133      7.2951      0.5128   2251.8000      8.7384    -72.4050
80.2000         199.7250      0.2318    522.7200     96.8400      7.3762      7.0377      0.5090   2263.5000      8.1176    -72.9000
80.4000         194.0250      0.2254    510.8000     99.4050      7.2415      6.8459      0.5119   2310.0000      7.3355    -72.9000
80.6000         189.5000      0.2215    502.2400    101.8500      6.7271      6.4778      0.5327   2314.7000      6.9411    -72.1500
80.8000         190.5000      0.2186    505.0400    102.2550      6.4244      6.2435      0.5320   2361.1001      7.2016    -72.1500
81.0000         191.8750      0.2147    508.0400    102.6600      6.1352      5.9079      0.5312   2356.3000      7.2683    -71.9100
81.2000         194.5750      0.2120    517.6000    104.0100      5.8591      5.2897      0.5180   2345.5000      5.8753    -71.1600
81.4000         195.7000      0.2217    523.1600    105.2100      5.8591      5.1931      0.5008   2335.1001      4.9777    -70.9050
81.6000         196.2750      0.2231    524.4400    105.4800      5.9680      5.2897      0.5129   2314.5000      4.5397    -70.9050
81.8000         197.4250      0.2218    524.4400    101.2650      6.3071      5.9625      0.5122   2292.6001      5.4580    -70.9050
