~VERSION INFORMATION
 VERS.                 2.0:   CWLS LOG ASCII STANDARD -VERSION 2.0
 WRAP.                  NO:   ONE LINE PER DEPTH STEP
~WELL INFORMATION BLOCK
#MNEM.UNIT           DATA                    DESCRIPTION OF MNEMONIC
#---------    -------------------            -------------------------------
# Generated from Intellog Unique Number	CN_94_101/WELL/3224
WELL.         12-32-096-07W4                 : Well_name    - WELL
LOC .         AA/12-32-096-07W4/0            : Location     - LOCATION
UWI .         AA/12-32-096-07W400            : Uwi          - UNIQUE WELL ID
ENTR.         JOETTE                         : Entered      - ENTERED BY
SRVC.         SCHLUMBERGER                   : Scn          - SERVICE COMPANY
DATE.         07/20/92                       : Date         - LOG DATE
STRT.F        10                             : top_depth    - START DEPTH
STOP.F        320.039                        : bot_depth    - STOP DEPTH
STEP.F        0.8202                         : increment    - STEP LENGTH
 NULL. -999.2500:NULL Value
~CURVE INFORMATION BLOCK
#MNEM UNIT       ERCB CURVE CODE    CURVE DESCRIPTION
#-----------   ------------------   ----------------------------------
DEPT.F        00 001 00 00         : DEPTH        - DEPTH
GR  .API      00 310 00 00         : GR           - GAMMA RAY
ILD .OHMM     00 120 00 00         : RESD         - DEEP RESISTIVITY (DIL)
DPHI.V/V      00 890 00 00         : PHID         - DENSITY POROSITY (SANDSTONE)
~PARAMETER INFORMATION
#MNEM.UNIT           DATA             DESCRIPTION OF MNEMONIC
#---------         -----------     ------------------------------
GL  .M        332.171              : gl           - GROUND LEVEL ELEVATION
EREF.M        332.171              : kb           - ELEVATION OF DEPTH REFERENCE
DATM.M        332.171              : datum        - DATUM ELEVATION
TDD .M        102.718              : tdd          - TOTAL DEPTH DRILLER
RUN .         ONE                  : Run          - RUN NUMBER
ENG .         BILL                 : Engineer     - RECORDING ENGINEER
WIT .         JIM                  : Witness      - WITNESSED BY
MUD .         GEL                  : Mud_type     - MUD TYPE
MATR.         SANDSTONE            : Logunit      - NEUTRON MATRIX
TMAX.F        73.4                 : BHT          - MAXIMUM RECORDED TEMPERATURE
BHTD.F        337                  : BHTDEP       - MAXIMUM RECORDED TEMPERATURE
RMT .F        57.92                : MDTP         - TEMPERATURE OF MUD
MUDD.LB/G     1.1                  : MWT          - MUD DENSITY
NEUT.         1                    : NEUTRON      - NEUTRON TYPE
RESI.         0                    : RESIST       - RESISTIVITY TYPE
RM  .OHMM     4.51                 : RM           - RESISTIVITY OF MUD
RMC .OHMM     5.23                 : RMC          - RESISTIVITY OF MUD CAKE
RMF .OHMM     5.23                 : RMF          - RESISTIVITY OF MUD FILTRATE
SUFT.F        39.2                 : SUFT         - SURFACE TEMPERATURE
~A  DEPTH       GR     RESD     PHID
   10.000   49.008 1992.680    0.490
   10.820   52.247 1998.470    0.481
   11.640   42.739 2003.120    0.471
   12.461   36.031 1933.860    0.464
   13.281   32.121 1834.960    0.467
   14.101   33.370 1943.990    0.470
   14.921   32.616 1947.370    0.478
   15.742   30.284 1953.030    0.466
   16.562   28.762 1885.500    0.449
   17.382   28.022 1926.230    0.433
   18.202   26.500 2039.490    0.415
   19.022   25.732 2203.490    0.410
   19.843   25.389 2291.700    0.436
   20.663   27.050 2339.830    0.449
   21.483   28.683 2217.600    0.400
   22.303   28.354 1185.730    0.377
   23.123   25.213  209.136    0.374
   23.944   27.669   20.044    0.435
   24.764   29.316   19.019    0.447
   25.584   28.576   18.361    0.428
   26.404   25.846   17.094    0.378
   27.224   25.504   15.923    0.354
   28.045   27.974   14.823    0.337
   28.865   28.002   13.540    0.331
   29.685   27.262   12.374    0.336
   30.505   26.137   44.398    0.370
   31.326   25.795  123.008    0.381
   32.146   27.442  340.804    0.433
   32.966   28.293  367.782    0.456
   33.786   26.373  284.662    0.475
   34.606   25.235  324.881    0.485
   35.426   26.086  313.648    0.498
   36.247   26.141  184.032    0.506
   37.067   26.183  194.966    0.477
   37.887   27.830  222.383    0.407
   38.707   33.469  244.601    0.389
   39.528   32.331  227.582    0.368
   40.348   28.024  193.185    0.372
   41.168   26.886  186.613    0.424
   41.988   28.930  197.701    0.449
   42.808   31.757  213.474    0.468
   43.629   36.601  217.958    0.471
   44.449   40.251  203.028    0.393
   45.269   39.511  182.264    0.317
   46.089   38.770  179.137    0.265
   46.910   39.238  157.783    0.239
   47.730   40.871  131.409    0.230
   48.550   38.539   94.468    0.215
   49.370   38.992   73.118    0.244
   50.190   41.449  106.027    0.271
   51.011   44.701  110.336    0.319
   51.831   46.732   98.994    0.380
   52.651   48.777   92.213    0.434
   53.471   44.854   87.396    0.450
   54.291   44.525  109.328    0.442
   55.111   44.992  167.662    0.389
   55.932   44.622  150.427    0.364
   56.752   41.892  125.282    0.345
   57.572   37.969  112.404    0.339
   58.392   38.820  119.152    0.310
   59.213   40.865  146.326    0.301
   60.033   40.920  220.423    0.298
   60.853   38.602  229.247    0.292
   61.673   36.257  209.394    0.285
   62.493   34.721  156.194    0.298
   63.314   32.403  132.510    0.313
   64.134   33.240  132.818    0.303
   64.954   36.094  135.686    0.292
   65.774   37.755  124.007    0.304
   66.594   33.022  109.161    0.347
   67.415   31.884  124.585    0.320
   68.235   32.735  115.983    0.281
   69.055   34.780   83.331    0.278
   69.875   38.416   81.996    0.275
   70.695   41.682  182.026    0.268
   71.516   37.745  200.329    0.295
   72.336   35.400  186.282    0.318
   73.156   33.068  197.350    0.344
   73.976   29.954  197.808    0.374
   74.797   28.816  177.475    0.411
   75.617   29.667  162.294    0.414
   76.437   31.712  258.102    0.421
   77.257   34.168  335.213    0.429
   78.077   33.016  375.575    0.409
   78.898   33.881  160.811    0.403
   79.718   37.518  208.734    0.402
   80.538   37.175  271.096    0.416
   81.358   33.238  385.920    0.402
   82.178   29.713  366.184    0.410
   82.999   30.180  244.361    0.422
   83.819   29.028  135.573    0.398
   84.639   23.911  204.107    0.401
   85.459   21.195  269.869    0.426
   86.279   22.032  414.103    0.438
   87.100   24.475  407.472    0.451
   87.920   26.945  352.128    0.446
   88.740   24.600  310.151    0.419
   89.560   21.060  340.940    0.416
   90.381   18.331  411.274    0.410
   91.201   17.590  574.759    0.401
   92.021   17.646 1040.790    0.394
   92.841   19.320 1402.590    0.389
   93.661   20.569  869.333    0.375
   94.482   22.216  737.941    0.364
   95.302   22.272 1174.940    0.358
   96.122   21.532 1134.310    0.364
   96.942   21.971  595.409    0.369
   97.763   25.223  219.928    0.371
   98.583   30.451   79.796    0.403
   99.403   35.707   65.317    0.398
  100.223   38.136   56.413    0.386
  101.043   49.359   65.583    0.382
  101.864   54.189   98.736    0.379
  102.684   49.470  130.549    0.352
  103.504   39.167  175.930    0.340
  104.324   34.036  204.529    0.347
  105.144   29.317  228.890    0.371
  105.965   25.407  314.206    0.402
  106.785   24.255 2738.310    0.428
  107.605   21.128 1827.320    0.428
  108.425   19.208 1198.490    0.428
  109.245   21.239  844.834    0.428
  110.066   24.477  596.577    0.421
  110.886   28.525  555.067    0.400
  111.706   30.584  331.561    0.398
  112.526   28.650  547.448    0.396
  113.346   26.304 1964.190    0.392
  114.167   22.381 3365.130    0.387
  114.987   18.855 2909.750    0.383
  115.807   19.309 1941.730    0.388
  116.627   23.357  982.275    0.394
  117.448   22.616  746.367    0.394
  118.268   21.478 1851.010    0.389
  119.088   21.931  837.693    0.384
  119.908   23.194  226.060    0.376
  120.728   22.440  767.371    0.373
  121.549   20.095 2375.150    0.372
  122.369   19.354 1247.460    0.371
  123.189   19.821  912.967    0.378
  124.009   17.092 1041.350    0.386
  124.829   15.940 2731.260    0.401
  125.650   18.396 3113.540    0.399
  126.470   19.247 2742.380    0.392
  127.290   18.521  873.855    0.388
  128.110   18.178 1801.780    0.396
  128.930   19.427 2614.250    0.406
  129.751   29.046 2137.430    0.410
  130.571   37.855 1428.000    0.415
  131.391   41.107 1145.520    0.417
  132.211   48.736  177.546    0.412
  133.031   53.566   98.503    0.385
  133.852   62.786   68.285    0.352
  134.672   62.444   72.342    0.327
  135.492   59.316   67.348    0.321
  136.312   54.583  109.102    0.307
  137.133   49.864  229.014    0.306
  137.953   50.318  314.377    0.311
  138.773   58.344  180.980    0.259
  139.593   66.371  114.329    0.248
  140.413   68.018   96.993    0.236
  141.234   62.105   93.694    0.261
  142.054   62.573  128.617    0.282
  142.874   59.431  141.466    0.296
  143.694   59.089  155.510    0.297
  144.514   58.348  142.125    0.272
  145.335   58.802  104.016    0.295
  146.155   63.632  120.854    0.304
  146.975   68.873  165.901    0.302
  147.795   68.133  148.848    0.292
  148.615   63.812   99.329    0.284
  149.436   60.670   70.100    0.282
  150.256   63.525   86.087    0.275
  151.076   67.559  116.013    0.265
  151.896   74.790  100.314    0.266
  152.717   75.641   63.334    0.289
  153.537   76.095   68.347    0.305
  154.357   80.156   63.629    0.317
  155.177   80.994   52.053    0.311
  155.997   79.060   55.146    0.302
  156.818   74.739   83.023    0.291
  157.638   66.823   91.265    0.296
  158.458   62.501  106.100    0.297
  159.278   60.184   88.416    0.290
  160.098   65.000   67.143    0.281
  160.919   71.435   54.960    0.289
  161.739   70.695   76.808    0.305
  162.559   60.391   84.432    0.306
  163.379   58.059   98.100    0.303
  164.199   56.921  103.929    0.320
  165.020   56.579   83.467    0.325
  165.840   55.043   80.674    0.321
  166.660   52.725  102.800    0.327
  167.480   50.023  130.995    0.334
  168.301   49.241  138.778    0.340
  169.121   46.909  144.417    0.351
  169.941   44.179  229.672    0.356
  170.761   41.436  448.036    0.355
  171.581   36.730  560.469    0.361
  172.402   35.976  263.342    0.372
  173.222   40.024  211.493    0.379
  174.042   42.467  169.755    0.382
  174.862   44.114  488.013    0.346
  175.682   42.578  599.658    0.351
  176.503   36.267 1106.750    0.360
  177.323   31.150  711.366    0.363
  178.143   35.185  457.762    0.377
  178.963   38.423  289.011    0.376
  179.783   40.880  629.482    0.355
  180.604   37.738  619.762    0.353
  181.424   37.396  413.578    0.357
  182.244   41.842  281.132    0.355
  183.064   43.502  217.595    0.342
  183.885   47.537  206.467    0.334
  184.705   43.599  206.827    0.332
  185.525   38.085  189.025    0.334
  186.345   34.957  200.256    0.340
  187.165   34.217  324.598    0.355
