~VERSION INFORMATION
 VERS.                 2.0:   CWLS LOG ASCII STANDARD -VERSION 2.0
 WRAP.                  NO:   ONE LINE PER DEPTH STEP
~WELL INFORMATION BLOCK
#MNEM.UNIT           DATA                    DESCRIPTION OF MNEMONIC
#---------    -------------------            -------------------------------
# Generated from Intellog Unique Number	CW_82_90/WELL/773
WELL.         PHILLIPS ET AL GRANOR OV 10-14 : Well_name    - WELL
LOC .         AA/10-14-084-19W4/0            : Location     - LOCATION
UWI .         AA/10-14-084-19W400            : Uwi          - UNIQUE WELL ID
ENTR.         JAYE                           : Entered      - ENTERED BY
SRVC.         SCHLUMBERGER                   : Scn          - SERVICE COMPANY
DATE.         22 JAN 81                      : Date         - LOG DATE
STRT.M        190                            : top_depth    - START DEPTH
STOP.M        350                            : bot_depth    - STOP DEPTH
STEP.M        0.25                           : increment    - STEP LENGTH
 NULL. -999.2500:NULL Value
~CURVE INFORMATION BLOCK
#MNEM UNIT       ERCB CURVE CODE    CURVE DESCRIPTION
#-----------   ------------------   ----------------------------------
DEPT.M        00 001 00 00         : DEPTH        - DEPTH
CALI.MM       00 280 01 00         : CAL          - CALIPER
GR  .API      00 310 00 00         : GR           - GAMMA RAY
NPHI.V/V      00 330 00 00         : PHIN         - NEUTRON POROSITY (SANDSTONE)
DPHI.V/V      00 890 00 00         : PHID         - DENSITY POROSITY (SANDSTONE)
ILD .OHMM     00 120 00 00         : RESD         - DEEP RESISTIVITY (DIL)
~PARAMETER INFORMATION
#MNEM.UNIT           DATA             DESCRIPTION OF MNEMONIC
#---------         -----------     ------------------------------
GL  .M        599.7                : gl           - GROUND LEVEL ELEVATION
EREF.M        602.32               : kb           - ELEVATION OF DEPTH REFERENCE
DATM.M        599.7                : datum        - DATUM ELEVATION
TDD .M        349                  : tdd          - TOTAL DEPTH DRILLER
RUN .         ONE                  : Run          - RUN NUMBER
ENG .         SALSMAN              : Engineer     - RECORDING ENGINEER
WIT .         CRIPPS/HAYES         : Witness      - WITNESSED BY
BASE.         EDMONTON             : Branch       - HOME BASE OF LOGGING UNIT
MUD .         GEL CHEM             : Mud_type     - MUD TYPE
MATR.         SANDSTONE            : Logunit      - NEUTRON MATRIX
TMAX.C        0                    : BHT          - MAXIMUM RECORDED TEMPERATURE
BHTD.M        349                  : BHTDEP       - MAXIMUM RECORDED TEMPERATURE
RMT .C        10                   : MDTP         - TEMPERATURE OF MUD
MUDD.KG/M     1110                 : MWT          - MUD DENSITY
NEUT.         1                    : NEUTRON      - NEUTRON TYPE
RESI.         0                    : RESIST       - RESISTIVITY TYPE
RM  .OHMM     1.97                 : RM           - RESISTIVITY OF MUD
RMC .OHMM     0                    : RMC          - RESISTIVITY OF MUD CAKE
RMF .OHMM     1.72                 : RMF          - RESISTIVITY OF MUD FILTRATE
SUFT.C        0                    : SUFT         - SURFACE TEMPERATURE
~A  DEPTH      CAL       GR     PHIN     PHID     RESD
# ...
  226.500  215.600   59.477    0.509    0.315   14.670
  226.750  217.147   55.019    0.503    0.326   15.027
  227.000  217.026   53.948    0.494    0.338   15.292
  227.250  216.694   56.128    0.490    0.325   13.296
  227.500  215.648   59.578    0.495    0.324   11.259
  227.750  214.697   59.622    0.491    0.345   11.268
  228.000  214.463   59.550    0.488    0.345   11.855
  228.250  212.035   62.427    0.498    0.353   12.221
  228.500  207.441   64.545    0.502    0.336   10.645
  228.750  200.957   65.359    0.501    0.322    7.864
  229.000  196.048   65.590    0.498    0.338    6.416
  229.250  194.670   64.268    0.495    0.341    6.803
  229.500  194.236   64.384    0.484    0.325    7.462
  229.750  194.443   68.321    0.486    0.304    8.242
  230.000  194.521   69.196    0.498    0.300    9.472
  230.250  195.764   68.749    0.501    0.301   10.662
  230.500  199.606   68.798    0.494    0.284   12.004
  230.750  203.128   68.039    0.482    0.273   13.717
  231.000  207.189   64.900    0.486    0.277   15.211
  231.250  209.986   62.008    0.488    0.267   16.808
  231.500  212.362   58.744    0.470    0.246   17.824
  231.750  214.428   56.301    0.439    0.239   16.547
  232.000  215.874   57.664    0.436    0.252   15.160
  232.250  216.591   56.217    0.432    0.224   14.286
  232.500  217.211   54.709    0.413    0.202   13.693
  232.750  217.196   55.384    0.434    0.221   13.367
  233.000  216.873   65.961    0.467    0.225   13.128
  233.250  216.535   65.517    0.488    0.236   13.087
  233.500  216.318   61.935    0.512    0.302   12.989
  233.750  215.977   58.607    0.492    0.332   12.758
  234.000  215.856   55.657    0.484    0.340   12.598
  234.250  216.059   55.278    0.482    0.341   12.417
  234.500  216.567   56.458    0.490    0.343   12.280
  234.750  217.074   57.514    0.502    0.335   12.289
  235.000  217.258   57.441    0.492    0.345   12.599
  235.250  217.658   55.926    0.493    0.350   12.819
  235.500  217.972   56.293    0.493    0.336   13.265
  235.750  218.168   60.371    0.477    0.327   13.697
  236.000  218.239   58.789    0.454    0.340   14.150
  236.250  217.391   56.832    0.460    0.354   14.864
  236.500  215.813   54.953    0.481    0.350   16.241
  236.750  212.562   54.375    0.488    0.350   17.841
  237.000  209.319   56.433    0.501    0.341   19.415
  237.250  207.213   57.930    0.496    0.329   20.633
  237.500  208.032   56.164    0.472    0.320   20.636
  237.750  210.734   54.847    0.425    0.288   19.342
  238.000  213.852   55.024    0.393    0.244   16.820
  238.250  215.408   55.831    0.345    0.097   14.347
  238.500  215.896   56.446    0.209    0.034   10.939
  238.750  216.210   56.687    0.242    0.112    9.877
  239.000  216.073   56.365    0.310    0.171    9.898
  239.250  210.947   56.179    0.385    0.245   10.133
  239.500  203.749   57.539    0.474    0.311   10.285
  239.750  206.768   60.107    0.512    0.345   10.394
  240.000  211.117   61.467    0.522    0.346   10.539
  240.250  216.434   60.654    0.509    0.338   10.603
  240.500  218.391   59.583    0.498    0.330   10.639
  240.750  219.620   59.255    0.500    0.334   10.470
  241.000  219.811   59.751    0.509    0.331   10.105
  241.250  219.081   59.926    0.514    0.327    9.244
  241.500  217.394   59.479    0.528    0.328    8.580
  241.750  216.022   61.852    0.530    0.332    8.193
  242.000  215.166   60.023    0.522    0.331    8.093
  242.250  215.052   61.395    0.502    0.330    8.155
  242.500  216.281   64.767    0.493    0.324    8.218
  242.750  219.183   67.075    0.495    0.318    8.331
  243.000  223.656   68.009    0.481    0.302    8.400
  243.250  225.198   67.624    0.478    0.288    8.187
  243.500  226.124   65.927    0.489    0.295    7.742
  243.750  226.947   63.285    0.510    0.323    7.253
  244.000  227.558   63.601    0.512    0.323    6.992
  244.250  227.960   67.656    0.503    0.309    6.996
  244.500  228.276   70.778    0.499    0.296    7.104
  244.750  228.239   73.960    0.499    0.267    7.419
  245.000  227.603   74.953    0.496    0.255    8.497
  245.250  226.743   73.447    0.488    0.241   10.216
  245.500  222.874   71.620    0.485    0.243   14.310
  245.750  218.169   67.479    0.468    0.241   17.825
  246.000  219.195   63.215    0.455    0.229   20.219
  246.250  221.364   60.136    0.435    0.195   20.728
  246.500  220.522   57.059    0.269    0.051   20.426
  246.750  215.711   54.923    0.224    0.026   20.473
  247.000  218.417   53.099    0.247    0.073   20.220
  247.250  224.543   51.395    0.270    0.100   18.489
  247.500  225.566   48.758    0.247    0.099   14.942
  247.750  223.578   46.119    0.205    0.064   13.287
  248.000  220.112   45.374    0.184    0.056   12.314
  248.250  213.323   46.856    0.281    0.130   11.710
  248.500  208.620   51.674    0.385    0.199   11.061
  248.750  210.159   55.604    0.457    0.288   10.793
  249.000  213.939   59.730    0.473    0.310   10.486
  249.250  215.887   61.160    0.468    0.308   10.391
  249.500  217.527   61.280    0.479    0.303   10.341
  249.750  218.244   60.458    0.484    0.305   10.380
  250.000  218.850   59.450    0.489    0.300   10.526
  250.250  219.352   60.069    0.494    0.313   10.812
  250.500  218.929   60.305    0.521    0.326   10.974
  250.750  218.174   59.922    0.517    0.336   11.170
  251.000  217.332   61.429    0.508    0.328   11.297
  251.250  216.474   61.664    0.508    0.323   11.420
  251.500  216.040   61.340    0.478    0.323   11.422
  251.750  216.032   60.014    0.461    0.314   11.449
  252.000  216.328   56.694    0.472    0.314   11.493
  252.250  216.626   55.304    0.483    0.317   11.615
  252.500  216.396   55.239    0.479    0.324   11.657
  252.750  215.658   56.165    0.480    0.326   11.616
  253.000  215.014   57.786    0.479    0.323   11.626
  253.250  213.639   59.405    0.451    0.311   11.608
  253.500  211.547   60.835    0.483    0.319   11.553
  253.750  208.197   62.207    0.481    0.319   11.514
  254.000  203.696   62.949    0.466    0.310   11.480
  254.250  197.733   62.748    0.469    0.307   11.461
  254.500  192.498   61.054    0.508    0.318   11.421
  254.750  196.690   60.232    0.541    0.312   11.404
  255.000  199.143   60.974    0.530    0.305   11.272
  255.250  197.989   62.721    0.507    0.310   11.168
  255.500  197.464   62.901    0.491    0.322   11.025
  255.750  201.716   61.699    0.487    0.312   10.826
  256.000  201.588   61.124    0.491    0.286   10.568
  256.250  203.148   62.630    0.483    0.302   10.245
  256.500  203.537   63.237    0.473    0.304    9.896
  256.750  198.845   62.167    0.490    0.292    9.731
  257.000  202.381   61.342    0.486    0.294    9.645
  257.250  207.974   63.467    0.471    0.318    9.561
  257.500  217.136   63.455    0.473    0.313    9.507
  257.750  220.774   60.882    0.487    0.316    9.354
  258.000  222.766   61.062    0.483    0.309    9.308
  258.250  223.255   61.868    0.469    0.311    9.208
  258.500  223.333   62.483    0.504    0.312    8.989
  258.750  222.899   62.853    0.516    0.299    8.263
  259.000  222.696   62.658    0.515    0.287    8.042
  259.250  222.783   61.773    0.498    0.294    7.650
  259.500  222.647   62.137    0.469    0.303    7.456
  259.750  222.634   64.007    0.466    0.298    7.848
  260.000  223.968   67.066    0.492    0.287    8.337
  260.250  225.419   71.068    0.510    0.255    8.804
  260.500  222.900   70.814    0.510    0.276    8.942
  260.750  218.818   67.167    0.498    0.296    7.587
  261.000  216.213   61.273    0.510    0.304    6.318
  261.250  214.932   62.836    0.512    0.310    4.993
  261.500  213.979   66.143    0.505    0.327    4.652
  261.750  214.373   71.085    0.492    0.302    4.442
  262.000  220.197   76.897    0.490    0.265    4.200
  262.250  227.283   83.341    0.522    0.229    4.142
  262.500  229.247   80.015    0.518    0.236    4.119
  262.750  229.443   75.370    0.510    0.228    4.129
