~VERSION INFORMATION
 VERS.                 2.0:   CWLS LOG ASCII STANDARD -VERSION 2.0
 WRAP.                  NO:   ONE LINE PER DEPTH STEP
~WELL INFORMATION BLOCK
#MNEM.UNIT           DATA                    DESCRIPTION OF MNEMONIC
#---------    -------------------            -------------------------------
# Generated from Intellog Unique Number	CN_91_93/WELL/2660
WELL.         15-26-091-14W4                 : Well_name    - WELL
LOC .         AA/15-26-091-14W4/0            : Location     - LOCATION
UWI .         AA/15-26-091-14W400            : Uwi          - UNIQUE WELL ID
ENTR.         joette                         : Entered      - ENTERED BY
SRVC.         SCHLUMBERGER                   : Scn          - SERVICE COMPANY
DATE.         02/05/92                       : Date         - LOG DATE
STRT.M        75                             : top_depth    - START DEPTH
STOP.M        180                            : bot_depth    - STOP DEPTH
STEP.M        0.25                           : increment    - STEP LENGTH
 NULL. -999.2500:NULL Value
~CURVE INFORMATION BLOCK
#MNEM UNIT       ERCB CURVE CODE    CURVE DESCRIPTION
#-----------   ------------------   ----------------------------------
DEPT.M        00 001 00 00         : DEPTH        - DEPTH
GR  .API      00 310 00 00         : GR           - GAMMA RAY
CALI.MM       00 280 01 00         : CAL          - CALIPER
NPHI.V/V      00 330 00 00         : PHIN         - NEUTRON POROSITY (SANDSTONE)
DPHI.V/V      00 890 00 00         : PHID         - DENSITY POROSITY (SANDSTONE)
ILD .OHMM     00 120 00 00         : RESD         - DEEP RESISTIVITY (DIL)
~PARAMETER INFORMATION
#MNEM.UNIT           DATA             DESCRIPTION OF MNEMONIC
#---------         -----------     ------------------------------
GL  .M        472.4                : gl           - GROUND LEVEL ELEVATION
EREF.M        475.4                : kb           - ELEVATION OF DEPTH REFERENCE
DATM.M        475.4                : datum        - DATUM ELEVATION
TDD .M        190                  : tdd          - TOTAL DEPTH DRILLER
RUN .         ONE                  : Run          - RUN NUMBER
ENG .         BILL                 : Engineer     - RECORDING ENGINEER
WIT .         JIM                  : Witness      - WITNESSED BY
MUD .         GEL                  : Mud_type     - MUD TYPE
MATR.         SANDSTONE            : Logunit      - NEUTRON MATRIX
TMAX.C        18                   : BHT          - MAXIMUM RECORDED TEMPERATURE
BHTD.M        190                  : BHTDEP       - MAXIMUM RECORDED TEMPERATURE
RMT .C        15                   : MDTP         - TEMPERATURE OF MUD
MUDD.KG/M     1007                 : MWT          - MUD DENSITY
NEUT.         1                    : NEUTRON      - NEUTRON TYPE
RESI.         0                    : RESIST       - RESISTIVITY TYPE
RM  .OHMM     3.5                  : RM           - RESISTIVITY OF MUD
RMC .OHMM     3.5                  : RMC          - RESISTIVITY OF MUD CAKE
RMF .OHMM     3.5                  : RMF          - RESISTIVITY OF MUD FILTRATE
SUFT.C        4                    : SUFT         - SURFACE TEMPERATURE
~A  DEPTH       GR      CAL     PHIN     PHID     RESD
   75.000   64.324  169.641    0.502    0.251   16.065
   75.250   63.692  167.574    0.505    0.271   15.448
   75.500   63.047  164.494    0.514    0.298   13.263
   75.750   62.390  162.427    0.520    0.329   12.284
   76.000   61.746  161.373    0.508    0.337   11.593
   76.250   63.483  160.299    0.515    0.363   11.152
   76.500   65.816  160.217    0.535    0.375   10.720
   76.750   69.315  160.135    0.545    0.340    9.928
   77.000   69.886  161.066    0.524    0.299    9.374
   77.250   69.837  166.897    0.516    0.273    8.359
   77.500   69.180  169.813    0.524    0.249    7.595
   77.750   69.726  172.709    0.555    0.238    7.306
   78.000   71.475  176.576    0.564    0.216    6.515
   78.250   80.371  178.520    0.579    0.239    6.149
   78.500   96.400  182.408    0.603    0.285    5.697
   78.750  105.866  185.304    0.519    0.298    5.174
   79.000  111.771  189.191    0.546    0.286    4.883
   79.250  114.117  193.059    0.556    0.290    4.696
   79.500  114.067  193.990    0.587    0.287    4.690
   79.750  114.018  196.885    0.585    0.269    4.769
   80.000  114.564  195.790    0.590    0.262    4.763
   80.250  114.503  193.744    0.595    0.256    4.937
   80.500  114.454  190.664    0.600    0.247    4.928
   80.750  113.214  189.549    0.601    0.237    4.825
   81.000  110.783  189.508    0.605    0.224    4.821
   81.250  110.138  189.426    0.609    0.219    4.632
   81.500  109.493  189.344    0.612    0.249    4.536
   81.750  109.456  189.262    0.614    0.262    4.447
   82.000  108.216  189.159    0.616    0.275    4.439
   82.250  103.986  187.092    0.616    0.285    4.434
   82.500   98.578  183.992    0.601    0.297    4.683
   82.750   89.001  182.958    0.563    0.311    5.231
   83.000   77.625  180.892    0.522    0.316    6.300
   83.250   72.812  178.845    0.496    0.321    7.877
   83.500   67.404  175.745    0.489    0.326    9.669
   83.750   63.174  172.685    0.480    0.336   11.211
   84.000   65.507  171.611    0.469    0.344   12.070
   84.250   67.852  169.544    0.459    0.338   12.050
   84.500   72.566  168.470    0.453    0.310   11.582
   84.750   79.663  170.373    0.452    0.296   10.328
   85.000   78.423  174.240    0.457    0.295   10.124
   85.250   72.419  176.184    0.472    0.304    9.735
   85.500   64.616  180.051    0.487    0.317    9.715
   85.750   63.364  179.969    0.508    0.331   10.260
   86.000   65.684  179.887    0.514    0.336   11.036
   86.250   67.446  179.805    0.492    0.294   11.660
   86.500   69.779  180.736    0.470    0.284   11.861
   86.750   73.885  182.619    0.474    0.251   12.066
   87.000   79.196  184.542    0.494    0.235   12.046
   87.250   82.124  186.445    0.519    0.250   12.026
   87.500   84.444  189.320    0.535    0.264   12.011
   87.750   85.015  190.231    0.556    0.278   11.991
   88.000   85.549  191.121    0.534    0.284   11.971
   88.250   85.488  191.080    0.498    0.268   11.715
   88.500   84.855  190.957    0.477    0.278   11.483
   88.750   83.615  190.895    0.482    0.278   11.255
   89.000   82.387  191.826    0.491    0.284   11.028
   89.250   79.336  192.716    0.516    0.301   10.600
   89.500   78.108  191.642    0.526    0.310   10.390
   89.750   76.273  186.598    0.479    0.322    9.991
   90.000   75.032  183.518    0.490    0.324    9.789
   90.250   74.388  185.421    0.511    0.297    9.765
   90.500   71.944  186.331    0.523    0.300    9.757
   90.750   70.121  182.279    0.536    0.307    9.921
   91.000   66.474  179.220    0.435    0.203   10.473
   91.250   65.259  178.166    0.429    0.161   10.860
   91.500   64.006  178.084    0.398    0.180   11.677
   91.750   63.969  179.987    0.415    0.240   12.113
   92.000   63.920  181.890    0.440    0.292   12.788
   92.250   63.859  180.815    0.454    0.317   13.014
   92.500   63.810  178.728    0.467    0.344   13.738
   92.750   63.761  176.641    0.482    0.348   13.975
   93.000   63.711  175.587    0.489    0.316   13.693
   93.250   64.245  175.484    0.389    0.220   13.416
   93.500   65.387  175.423    0.416    0.195   13.653
   93.750   68.328  175.341    0.436    0.237   14.419
   94.000   71.839  175.259    0.450    0.262   13.860
   94.250   71.207  176.149    0.465    0.298   12.837
   94.500   68.180  176.087    0.481    0.285   11.669
   94.750   65.153  177.949    0.464    0.293   10.607
   95.000   66.878  178.901    0.444    0.294    9.824
   95.250   68.616  179.811    0.448    0.281    9.621
   95.500   69.770  182.686    0.472    0.275    9.973
   95.750   70.912  183.617    0.478    0.303   10.736
   96.000   72.649  185.479    0.485    0.315   11.338
   96.250   73.791  186.431    0.492    0.323   10.497
   96.500   75.528  186.308    0.491    0.327    9.911
   96.750   78.444  187.239    0.486    0.298    9.179
   97.000   80.181  188.129    0.483    0.295    9.160
   97.250   78.953  190.032    0.485    0.285    9.499
   97.500   78.308  188.937    0.492    0.276   10.032
   97.750   78.855  187.903    0.494    0.258   10.398
   98.000   79.997  184.823    0.488    0.249   11.401
   98.250   81.138  182.757    0.474    0.239   11.377
   98.500   81.089  181.703    0.459    0.270   10.733
   98.750   83.410  182.552    0.456    0.286    9.941
   99.000   82.157  183.503    0.453    0.279    9.207
   99.250   81.537  184.434    0.453    0.276    9.192
   99.500   78.486  186.316    0.452    0.289    9.002
   99.750   76.650  187.227    0.492    0.304    8.664
  100.000   71.850  187.166    0.512    0.301    8.173
  100.250   68.823  187.063    0.505    0.290    8.795
  100.500   68.166  186.981    0.459    0.281    9.826
  100.750   69.308  186.899    0.457    0.288   10.778
  101.000   81.180  186.817    0.469    0.302    9.979
  101.250   94.232  186.735    0.498    0.318    8.259
  101.500   97.768  186.653    0.514    0.323    6.708
  101.750   99.505  186.530    0.541    0.323    4.431
  102.000  100.027  186.489    0.565    0.323    3.402
  102.250  100.573  187.400    0.586    0.316    3.034
  102.500  100.536  187.297    0.601    0.294    2.863
  102.750  100.475  189.200    0.600    0.278    3.199
  103.000  100.438  190.131    0.602    0.245    3.927
  103.250   98.602  191.042    0.611    0.210    4.819
  103.500   97.945  190.939    0.549    0.198    5.913
  103.750   99.683  191.829    0.483    0.229    6.728
  104.000  101.408  191.768    0.495    0.243    7.243
  104.250  100.788  192.658    0.513    0.250    7.936
  104.500   99.535  193.609    0.531    0.245    8.232
  104.750   97.104  195.492    0.536    0.235    8.691
  105.000   94.077  194.417    0.442    0.221    9.709
  105.250   90.455  190.386    0.420    0.218   10.259
  105.500   91.002  187.306    0.430    0.251   11.461
  105.750   90.940  194.171    0.445    0.263   12.567
  106.000   89.688  196.074    0.454    0.261   13.272
  106.250   88.472  195.000    0.466    0.272   13.250
  106.500   87.220  190.948    0.474    0.273   13.479
  106.750   87.754  184.870    0.482    0.271   13.706
  107.000   88.325  183.837    0.508    0.280   13.947
  107.250   90.062  181.749    0.510    0.260   15.280
  107.500   91.204  181.688    0.469    0.193   15.845
  107.750   87.582  179.621    0.400    0.193   17.051
  108.000   79.183  176.541    0.400    0.251   17.673
  108.250   72.584  174.495    0.405    0.267   19.026
  108.500   67.771  172.407    0.418    0.274   19.712
  108.750   65.923  171.333    0.428    0.256   19.306
  109.000   68.256  172.202    0.434    0.232   18.227
  109.250   70.601  173.133    0.442    0.204   17.527
  109.500   72.338  174.044    0.446    0.167   16.548
  109.750   71.098  173.941    0.416    0.150   15.899
  110.000   67.463  172.908    0.363    0.147   16.173
  110.250   65.615  171.833    0.369    0.183   16.770
  110.500   65.554  170.759    0.393    0.218   18.381
  110.750   66.125  168.692    0.404    0.185   19.788
  111.000   67.267  165.633    0.417    0.161   21.688
  111.250   65.419  164.558    0.397    0.132   22.915
