~VERSION INFORMATION
 VERS.                 2.0:   CWLS LOG ASCII STANDARD -VERSION 2.0
 WRAP.                  NO:   ONE LINE PER DEPTH STEP
~WELL INFORMATION BLOCK
#MNEM.UNIT           DATA                    DESCRIPTION OF MNEMONIC
#---------    -------------------            -------------------------------
# Generated from Intellog Unique Number	CC_84_87/WELL/2324
NULL.         -999.25                        : NULL_VALUE
WELL.         PEX PCEJ HANGST OV             : Well_name    - WELL
LOC .         11-07-084-08W4                 : Location     - LOCATION          
UWI .         AA/11-07-084-08W4/0            : Uwi          - UNIQUE WELL ID    
ENTR.         RJA                            : Entered      - ENTERED BY        
SRVC.         DRESSER ATLAS                  : Scn          - SERVICE COMPANY   
DATE.         30 JAN 80                      : Date         - LOG DATE
STRT.M        250                            : top_depth    - START DEPTH       
STOP.M        537.089                        : bot_depth    - STOP DEPTH        
STEP.M        0.3                            : increment    - STEP LENGTH       
~CURVE INFORMATION BLOCK
#MNEM UNIT       ERCB CURVE CODE    CURVE DESCRIPTION
#-----------   ------------------   ----------------------------------
DEPT.M        00 001 00 00         : DEPTH        - DEPTH                       
DPHI.V/V      00 890 00 00         : PHID         - DENSITY POROSITY (LIMESTONE)
NPHI.V/V      00 330 00 00         : PHIN         - NEUTRON POROSITY (LIMESTONE)
GR  .API      00 310 00 00         : GR           - GAMMA RAY                   
ILD .OHMM     00 120 00 00         : RESD         - DEEP RESISTIVITY (DIL)      
~PARAMETER INFORMATION       
#MNEM.UNIT           DATA             DESCRIPTION OF MNEMONIC
#---------         -----------     ------------------------------
GL  .M        272.32               : gl           - GROUND LEVEL ELEVATION      
EREF.M        730.92               : kb           - ELEVATION OF DEPTH REFERENCE
DATM.M        730.92               : datum        - DATUM ELEVATION             
TDD .M        541                  : tdd          - TOTAL DEPTH DRILLER         
RUN .         ONE                  : Run          - RUN NUMBER                  
ENG .         BILL                 : Engineer     - RECORDING ENGINEER          
WIT .         JIM                  : Witness      - WITNESSED BY                
MUD .         GEL                  : Mud_type     - MUD TYPE                    
MATR.         LIMESTONE            : Logunit      - NEUTRON MATRIX              
TMAX.C        20                   : BHT          - MAXIMUM RECORDED TEMPERATURE
BHTD.M        541                  : BHTDEP       - MAXIMUM RECORDED TEMPERATURE
MATR.         1                    : LOGUNIT      - NEUTRON MATRIX              
RMT .C        25                   : MDTP         - TEMPERATURE OF MUD          
NEUT.         1                    : NEUTRON      - NEUTRON TYPE                
RESI.         0                    : RESIST       - RESISTIVITY TYPE            
RMC .OHMM     0.25                 : RMC          - RESISTIVITY OF MUD CAKE     
RMF .OHMM     0.25                 : RMF          - RESISTIVITY OF MUD FILTRATE 
SUFT.C        15                   : SUFT         - SURFACE TEMPERATURE         
~A  DEPTH     PHID     PHIN       GR     RESD
# ...
  510.990    0.016    0.221   84.996   25.790
  511.290    0.018    0.240   91.636   25.781
  511.590    0.020    0.239   87.659   25.814
  511.890    0.019    0.227   80.063   24.866
  512.190    0.017    0.237   80.505   24.223
  512.490    0.014    0.232   83.771   23.594
  512.790    0.015    0.214   80.959   23.368
  513.090    0.026    0.215   82.382   23.840
  513.390    0.034    0.217   75.891   25.379
  513.690    0.032    0.216   84.064   26.918
  513.990    0.035    0.214   88.248   27.208
  514.290    0.040    0.211   83.661   27.758
  514.590    0.040    0.220   83.180   29.659
  514.890    0.041    0.227   83.191   30.144
  515.190    0.036    0.227   86.702   29.362
  515.490    0.032    0.223   82.664   27.714
  515.789    0.035    0.216   86.849   26.943
  516.089    0.039    0.204   87.782   26.783
  516.389    0.041    0.192   83.436   25.608
  516.689    0.034    0.168   78.294   24.943
  516.989    0.016    0.123   86.467   24.888
  517.289    0.012    0.092   71.142   25.914
  517.589    0.014    0.066   39.801   37.935
  517.889    0.010    0.060   32.511   78.079
  518.189    0.010    0.065   43.444  282.698
  518.489    0.010    0.083   52.599 1687.640
  518.789    0.005    0.077   47.519 1206.510
  519.089    0.004    0.058   30.597  624.958
  519.389    0.007    0.065   21.960  478.460
  519.689    0.012    0.076   20.805  463.474
  519.989    0.009    0.076   21.737  250.055
  520.289    0.005    0.087   28.866  172.893
  520.589    0.006    0.096   37.961  173.163
  520.889    0.010    0.087   32.081  111.807
  521.189    0.010    0.079   30.744  110.524
  521.489    0.009    0.095   35.971  111.925
  521.789    0.009    0.115   45.862   85.222
  522.089    0.009    0.093   34.461   76.370
  522.389    0.008    0.089   31.039   65.343
  522.689    0.002    0.106   58.598   77.021
  522.989    0.003    0.103   50.820  114.857
  523.289    0.008    0.069   30.769 1242.420
  523.589    0.016    0.063   22.558 1382.740
  523.889    0.018    0.062   19.809 1076.440
  524.189    0.021    0.065   17.738  290.538
  524.489    0.020    0.075   19.590  206.565
  524.789    0.025    0.086   20.337  172.856
  525.089    0.025    0.091   18.569  147.057
  525.389    0.023    0.090   19.381  131.779
  525.689    0.021    0.085   19.269  124.857
  525.989    0.021    0.082   20.265  116.111
  526.289    0.021    0.085   21.197  111.636
  526.589    0.022    0.090   27.956  108.542
  526.889    0.022    0.085   31.650  107.496
  527.189    0.021    0.074   27.245  113.383
  527.489    0.010    0.067   26.705  129.750
  527.789    0.005    0.065   25.306  334.125
  528.089    0.001    0.064   20.166 1987.210
  528.389    0.000    0.066   18.950 2088.310
  528.689    0.003    0.070   18.718 2186.350
  528.989    0.006    0.074   20.754 2169.370
  529.289    0.002    0.076   19.663 1281.610
  529.589    0.005    0.077   21.206  787.157
  529.889    0.007    0.079   23.613  498.012
  530.189    0.004    0.083   22.705  358.687
  530.489    0.003    0.084   29.837  277.690
  530.789    0.009    0.088   31.931  221.036
  531.089    0.013    0.090   25.624  193.010
  531.389    0.012    0.093   25.206  169.795
  531.689    0.011    0.093   29.699  146.088
  531.989    0.009    0.094   28.175  118.234
  532.289    0.010    0.094   36.103   91.708
  532.589    0.014    0.094   40.839   86.237
  532.889    0.016    0.108   42.324   81.997
  533.189    0.013    0.105   42.398   74.855
  533.489    0.009    0.101   35.415   72.368
  533.789    0.014    0.104   43.651   73.969
  534.089    0.016    0.106   42.250   80.666
  534.389    0.013    0.101   34.901   90.446
  534.689    0.006    0.097   40.372  104.075
  534.989    0.003    0.094   37.134  112.446
  535.289    0.007    0.091   34.138  100.024
  535.589    0.011    0.089   33.353   95.287
  535.889    0.013    0.086   41.404  112.942
  536.189    0.010    0.083   43.685  198.973
  536.489    0.010    0.082   37.623  155.467
  536.789    0.014    0.085   37.515  135.258
  537.089    0.020    0.097   40.349  118.542
