~VERSION INFORMATION
 VERS.                 2.0:   CWLS LOG ASCII STANDARD -VERSION 2.0
 WRAP.                  NO:   ONE LINE PER DEPTH STEP
~WELL INFORMATION BLOCK
#MNEM.UNIT           DATA                    DESCRIPTION OF MNEMONIC
#---------    -------------------            -------------------------------
# Generated from Intellog Unique Number	CN_91_93/WELL/2634
WELL.         10-29-091-16W4                 : Well_name    - WELL
LOC .         AA/10-29-091-16W4/0            : Location     - LOCATION
UWI .         AA/10-29-091-16W400            : Uwi          - UNIQUE WELL ID
ENTR.         JOETTE                         : Entered      - ENTERED BY
SRVC.         SCHLUMBERGER                   : Scn          - SERVICE COMPANY
DATE.         02/11/92                       : Date         - LOG DATE
STRT.M        75                             : top_depth    - START DEPTH
STOP.M        240                            : bot_depth    - STOP DEPTH
STEP.M        0.25                           : increment    - STEP LENGTH
 NULL. -999.2500:NULL Value
~CURVE INFORMATION BLOCK
#MNEM UNIT       ERCB CURVE CODE    CURVE DESCRIPTION
#-----------   ------------------   ----------------------------------
DEPT.M        00 001 00 00         : DEPTH        - DEPTH
GR  .API      00 310 00 00         : GR           - GAMMA RAY
CALI.MM       00 280 01 00         : CAL          - CALIPER
NPHI.V/V      00 330 00 00         : PHIN         - NEUTRON POROSITY (SANDSTONE)
DPHI.V/V      00 890 00 00         : PHID         - DENSITY POROSITY (SANDSTONE)
ILD .OHMM     00 120 00 00         : RESD         - DEEP RESISTIVITY (DIL)
~PARAMETER INFORMATION
#MNEM.UNIT           DATA             DESCRIPTION OF MNEMONIC
#---------         -----------     ------------------------------
GL  .M        490.6                : gl           - GROUND LEVEL ELEVATION
EREF.M        493.66               : kb           - ELEVATION OF DEPTH REFERENCE
DATM.M        493.66               : datum        - DATUM ELEVATION
TDD .M        249.5                : tdd          - TOTAL DEPTH DRILLER
RUN .         ONE                  : Run          - RUN NUMBER
ENG .         BILL                 : Engineer     - RECORDING ENGINEER
WIT .         JIM                  : Witness      - WITNESSED BY
MUD .         GEL                  : Mud_type     - MUD TYPE
MATR.         SANDSTONE            : Logunit      - NEUTRON MATRIX
TMAX.C        22                   : BHT          - MAXIMUM RECORDED TEMPERATURE
BHTD.M        249.5                : BHTDEP       - MAXIMUM RECORDED TEMPERATURE
RMT .C        21                   : MDTP         - TEMPERATURE OF MUD
MUDD.KG/M     1060                 : MWT          - MUD DENSITY
NEUT.         1                    : NEUTRON      - NEUTRON TYPE
RESI.         0                    : RESIST       - RESISTIVITY TYPE
RM  .OHMM     7.3                  : RM           - RESISTIVITY OF MUD
RMC .OHMM     9.8                  : RMC          - RESISTIVITY OF MUD CAKE
RMF .OHMM     6.8                  : RMF          - RESISTIVITY OF MUD FILTRATE
SUFT.C        4                    : SUFT         - SURFACE TEMPERATURE
~A  DEPTH       GR      CAL     PHIN     PHID     RESD
# ...
  111.500  101.478  266.623    0.577    0.240    3.887
  111.750   99.698  264.157    0.620    0.251    3.999
  112.000   90.414  261.195    0.630    0.259    4.002
  112.250   84.433  260.250    0.557    0.253    4.118
  112.500   78.452  258.754    0.531    0.238    5.083
  112.750   77.875  255.288    0.484    0.216    6.333
  113.000   77.593  251.821    0.514    0.233    6.635
  113.250   75.218  249.355    0.531    0.254    6.346
  113.500   73.436  245.893    0.526    0.270    5.642
  113.750   71.659  244.952    0.525    0.266    5.648
  114.000   66.273  243.461    0.511    0.245    6.722
  114.250   57.591  239.998    0.468    0.243    7.106
  114.500   52.211  238.032    0.396    0.216    9.969
  114.750   48.033  237.062    0.359    0.185   12.997
  115.000   46.850  237.101    0.333    0.131   23.107
  115.250   48.972  237.101    0.326    0.178   24.657
  115.500   50.795  237.674    0.348    0.197   23.158
  115.750   52.616  241.700    0.366    0.213   21.548
  116.000   55.938  246.236    0.379    0.250   19.868
  116.250   63.462  251.775    0.388    0.246   14.855
  116.500   71.885  257.820    0.413    0.256   12.279
  116.750   78.807  262.351    0.438    0.274   10.338
  117.000   85.132  270.883    0.484    0.258    9.446
  117.250   82.449  277.427    0.556    0.244    7.807
  117.500   72.267  281.458    0.580    0.252    6.941
  117.750   62.988  285.502    0.586    0.253    6.285
  118.000   57.608  285.502    0.543    0.278    9.311
  118.250   58.228  287.575    0.507    0.305   11.391
  118.500   61.247  291.097    0.456    0.270   12.722
  118.750   70.275  291.097    0.493    0.229   12.390
  119.000   82.896  293.675    0.476    0.226    9.964
  119.250   92.218  293.675    0.478    0.234    8.161
  119.500   94.642  297.762    0.523    0.260    6.808
  119.750   88.661  297.762    0.513    0.260    6.452
  120.000   85.081  300.835    0.512    0.262    6.227
  120.250   83.004  303.353    0.530    0.273    6.065
  120.500   82.722  304.413    0.573    0.275    6.071
  120.750   87.846  305.418    0.582    0.260    6.189
  121.000   86.666  307.957    0.601    0.241    6.308
  121.250   82.483  308.012    0.636    0.238    6.551
  121.500   81.303  308.525    0.532    0.217    6.677
  121.750   82.527  308.060    0.528    0.220    6.386
  122.000   83.148  308.060    0.537    0.245    5.998
  122.250   82.568  308.124    0.540    0.241    5.736
  122.500   81.991  305.166    0.506    0.236    5.638
  122.750   81.109  303.700    0.513    0.218    5.799
  123.000   79.332  302.730    0.492    0.213    7.031
  123.250   76.649  301.264    0.518    0.229    7.432
  123.500   72.469  300.302    0.522    0.241    9.010
  123.750   65.290  299.336    0.530    0.212    9.702
  124.000   60.507  298.366    0.543    0.140    9.712
  124.250   57.827  297.900    0.461    0.106    8.793
  124.500   69.850  297.460    0.435    0.144    6.946
  124.750   92.079  296.968    0.474    0.200    5.484
  125.000  104.102  296.968    0.542    0.222    4.876
  125.250  101.424  296.050    0.551    0.215    4.104
  125.500  100.845  295.079    0.548    0.209    3.925
  125.750  104.466  295.079    0.540    0.222    3.894
  126.000  101.786  294.665    0.554    0.231    3.933
  126.250   97.008  294.178    0.567    0.239    3.976
  126.500   99.729  291.211    0.572    0.226    4.050
  126.750   99.150  287.745    0.548    0.225    4.362
  127.000   94.967  283.782    0.575    0.222    4.654
  127.250   89.286  274.815    0.591    0.212    4.654
  127.500   88.409  272.344    0.584    0.198    4.925
  127.750   84.526  268.882    0.594    0.226    6.024
  128.000   71.044  264.911    0.580    0.250    7.438
  128.250   65.968  260.944    0.481    0.281    8.306
  128.500   66.284  256.978    0.440    0.279   10.160
  128.750   69.305  253.011    0.457    0.268   12.206
  129.000   68.725  248.048    0.422    0.282   12.788
  129.250   67.248  243.582    0.396    0.287   13.395
  129.500   65.166  239.615    0.391    0.271   13.906
  129.750   63.386  237.149    0.409    0.244   13.920
  130.000   62.206  235.183    0.437    0.231   13.937
  130.250   62.829  234.221    0.456    0.271   14.208
  130.500   64.650  234.277    0.449    0.302   14.887
  130.750   61.070  233.789    0.455    0.267   17.884
  131.000   61.391  233.828    0.448    0.266   18.393
  131.250   61.111  233.862    0.437    0.261   22.096
  131.500   55.433  233.888    0.429    0.210   24.897
  131.750   54.251  233.888    0.295    0.098   26.326
  132.000   66.574  234.978    0.244    0.066   20.979
  132.250   82.501  235.991    0.375    0.090   17.030
  132.500   86.422  238.531    0.397    0.124   14.596
  132.750   90.944  241.070    0.419    0.200   13.582
  133.000   91.267  245.105    0.416    0.213   12.300
  133.250   89.490  252.637    0.453    0.220   11.550
  133.500   89.808  259.672    0.448    0.220   11.352
  133.750   87.431  265.217    0.435    0.216   11.365
  134.000   88.649  268.252    0.448    0.192   11.481
  134.250   92.871  271.291    0.457    0.218   11.494
  134.500   94.694  273.317    0.436    0.202   11.827
  134.750   92.612  276.852    0.430    0.191   12.500
  135.000   87.231  279.387    0.408    0.190   13.582
  135.250   73.448  279.387    0.401    0.182   15.029
  135.500   71.073  281.973    0.388    0.166   15.603
  135.750   73.490  285.996    0.404    0.159   15.603
  136.000   77.111  293.036    0.402    0.197   15.219
  136.250   74.734  297.567    0.401    0.238   14.816
  136.500   72.353  302.111    0.401    0.241   14.816
  136.750   75.375  304.145    0.395    0.255   14.446
  137.000   76.896  305.684    0.398    0.274   14.070
  137.250   75.418  307.210    0.439    0.269   13.702
  137.500   75.439  308.749    0.444    0.268   13.346
  137.750   77.260  310.288    0.383    0.278   13.239
  138.000   81.179  311.314    0.402    0.276   13.252
  138.250   84.200  312.353    0.401    0.260   13.265
  138.500   82.425  312.913    0.424    0.257   13.278
  138.750   83.049  313.426    0.424    0.260   13.278
  139.000   83.067  313.426    0.439    0.233   13.066
  139.250   82.185  313.012    0.433    0.224   12.841
  139.500   81.007  313.025    0.420    0.240   12.507
  139.750   81.025  311.063    0.424    0.244   12.519
  140.000   83.447  308.092    0.423    0.229   13.360
  140.250   86.168  303.630    0.446    0.208   13.866
  140.500   86.791  301.163    0.388    0.190   13.509
  140.750   86.217  299.693    0.369    0.149   13.036
  141.000   86.832  298.727    0.394    0.190   12.697
  141.250   88.953  298.261    0.409    0.220   11.816
  141.500   86.876  298.295    0.429    0.228   11.198
  141.750   84.493  298.295    0.443    0.237   10.906
  142.000   82.716  296.881    0.453    0.229   10.906
  142.250   81.534  294.902    0.451    0.189   10.929
  142.500   80.057  291.944    0.452    0.143   11.140
  142.750   78.274  290.469    0.408    0.132   11.672
  143.000   80.698  288.503    0.437    0.159   12.006
  143.250   79.821  288.503    0.447    0.231   12.129
  143.500   77.438  288.076    0.430    0.233   13.178
  143.750   75.058  290.615    0.439    0.195   11.401
  144.000   74.779  290.615    0.345    0.143    6.725
  144.250   81.401  292.197    0.369    0.109    4.633
  144.500   92.824  293.719    0.507    0.150    3.863
  144.750   97.048  293.719    0.541    0.266    3.223
  145.000   97.374  294.292    0.554    0.280    2.999
  145.250   97.395  295.322    0.557    0.269    3.113
  145.500   96.210  296.352    0.553    0.252    3.113
  145.750   90.829  297.395    0.546    0.245    3.711
  146.000   89.949  297.425    0.525    0.240    4.258
  146.250   92.070  297.964    0.429    0.244    6.366
  146.500   93.891  298.494    0.456    0.241    8.453
  146.750   96.320  298.537    0.465    0.228   10.249
  147.000   97.536  298.563    0.477    0.215   10.072
  147.250   98.757  297.105    0.474    0.201    9.546
  147.500   89.775  297.105    0.454    0.192   11.466
  147.750   84.395  296.165    0.447    0.170   13.901
