~VERSION INFORMATION
 VERS.                 2.0:   CWLS LOG ASCII STANDARD -VERSION 2.0
 WRAP.                  NO:   ONE LINE PER DEPTH STEP
~WELL INFORMATION BLOCK
#MNEM.UNIT           DATA                    DESCRIPTION OF MNEMONIC
#---------    -------------------            -------------------------------
# Generated from Intellog Unique Number	CW_79_81/WELL/924
WELL.         12-29-079-22W4                 : Well_name    - WELL
LOC .         AA/12-29-079-22W4/0            : Location     - LOCATION
UWI .         AA/12-29-079-22W4/0            : Uwi          - UNIQUE WELL ID
ENTR.         MAX                            : Entered      - ENTERED BY
SRVC.         SCHLUMBERGER                   : Scn          - SERVICE COMPANY
STRT.M        215                            : top_depth    - START DEPTH
STOP.M        450                            : bot_depth    - STOP DEPTH
STEP.M        0.25                           : increment    - STEP LENGTH
 NULL. -999.2500:NULL Value
~CURVE INFORMATION BLOCK
#MNEM UNIT       ERCB CURVE CODE    CURVE DESCRIPTION
#-----------   ------------------   ----------------------------------
DEPT.M        00 001 00 00         : DEPTH        - DEPTH
ILD .OHMM     00 120 00 00         : RESD         - DEEP RESISTIVITY (DIL)
NPHI.V/V      00 330 00 00         : PHIN         - NEUTRON POROSITY (SANDSTONE)
DPHI.V/V      00 890 00 00         : PHID         - DENSITY POROSITY (SANDSTONE)
CALI.MM       00 280 01 00         : CAL          - CALIPER
GR  .API      00 310 00 00         : GR           - GAMMA RAY
~PARAMETER INFORMATION
#MNEM.UNIT           DATA             DESCRIPTION OF MNEMONIC
#---------         -----------     ------------------------------
GL  .M        568.6                : gl           - GROUND LEVEL ELEVATION
EREF.M        573.2                : kb           - ELEVATION OF DEPTH REFERENCE
DATM.M        568.6                : datum        - DATUM ELEVATION
TDD .M        458                  : tdd          - TOTAL DEPTH DRILLER
RUN .         ONE                  : Run          - RUN NUMBER
ENG .         BILL                 : Engineer     - RECORDING ENGINEER
WIT .         JIM                  : Witness      - WITNESSED BY
MUD .         GEL                  : Mud_type     - MUD TYPE
MATR.         SANDSTONE            : Logunit      - NEUTRON MATRIX
TMAX.C        21                   : BHT          - MAXIMUM RECORDED TEMPERATURE
BHTD.M        458                  : BHTDEP       - MAXIMUM RECORDED TEMPERATURE
RMT .C        14.4                 : MDTP         - TEMPERATURE OF MUD
MUDD.KG/M     1070                 : MWT          - MUD DENSITY
NEUT.         1                    : NEUTRON      - NEUTRON TYPE
RESI.         0                    : RESIST       - RESISTIVITY TYPE
RM  .OHMM     0.89                 : RM           - RESISTIVITY OF MUD
RMC .OHMM     0                    : RMC          - RESISTIVITY OF MUD CAKE
RMF .OHMM     0.77                 : RMF          - RESISTIVITY OF MUD FILTRATE
SUFT.C        -20                  : SUFT         - SURFACE TEMPERATURE
~A  DEPTH     RESD     PHIN     PHID      CAL       GR
# ...
  251.500  110.945    0.513    0.371  283.121   48.427
  251.750  111.937    0.511    0.377  287.548   49.900
  252.000  107.867    0.520    0.376  288.501   53.148
  252.250  101.140    0.531    0.378  287.970   52.235
  252.500   92.265    0.518    0.384  286.952   51.026
  252.750   82.642    0.493    0.382  285.425   50.707
  253.000   78.201    0.479    0.373  283.406   51.279
  253.250   76.753    0.468    0.372  281.378   51.559
  253.500   67.500    0.462    0.375  280.360   51.833
  253.750   50.340    0.466    0.371  279.333   53.301
  254.000   48.957    0.482    0.368  278.802   52.688
  254.250   60.420    0.495    0.364  278.763   50.280
  254.500   73.884    0.512    0.359  278.233   52.048
  254.750   84.741    0.516    0.354  276.710   54.111
  255.000   75.205    0.502    0.355  275.182   54.683
  255.250   55.574    0.504    0.360  273.664   54.963
  255.500   49.776    0.526    0.367  271.645   55.535
  255.750   47.534    0.531    0.368  270.117   54.623
  256.000   45.811    0.514    0.357  268.590   52.814
  256.250   43.347    0.504    0.353  268.068   52.496
  256.500   39.903    0.504    0.349  267.037   53.666
  256.750   37.760    0.524    0.344  266.998   55.133
  257.000   35.731    0.547    0.336  266.964   56.301
  257.250   33.197    0.530    0.334  266.933   58.664
  257.500   30.006    0.533    0.337  266.895   64.597
  257.750   28.919    0.514    0.343  266.359   61.894
  258.000   28.126    0.520    0.356  266.329   56.518
  258.250   26.615    0.523    0.359  266.795   53.518
  258.500   24.279    0.485    0.354  267.257   55.283
  258.750   21.745    0.477    0.346  267.209   56.456
  259.000   26.592    0.472    0.332  267.209   54.647
  259.250   39.774    0.445    0.256  267.149   51.349
  259.500   52.337    0.408    0.195  267.606   48.947
  259.750   75.468    0.366    0.170  268.068   48.035
  260.000   88.151    0.336    0.115  268.529   46.524
  260.250  103.917    0.266   -0.001  269.483   45.907
  260.500  123.631    0.200   -0.005  269.953   43.803
  260.750  123.594    0.176    0.005  270.910   44.973
  261.000  100.091    0.290    0.199  271.363   52.097
  261.250   22.490    0.407    0.227  272.321   57.134
  261.500   20.328    0.439    0.253  272.783   58.604
  261.750   20.137    0.424    0.334  273.249   57.985
  262.000   20.315    0.412    0.333  273.214   57.074
  262.250   20.497    0.439    0.336  273.171   57.053
  262.500   20.679    0.489    0.339  273.141   57.033
  262.750   20.485    0.474    0.339  273.106   56.417
  263.000   20.291    0.473    0.343  273.076   55.203
  263.250   20.285    0.490    0.345  273.033   53.098
  263.500   20.095    0.490    0.343  272.506   50.994
  263.750   18.842    0.480    0.347  271.475   52.461
  264.000   17.992    0.479    0.346  270.949   55.417
  264.250   18.319    0.473    0.342  270.910   54.206
  264.500   19.349    0.466    0.341  270.880   52.992
  264.750   21.393    0.463    0.343  270.845   52.673
  265.000   21.983    0.453    0.346  270.810   53.548
  265.250   20.992    0.442    0.349  270.741   54.421
  265.500   20.416    0.427    0.355  270.728   54.094
  265.750   21.564    0.442    0.354  270.698   53.481
  266.000   23.409    0.482    0.351  271.160   51.972
  266.250   24.276    0.488    0.354  271.617   51.058
  266.500   24.047    0.474    0.351  272.083   53.419
  266.750   23.603    0.494    0.342  272.048   53.993
  267.000   25.390    0.482    0.332  272.514   51.891
  267.250   27.312    0.446    0.331  273.463   48.894
  267.500   26.081    0.437    0.329  273.921   47.084
  267.750   23.575    0.436    0.330  273.895   46.171
  268.000   20.543    0.442    0.336  274.356   46.150
  268.250   21.303    0.459    0.346  274.317   47.320
  268.500   22.707    0.466    0.351  274.779   49.085
  268.750   20.338    0.469    0.348  275.741   50.550
  269.000    8.755    0.475    0.342  276.694   52.313
  269.250    5.639    0.494    0.327  277.652   54.974
  269.500    4.205    0.511    0.324  279.598   59.421
  269.750    4.090    0.525    0.332  281.056   61.777
  270.000    5.048    0.561    0.343  283.006   61.458
  270.250    7.279    0.544    0.360  282.967   59.954
  270.500   11.503    0.510    0.360  280.948   55.466
  270.750   16.587    0.455    0.327  277.941   49.787
  271.000   15.840    0.435    0.328  275.417   48.575
  271.250   11.492    0.431    0.330  274.891   49.748
  271.500    9.392    0.448    0.322  274.360   53.001
  271.750   10.674    0.463    0.315  274.325   53.273
  272.000   10.868    0.475    0.320  274.791   52.662
  272.250    8.964    0.481    0.322  275.749   51.448
  272.500    7.259    0.480    0.298  277.198   53.809
  272.750    5.933    0.508    0.292  280.136   55.872
  273.000    6.096    0.534    0.364  283.083   57.635
  273.250    6.618    0.540    0.379  284.036   57.614
  273.500    7.054    0.526    0.340  279.541   57.296
  273.750    7.518    0.532    0.302  274.536   56.974
  274.000    7.655    0.539    0.298  274.014   56.066
  274.250    8.011    0.502    0.303  273.479   53.959
  274.500    8.385    0.479    0.292  273.479   53.042
  274.750    9.271    0.489    0.286  273.397   53.317
  275.000   11.652    0.494    0.282  273.376   54.194
  275.250   14.119    0.471    0.286  273.337   54.769
  275.500   16.045    0.445    0.291  273.306   53.853
  275.750   18.402    0.417    0.300  272.771   48.179
  276.000   20.913    0.406    0.308  271.749   46.069
  276.250   26.047    0.422    0.311  270.722   45.155
  276.500   29.331    0.406    0.289  269.195   43.946
  276.750   28.790    0.383    0.271  268.164   39.755
  277.000   25.551    0.385    0.283  268.133   40.330
  277.250   20.503    0.394    0.316  268.591   41.498
  277.500   18.196    0.403    0.330  269.553   39.988
  277.750   19.043    0.410    0.329  271.002   39.375
  278.000   23.936    0.410    0.314  271.464   39.352
  278.250   29.269    0.386    0.294  271.930   39.926
  278.500   31.484    0.362    0.257  272.383   39.310
  278.750   31.474    0.349    0.255  272.853   35.422
  279.000   29.782    0.457    0.281  273.802   32.722
  279.250   25.953    0.475    0.325  273.772   33.892
  279.500   22.407    0.474    0.356  273.733   37.739
  279.750   22.198    0.458    0.357  271.718   40.697
  280.000   22.810    0.431    0.337  268.198   43.946
  280.250   25.220    0.413    0.338  267.184   44.228
  280.500   26.392    0.428    0.350  267.141   44.202
  280.750   24.747    0.435    0.349  267.115   43.589
  281.000   21.762    0.464    0.347  267.054   43.568
  281.250   20.034    0.499    0.345  267.041   44.435
  281.500   21.160    0.509    0.337  266.511   44.419
  281.750   22.348    0.484    0.324  264.979   44.098
  282.000   22.755    0.461    0.338  264.448   43.185
  282.250   22.540    0.463    0.355  263.922   40.487
  282.500   22.123    0.478    0.352  263.887   41.655
  282.750   21.916    0.488    0.347  263.853   39.253
  283.000   21.710    0.478    0.353  263.322   36.848
  283.250   21.310    0.461    0.357  262.787   36.529
  283.500   21.302    0.453    0.356  262.748   36.511
  283.750   21.297    0.457    0.354  262.714   37.679
  284.000   21.290    0.468    0.352  262.714   39.146
  284.250   21.283    0.474    0.354  263.149   39.423
  284.500   21.277    0.481    0.358  263.611   39.403
  284.750   21.466    0.483    0.362  263.576   40.275
  285.000   21.461    0.476    0.365  263.533   40.847
  285.250   21.454    0.473    0.368  263.507   39.933
  285.500   21.448    0.475    0.368  263.507   40.806
  285.750   21.441    0.461    0.365  263.908   41.383
  286.000   21.435    0.455    0.366  263.895   40.169
  286.250   21.429    0.474    0.363  263.861   40.743
  286.500   21.422    0.460    0.361  263.826   42.809
  286.750   21.613    0.454    0.360  264.279   42.490
  287.000   21.606    0.483    0.357  264.249   40.976
  287.250   21.598    0.503    0.354  264.214   40.357
  287.500   21.591    0.490    0.351  264.171   40.640
  287.750   21.587    0.480    0.349  264.115   42.105
