~VERSION INFORMATION
 VERS.                 2.0:   CWLS LOG ASCII STANDARD -VERSION 2.0
 WRAP.                  NO:   ONE LINE PER DEPTH STEP
~WELL INFORMATION BLOCK
#MNEM.UNIT           DATA                    DESCRIPTION OF MNEMONIC
#---------    -------------------            -------------------------------
# Generated from Intellog Unique Number	CS_77_79/WELL/933
WELL.         LEISMER OV                     : Well_name    - WELL
LOC .         AA/10-08-079-08W4/0            : Location     - LOCATION
UWI .         AA/10-08-079-08W4/0            : Uwi          - UNIQUE WELL ID
ENTR.         JHS                            : Entered      - ENTERED BY
SRVC.         SCHLUMBERGER                   : Scn          - SERVICE COMPANY
STRT.M        145                            : top_depth    - START DEPTH
STOP.M        400                            : bot_depth    - STOP DEPTH
STEP.M        0.25                           : increment    - STEP LENGTH
 NULL. -999.2500:NULL Value
~CURVE INFORMATION BLOCK
#MNEM UNIT       ERCB CURVE CODE    CURVE DESCRIPTION
#-----------   ------------------   ----------------------------------
DEPT.M        00 001 00 00         : DEPTH        - DEPTH
DPHI.V/V      00 890 00 00         : PHID         - DENSITY POROSITY (LIMESTONE)
NPHI.V/V      00 330 00 00         : PHIN         - NEUTRON POROSITY (LIMESTONE)
GR  .API      00 310 00 00         : GR           - GAMMA RAY
ILD .OHMM     00 120 00 00         : RESD         - DEEP RESISTIVITY (DIL)
RHOB.KG/M3    00 350 00 00         : DENS         - BULK DENSITY
~PARAMETER INFORMATION
#MNEM.UNIT           DATA             DESCRIPTION OF MNEMONIC
#---------         -----------     ------------------------------
GL  .M        611.36               : gl           - GROUND LEVEL ELEVATION
EREF.M        614.94               : kb           - ELEVATION OF DEPTH REFERENCE
DATM.M        614.94               : datum        - DATUM ELEVATION
TDD .M        407                  : tdd          - TOTAL DEPTH DRILLER
RUN .         ONE                  : Run          - RUN NUMBER
ENG .         BILL                 : Engineer     - RECORDING ENGINEER
WIT .         JIM                  : Witness      - WITNESSED BY
MUD .         GEL                  : Mud_type     - MUD TYPE
MATR.         LIMESTONE            : Logunit      - NEUTRON MATRIX
TMAX.C        17                   : BHT          - MAXIMUM RECORDED TEMPERATURE
BHTD.M        407                  : BHTDEP       - MAXIMUM RECORDED TEMPERATURE
MATR.         1                    : LOGUNIT      - NEUTRON MATRIX
RMT .C        25                   : MDTP         - TEMPERATURE OF MUD
NEUT.         1                    : NEUTRON      - NEUTRON TYPE
RESI.         0                    : RESIST       - RESISTIVITY TYPE
RMC .OHMM     0.25                 : RMC          - RESISTIVITY OF MUD CAKE
RMF .OHMM     0.25                 : RMF          - RESISTIVITY OF MUD FILTRATE
SUFT.C        15                   : SUFT         - SURFACE TEMPERATURE
~A  DEPTH     PHID     PHIN       GR     RESD     DENS
# ...
  291.000    0.357    0.413  113.368    3.007    0.000
  291.250    0.349    0.407  117.054    2.845    0.000
  291.500    0.326    0.414  119.517    2.901    0.000
  291.750    0.306    0.419  115.858    3.070    0.000
  292.000    0.304    0.429  111.588    3.310    0.000
  292.250    0.322    0.418  108.543    3.920    0.000
  292.500    0.344    0.409  109.165    4.819    0.000
  292.750    0.344    0.397  111.014    5.707    0.000
  293.000    0.256    0.388  115.928    6.389    0.000
  293.250    0.215    0.372  118.389    7.427    0.000
  293.500    0.119    0.356  109.831    8.008    0.000
  293.750    0.094    0.333   98.215    8.320    0.000
  294.000    0.090    0.328  101.288    8.170    0.000
  294.250    0.109    0.344  108.040    7.728    0.000
  294.500    0.222    0.373  109.279    7.311    0.000
  294.750    0.228    0.382  109.901    7.454    0.000
  295.000    0.230    0.387  109.302    7.742    0.000
  295.250    0.228    0.392  106.871    8.351    0.000
  295.500    0.223    0.387  105.046    8.354    0.000
  295.750    0.223    0.384  103.225    8.204    0.000
  296.000    0.227    0.396  105.685    7.617    0.000
  296.250    0.235    0.398  110.599    6.812    0.000
  296.500    0.242    0.391  113.058    6.324    0.000
  296.750    0.252    0.402  114.908    5.871    0.000
  297.000    0.258    0.416  108.802    5.659    0.000
  297.250    0.254    0.404  106.981    5.770    0.000
  297.500    0.245    0.395  110.055    5.881    0.000
  297.750    0.242    0.391  113.746    6.225    0.000
  298.000    0.245    0.386  114.365    6.468    0.000
  298.250    0.241    0.379  116.217    6.351    0.000
  298.500    0.240    0.384  117.459    6.236    0.000
  298.750    0.263    0.413  116.859    5.791    0.000
  299.000    0.297    0.403  114.424    5.276    0.000
  299.250    0.314    0.396  110.762    4.631    0.000
  299.500    0.309    0.409  109.553    3.772    0.000
  299.750    0.306    0.435  115.076    3.188    0.000
  300.000    0.315    0.481  125.413    2.416    0.000
  300.250    0.320    0.469  124.804    2.120    0.000
  300.500    0.311    0.468  123.581    1.894    0.000
  300.750    0.307    0.475  122.976    1.825    0.000
  301.000    0.311    0.473  124.212    1.860    0.000
  301.250    0.326    0.453  122.374    2.006    0.000
  301.500    0.330    0.420  114.391    2.246    0.000
  301.750    0.319    0.393  110.710    2.422    0.000
  302.000    0.311    0.388  108.873    2.661    0.000
  302.250    0.307    0.386  105.808    2.816    0.000
  302.500    0.292    0.382  105.816    3.095    0.000
  302.750    0.275    0.363  107.667    3.400    0.000
  303.000    0.258    0.341  107.675    3.736    0.000
  303.250    0.256    0.328  107.067    4.182    0.000
  303.500    0.252    0.327  108.919    5.048    0.000
  303.750    0.246    0.319  105.854    7.079    0.000
  304.000    0.245    0.327   99.715    8.076    0.000
  304.250    0.261    0.343   98.491    8.079    0.000
  304.500    0.259    0.355  100.960    7.783    0.000
  304.750    0.258    0.374  100.351    7.360    0.000
  305.000    0.260    0.365   98.515    6.830    0.000
  305.250    0.258    0.360   98.522    6.458    0.000
  305.500    0.244    0.364  102.219    6.340    0.000
  305.750    0.232    0.364  106.531    6.224    0.000
  306.000    0.224    0.368  106.537    6.110    0.000
  306.250    0.224    0.377  106.544    6.112    0.000
  306.500    0.226    0.373  109.013    6.231    0.000
  306.750    0.231    0.362  110.249    6.350    0.000
  307.000    0.232    0.358  110.257    6.473    0.000
  307.250    0.225    0.358  112.110    6.597    0.000
  307.500    0.216    0.347  111.502    6.725    0.000
  307.750    0.211    0.336  105.362    6.602    0.000
  308.000    0.208    0.336  104.754    6.361    0.000
  308.250    0.206    0.342  109.681    6.015    0.000
  308.500    0.204    0.346  112.146    5.904    0.000
  308.750    0.201    0.348  114.615    5.583    0.000
  309.000    0.200    0.356  115.235    5.481    0.000
  309.250    0.200    0.365  116.473    5.381    0.000
  309.500    0.200    0.378  115.866    5.485    0.000
  309.750    0.203    0.390  114.029    5.696    0.000
  310.000    0.209    0.389  112.194    6.142    0.000
  310.250    0.215    0.375  110.973    6.750    0.000
  310.500    0.204    0.373  109.750    7.010    0.000
  310.750    0.194    0.371  107.298    7.144    0.000
  311.000    0.191    0.363  106.075    7.282    0.000
  311.250    0.202    0.352  104.856    7.150    0.000
  311.500    0.232    0.352  104.862    6.888    0.000
  311.750    0.258    0.354  105.485    6.636    0.000
  312.000    0.269    0.359  104.878    6.159    0.000
  312.250    0.264    0.362  104.273    5.934    0.000
  312.500    0.251    0.357  105.508    5.825    0.000
  312.750    0.242    0.353  108.589    5.827    0.000
  313.000    0.233    0.355  111.055    5.721    0.000
  313.250    0.232    0.360  111.063    5.723    0.000
  313.500    0.230    0.368  109.228    5.725    0.000
  313.750    0.232    0.375  107.391    5.726    0.000
  314.000    0.237    0.381  106.168    5.728    0.000
  314.250    0.245    0.376  102.488    5.519    0.000
  314.500    0.259    0.364   97.576    5.219    0.000
  314.750    0.287    0.363   89.593    5.028    0.000
  315.000    0.317    0.371   92.060    4.935    0.000
  315.250    0.353    0.374   96.986    4.938    0.000
  315.500    0.312    0.371  101.297    5.128    0.000
  315.750    0.279    0.360  104.378    5.427    0.000
  316.000    0.269    0.359  104.386    5.852    0.000
  316.250    0.274    0.369  101.320    6.310    0.000
  316.500    0.268    0.372  101.941    6.678    0.000
  316.750    0.257    0.365  104.408    6.680    0.000
  317.000    0.245    0.359  105.647    6.558    0.000
  317.250    0.246    0.358  104.424    6.560    0.000
  317.500    0.256    0.369  102.586    6.441    0.000
  317.750    0.263    0.371  102.596    6.322    0.000
  318.000    0.263    0.335  103.217    6.325    0.000
  318.250    0.262    0.316  102.609    6.094    0.000
  318.500    0.262    0.306  100.159    6.096    0.000
  318.750    0.262    0.289   97.091    5.873    0.000
  319.000    0.262    0.272   90.953    5.659 2262.210
  319.250    0.264    0.240   84.813    5.350 2258.050
  319.500    0.270    0.217   81.746    4.782 2247.600
  319.750    0.294    0.220   82.987    4.274 2207.850
  320.000    0.330    0.231   83.605    3.967 2145.070
  320.250    0.365    0.240   83.615    4.043 2086.470
  320.500    0.370    0.240   83.624    4.199 2078.130
  320.750    0.335    0.238   83.629    4.701 2136.780
  321.000    0.276    0.237   83.021    6.002 2237.330
  321.250    0.221    0.237   83.029    7.520 2331.580
  321.500    0.180    0.237   83.038    8.420 2402.800
  321.750    0.138    0.243   83.662    8.911 2474.030
  322.000    0.069    0.262   83.668    9.082 2591.310
  322.250    0.177    0.286   87.363    9.433 2407.090
  322.500    0.231    0.320   92.292    8.920 2314.990
  322.750    0.216    0.313   92.913    8.277 2340.140
  323.000    0.206    0.309   92.304    7.261 2356.930
  323.250    0.222    0.325   91.084    7.263 2329.740
  323.500    0.262    0.346   91.091    7.265 2262.760
  323.750    0.264    0.357   92.942    6.869 2258.620
  324.000    0.260    0.358   95.408    6.495 2264.930
  324.250    0.259    0.358   96.646    6.746 2267.060
  324.500    0.261    0.355   92.966    7.274 2262.900
  324.750    0.265    0.345   93.587    7.993 2256.640
  325.000    0.270    0.340   92.980    8.147 2248.300
  325.250    0.272    0.335   94.832    7.998 2244.140
  325.500    0.268    0.342   97.915    7.564 2252.560
  325.750    0.261    0.347   98.536    7.424 2263.050
  326.000    0.249    0.341   97.314    7.289 2284.020
  326.250    0.227    0.336   94.248    7.156 2321.740
  326.500    0.189    0.325   91.182    7.025 2386.680
  326.750    0.161    0.321   91.190    6.897 2434.870
  327.000    0.147    0.326   96.117    6.644 2457.940
  327.250    0.204    0.345   99.811    5.939 2361.650
