~VERSION INFORMATION
 VERS.                 2.0:   CWLS LOG ASCII STANDARD -VERSION 2.0
 WRAP.                  NO:   ONE LINE PER DEPTH STEP
~WELL INFORMATION BLOCK
#MNEM.UNIT           DATA                    DESCRIPTION OF MNEMONIC
#---------    -------------------            -------------------------------
# Generated from Intellog Unique Number	CN_94_101/WELL/1071
WELL.         CHEVRON CANADA RESOURCES       : Well_name    - WELL
LOC .         AA/10-30-094-07W4/0            : Location     - LOCATION
UWI .         AA/10-30-094-07W400            : Uwi          - UNIQUE WELL ID
ENTR.         JOETTE                         : Entered      - ENTERED BY
SRVC.         SCHLUMBERGER                   : Scn          - SERVICE COMPANY
DATE.         04/12/92                       : Date         - LOG DATE
STRT.M        100                            : top_depth    - START DEPTH
STOP.M        207                            : bot_depth    - STOP DEPTH
STEP.M        0.25                           : increment    - STEP LENGTH
 NULL. -999.2500:NULL Value
~CURVE INFORMATION BLOCK
#MNEM UNIT       ERCB CURVE CODE    CURVE DESCRIPTION
#-----------   ------------------   ----------------------------------
DEPT.M        00 001 00 00         : DEPTH        - DEPTH
GR  .API      00 310 00 00         : GR           - GAMMA RAY
ILD .OHMM     00 120 00 00         : RESD         - DEEP RESISTIVITY (DIL)
DPHI.V/V      00 890 00 00         : PHID         - DENSITY POROSITY (SANDSTONE)
NPHI.V/V      00 330 00 00         : PHIN         - NEUTRON POROSITY (SANDSTONE)
CALI.MM       00 280 01 00         : CAL          - CALIPER
~PARAMETER INFORMATION
#MNEM.UNIT           DATA             DESCRIPTION OF MNEMONIC
#---------         -----------     ------------------------------
GL  .M        463.6                : gl           - GROUND LEVEL ELEVATION
EREF.M        463.6                : kb           - ELEVATION OF DEPTH REFERENCE
DATM.M        463.6                : datum        - DATUM ELEVATION
TDD .M        289.6                : tdd          - TOTAL DEPTH DRILLER
RUN .         ONE                  : Run          - RUN NUMBER
ENG .         BILL                 : Engineer     - RECORDING ENGINEER
WIT .         JIM                  : Witness      - WITNESSED BY
MUD .         GEL                  : Mud_type     - MUD TYPE
MATR.         SANDSTONE            : Logunit      - NEUTRON MATRIX
TMAX.C        14.2                 : BHT          - MAXIMUM RECORDED TEMPERATURE
BHTD.M        289.6                : BHTDEP       - MAXIMUM RECORDED TEMPERATURE
RMT .C        14.5                 : MDTP         - TEMPERATURE OF MUD
MUDD.KG/M     1022                 : MWT          - MUD DENSITY
NEUT.         1                    : NEUTRON      - NEUTRON TYPE
RESI.         0                    : RESIST       - RESISTIVITY TYPE
RM  .OHMM     14.6                 : RM           - RESISTIVITY OF MUD
RMC .OHMM     7.81                 : RMC          - RESISTIVITY OF MUD CAKE
RMF .OHMM     11.3                 : RMF          - RESISTIVITY OF MUD FILTRATE
SUFT.C        4                    : SUFT         - SURFACE TEMPERATURE
~A  DEPTH       GR     RESD     PHID     PHIN      CAL
# ...
  173.000   39.537   77.578    0.332    0.357  137.607
  173.250   41.358   62.127    0.335    0.360  137.592
  173.500   35.182   64.378    0.342    0.369  137.572
  173.750   28.999   73.141    0.343    0.381  137.547
  174.000   27.129   80.069    0.347    0.399  137.936
  174.250   26.490   72.962    0.353    0.403  137.916
  174.500   28.932   65.253    0.354    0.381  137.891
  174.750   30.138   68.831    0.344    0.374  137.876
  175.000   28.883   67.534    0.335    0.409  137.443
  175.250   29.474   69.981    0.324    0.404  137.418
  175.500   34.986   67.348    0.321    0.396  137.408
  175.750   40.498   63.652    0.322    0.380  136.970
  176.000   42.929   65.958    0.329    0.362  136.547
  176.250   39.828   64.676    0.337    0.371  135.710
  176.500   36.728   74.844    0.345    0.394  135.695
  176.750   37.922   88.221    0.355    0.406  135.671
  177.000   37.282  104.019    0.348    0.389  135.656
  177.250   34.188  122.609    0.342    0.370  136.856
  177.500   29.242  147.206    0.334    0.370  138.066
  177.750   26.142  186.771    0.333    0.375  140.087
  178.000   23.656  149.573    0.329    0.370  140.879
  178.250   22.408   90.858    0.324    0.356  140.864
  178.500   29.765   67.598    0.304    0.338  140.431
  178.750   45.121   70.047    0.285    0.331  140.416
  179.000   54.324   54.069    0.295    0.347  140.416
  179.250   49.378   48.342    0.339    0.379  139.136
  179.500   29.053   90.303    0.330    0.369  139.136
  179.750   29.643  110.433    0.323    0.369  139.908
  180.000   29.004  140.071    0.322    0.365  140.311
  180.250   27.749  150.589    0.322    0.365  140.286
  180.500   27.103  150.450    0.325    0.370  140.267
  180.750   25.239  134.555    0.336    0.367  140.247
  181.000   26.439   86.401    0.336    0.372  140.232
  181.250   31.336  111.660    0.337    0.415  139.799
  181.500   31.921  197.318    0.340    0.429  139.365
  181.750   29.436  522.909    0.344    0.417  139.351
  182.000   27.560  701.118    0.346    0.407  139.326
  182.250   28.772  826.420    0.349    0.395  139.316
  182.500   29.978  752.837    0.351    0.380  139.296
  182.750   30.575  724.739    0.353    0.370  139.271
  183.000   31.165  710.650    0.349    0.385  139.251
  183.250   32.986  709.562    0.345    0.401  139.231
  183.500   37.883  683.079    0.343    0.413  139.620
  183.750   40.935  634.012    0.342    0.412  140.013
  184.000   40.911  438.222    0.350    0.405  140.396
  184.250   38.425  384.775    0.359    0.393  141.193
  184.500   33.480  608.855    0.362    0.399  141.985
  184.750   29.137 1037.040    0.364    0.388  142.373
  185.000   27.894 1177.840    0.357    0.359  141.133
  185.250   24.788 1093.230    0.336    0.346  140.705
  185.500   25.384   97.894    0.308    0.363  143.135
  185.750   32.742   79.854    0.279    0.375  150.872
  186.000   71.475   87.417    0.262    0.409  148.811
  186.250  100.985   63.872    0.248    0.429  148.383
  186.500   97.885   29.976    0.267    0.423  147.955
  186.750   89.242   32.835    0.270    0.413  145.485
  187.000   86.750   34.025    0.289    0.437  145.465
  187.250   84.265   37.259    0.306    0.426  145.037
  187.500   78.095   64.641    0.287    0.411  142.568
  187.750   46.081   88.308    0.262    0.393  140.098
  188.000   50.363   55.654    0.246    0.374  139.670
  188.250   66.948   50.698    0.254    0.374  144.549
  188.500   73.691   53.511    0.262    0.387  147.796
  188.750   77.973   50.574    0.265    0.424  144.918
  189.000   77.333   42.801    0.270    0.423  143.668
  189.250   82.846   35.562    0.273    0.418  144.465
  189.500  103.116   29.538    0.257    0.432  148.941
  189.750   88.333   26.908    0.233    0.444  144.022
  190.000   80.311   31.717    0.241    0.427  146.446
  190.250   78.442   31.678    0.255    0.406  143.569
  190.500   71.029   36.659    0.272    0.380  141.901
  190.750   55.625   95.377    0.286    0.351  141.891
  191.000   40.836  150.968    0.287    0.339  141.871
  191.250   30.353 1621.020    0.293    0.319  141.856
  191.500   26.004 1710.950    0.301    0.341  141.831
  191.750   25.377 1204.190    0.300    0.363  140.586
  192.000   23.507  718.360    0.272    0.360  140.163
  192.250   29.634  319.125    0.247    0.381  141.771
  192.500   54.223  120.126    0.237    0.395  142.981
  192.750   71.418   40.478    0.242    0.389  142.140
  193.000   70.169   45.163    0.230    0.383  142.125
  193.250   73.221   50.374    0.236    0.351  143.325
  193.500   70.736   43.411    0.253    0.379  143.713
  193.750   64.559   68.712    0.302    0.400  142.882
  194.000   49.764   80.993    0.319    0.401  141.229
  194.250   34.975  262.805    0.330    0.396  139.979
  194.500   24.493  352.478    0.327    0.392  140.771
  194.750   21.393  385.982    0.315    0.377  141.159
  195.000   23.208  287.081    0.304    0.348  140.731
  195.250   25.644  225.713    0.295    0.342  141.119
  195.500   26.235  225.437    0.296    0.358  142.324
  195.750   22.525  479.028    0.309    0.374  141.075
  196.000   20.655  630.568    0.316    0.366  141.065
  196.250   34.780  877.170    0.308    0.353  140.632
  196.500   51.981  245.959    0.299    0.357  141.428
  196.750   47.650  182.993    0.310    0.364  141.817
  197.000   32.246  154.820    0.324    0.369  140.975
  197.250   20.527  254.168    0.328    0.364  140.965
  197.500   26.654  288.853    0.330    0.361  141.354
  197.750   33.397  549.606    0.327    0.374  141.742
  198.000   40.140  130.544    0.332    0.386  141.314
  198.250   35.809  184.970    0.342    0.396  140.472
  198.500   26.557  358.484    0.351    0.418  140.044
  198.750   28.378  134.942    0.333    0.425  140.029
  199.000   51.731   72.039    0.280    0.394  140.413
  199.250   70.168   78.910    0.251    0.361  141.623
  199.500  126.747   89.679    0.230    0.348  144.461
  199.750  126.722   23.788    0.217    0.373  147.707
  200.000  105.160   16.747    0.195    0.420  150.954
  200.250   96.523   17.032    0.200    0.440  156.650
  200.500  111.263   20.082    0.222    0.455  158.671
  200.750  118.621   22.400    0.228    0.467  154.568
  201.000  125.973   20.027    0.216    0.471  152.507
  201.250  120.418   20.003    0.194    0.459  150.849
  201.500  109.935   20.734    0.167    0.453  147.155
  201.750  105.604   22.704    0.137    0.420  146.318
  202.000  107.425   23.527    0.136    0.388  145.890
  202.250  105.555   24.379    0.139    0.392  143.012
  202.500   64.923   27.689    0.124    0.342  142.987
  202.750   55.055   33.872    0.094    0.239  142.962
  203.000   53.800   51.661    0.004    0.213  142.952
  203.250   67.925   69.288   -0.003    0.235  143.341
  203.500   74.668   53.467    0.016    0.267  144.138
  203.750   90.638   36.282    0.049    0.300  144.526
  204.000  102.918   29.056    0.084    0.325  144.909
  204.250  103.508   30.108    0.101    0.337  144.889
  204.500   95.487   36.820    0.112    0.354  143.645
  204.750   85.619   45.864    0.064    0.343  143.630
  205.000   96.053   36.060    0.057    0.347  144.018
  205.250  104.641   29.952    0.077    0.346  145.218
  205.500  107.077   27.800    0.093    0.343  144.382
  205.750  109.514   40.123    0.080    0.332  143.137
  206.000   94.110   44.753    0.050    0.310  140.259
  206.250   86.703   35.840    0.041    0.283  139.423
  206.500   83.603   37.127    0.067    0.314  141.036
  206.750   94.652   40.668    0.067    0.317  142.236
  207.000   83.548   53.533    0.036    0.306  140.996
