~VERSION INFORMATION
 VERS.                 2.0:   CWLS LOG ASCII STANDARD -VERSION 2.0
 WRAP.                  NO:   ONE LINE PER DEPTH STEP
~WELL INFORMATION BLOCK
#MNEM.UNIT           DATA                    DESCRIPTION OF MNEMONIC
#---------    -------------------            -------------------------------
# Generated from Intellog Unique Number	CN_94_101/WELL/1076
WELL.         11-33-094-06W4                 : Well_name    - WELL
LOC .         AA/11-33-094-06W4/0            : Location     - LOCATION
UWI .         AA/11-33-094-06W400            : Uwi          - UNIQUE WELL ID
ENTR.         JOETTE                         : Entered      - ENTERED BY
SRVC.         SCHLUMBERGER                   : Scn          - SERVICE COMPANY
DATE.         04/14/92                       : Date         - LOG DATE
STRT.M        100                            : top_depth    - START DEPTH
STOP.M        330                            : bot_depth    - STOP DEPTH
STEP.M        0.25                           : increment    - STEP LENGTH
 NULL. -999.2500:NULL Value
~CURVE INFORMATION BLOCK
#MNEM UNIT       ERCB CURVE CODE    CURVE DESCRIPTION
#-----------   ------------------   ----------------------------------
DEPT.M        00 001 00 00         : DEPTH        - DEPTH
ILD .OHMM     00 120 00 00         : RESD         - DEEP RESISTIVITY (DIL)
DPHI.V/V      00 890 00 00         : PHID         - DENSITY POROSITY (SANDSTONE)
NPHI.V/V      00 330 00 00         : PHIN         - NEUTRON POROSITY (SANDSTONE)
GR  .API      00 310 00 00         : GR           - GAMMA RAY
CALI.MM       00 280 01 00         : CAL          - CALIPER
~PARAMETER INFORMATION
#MNEM.UNIT           DATA             DESCRIPTION OF MNEMONIC
#---------         -----------     ------------------------------
GL  .M        597.57               : gl           - GROUND LEVEL ELEVATION
EREF.M        600.27               : kb           - ELEVATION OF DEPTH REFERENCE
DATM.M        600.27               : datum        - DATUM ELEVATION
TDD .M        335                  : tdd          - TOTAL DEPTH DRILLER
RUN .         ONE                  : Run          - RUN NUMBER
ENG .         BILL                 : Engineer     - RECORDING ENGINEER
WIT .         JIM                  : Witness      - WITNESSED BY
MUD .         GEL                  : Mud_type     - MUD TYPE
MATR.         SANDSTONE            : Logunit      - NEUTRON MATRIX
TMAX.C        16                   : BHT          - MAXIMUM RECORDED TEMPERATURE
BHTD.M        335                  : BHTDEP       - MAXIMUM RECORDED TEMPERATURE
RMT .C        19                   : MDTP         - TEMPERATURE OF MUD
MUDD.KG/M     1030                 : MWT          - MUD DENSITY
NEUT.         1                    : NEUTRON      - NEUTRON TYPE
RESI.         0                    : RESIST       - RESISTIVITY TYPE
RM  .OHMM     8.1                  : RM           - RESISTIVITY OF MUD
RMC .OHMM     8.1                  : RMC          - RESISTIVITY OF MUD CAKE
RMF .OHMM     8.1                  : RMF          - RESISTIVITY OF MUD FILTRATE
SUFT.C        4                    : SUFT         - SURFACE TEMPERATURE
~A  DEPTH     RESD     PHID     PHIN       GR      CAL
# ...
  246.000    6.235    0.275    0.481   90.252  188.827
  246.250    6.243    0.270    0.481   88.494  187.887
  246.500    6.250    0.270    0.471   86.148  185.952
  246.750    6.379    0.259    0.475   86.778  186.008
  247.000    6.384    0.252    0.514   89.200  190.072
  247.250    6.038    0.260    0.535   92.210  192.090
  247.500    5.817    0.266    0.529   94.035  194.136
  247.750    5.395    0.266    0.499   96.457  195.187
  248.000    4.820    0.260    0.478   98.298  196.252
  248.250    4.642    0.248    0.464   95.935  196.307
  248.500    4.648    0.235    0.460   92.394  196.363
  248.750    4.565    0.223    0.474   91.822  197.400
  249.000    4.660    0.235    0.486   92.452  197.483
  249.250    4.755    0.254    0.497   94.277  197.525
  249.500    4.949    0.270    0.501   93.116  196.599
  249.750    4.953    0.281    0.493   94.949  195.660
  250.000    4.864    0.288    0.507   97.968  195.715
  250.250    4.599    0.296    0.561  100.382  194.790
  250.500    4.267    0.300    0.612   99.826  194.832
  250.750    4.190    0.294    0.577   95.083  193.892
  251.000    4.196    0.285    0.550   96.310  193.962
  251.250    4.281    0.278    0.536   98.732  194.998
  251.500    4.453    0.278    0.539  101.751  195.040
  251.750    4.723    0.281    0.537  102.382  196.091
  252.000    4.915    0.288    0.532   98.235  196.161
  252.250    4.919    0.271    0.529   94.081  195.221
  252.500    4.925    0.259    0.534   96.511  195.263
  252.750    5.427    0.265    0.542   96.552  194.351
  253.000    5.864    0.269    0.527   94.786  194.379
  253.250    6.713    0.264    0.504   90.648  192.458
  253.500    7.255    0.260    0.492   90.673  192.500
  253.750    7.255    0.265    0.502   96.081  190.607
  254.000    8.806    0.267    0.523  101.488  189.653
  254.250    8.489    0.268    0.534  102.715  188.742
  254.500    8.661    0.257    0.526  102.160  188.769
  254.750    8.669    0.246    0.513  101.596  187.844
  255.000    8.518    0.237    0.499  101.033  187.872
  255.250    8.206    0.233    0.485  100.461  186.932
  255.500    7.763    0.232    0.481   98.106  185.993
  255.750    7.770    0.230    0.460   92.168  180.077
  256.000    7.777    0.165    0.442   86.230  173.180
  256.250    7.937    0.191    0.421   86.861  174.231
  256.500    8.583    0.224    0.389   91.074  175.282
  256.750    8.925    0.245    0.474   90.510  175.338
  257.000    9.281    0.260    0.468   91.141  175.393
  257.250    9.475    0.262    0.462   97.750  176.444
  257.500    8.296    0.238    0.469   96.001  177.495
  257.750    4.507    0.243    0.480   94.243  177.537
  258.000    3.588    0.236    0.478   95.471  179.597
  258.250    3.083    0.198    0.457   91.324  175.658
  258.500    2.600    0.127    0.408   87.766  171.733
  258.750    2.505    0.106    0.377   84.217  168.803
  259.000    2.415    0.139    0.445   89.625  168.858
  259.250    2.463    0.203    0.450   93.241  171.913
  259.500    2.662    0.249    0.459   92.694  174.968
  259.750    2.989    0.262    0.480   92.710  176.033
  260.000    3.623    0.287    0.502   92.744  176.061
  260.250    4.069    0.315    0.539   88.000  177.112
  260.500    4.231    0.312    0.560   87.445  178.163
  260.750    4.489    0.303    0.580   88.067  178.232
  261.000    4.493    0.297    0.595   91.094  178.302
  261.250    4.586    0.299    0.583   92.910  178.343
  261.500    4.773    0.298    0.559   95.349  179.380
  261.750    4.963    0.288    0.540   93.583  179.450
  262.000    5.163    0.274    0.521   93.019  180.501
  262.250    5.169    0.266    0.521   96.038  182.547
  262.500    5.276    0.265    0.510   96.668  182.588
  262.750    5.386    0.255    0.474   92.522  183.653
  263.000    5.392    0.253    0.453   93.153  185.699
  263.250    5.395    0.243    0.444   93.791  186.750
  263.500    5.101    0.244    0.468   92.033  187.814
  263.750    5.014    0.256    0.486   91.461  187.884
  264.000    5.214    0.265    0.496   92.697  187.912
  264.250    5.319    0.267    0.488   93.916  185.977
  264.500    5.329    0.258    0.459   92.167  184.042
  264.750    4.943    0.253    0.471   89.812  182.108
  265.000    4.498    0.248    0.490   88.054  181.168
  265.250    4.250    0.241    0.488   87.482  180.229
  265.500    3.943    0.194    0.465   85.724  178.294
  265.750    3.727    0.221    0.457   85.169  178.350
  266.000    3.394    0.249    0.528   87.590  180.396
  266.250    3.209    0.275    0.520   92.401  181.446
  266.500    3.092    0.273    0.505   97.816  182.497
  266.750    3.037    0.270    0.493   97.850  181.558
  267.000    3.098    0.271    0.484   96.697  181.613
  267.250    3.285    0.276    0.498   94.334  181.669
  267.500    3.619    0.280    0.521   95.561  180.757
  267.750    3.987    0.277    0.535   97.975  180.799
  268.000    4.392    0.274    0.548  103.382  179.859
  268.250    5.028    0.271    0.542  106.401  178.934
  268.500    4.939    0.272    0.546  106.434  177.994
  268.750    4.758    0.271    0.554  106.476  178.050
  269.000    4.498    0.267    0.560  105.912  177.096
  269.250    4.679    0.271    0.559  102.960  176.171
  269.500    5.782    0.273    0.542   98.806  175.231
  269.750    7.422    0.263    0.518   94.668  173.296
  270.000   10.481    0.250    0.516   95.306  171.362
  270.250   11.116    0.248    0.520   97.720  171.445
  270.500   11.344    0.259    0.514  100.747  170.478
  270.750   11.146    0.249    0.499   98.384  170.533
  271.000   10.738    0.221    0.474   91.252  170.589
  271.250   10.348    0.222    0.436   84.717  169.650
  271.500   16.705    0.255    0.436   78.174  168.696
  271.750   27.495    0.276    0.446   70.445  167.757
  272.000   32.694    0.284    0.436   63.910  165.850
  272.250   38.876    0.270    0.428   65.735  166.873
  272.500   45.352    0.263    0.434   72.942  170.923
  272.750   51.905    0.259    0.439   72.975  172.969
  273.000   59.423    0.256    0.424   67.038  175.015
  273.250   64.221    0.248    0.391   61.689  175.070
  273.500   69.427    0.208    0.370   57.542  170.150
  273.750   72.241    0.142    0.334   53.404  168.216
  274.000   72.307    0.151    0.324   54.035  167.290
  274.250   67.089    0.244    0.352   56.457  167.359
  274.500   61.014    0.281    0.386   58.281  167.401
  274.750   36.468    0.299    0.399   55.338  167.471
  275.000   30.153    0.310    0.410   52.386  167.512
  275.250   21.404    0.318    0.400   46.440  168.563
  275.500   17.368    0.317    0.380   47.667  170.609
  275.750   15.505    0.298    0.368   53.672  169.670
  276.000   13.585    0.283    0.376   61.467  165.759
  276.250   12.604    0.285    0.371   66.277  164.791
  276.500   12.612    0.258    0.362   72.282  163.866
  276.750   12.392    0.232    0.373   93.222  163.907
  277.000   12.651    0.213    0.418  103.406  163.963
  277.250   12.906    0.223    0.410  108.216  169.008
  277.500   13.167    0.234    0.403  107.661  182.015
  277.750   13.966    0.220    0.400  105.306  180.080
  278.000   14.523    0.217    0.408  105.339  181.145
  278.250   15.705    0.212    0.440  103.581  181.173
  278.500   16.978    0.197    0.450  100.629  181.229
  278.750   17.650    0.185    0.430   99.477  181.284
  279.000   19.081    0.174    0.414   98.316  181.354
  279.250   19.848    0.170    0.410   95.364  181.409
  279.500   20.640    0.181    0.408   94.800  174.499
  279.750   22.320    0.185    0.413   95.431  173.559
  280.000   22.772    0.185    0.426   96.061  173.601
  280.250   24.618    0.201    0.436   96.086  174.666
  280.500   25.108    0.231    0.405   96.128  174.721
  280.750   25.639    0.242    0.394   96.161  171.805
  281.000   25.678    0.234    0.379   95.589  168.848
  281.250   25.702    0.218    0.394   94.437  162.932
  281.500   26.229    0.218    0.401   93.276  164.025
  281.750   26.768    0.209    0.392   80.173  165.062
  282.000   26.792    0.230    0.382   74.824  167.108
  282.250   27.878    0.250    0.368   74.858  170.149
