~VERSION INFORMATION
 VERS.                 2.0:   CWLS LOG ASCII STANDARD -VERSION 2.0
 WRAP.                  NO:   ONE LINE PER DEPTH STEP
~WELL INFORMATION BLOCK
#MNEM.UNIT           DATA                    DESCRIPTION OF MNEMONIC
#---------    -------------------            -------------------------------
# Generated from Intellog Unique Number	CC_88_90/WELL/3240
WELL.         IMPERIAL OIL                   : Well_name    - WELL
LOC .         AA/12-36-090-13W4/0            : Location     - LOCATION
UWI .         AA/12-36-090-13W400            : Uwi          - UNIQUE WELL ID
ENTR.         JOETTE                         : Entered      - ENTERED BY
SRVC.         SCHLUMBERGER                   : Scn          - SERVICE COMPANY
DATE.         03/11/92                       : Date         - LOG DATE
STRT.M        60.96                          : top_depth    - START DEPTH
STOP.M        161.96                         : bot_depth    - STOP DEPTH
STEP.M        0.25                           : increment    - STEP LENGTH
 NULL. -999.2500:NULL Value
~CURVE INFORMATION BLOCK
#MNEM UNIT       ERCB CURVE CODE    CURVE DESCRIPTION
#-----------   ------------------   ----------------------------------
DEPT.M        00 001 00 00         : DEPTH        - DEPTH
GR  .API      00 310 00 00         : GR           - GAMMA RAY
NPHI.V/V      00 330 00 00         : PHIN         - NEUTRON POROSITY (SANDSTONE)
ILD .OHMM     00 120 00 00         : RESD         - DEEP RESISTIVITY (DIL)
~PARAMETER INFORMATION
#MNEM.UNIT           DATA             DESCRIPTION OF MNEMONIC
#---------         -----------     ------------------------------
GL  .M        499.567              : gl           - GROUND LEVEL ELEVATION
EREF.M        499.567              : kb           - ELEVATION OF DEPTH REFERENCE
DATM.M        499.567              : datum        - DATUM ELEVATION
TDD .M        213.97               : tdd          - TOTAL DEPTH DRILLER
RUN .         ONE                  : Run          - RUN NUMBER
ENG .         BILL                 : Engineer     - RECORDING ENGINEER
WIT .         JIM                  : Witness      - WITNESSED BY
MUD .         GEL                  : Mud_type     - MUD TYPE
MATR.         SANDSTONE            : Logunit      - NEUTRON MATRIX
TMAX.C        15.5556              : BHT          - MAXIMUM RECORDED TEMPERATURE
BHTD.M        213.97               : BHTDEP       - MAXIMUM RECORDED TEMPERATURE
RMT .C        4.44444              : MDTP         - TEMPERATURE OF MUD
MUDD.KG/M     1190                 : MWT          - MUD DENSITY
NEUT.         1                    : NEUTRON      - NEUTRON TYPE
RESI.         0                    : RESIST       - RESISTIVITY TYPE
RM  .OHMM     14.3                 : RM           - RESISTIVITY OF MUD
RMC .OHMM     14.3                 : RMC          - RESISTIVITY OF MUD CAKE
RMF .OHMM     14.3                 : RMF          - RESISTIVITY OF MUD FILTRATE
SUFT.C        4                    : SUFT         - SURFACE TEMPERATURE
~A  DEPTH       GR     PHIN     RESD
   60.960   85.425    0.380   29.990
   61.210   84.199    0.379   31.003
   61.460   87.275    0.352   30.712
   61.710   96.496    0.371   31.290
   61.960  112.478    0.396   30.130
   62.210  106.336    0.441   12.743
   62.460  105.725    0.461   13.539
   62.710  119.863    0.465   13.031
   62.960  127.241    0.450   11.943
   63.210  113.723    0.434   11.869
   63.460  111.268    0.451   11.651
   63.710  124.792    0.466   11.070
   63.960  121.108    0.472   10.345
   64.210  110.048    0.479    9.691
   64.460  109.437    0.486    9.256
   64.710  105.138    0.487    9.037
   64.960  102.683    0.480    8.964
   65.210  103.916    0.488    9.179
   65.460  112.523    0.479    9.323
   65.710  105.765    0.498    9.249
   65.960   93.477    0.473    9.973
   66.210  100.855    0.485   10.914
   66.460   95.942    0.502    9.246
   66.710  108.237    0.498    8.521
   66.960  115.614    0.470    8.592
   67.210  119.920    0.472    9.315
   67.460  127.297    0.468    9.966
   67.710  112.551    0.464   10.617
   67.960  104.565    0.465    9.891
   68.210  107.641    0.461    9.672
   68.460  118.706    0.487    9.889
   68.710  121.168    0.501    9.815
   68.960  121.171    0.491    9.452
   69.210  109.497    0.493    9.233
   69.460   90.449    0.489    8.870
   69.710   89.838    0.483    8.579
   69.960   93.528    0.474    8.361
   70.210   94.760    0.460    7.997
   70.460  108.899    0.422    7.779
   70.710  120.578    0.372   15.529
   70.960  126.727    0.384   24.945
   71.210  125.501    0.376   28.493
   71.460  106.453    0.354   42.255
   71.710   84.331    0.354   41.675
   71.960   97.856    0.357   41.094
   72.210   89.255    0.368   40.586
   72.460   91.102    0.377   41.671
   72.710   99.094    0.384   41.525
   72.960   99.712    0.373   40.944
   73.210  102.173    0.369   40.653
   73.460   96.030    0.380   40.507
   73.710  102.794    0.380   40.289
   73.960  124.307    0.387   39.853
   74.210  135.987    0.393   39.127
   74.460  129.230    0.378   38.185
   74.710  116.941    0.368   38.618
   74.960  102.195    0.362   38.834
   75.210  112.646    0.354   38.253
   75.460  114.493    0.347   37.673
   75.710  118.183    0.378   36.802
   75.960  121.874    0.377   36.294
   76.210  118.189    0.363   38.466
   76.460  115.734    0.349   37.016
   76.710  118.196    0.352   36.001
   76.960  120.043    0.354   33.609
   77.210  108.984    0.359   33.245
   77.460  100.998    0.360   29.767
   77.710  102.229    0.351   29.331
   77.960  113.295    0.339   30.779
   78.210  102.850    0.294   32.734
   78.460  101.625    0.290   33.530
   78.710  104.701    0.323   31.355
   78.960  110.849    0.338   28.456
   79.210  112.082    0.365   27.224
   79.460  105.325    0.359   27.802
   79.710  109.630    0.337   29.540
   79.960  109.633    0.299   27.945
   80.210  107.792    0.291   31.203
   80.460  108.410    0.322   36.635
   80.710   99.809    0.349   33.592
   80.960   99.812    0.386   30.041
   81.210   97.972    0.363   29.025
   81.460   83.225    0.320   27.575
   81.710   88.145    0.279   26.995
   81.960   94.909    0.304   29.891
   82.210   89.380    0.328   32.498
   82.460   91.842    0.344   32.859
   82.710  101.678    0.358   32.495
   82.960  102.296    0.364   27.930
   83.210   93.081    0.372   24.670
   83.460  105.375    0.377   22.567
   83.710  120.742    0.374   21.625
   83.960  120.131    0.382   21.768
   84.210  117.061    0.385   22.419
   84.460  120.137    0.361   29.590
   84.710  109.079    0.369   32.776
   84.960   99.249    0.384   29.153
   85.210   94.949    0.258   25.819
   85.460   98.640    0.116   33.135
   85.710   99.258   -0.062   41.246
   85.960  100.490   -0.113   40.883
   86.210   98.650   -0.167   40.303
   86.460   91.892   -0.206   39.577
   86.710   96.197   -0.176   39.068
   86.960  108.492   -0.154   38.922
   87.210   94.975   -0.132   38.704
   87.460   95.593    0.090   38.486
   87.710  102.356    0.227   37.977
   87.960   92.526    0.282   37.179
   88.210  101.747    0.356   36.091
   88.460  100.522    0.381   23.558
   88.710   89.463    0.370   22.253
   88.960   88.852    0.371   22.252
   89.210   94.386    0.378   22.468
   89.460   98.691    0.390   23.264
   89.710   95.621    0.396   26.305
   89.960   88.864    0.381   25.362
   90.210   91.325    0.267   23.984
   90.460  118.369    0.230   26.953
   90.710  104.852    0.234   29.633
   90.960   93.178    0.294   19.562
   91.210   90.723    0.351   20.430
   91.460   89.498    0.358   22.168
   91.710  112.239    0.346   22.094
   91.960  123.919    0.345   21.296
   92.210  113.475    0.358   20.860
   92.460  114.708    0.366   21.294
   92.710  114.710    0.365   21.655
   92.960  104.266    0.361   22.088
   93.210   98.738    0.366   22.666
   93.460   97.512    0.378   22.955
   93.710  109.806    0.388   22.954
   93.960  120.258    0.388   22.808
   94.210  110.427    0.391   23.386
   94.460  107.357    0.393   24.110
   94.710  109.819    0.386   23.963
   94.960  108.593    0.378   23.310
   95.210  108.597    0.387   22.947
   95.460  116.589    0.394   23.308
   95.710  112.290    0.404   23.741
   95.960   93.241    0.419   24.102
   96.210   87.099    0.412   24.101
   96.460   82.800    0.382   24.100
   96.710   80.960    0.387   24.751
   96.960   72.974    0.393   25.546
   97.210   64.987    0.356   26.559
   97.460   74.823    0.392   27.065
   97.710   83.430    0.380   27.209
   97.960   88.350    0.365   27.425
   98.210   96.957    0.388   27.424
   98.460  116.012    0.398   27.278
   98.710  106.797    0.366   27.856
   98.960  117.862    0.371   26.768
   99.210  127.084    0.398   25.753
   99.460  120.327    0.397   25.969
   99.710  116.642    0.387   26.331
   99.960  120.948    0.392   26.836
  100.210  124.024    0.389   27.053
  100.460  128.329    0.372   27.123
  100.710  116.655    0.377   27.122
  100.960  110.512    0.386   27.266
  101.210   95.766    0.393   27.265
  101.460   90.239    0.403   26.757
  101.710   97.002    0.415   25.887
  101.960  102.536    0.415   24.726
  102.210  110.528    0.390   26.174
  102.460  106.844    0.388   26.245
  102.710  111.764    0.391   25.954
  102.960  106.850    0.390   24.866
  103.210  108.697    0.374   23.996
  103.460  105.627    0.378   24.719
  103.710   93.954    0.384   25.008
  103.960   93.957    0.373   22.906
  104.210  104.408    0.379   21.456
  104.460  102.567    0.385   21.889
  104.710  110.560    0.395   22.250
  104.960  116.708    0.404   22.249
  105.210  103.806    0.401   22.755
  105.460   81.685    0.390   24.637
  105.710   82.302    0.380   25.143
  105.960  101.972    0.380   24.707
  106.210  102.590    0.384   24.054
  106.460   88.457    0.374   23.908
  106.710   79.857    0.378   23.689
  106.960   83.548    0.388   23.544
  107.210   81.093    0.388   23.035
  107.460   77.408    0.385   23.034
  107.710   94.619    0.390   22.960
  107.960  107.528    0.397   22.887
  108.210  105.073    0.387   22.668
  108.460   96.472    0.375   22.377
  108.710  105.079    0.364   23.173
  108.960  108.770    0.378   24.331
  109.210   95.867    0.394   24.402
  109.460   91.568    0.394   27.081
  109.710   87.884    0.400   25.559
  109.960   89.116    0.417   18.604
  110.210   77.443    0.461   11.648
  110.460   80.519    0.455   11.068
  110.710  111.865    0.451   12.370
  110.960  114.941    0.461   10.413
  111.210  114.329    0.446    9.760
  111.460  111.260    0.462    8.165
  111.710   84.836    0.483    7.585
  111.960   81.767    0.473    6.859
  112.210   84.843    0.467    6.713
  112.460   89.148    0.478    7.363
  112.710  103.900    0.491    7.652
  112.960  130.330    0.480    7.941
  113.210  124.188    0.493    8.519
  113.460  111.899    0.501    9.315
  113.710  104.529    0.480    8.806
  113.960  105.146    0.481    8.371
  114.210   91.013    0.492    8.080
  114.460   85.486    0.519    7.861
  114.710   83.031    0.531    7.788
  114.960   82.420    0.526    7.641
