~VERSION INFORMATION
 VERS.                 2.0:   CWLS LOG ASCII STANDARD -VERSION 2.0
 WRAP.                  NO:   ONE LINE PER DEPTH STEP
~WELL INFORMATION BLOCK
#MNEM.UNIT           DATA                    DESCRIPTION OF MNEMONIC
#---------    -------------------            -------------------------------
# Generated from Intellog Unique Number	CN_94_101/WELL/1069
WELL.         SUNCOR INC.                    : Well_name    - WELL
LOC .         AA/10-20-094-06W4/0            : Location     - LOCATION
UWI .         AA/10-20-094-06W400            : Uwi          - UNIQUE WELL ID
ENTR.         JOETTE                         : Entered      - ENTERED BY
SRVC.         SCHLUMBERGER                   : Scn          - SERVICE COMPANY
DATE.         04/10/92                       : Date         - LOG DATE
STRT.M        50                             : top_depth    - START DEPTH
STOP.M        300                            : bot_depth    - STOP DEPTH
STEP.M        0.25                           : increment    - STEP LENGTH
 NULL. -999.2500:NULL Value
~CURVE INFORMATION BLOCK
#MNEM UNIT       ERCB CURVE CODE    CURVE DESCRIPTION
#-----------   ------------------   ----------------------------------
DEPT.M        00 001 00 00         : DEPTH        - DEPTH
ILD .OHMM     00 120 00 00         : RESD         - DEEP RESISTIVITY (DIL)
DPHI.V/V      00 890 00 00         : PHID         - DENSITY POROSITY (SANDSTONE)
NPHI.V/V      00 330 00 00         : PHIN         - NEUTRON POROSITY (SANDSTONE)
GR  .API      00 310 00 00         : GR           - GAMMA RAY
CALI.MM       00 280 01 00         : CAL          - CALIPER
~PARAMETER INFORMATION
#MNEM.UNIT           DATA             DESCRIPTION OF MNEMONIC
#---------         -----------     ------------------------------
GL  .M        578.2                : gl           - GROUND LEVEL ELEVATION
EREF.M        581.4                : kb           - ELEVATION OF DEPTH REFERENCE
DATM.M        581.4                : datum        - DATUM ELEVATION
TDD .M        304                  : tdd          - TOTAL DEPTH DRILLER
RUN .         ONE                  : Run          - RUN NUMBER
ENG .         BILL                 : Engineer     - RECORDING ENGINEER
WIT .         JIM                  : Witness      - WITNESSED BY
MUD .         GEL                  : Mud_type     - MUD TYPE
MATR.         SANDSTONE            : Logunit      - NEUTRON MATRIX
TMAX.C        15                   : BHT          - MAXIMUM RECORDED TEMPERATURE
BHTD.M        304                  : BHTDEP       - MAXIMUM RECORDED TEMPERATURE
RMT .C        10                   : MDTP         - TEMPERATURE OF MUD
MUDD.KG/M     1050                 : MWT          - MUD DENSITY
NEUT.         1                    : NEUTRON      - NEUTRON TYPE
RESI.         0                    : RESIST       - RESISTIVITY TYPE
RM  .OHMM     13.1                 : RM           - RESISTIVITY OF MUD
RMC .OHMM     13.1                 : RMC          - RESISTIVITY OF MUD CAKE
RMF .OHMM     13.1                 : RMF          - RESISTIVITY OF MUD FILTRATE
SUFT.C        4                    : SUFT         - SURFACE TEMPERATURE
~A  DEPTH     RESD     PHID     PHIN       GR      CAL
   50.000    0.526    0.226    0.473   65.500  190.918
   50.250    0.479    0.224    0.477   66.132  187.848
   50.500    0.471    0.215    0.483   66.764  185.803
   50.750    0.569    0.208    0.476   67.391  181.712
   51.000    0.785    0.214    0.448   68.023  180.692
   51.250    0.729    0.226    0.442   68.031  180.720
   51.500    0.772    0.234    0.447   68.661  179.705
   51.750    0.652    0.235    0.451   68.661  179.724
   52.000    0.530    0.234    0.452   66.218  179.738
   52.250    0.583    0.217    0.443   63.752  179.767
   52.500    0.630    0.209    0.448   61.289  179.781
   52.750    0.938    0.212    0.457   63.160  179.805
   53.000    1.818    0.220    0.464   65.640  179.814
   53.250    2.157    0.235    0.467   66.272  179.838
   53.500    2.373    0.257    0.477   65.048  179.857
   53.750    5.252    0.258    0.487   63.206  178.847
   54.000   10.780    0.250    0.457   62.599  178.866
   54.250   13.794    0.160    0.428   64.461  178.885
   54.500   14.339    0.132    0.449   72.505  178.909
   54.750   13.063    0.135    0.477   79.314  184.072
   55.000   12.124    0.276    0.480   86.740  195.419
   55.250   12.600    0.320    0.488   97.256  206.771
   55.500   13.862    0.340    0.511  104.064  207.820
   55.750   14.685    0.353    0.525  109.636  206.805
   56.000   13.374    0.364    0.523  111.504  204.764
   56.250   10.277    0.377    0.510  111.516  206.843
   56.500    7.749    0.397    0.519  112.148  212.016
   56.750    6.301    0.460    0.552  111.542  215.120
   57.000    7.199    0.510    0.555  109.082  219.258
   57.250   12.703    0.354    0.526  105.383  220.307
   57.500   19.634    0.279    0.503   99.215  220.326
   57.750   21.600    0.273    0.434   89.958  219.315
   58.000   24.678    0.239    0.380   82.555  216.249
   58.250   27.149    0.217    0.340   75.152  215.244
   58.500   29.309    0.197    0.311   69.602  215.258
   58.750   29.897    0.174    0.321   67.145  217.341
   59.000   29.381    0.162    0.311   68.392  220.450
   59.250   29.396    0.149    0.301   69.021  226.648
   59.500   28.874    0.182    0.320   67.794  230.786
   59.750   27.317    0.209    0.320   65.334  232.865
   60.000   26.832    0.181    0.311   64.110  232.879
   60.250   25.863    0.185    0.316   68.446  232.908
   60.500   25.398    0.172    0.321   72.165  232.922
   60.750   24.959    0.173    0.326   74.648  232.937
   61.000   24.972    0.168    0.327   74.660  231.931
   61.250   24.996    0.168    0.324   72.203  231.950
   61.500   25.039    0.175    0.315   69.740  231.974
   61.750   24.583    0.183    0.321   68.518  233.013
   62.000   23.695    0.176    0.332   69.150  234.067
   62.250   23.274    0.171    0.348   69.159  235.120
   62.500   25.138    0.173    0.347   69.788  236.160
   62.750   27.131    0.181    0.318   69.182  238.243
   63.000   28.734    0.176    0.312   65.489  240.322
   63.250   32.222    0.178    0.306   63.026  240.341
   63.500   34.126    0.198    0.318   59.948  240.370
   63.750   36.850    0.199    0.328   57.487  240.384
   64.000   38.297    0.209    0.343   55.645  239.373
   64.250   39.820    0.229    0.347   56.895  236.308
   64.500   39.860    0.187    0.321   59.378  235.287
   64.750   39.889    0.188    0.305   61.861  235.306
   65.000   39.928    0.204    0.323   61.873  237.385
   65.250   36.375    0.228    0.360   61.881  235.344
   65.500   35.052    0.218    0.377   61.893  232.274
   65.750   31.924    0.219    0.377   61.292  237.447
   66.000   30.203    0.239    0.389   60.065  235.406
   66.250   29.112    0.277    0.451   56.987  229.247
   66.500   29.140    0.316    0.492   53.291  227.201
   66.750   29.725    0.349    0.537   50.213  221.046
   67.000   30.908    0.379    0.560   47.135  219.001
   67.250   32.129    0.448    0.580   47.144  214.901
   67.500   32.169    0.503    0.606   48.391  212.870
   67.750   32.185    0.486    0.621   49.638  212.884
   68.000   31.037    0.401    0.625   53.362  212.908
   68.250   29.909    0.375    0.567   55.225  214.982
   68.500   28.821    0.365    0.540   58.944  220.150
   68.750   28.310    0.243    0.456   62.662  224.293
   69.000   27.294    0.176    0.359   67.005  228.431
   69.250   26.809    0.181    0.330   68.864  230.505
   69.500   26.836    0.161    0.330   72.583  234.653
   69.750   26.862    0.160    0.332   75.690  235.697
   70.000   26.889    0.154    0.336   76.931  235.717
   70.250   27.958    0.158    0.336   76.946  233.671
   70.500   29.056    0.156    0.333   76.339  230.606
   70.750   30.197    0.169    0.338   78.204  228.560
   71.000   33.863    0.192    0.346   81.305  224.465
   71.250   37.263    0.217    0.388   82.550  223.449
   71.500   38.002    0.262    0.408   84.418  222.448
   71.750   38.039    0.283    0.427   84.429  221.433
   72.000   36.665    0.247    0.400   83.820  220.422
   72.250   35.332    0.231    0.382   81.360  219.406
   72.500   36.041    0.202    0.371   77.049  216.341
   72.750   41.972    0.218    0.357   73.971  214.295
   73.000   45.322    0.242    0.351   70.275  211.225
   73.250   47.113    0.249    0.355   65.964  207.125
   73.500   48.047    0.260    0.362   62.883  204.054
   73.750   49.035    0.280    0.367   59.187  200.984
   74.000   49.060    0.280    0.342   56.109  197.918
   74.250   49.108    0.284    0.334   51.795  194.848
   74.500   49.156    0.248    0.319   46.863  190.752
   74.750   46.517    0.248    0.321   43.785  188.707
   75.000   43.987    0.253    0.332   46.268  186.667
   75.250   37.146    0.249    0.325   54.312  187.725
   75.500   30.783    0.242    0.312   62.974  190.824
   75.750   28.029    0.226    0.310   72.254  195.992
   76.000   26.021    0.160    0.317   78.448  201.160
   76.250   25.560    0.171    0.325   79.080  208.398
   76.500   24.630    0.181    0.333   80.321  210.467
   76.750   24.199    0.175    0.338   83.425  214.610
   77.000   23.764    0.176    0.346   85.908  219.783
   77.250   23.799    0.178    0.381   86.537  220.822
   77.500   24.265    0.219    0.397   82.841  222.901
   77.750   28.251    0.255    0.426   83.471  220.861
   78.000   35.473    0.289    0.431   81.011  217.790
   78.250   53.817    0.311    0.407   72.372  214.720
   78.500   62.657    0.322    0.404   61.879  212.679
   78.750   67.642    0.327    0.404   55.096  208.584
   79.000   68.999    0.320    0.409   52.015  204.493
   79.250   70.385    0.306    0.413   48.940  202.453
   79.500   71.815    0.318    0.419   47.098  200.407
   79.750   71.886    0.337    0.420   45.871  198.362
   80.000   69.306    0.344    0.410   44.029  195.296
   80.250   66.769    0.344    0.400   42.807  194.281
   80.500   63.169    0.337    0.395   42.819  191.220
   80.750   62.048    0.331    0.395   44.063  191.234
   81.000   57.617    0.331    0.401   46.546  191.249
   81.250   56.567    0.328    0.412   53.972  194.362
   81.500   53.503    0.322    0.434   59.545  198.500
   81.750   49.646    0.328    0.441   73.150  202.639
   82.000   42.725    0.304    0.442   76.869  205.747
   82.250   38.194    0.293    0.419   75.644  204.736
   82.500   34.795    0.294    0.415   73.805  202.691
   82.750   34.169    0.283    0.383   73.814  201.680
   83.000   32.943    0.260    0.364   74.446  201.699
   83.250   32.959    0.245    0.359   74.457  202.753
   83.500   32.991    0.256    0.345   72.615  204.832
   83.750   33.032    0.200    0.342   71.391  205.881
   84.000   33.065    0.183    0.346   71.405  211.054
   84.250   33.089    0.194    0.358   71.416  218.277
   84.500   33.122    0.194    0.356   71.428  226.539
   84.750   31.343    0.181    0.337   73.293  223.469
   85.000   30.203    0.175    0.319   75.776  220.394
   85.250   28.040    0.180    0.322   78.256  214.234
   85.500   28.054    0.189    0.331   80.124  206.019
   85.750   26.541    0.196    0.341   79.518  203.979
   86.000   26.070    0.189    0.346   77.058  204.002
   86.250   26.089    0.189    0.354   76.451  205.051
