~VERSION INFORMATION
 VERS.                 2.0:   CWLS LOG ASCII STANDARD -VERSION 2.0
 WRAP.                  NO:   ONE LINE PER DEPTH STEP
~WELL INFORMATION BLOCK
#MNEM.UNIT           DATA                    DESCRIPTION OF MNEMONIC
#---------    -------------------            -------------------------------
# Generated from Intellog Unique Number	CN_94_101/WELL/5031
WELL.         12-16-098-11W4                 : Well_name    - WELL
LOC .         AA/12-16-098-11W4/0            : Location     - LOCATION
UWI .         AA/12-16-098-11W400            : Uwi          - UNIQUE WELL ID
ENTR.         TIM                            : Entered      - ENTERED BY
SRVC.         SCHLUMBERGER                   : Scn          - SERVICE COMPANY
DATE.         08/13/92                       : Date         - LOG DATE
STRT.M        0                              : top_depth    - START DEPTH
STOP.M        80                             : bot_depth    - STOP DEPTH
STEP.M        0.25                           : increment    - STEP LENGTH
 NULL. -999.2500:NULL Value
~CURVE INFORMATION BLOCK
#MNEM UNIT       ERCB CURVE CODE    CURVE DESCRIPTION
#-----------   ------------------   ----------------------------------
DEPT.M        00 001 00 00         : DEPTH        - DEPTH
GR  .API      00 310 00 00         : GR           - GAMMA RAY
ILD .OHMM     00 120 00 00         : RESD         - DEEP RESISTIVITY (DIL)
NPHI.V/V      00 330 00 00         : PHIN         - NEUTRON POROSITY (SANDSTONE)
DPHI.V/V      00 890 00 00         : PHID         - DENSITY POROSITY (SANDSTONE)
~PARAMETER INFORMATION
#MNEM.UNIT           DATA             DESCRIPTION OF MNEMONIC
#---------         -----------     ------------------------------
GL  .M        314.29               : gl           - GROUND LEVEL ELEVATION
EREF.M        314.29               : kb           - ELEVATION OF DEPTH REFERENCE
DATM.M        314.29               : datum        - DATUM ELEVATION
TDD .M        84.4                 : tdd          - TOTAL DEPTH DRILLER
RUN .         ONE                  : Run          - RUN NUMBER
ENG .         BILL                 : Engineer     - RECORDING ENGINEER
WIT .         JIM                  : Witness      - WITNESSED BY
MUD .         GEL                  : Mud_type     - MUD TYPE
MATR.         SANDSTONE            : Logunit      - NEUTRON MATRIX
TMAX.C        10                   : BHT          - MAXIMUM RECORDED TEMPERATURE
BHTD.M        85                   : BHTDEP       - MAXIMUM RECORDED TEMPERATURE
RMT .C        8                    : MDTP         - TEMPERATURE OF MUD
MUDD.KG/M     1050                 : MWT          - MUD DENSITY
NEUT.         1                    : NEUTRON      - NEUTRON TYPE
RESI.         0                    : RESIST       - RESISTIVITY TYPE
RM  .OHMM     16.4                 : RM           - RESISTIVITY OF MUD
RMC .OHMM     16.4                 : RMC          - RESISTIVITY OF MUD CAKE
RMF .OHMM     16.4                 : RMF          - RESISTIVITY OF MUD FILTRATE
SUFT.C        4                    : SUFT         - SURFACE TEMPERATURE
~A  DEPTH       GR     RESD     PHIN     PHID
    0.000   93.319   28.251    0.495    0.319
    0.250   94.554   28.257    0.495    0.319
    0.500   94.570   28.263    0.495    0.313
    0.750   93.984   27.866    0.499    0.309
    1.000   92.204   27.480    0.507    0.306
    1.250   90.418   27.092    0.510    0.306
    1.500   89.230   27.097    0.510    0.304
    1.750   86.843   27.103    0.504    0.297
    2.000   83.853   27.114    0.467    0.290
    2.250   81.471   27.120    0.450    0.273
    2.500   83.293   25.982    0.477    0.249
    2.750   78.498   25.613    0.479    0.237
    3.000   74.907   24.536    0.479    0.245
    3.250   73.723   24.191    0.504    0.240
    3.500   81.575   24.548    0.487    0.247
    3.750   80.989   24.915    0.468    0.245
    4.000   80.407   25.282    0.415    0.223
    4.250   82.240   25.289    0.340    0.116
    4.500   78.643   25.294    0.300    0.069
    4.750   71.440   25.303    0.411    0.068
    5.000   72.063   25.676    0.446    0.442
    5.250   75.093   26.057    0.467    0.436
    5.500   79.333   26.443    0.463    0.427
    5.750   80.563   27.228    0.460    0.419
    6.000   81.788   27.631    0.455    0.426
    6.250   82.411   28.041    0.457    0.427
    6.500   83.635   28.046    0.447    0.403
    6.750   73.417   27.654    0.440    0.398
    7.000   71.040   27.660    0.474    0.388
    7.250   71.653   26.501    0.487    0.385
    7.500   72.877   26.125    0.482    0.412
    7.750   74.704   25.025    0.479    0.424
    8.000   77.133   24.320    0.488    0.441
    8.250   80.766   23.976    0.485    0.439
    8.500   85.608   23.983    0.493    0.415
    8.750   87.434   23.646    0.501    0.406
    9.000   85.644   23.652    0.498    0.435
    9.250   82.053   23.321    0.448    0.452
    9.500   80.273   22.994    0.467    0.427
    9.750   79.084   22.998    0.475    0.428
   10.000   75.493   23.008    0.486    0.447
   10.250   71.902   23.014    0.488    0.430
   10.500   68.918   23.019    0.488    0.425
   10.750   73.749   23.028    0.498    0.452
   11.000   74.372   23.032    0.502    0.459
   11.250   73.189   23.040    0.500    0.446
   11.500   73.215   23.044    0.503    0.445
   11.750   73.236   23.054    0.510    0.422
   12.000   73.256   23.058    0.508    0.422
   12.250   74.481   22.734    0.502    0.430
   12.500   76.910   22.413    0.494    0.413
   12.750   79.344   20.862    0.478    0.402
   13.000   79.966   20.274    0.465    0.374
   13.250   79.987   19.701    0.480    0.360
   13.500   81.212   19.423    0.486    0.389
   13.750   83.641   19.150    0.481    0.420
   14.000   83.059   19.157    0.471    0.413
   14.250   80.065   19.161    0.447    0.398
   14.500   80.086   19.446    0.457    0.383
   14.750   84.326   19.451    0.469    0.323
   15.000   85.550   19.459    0.488    0.346
   15.250   86.770   19.463    0.500    0.353
   15.500   89.801   19.469    0.485    0.365
   15.750   88.021   19.473    0.491    0.381
   16.000   85.026   19.479    0.484    0.420
   16.250   85.052   19.485    0.485    0.419
   16.500   85.675   19.490    0.483    0.420
   16.750   82.686   19.494    0.485    0.426
   17.000   77.294   19.220    0.502    0.451
   17.250   76.707   18.951    0.507    0.464
   17.500   80.942   18.684    0.499    0.399
   17.750   84.580   18.158    0.476    0.373
   18.000   84.601   17.903    0.467    0.380
   18.250   85.826   17.651    0.489    0.391
   18.500   87.050   17.913    0.500    0.400
   18.750   87.071   18.442    0.501    0.393
   19.000   85.286   18.449    0.487    0.385
   19.250   83.501   18.190    0.477    0.390
   19.500   82.919   17.677    0.457    0.390
   19.750   83.537   17.430    0.460    0.393
   20.000   85.966   17.432    0.470    0.403
   20.250   88.394   17.187    0.484    0.407
   20.500   88.415   17.443    0.494    0.395
   20.750   84.824   17.700    0.508    0.398
   21.000   88.462   17.706    0.465    0.403
   21.250   92.702   17.207    0.466    0.375
   21.500   91.524   16.964    0.490    0.375
   21.750   90.932   16.251    0.507    0.383
   22.000   89.152   16.255    0.509    0.393
   22.250   86.163   16.495    0.501    0.400
   22.500   84.378   16.983    0.505    0.399
   22.750   83.791   17.236    0.492    0.407
   23.000   86.220   17.239    0.497    0.381
   23.250   87.445   17.497    0.502    0.384
   23.500   86.261   17.502    0.501    0.388
   23.750   86.282   17.255    0.486    0.381
   24.000   86.303   17.259    0.475    0.375
   24.250   84.518   17.264    0.451    0.368
   24.500   82.130   18.562    0.425    0.361
   24.750   78.544   19.669    0.402    0.353
   25.000   76.157   20.843    0.446    0.344
   25.250   76.780   21.459    0.472    0.338
   25.500   77.398   19.403    0.491    0.338
   25.750   79.826   17.546    0.477    0.351
   26.000   84.066   17.049    0.465    0.366
   26.250   86.490   16.570    0.457    0.348
   26.500   90.730   16.576    0.447    0.328
   26.750   90.750   16.579    0.437    0.337
   27.000   88.960   16.584    0.437    0.378
   27.250   85.369   16.588    0.448    0.460
   27.500   81.778   16.123    0.460    0.467
   27.750   81.798   15.894    0.470    0.408
   28.000   84.840   15.448    0.481    0.435
   28.250   84.860   15.453    0.473    0.447
   28.500   86.687   15.456    0.484    0.469
   28.750   88.514   15.461    0.495    0.374
   29.000   87.331   15.463    0.497    0.295
   29.250   84.341   15.469    0.489    0.326
   29.500   82.551   15.697    0.487    0.341
   29.750   80.164   16.162    0.481    0.332
   30.000   78.384   16.640    0.475    0.315
   30.250   80.210   17.632    0.448    0.319
   30.500   83.838   23.537    0.388    0.328
   30.750   78.441   32.812    0.383    0.335
   31.000   71.237   33.298    0.392    0.337
   31.250   63.432   32.832    0.398    0.325
   31.500   56.836   32.373    0.407    0.335
   31.750   62.270   32.377    0.415    0.341
   32.000   70.719   31.927    0.424    0.315
   32.250   74.953   31.931    0.431    0.292
   32.500   73.168   31.940    0.428    0.293
   32.750   69.577   33.362    0.423    0.299
   33.000   65.384   35.354    0.424    0.309
   33.250   67.210   42.049    0.423    0.333
   33.500   76.261   49.295    0.412    0.340
   33.750   87.725   55.343    0.405    0.298
   34.000   94.368   56.166    0.421    0.242
   34.250   93.184   57.827    0.429    0.260
   34.500   88.394   57.842    0.419    0.296
   34.750   86.007   56.212    0.430    0.331
   35.000   82.411   55.422    0.444    0.352
   35.250   76.412   55.441    0.418    0.349
   35.500   72.820   56.259    0.420    0.345
   35.750   76.453   59.622    0.434    0.343
   36.000   79.489   60.501    0.438    0.347
   36.250   77.704   65.049    0.432    0.355
   36.500   77.123   69.935    0.451    0.364
   36.750   81.352   76.281    0.448    0.373
   37.000   88.000   84.405    0.432    0.379
   37.250   84.403  100.389    0.422    0.385
   37.500   83.220  189.479    0.417    0.391
   37.750   82.639  256.612    0.410    0.396
   38.000   78.446  268.038    0.402    0.388
   38.250   73.651  268.112    0.394    0.365
   38.500   70.059  260.575    0.388    0.361
   38.750   66.468  246.012    0.420    0.359
   39.000   69.504  209.963    0.452    0.353
   39.250   74.938  155.119    0.462    0.342
   39.500   87.004  140.256    0.462    0.338
   39.750   91.851  112.991    0.436    0.352
   40.000   91.259   70.205    0.430    0.341
   40.250   89.474   57.379    0.429    0.316
   40.500   85.888   59.075    0.445    0.340
   40.750   82.893   62.603    0.451    0.360
   41.000   75.695   59.108    0.424    0.369
   41.250   79.925   47.618    0.433    0.369
   41.500   90.180   40.643    0.444    0.358
   41.750   96.822   37.280    0.440    0.341
   42.000   96.241   35.199    0.442    0.314
   42.250   81.212   37.300    0.442    0.333
   42.500   62.571   44.364    0.439    0.344
   42.750   68.010   64.582    0.445    0.362
   43.000   69.234   83.758    0.453    0.373
   43.250   69.260   86.234    0.455    0.353
