~VERSION INFORMATION
 VERS.                 2.0:   CWLS LOG ASCII STANDARD -VERSION 2.0
 WRAP.                  NO:   ONE LINE PER DEPTH STEP
~WELL INFORMATION BLOCK
#MNEM.UNIT           DATA                    DESCRIPTION OF MNEMONIC
#---------    -------------------            -------------------------------
# Generated from Intellog Unique Number	CN_91_93/WELL/2943
WELL.         11-19-092-11W4                 : Well_name    - WELL
LOC .         AA/11-19-092-11W4/0            : Location     - LOCATION
UWI .         AA/11-19-092-11W400            : Uwi          - UNIQUE WELL ID
ENTR.         JOETTE                         : Entered      - ENTERED BY
SRVC.         SCHLUMBERGER                   : Scn          - SERVICE COMPANY
DATE.         03/31/92                       : Date         - LOG DATE
STRT.F        30                             : top_depth    - START DEPTH
STOP.F        340.039                        : bot_depth    - STOP DEPTH
STEP.F        0.8202                         : increment    - STEP LENGTH
 NULL. -999.2500:NULL Value
~CURVE INFORMATION BLOCK
#MNEM UNIT       ERCB CURVE CODE    CURVE DESCRIPTION
#-----------   ------------------   ----------------------------------
DEPT.F        00 001 00 00         : DEPTH        - DEPTH
CALI.IN       00 280 01 00         : CAL          - CALIPER
GR  .API      00 310 00 00         : GR           - GAMMA RAY
NPHI.V/V      00 330 00 00         : PHIN         - NEUTRON POROSITY (SANDSTONE)
DPHI.V/V      00 890 00 00         : PHID         - DENSITY POROSITY (SANDSTONE)
ILD .OHMM     00 120 00 00         : RESD         - DEEP RESISTIVITY (DIL)
~PARAMETER INFORMATION
#MNEM.UNIT           DATA             DESCRIPTION OF MNEMONIC
#---------         -----------     ------------------------------
GL  .M        362.407              : gl           - GROUND LEVEL ELEVATION
EREF.M        362.407              : kb           - ELEVATION OF DEPTH REFERENCE
DATM.M        362.407              : datum        - DATUM ELEVATION
TDD .M        111.252              : tdd          - TOTAL DEPTH DRILLER
RUN .         ONE                  : Run          - RUN NUMBER
ENG .         BILL                 : Engineer     - RECORDING ENGINEER
WIT .         JIM                  : Witness      - WITNESSED BY
MUD .         GEL                  : Mud_type     - MUD TYPE
MATR.         SANDSTONE            : Logunit      - NEUTRON MATRIX
TMAX.F        65                   : BHT          - MAXIMUM RECORDED TEMPERATURE
BHTD.F        365                  : BHTDEP       - MAXIMUM RECORDED TEMPERATURE
RMT .F        60                   : MDTP         - TEMPERATURE OF MUD
MUDD.LB/G     10                   : MWT          - MUD DENSITY
NEUT.         1                    : NEUTRON      - NEUTRON TYPE
RESI.         0                    : RESIST       - RESISTIVITY TYPE
RM  .OHMM     4.23                 : RM           - RESISTIVITY OF MUD
RMC .OHMM     4.23                 : RMC          - RESISTIVITY OF MUD CAKE
RMF .OHMM     4.23                 : RMF          - RESISTIVITY OF MUD FILTRATE
SUFT.F        39.2                 : SUFT         - SURFACE TEMPERATURE
~A  DEPTH      CAL       GR     PHIN     PHID     RESD
# ...
  269.501    3.588   85.346    0.387    0.240   22.789
  270.322    3.590   85.370    0.375    0.230   19.755
  271.142    3.556   86.281    0.365    0.218   20.512
  271.962    3.540   85.421    0.357    0.203   17.468
  272.782    3.524   84.861    0.361    0.219   35.632
  273.602    3.508   88.697    0.367    0.232   20.599
  274.423    3.510   97.526    0.372    0.227   16.470
  275.243    3.511   98.140    0.391    0.238   14.674
  276.063    3.530   91.707    0.395    0.261   23.266
  276.883    3.567   89.683    0.379    0.271   25.261
  277.703    3.621   91.755    0.375    0.271   26.229
  278.524    3.658   92.662    0.378    0.263   23.364
  279.344    3.694   90.928    0.377    0.265   24.255
  280.164    3.713   88.308    0.376    0.248   19.565
  280.984    3.733   90.386    0.397    0.247   17.428
  281.804    3.734   93.642    0.409    0.240   22.664
  282.625    3.718   96.897    0.403    0.244   21.697
  283.445    3.702   97.508    0.399    0.243   21.928
  284.265    3.686   94.597    0.402    0.252   19.012
  285.085    3.670   92.860    0.389    0.254   24.283
  285.906    3.653   96.993    0.389    0.247   25.436
  286.726    3.638   97.900    0.395    0.239   14.840
  287.546    3.639   94.992    0.389    0.252   17.793
  288.366    3.623   95.310    0.367    0.248   24.200
  289.186    3.624   94.453    0.371    0.235   24.458
  290.007    3.626   93.600    0.393    0.243   24.059
  290.827    3.628   94.504    0.398    0.251   22.621
  291.647    3.629   93.941    0.403    0.256   22.649
  292.467    3.613   89.856    0.410    0.273   23.101
  293.287    3.597   93.696    0.385    0.243   26.236
  294.108    3.563  100.179    0.381    0.243   25.125
  294.928    3.529  102.848    0.384    0.249   22.990
  295.748    3.531  101.108    0.387    0.241   21.040
  296.568    3.532   96.142    0.396    0.244   19.086
  297.388    3.534   97.640    0.396    0.253   18.437
  298.209    3.535   96.783    0.396    0.264   17.806
  299.029    3.537   94.169    0.394    0.264   17.674
  299.849    3.520   91.842    0.388    0.259   18.184
  300.669    3.487   97.442    0.375    0.255   19.055
  301.490    3.471   98.936    0.379    0.258   19.777
  302.310    3.419  101.018    0.391    0.248   17.303
  303.130    3.403  104.854    0.405    0.249   18.622
  303.950    3.387  112.512    0.387    0.259   20.047
  304.770    3.406  114.590    0.382    0.255   20.257
  305.591    3.443  111.979    0.383    0.247   20.654
  306.411    3.532  111.709    0.376    0.242   18.070
  307.231    3.622  112.030    0.375    0.237   16.684
  308.051    3.694  113.224    0.376    0.230   19.650
  308.871    3.731  112.077    0.379    0.238   15.431
  309.692    3.715  112.685    0.392    0.251   17.687
  310.512    3.681  116.528    0.407    0.241   19.736
  311.332    3.612  111.559    0.385    0.252   24.758
  312.152    3.543  104.543    0.378    0.249   16.090
  312.972    3.492  102.512    0.402    0.246   13.459
  313.793    3.493  101.952    0.410    0.246   17.979
  314.613    3.530   98.745    0.388    0.252   15.449
  315.433    3.549   92.019    0.376    0.253   17.236
  316.253    3.550   86.470    0.401    0.253   24.092
  317.073    3.499   82.091    0.410    0.252   16.676
  317.894    3.465   79.767    0.404    0.273   16.850
  318.714    3.449   84.490    0.377    0.270   30.857
  319.534    3.433   83.047    0.397    0.280   18.496
  320.354    3.452   78.378    0.388    0.273   18.686
  321.175    3.471   73.706    0.407    0.279   18.050
  321.995    3.508   72.556    0.379    0.273   29.938
  322.815    3.545   74.635    0.405    0.275   23.937
  323.635    3.581   70.550    0.395    0.303   34.055
  324.455    3.618   64.117    0.399    0.304   32.902
  325.276    3.620   57.687    0.391    0.298   17.702
  326.096    3.604   59.472    0.392    0.285   27.066
  326.916    3.552   56.852    0.403    0.282   55.729
  327.736    3.519   51.596    0.372    0.246   30.517
  328.556    3.485   52.207    0.290    0.211    9.647
  329.377    3.468   58.394    0.326    0.075   12.545
  330.197    3.470   68.693    0.300   -0.011   35.721
  331.017    3.471   58.152    0.163    0.008   31.534
  331.837    3.491   48.784    0.153    0.012   45.687
  332.657    3.510   44.993    0.134    0.012   62.711
  333.478    3.494   40.321    0.123   -0.003   80.109
  334.298    3.477   39.468    0.115   -0.004   93.474
  335.118    3.461   42.426    0.136    0.001   70.807
  335.938    3.445   48.320    0.153    0.013   49.909
  336.759    3.447   55.684    0.164    0.008   40.266
  337.579    3.448   54.241    0.174    0.009   32.189
  338.399    3.432   46.928    0.169    0.005   47.058
  339.219    3.434   42.846    0.133   -0.009   75.289
  340.039    3.435   36.706    0.103   -0.015  123.734
