~VERSION INFORMATION
 VERS.                 2.0:   CWLS LOG ASCII STANDARD -VERSION 2.0
 WRAP.                  NO:   ONE LINE PER DEPTH STEP
~WELL INFORMATION BLOCK
#MNEM.UNIT           DATA                    DESCRIPTION OF MNEMONIC
#---------    -------------------            -------------------------------
# Generated from Intellog Unique Number	CX_WELLS/WELL/3859
WELL.         BAYSEL CORE                    : Well_name    - WELL
LOC .         AA/12-30-087-10W4/0            : Location     - LOCATION
UWI .         AA/12-30-087-10W400            : Uwi          - UNIQUE WELL ID
ENTR.         T                              : Entered      - ENTERED BY
SRVC.         SCHLUMBERGER                   : Scn          - SERVICE COMPANY
STRT.F        50                             : top_depth    - START DEPTH
STOP.F        510.138                        : bot_depth    - STOP DEPTH
STEP.F        0.8202                         : increment    - STEP LENGTH
 NULL. -999.2500:NULL Value
~CURVE INFORMATION BLOCK
#MNEM UNIT       ERCB CURVE CODE    CURVE DESCRIPTION
#-----------   ------------------   ----------------------------------
DEPT.F        00 001 00 00         : DEPTH        - DEPTH
GR  .API      00 310 00 00         : GR           - GAMMA RAY
NPHI.V/V      00 330 00 00         : PHIN         - NEUTRON POROSITY (SANDSTONE)
ILD .OHMM     00 120 00 00         : RESD         - DEEP RESISTIVITY (DIL)
~PARAMETER INFORMATION
#MNEM.UNIT           DATA             DESCRIPTION OF MNEMONIC
#---------         -----------     ------------------------------
GL  .F        1371                 : gl           - GROUND LEVEL ELEVATION
EREF.F        1371                 : kb           - ELEVATION OF DEPTH REFERENCE
DATM.F        1371                 : datum        - DATUM ELEVATION
TDD .F        521                  : tdd          - TOTAL DEPTH DRILLER
RUN .         ONE                  : Run          - RUN NUMBER
ENG .         BILL                 : Engineer     - RECORDING ENGINEER
WIT .         JIM                  : Witness      - WITNESSED BY
MUD .         GEL                  : Mud_type     - MUD TYPE
MATR.         SANDSTONE            : Logunit      - NEUTRON MATRIX
TMAX.F        53                   : BHT          - MAXIMUM RECORDED TEMPERATURE
BHTD.F        521                  : BHTDEP       - MAXIMUM RECORDED TEMPERATURE
MATR.         1                    : LOGUNIT      - NEUTRON MATRIX
RMT .F        77                   : MDTP         - TEMPERATURE OF MUD
NEUT.         1                    : NEUTRON      - NEUTRON TYPE
RESI.         0                    : RESIST       - RESISTIVITY TYPE
RMC .OHMM     7.5                  : RMC          - RESISTIVITY OF MUD CAKE
RMF .OHMM     7.5                  : RMF          - RESISTIVITY OF MUD FILTRATE
SUFT.F        32                   : SUFT         - SURFACE TEMPERATURE
~A  DEPTH       GR     PHIN     RESD
   50.000   49.001    0.424   31.716
   50.820   49.016    0.414   31.000
   51.640   49.375    0.408   30.821
   52.461   49.739    0.399   30.642
   53.281   50.456    0.395   31.180
   54.101   51.526    0.395   31.718
   54.921   51.890    0.387   32.435
   55.742   52.258    0.379   32.256
   56.562   52.625    0.377   32.077
   57.382   53.339    0.381   32.257
   58.202   54.764    0.378   32.078
   59.022   55.129    0.375   31.899
   59.843   55.138    0.381   32.437
   60.663   55.150    0.393   32.796
   61.483   55.514    0.416   33.154
   62.303   55.174    0.416   32.976
   63.123   55.542    0.421   32.617
   63.944   61.545    0.434   31.184
   64.764   66.139    0.446   29.572
   65.584   70.734    0.459   27.243
   66.404   71.451    0.476   25.631
   67.224   70.761    0.491   25.452
   68.045   69.715    0.494   25.452
   68.865   66.908    0.294   25.990
   69.685   60.220    0.120   28.140
   70.505   50.716    0.086   32.083
   71.326   44.031   -0.081   55.198
   72.146   44.395    0.140   53.765
   72.966   54.987    0.290   51.257
   73.786   52.882    0.307   49.107
   74.606   50.426    0.309   73.298
   75.427   47.266    0.070   79.390
   76.247   43.404   -0.142   68.102
   77.067   39.184   -0.191   54.484
   77.887   34.261   -0.219   47.138
   78.707   30.749   -0.219   47.496
   79.528   28.646   -0.206   48.034
   80.348   26.896    0.197   47.855
   81.168   26.908    0.269   48.393
   81.988   51.948    0.364   49.110
   82.808   80.160    0.404   43.197
   83.629   85.459    0.464   33.701
   84.449   90.406    0.505   30.834
   85.269   92.535    0.539   26.892
   86.089   93.954    0.528   21.696
   86.909   93.614    0.518   17.755
   87.730   91.870    0.527   16.859
   88.550   91.529    0.527   16.501
   89.370   92.951    0.521   15.964
   90.190   93.665    0.530   15.427
   91.010   92.267    0.557   15.248
   91.831   90.517    0.563   14.890
   92.651   88.767    0.562   14.531
   93.471   90.544    0.544   13.994
   94.291   92.668    0.545   13.815
   95.112   92.683    0.548   13.457
   95.932   90.231    0.553   13.279
   96.752   88.833    0.557   13.100
   97.572   87.435    0.545   12.921
   98.392   87.092    0.537   12.742
   99.213   87.456    0.535   12.563
  100.033   86.767    0.535   12.563
  100.853   86.074    0.532   12.564
  101.673   87.851    0.528   12.564
  102.493   88.915    0.525   12.565
  103.314   89.282    0.526   12.565
  104.134   86.827    0.533   12.565
  104.954   83.667    0.535   12.745
  105.774   80.157    0.514   13.103
  106.594   78.404    0.495   13.462
  107.415   76.301    0.488   13.821
  108.235   74.202    0.497   14.358
  109.055   75.268    0.516   14.538
  109.875   77.747    0.524   14.001
  110.696   80.934    0.523   13.643
  111.516   82.353    0.517   13.464
  112.336   82.365    0.508   14.181
  113.156   80.266    0.504   15.077
  113.976   78.166    0.496   15.973
  114.797   77.118    0.489   16.870
  115.617   73.605    0.477   18.662
  116.437   66.921    0.464   19.738
  117.257   59.178    0.449   22.067
  118.077   59.543    0.439   26.547
  118.898   66.957    0.448   24.756
  119.718   70.141    0.481   20.097
  120.538   72.620    0.492   16.693
  121.358   74.394    0.506   15.260
  122.178   74.407    0.518   16.515
  122.999   73.015    0.509   16.156
  123.819   71.262    0.489   17.053
  124.639   62.110    0.475   19.203
  125.459   55.774    0.468   21.354
  126.280   54.383    0.465   22.250
  127.100   56.862    0.464   22.430
  127.920   60.043    0.474   19.384
  128.740   66.047    0.502   17.055
  129.560   69.936    0.483   16.338
  130.381   74.181    0.483   16.339
  131.201   74.196    0.481   16.160
  132.021   73.503    0.482   16.160
  132.841   73.163    0.484   15.981
  133.661   72.467    0.487   15.982
  134.482   73.536    0.493   15.086
  135.302   75.663    0.503   14.370
  136.122   79.905    0.512   14.191
  136.942   84.857    0.509   14.191
  137.762   85.927    0.514   13.654
  138.583   84.173    0.523   13.117
  139.403   81.016    0.525   12.758
  140.223   81.381    0.522   12.400
  141.043   81.040    0.511   12.759
  141.864   79.287    0.503   12.759
  142.684   76.480    0.491   13.477
  143.504   74.027    0.476   15.269
  144.324   74.389    0.483   18.315
  145.144   82.158    0.495   19.032
  145.965   80.408    0.504   17.062
  146.785   78.305    0.504   13.478
  147.605   78.670    0.505   12.583
  148.425   80.796    0.513   12.762
  149.245   82.574    0.523   12.404
  150.066   83.291    0.530   12.046
  150.886   83.655    0.532   11.688
  151.706   84.725    0.533   11.688
  152.526   86.150    0.537   11.509
  153.346   86.867    0.543   11.510
  154.167   86.174    0.543   11.510
  154.987   84.773    0.539   11.869
  155.807   82.324    0.530   12.407
  156.627   81.276    0.518   12.765
  157.448   80.935    0.506   13.482
  158.268   80.947    0.502   14.737
  159.088   80.959    0.496   15.275
  159.908   80.968    0.490   15.096
  160.728   80.986    0.484   14.917
  161.549   80.646    0.490   14.918
  162.369   80.655    0.496   14.381
  163.189   80.315    0.493   14.381
  164.009   78.564    0.486   14.381
  164.829   76.465    0.480   15.277
  165.650   73.654    0.475   15.636
  166.470   69.087    0.471   16.353
  167.290   68.747    0.462   20.475
  168.110   68.756    0.455   24.238
  168.930   68.774    0.446   20.476
  169.751   68.075    0.433   21.193
  170.571   65.267    0.414   20.834
  171.391   61.050    0.416   20.656
  172.211   58.598    0.424   24.956
  173.031   63.897    0.437   25.315
  173.852   69.548    0.457   22.628
  174.672   73.790    0.478   20.119
  175.492   77.679    0.491   17.432
  176.312   78.396    0.500   15.820
  177.133   79.119    0.508   15.103
  177.953   79.836    0.519   14.745
  178.773   80.908    0.517   14.566
  179.593   81.622    0.510   14.208
  180.413   81.631    0.489   13.850
  181.234   78.824    0.478   13.671
  182.054   74.606    0.479   13.672
  182.874   73.212    0.482   14.747
  183.694   75.688    0.479   17.614
  184.514   77.465    0.467   19.407
  185.335   75.362    0.448   18.332
  186.155   73.612    0.426   16.720
  186.975   71.862    0.378   16.003
  187.795   69.407    0.344   17.795
  188.615   54.612    0.319   19.408
  189.436   51.452    0.347   21.738
  190.256   49.356    0.357   21.918
  191.076   55.004    0.385   23.889
  191.896   64.183    0.414   29.444
  192.717   64.192    0.424   28.190
  193.537   65.265    0.443   26.219
  194.357   66.334    0.442   21.740
  195.177   67.756    0.442   18.694
  195.997   68.121    0.452   19.411
  196.818   67.428    0.475   19.412
  197.638   65.680    0.478   18.158
  198.458   63.575    0.471   17.441
  199.278   61.825    0.462   18.517
  200.098   60.779    0.456   26.043
  200.919   72.422    0.458   32.852
  201.739   75.260    0.462   31.777
  202.559   75.622    0.440   15.651
  203.379   75.986    0.440   15.651
  204.199   76.351    0.468   17.981
  205.020   77.420    0.472   17.623
  205.840   78.493    0.484   16.548
  206.660   79.915    0.500   14.757
  207.480   80.632    0.500   14.040
  208.301   81.352    0.494   14.041
  209.121   80.303    0.498   14.758
  209.941   77.848    0.504   14.937
  210.761   75.393    0.512   14.938
  211.581   73.995    0.509   15.117
  212.402   76.125    0.460   15.297
  213.222   75.788    0.447   15.476
  214.042   74.384    0.397   15.835
  214.862   71.579    0.374   17.448
  215.682   65.952    0.359   21.570
  216.503   63.846    0.374   21.032
  217.323   59.276    0.419   19.420
  218.143   60.346    0.437   16.374
  218.963   70.941    0.451   16.016
  219.783   71.299    0.458   16.375
  220.604   71.664    0.458   16.554
  221.424   72.028    0.458   17.092
  222.244   72.393    0.460   18.168
  223.064   73.817    0.461   18.347
  223.885   75.239    0.467   18.168
  224.705   74.899    0.473   18.169
  225.525   72.091    0.471   17.094
  226.345   66.112    0.455   17.273
  227.165   65.774    0.464   19.066
