~VERSION INFORMATION
 VERS.                 2.0:   CWLS LOG ASCII STANDARD -VERSION 2.0
 WRAP.                  NO:   ONE LINE PER DEPTH STEP
~WELL INFORMATION BLOCK
#MNEM.UNIT           DATA                    DESCRIPTION OF MNEMONIC
#---------    -------------------            -------------------------------
# Generated from Intellog Unique Number	utf_inj/WELL/3048
WELL.         16-23-093-12W4                 : Well_name    - WELL              
LOC .         AA/16-23-093-12W4/0            : Location     - LOCATION          
UWI .         AA/16-23-093-12W400            : Uwi          - UNIQUE WELL ID    
ENTR.         JOETTE                         : Entered      - ENTERED BY        
SRVC.         SCHLUMBERGER                   : Scn          - SERVICE COMPANY   
DATE.         06/01/92                       : Date         - LOG DATE          
STRT.M        0                              : top_depth    - START DEPTH       
STOP.M        98                             : bot_depth    - STOP DEPTH        
STEP.M        0.25                           : increment    - STEP LENGTH       
NULL.         -999.250                       : null         - NULL VALUE       
~CURVE INFORMATION BLOCK
#MNEM UNIT       ERCB CURVE CODE    CURVE DESCRIPTION
#-----------   ------------------   ----------------------------------
DEPT.M        00 001 00 00         : DEPTH        - DEPTH                       
GR  .API      00 310 00 00         : GR           - GAMMA RAY                   
NPHI.V/V      00 330 00 00         : PHIN         - NEUTRON POROSITY (SANDSTONE)
RHOB.KG/M3    00 350 00 00         : DENS         - BULK DENSITY                
ILD .OHMM     00 120 00 00         : RESD         - DEEP RESISTIVITY (DIL)      
DPHI.V/V      00 890 00 00         : PHID         - DENSITY POROSITY (SANDSTONE)
~PARAMETER INFORMATION       
#MNEM.UNIT           DATA             DESCRIPTION OF MNEMONIC
#---------         -----------     ------------------------------
GL  .M        340.4                : gl           - GROUND LEVEL ELEVATION      
EREF.M        340.4                : kb           - ELEVATION OF DEPTH REFERENCE
DATM.M        340.4                : datum        - DATUM ELEVATION             
TDD .M        99.5                 : tdd          - TOTAL DEPTH DRILLER         
RUN .         ONE                  : Run          - RUN NUMBER                  
ENG .         BILL                 : Engineer     - RECORDING ENGINEER          
WIT .         JIM                  : Witness      - WITNESSED BY                
MUD .         GEL                  : Mud_type     - MUD TYPE                    
MATR.         SANDSTONE            : Logunit      - NEUTRON MATRIX              
TMAX.C        7.5                  : BHT          - MAXIMUM RECORDED TEMPERATURE
BHTD.M        99.5                 : BHTDEP       - MAXIMUM RECORDED TEMPERATURE
RMT .C        4                    : MDTP         - TEMPERATURE OF MUD          
MUDD.KG/M     1020                 : MWT          - MUD DENSITY                 
NEUT.         1                    : NEUTRON      - NEUTRON TYPE                
RESI.         0                    : RESIST       - RESISTIVITY TYPE            
RM  .OHMM     6.5                  : RM           - RESISTIVITY OF MUD          
RMC .OHMM     6.5                  : RMC          - RESISTIVITY OF MUD CAKE     
RMF .OHMM     6.5                  : RMF          - RESISTIVITY OF MUD FILTRATE 
SUFT.C        4                    : SUFT         - SURFACE TEMPERATURE         
~A  DEPTH       GR     PHIN     DENS     RESD     PHID
# ...
   36.500   91.728    0.533 2535.850   14.680    0.069
   36.750   85.237    0.454 2338.130    7.568    0.189
   37.000   59.133    0.565 2281.180    9.368    0.224
   37.250   59.787    0.511 2234.430   13.742    0.252
   37.500   72.340    0.387 2179.550   11.133    0.285
   37.750   93.797    0.288 2206.260    9.681    0.269
   38.000   90.291    0.253 2261.570    9.974    0.235
   38.250   81.435    0.230 2282.120   11.343    0.223
   38.500   65.434    0.221 2237.410   12.900    0.250
   38.750   52.406    0.241 2249.840   16.659    0.243
   39.000   39.984    0.244 2229.650   30.633    0.255
   39.250   40.638    0.293 2178.810   64.891    0.286
   39.500   44.858    0.309 2156.580   58.012    0.299
   39.750   46.118    0.383 2156.770   43.203    0.299
   40.000   44.383    0.402 2175.370   43.256    0.288
   40.250   41.459    0.482 2169.440   37.605    0.291
   40.500   42.719    0.490 2185.960   37.134    0.281
   40.750   44.550    0.477 2175.880   41.055    0.287
   41.000   42.256    0.431 2174.030   26.160    0.288
   41.250   41.709    0.429 2174.230   28.117    0.288
   41.500   34.613    0.427 2180.590  176.752    0.284
   41.750   31.106    0.431 2182.820  255.563    0.283
   42.000   32.354    0.422 2172.740  137.455    0.289
   42.250   26.470    0.416 2181.100  126.442    0.284
   42.500   25.329    0.401 2171.100  232.500    0.290
   42.750   27.172    0.417 2169.260  123.297    0.291
   43.000   31.999    0.407 2187.850   50.693    0.280
   43.250   35.612    0.388 2173.770   89.347    0.289
   43.500   31.512    0.414 2153.530  118.726    0.301
   43.750   29.194    0.402 2176.160   67.547    0.287
   44.000   26.876    0.410 2164.080   62.154    0.294
   44.250   32.285    0.421 2162.240   68.718    0.296
   44.500   29.955    0.425 2184.870   55.701    0.282
   44.750   32.987    0.431 2181.030   52.690    0.284
   45.000   38.990    0.438 2164.830   42.098    0.294
   45.250   33.700    0.428 2167.070   39.847    0.293
   45.500   30.800    0.417 2161.190   34.641    0.296
   45.750   34.414    0.431 2157.260   26.906    0.299
   46.000   32.108    0.425 2194.170   35.742    0.276
   46.250   39.288    0.402 2214.770   62.094    0.264
   46.500   41.725    0.440 2190.530   30.684    0.278
   46.750   33.452    0.386 2186.610   17.218    0.281
   47.000   41.833    0.411 2186.800   10.516    0.281
   47.250   45.458    0.418 2184.960   11.463    0.282
   47.500   54.446    0.437 2185.120   11.004    0.282
   47.750   80.657    0.437 2224.070    9.567    0.258
   48.000   99.154    0.407 2326.280   10.880    0.196
   48.250  111.102    0.424 2324.440   10.154    0.197
   48.500  112.350    0.488 2265.490   10.314    0.233
   48.750   94.567    0.537 2275.840   11.247    0.227
   49.000   69.651    0.470 2269.920   12.430    0.230
   49.250   78.626    0.451 2251.720   22.536    0.241
   49.500   80.469    0.431 2243.800   21.331    0.246
   49.750   57.348    0.417 2223.560   23.912    0.258
   50.000   52.058    0.417 2215.560   26.813    0.263
   50.250   62.210    0.405 2203.520   22.357    0.271
   50.500   74.169    0.392 2213.920   28.863    0.264
   50.750   87.899    0.418 2236.590   15.306    0.251
   51.000   74.276    0.419 2232.670   31.960    0.253
   51.250   64.826    0.440 2220.670   40.694    0.260
   51.500   60.131    0.393 2218.780   93.800    0.261
   51.750   57.219    0.378 2218.980   52.634    0.261
   52.000   72.732    0.373 2217.100   54.224    0.262
   52.250   80.518    0.360 2223.420   25.692    0.259
   52.500   71.650    0.358 2215.490   23.633    0.263
   52.750   81.838    0.359 2229.930   23.003    0.255
   53.000   78.320    0.385 2230.130   26.533    0.254
   53.250   83.729    0.379 2234.360   24.072    0.252
   53.500   82.588    0.407 2230.480   30.221    0.254
   53.750   96.924    0.410 2224.560   16.958    0.258
   54.000  101.144    0.417 2261.470   16.994    0.235
   54.250  106.553    0.367 2288.180   15.409    0.219
   54.500  100.657    0.387 2306.730   14.376    0.208
   54.750  101.311    0.425 2347.760   16.349    0.183
   55.000   98.993    0.404 2343.840   21.114    0.186
   55.250   79.427    0.409 2335.880   23.350    0.190
   55.500   58.672    0.407 2289.120   48.741    0.219
   55.750   71.819    0.417 2242.410   98.938    0.247
   56.000   81.995    0.390 2220.130   50.291    0.261
   56.250   77.894    0.373 2281.560   20.677    0.223
   56.500   82.103    0.344 2379.690   44.410    0.164
   56.750   89.295    0.294 2477.790   13.966    0.104
   57.000   95.892    0.377 2398.440   10.395    0.152
   57.250  101.896    0.386 2337.410   31.334    0.189
   57.500   66.281    0.411 2368.240   35.135    0.171
   57.750   59.197    0.418 2305.140   52.273    0.209
   58.000   61.634    0.391 2205.350   30.601    0.269
   58.250   66.448    0.400 2199.430   47.483    0.273
   58.500   68.885    0.408 2203.710   40.713    0.270
   58.750   68.945    0.417 2201.830   45.652    0.272
   59.000   80.892    0.450 2179.590   17.490    0.285
   59.250   94.634    0.415 2187.940   12.306    0.280
   59.500  107.176    0.358 2304.430    7.516    0.209
   59.750  107.247    0.353 2343.380    6.534    0.186
   60.000  107.307    0.332 2412.970    5.928    0.144
   60.250  113.298    0.362 2413.160    7.235    0.144
   60.500  102.053    0.385 2399.040    7.248    0.152
   60.750   85.470    0.397 2372.730    7.899    0.168
   61.000   82.546    0.392 2348.410   11.584    0.183
   61.250   91.521    0.375 2383.320   12.627    0.162
   61.500  100.508    0.349 2391.670    6.791    0.157
   61.750   98.178    0.358 2367.360    6.707    0.171
   62.000  104.776    0.377 2330.840    8.070    0.193
   62.250   96.515    0.403 2367.750    6.725    0.171
   62.500   97.169    0.391 2359.750    7.435    0.176
   62.750  105.561    0.404 2353.830    6.651    0.179
   63.000  107.987    0.388 2380.580    6.034    0.163
   63.250  102.709    0.399 2382.810    6.862    0.162
   63.500  110.495    0.390 2376.850    6.402    0.166
   63.750  106.382    0.390 2342.340    8.043    0.186
   64.000   98.109    0.395 2324.180    7.608    0.197
   64.250  105.895    0.391 2328.460    7.003    0.195
   64.500   85.734    0.381 2289.900    8.190    0.218
   64.750   79.256    0.389 2263.540    8.557    0.234
   65.000   76.344    0.402 2243.340    9.197    0.246
   65.250   75.821    0.405 2241.500    9.211    0.248
   65.500   78.841    0.393 2241.700    8.476    0.247
   65.750   74.728    0.393 2245.980    8.134    0.245
   66.000   70.627    0.424 2227.820    9.789    0.256
   66.250   79.007    0.427 2242.250    9.804    0.247
   66.500   93.938    0.383 2256.720    9.021    0.238
   66.750   98.171    0.346 2246.720    9.834    0.244
   67.000   86.925    0.366 2255.080   29.227    0.239
   67.250   78.057    0.394 2216.490   42.873    0.263
   67.500   95.960    0.413 2188.210   48.758    0.280
   67.750  111.473    0.433 2200.520   30.203    0.272
   68.000   87.152    0.435 2213.000   17.681    0.265
   68.250   60.453    0.437 2205.040   43.123    0.270
   68.500   58.123    0.422 2184.800   23.858    0.282
   68.750   68.299    0.404 2189.110   64.235    0.279
   69.000   73.708    0.391 2181.070   39.801    0.284
   69.250   66.623    0.397 2203.740   49.953    0.270
   69.500   70.855    0.424 2183.550   66.399    0.283
   69.750   78.630    0.425 2191.900   42.897    0.278
   70.000   97.127    0.412 2194.100   19.196    0.276
   70.250  105.508    0.410 2194.330   32.902    0.276
   70.500  107.350    0.447 2200.610   38.478    0.272
   70.750   97.294    0.428 2198.770   74.866    0.273
   71.000   72.378    0.456 2186.690  124.667    0.281
   71.250   62.345    0.427 2166.530   67.052    0.293
   71.500   73.092    0.416 2164.650  123.295    0.294
   71.750   74.340    0.405 2166.840   87.958    0.293
   72.000   61.918    0.396 2169.120   89.346    0.291
   72.250   60.777    0.403 2175.440  113.764    0.288
   72.500   67.386    0.426 2165.440   35.264    0.294
   72.750   63.285    0.409 2177.870  106.332    0.286
