~VERSION INFORMATION
 VERS.                 2.0:   CWLS LOG ASCII STANDARD -VERSION 2.0
 WRAP.                  NO:   ONE LINE PER DEPTH STEP
~WELL INFORMATION BLOCK
#MNEM.UNIT           DATA                    DESCRIPTION OF MNEMONIC
#---------    -------------------            -------------------------------
# Generated from Intellog Unique Number	CC_84_87/WELL/2300
NULL.         -999.25                        : NULL_VALUE
WELL.         PEX PCEJ HANGST OV             : Well_name    - WELL              
LOC .         10-09-084-11W4                 : Location     - LOCATION          
UWI .         AA/10-09-084-11W400            : Uwi          - UNIQUE WELL ID    
ENTR.         JHS                            : Entered      - ENTERED BY        
SRVC.         DRESSER ATLAS                  : Scn          - SERVICE COMPANY   
DATE.         05 MAR 80                      : Date         - LOG DATE
STRT.M        125                            : top_depth    - START DEPTH       
STOP.M        366.797                        : bot_depth    - STOP DEPTH        
STEP.M        0.3                            : increment    - STEP LENGTH       
~CURVE INFORMATION BLOCK
#MNEM UNIT       ERCB CURVE CODE    CURVE DESCRIPTION
#-----------   ------------------   ----------------------------------
DEPT.M        00 001 00 00         : DEPTH        - DEPTH                       
DPHI.V/V      00 890 00 00         : PHID         - DENSITY POROSITY (LIMESTONE)
NPHI.V/V      00 330 00 00         : PHIN         - NEUTRON POROSITY (LIMESTONE)
GR  .API      00 310 00 00         : GR           - GAMMA RAY                   
ILD .OHMM     00 120 00 00         : RESD         - DEEP RESISTIVITY (DIL)      
~PARAMETER INFORMATION       
#MNEM.UNIT           DATA             DESCRIPTION OF MNEMONIC
#---------         -----------     ------------------------------
GL  .M        603.7                : gl           - GROUND LEVEL ELEVATION      
EREF.M        607.35               : kb           - ELEVATION OF DEPTH REFERENCE
DATM.M        607.35               : datum        - DATUM ELEVATION             
TDD .M        376                  : tdd          - TOTAL DEPTH DRILLER         
RUN .         ONE                  : Run          - RUN NUMBER                  
ENG .         BILL                 : Engineer     - RECORDING ENGINEER          
WIT .         JIM                  : Witness      - WITNESSED BY                
MUD .         GEL                  : Mud_type     - MUD TYPE                    
MATR.         LIMESTONE            : Logunit      - NEUTRON MATRIX              
TMAX.C        60                   : BHT          - MAXIMUM RECORDED TEMPERATURE
BHTD.M        376                  : BHTDEP       - MAXIMUM RECORDED TEMPERATURE
MATR.         1                    : LOGUNIT      - NEUTRON MATRIX              
RMT .C        25                   : MDTP         - TEMPERATURE OF MUD          
NEUT.         1                    : NEUTRON      - NEUTRON TYPE                
RESI.         0                    : RESIST       - RESISTIVITY TYPE            
RMC .OHMM     0.25                 : RMC          - RESISTIVITY OF MUD CAKE     
RMF .OHMM     0.25                 : RMF          - RESISTIVITY OF MUD FILTRATE 
SUFT.C        15                   : SUFT         - SURFACE TEMPERATURE         
~A  DEPTH     PHID     PHIN       GR     RESD
# ...
  333.798    0.245    0.330   53.800   22.135
  334.098    0.166    0.316   63.029   17.013
  334.398    0.158    0.328   86.398   14.908
  334.698    0.182    0.344   87.021   14.346
  334.998    0.172    0.350   93.177   17.278
  335.298    0.185    0.357   88.267   21.606
  335.598    0.220    0.350   62.455   27.527
  335.898    0.257    0.340   61.851   33.785
  336.198    0.263    0.340   63.087   39.939
  336.498    0.265    0.347   53.258   41.419
  336.798    0.272    0.351   46.505   39.852
  337.098    0.273    0.348   42.826   36.943
  337.398    0.274    0.359   47.135   31.174
  337.698    0.271    0.347   40.381   29.992
  337.998    0.258    0.335   41.005   29.969
  338.298    0.229    0.351   53.922   30.497
  338.598    0.235    0.352   60.078   32.228
  338.898    0.243    0.346   55.784   36.687
  339.198    0.241    0.362   48.415   39.513
  339.498    0.245    0.361   50.882   44.992
  339.798    0.263    0.352   44.127   45.798
  340.098    0.272    0.352   42.906   40.884
  340.398    0.269    0.359   39.227   37.890
  340.698    0.259    0.360   47.841   37.153
  340.998    0.253    0.358   50.924   37.804
  341.298    0.257    0.374   46.628   38.475
  341.598    0.262    0.375   46.021   37.727
  341.898    0.267    0.370   41.726   35.621
  342.198    0.269    0.354   49.113   34.285
  342.498    0.269    0.336   49.734   32.375
  342.798    0.265    0.326   44.825   30.570
  343.098    0.258    0.325   42.989   29.421
  343.398    0.241    0.346   49.144   27.784
  343.698    0.224    0.340   50.383   25.278
  343.998    0.217    0.337   53.464   22.567
  344.298    0.218    0.336   57.163   21.310
  344.598    0.219    0.338   58.399   21.286
  344.898    0.220    0.354   59.022   21.670
  345.198    0.225    0.364   62.103   22.892
  345.498    0.235    0.369   56.580   24.189
  345.798    0.248    0.346   51.054   26.534
  346.098    0.249    0.350   39.999   29.107
  346.398    0.253    0.347   49.841   29.079
  346.698    0.247    0.352   51.694   27.977
  346.998    0.221    0.353   57.235   25.932
  347.298    0.230    0.361   57.859   23.150
  347.598    0.243    0.376   52.333   22.695
  347.898    0.248    0.354   57.260   22.671
  348.198    0.253    0.348   51.735   22.644
  348.498    0.243    0.347   52.358   23.049
  348.798    0.252    0.353   52.981   23.460
  349.098    0.270    0.369   53.604   23.436
  349.398    0.276    0.375   47.465   22.978
  349.698    0.270    0.366   45.630   22.949
  349.997    0.239    0.370   65.924   22.500
  350.297    0.228    0.373   65.933   22.481
  350.597    0.241    0.367   58.564   22.878
  350.897    0.259    0.376   46.891   23.722
  351.197    0.278    0.362   51.818   25.544
  351.497    0.283    0.356   49.367   29.087
  351.797    0.277    0.346   51.219   27.985
  352.097    0.216    0.359   69.056   23.626
  352.397    0.213    0.362   69.679   21.489
  352.697    0.215    0.371   64.768   20.673
  352.997    0.217    0.371   63.549   21.046
  353.297    0.226    0.384   58.023   22.236
  353.597    0.226    0.376   61.105   26.289
  353.897    0.242    0.378   57.424   31.668
  354.197    0.284    0.376   37.147   37.438
  354.497    0.281    0.366   44.531   41.835
  354.797    0.268    0.362   45.769   40.260
  355.097    0.259    0.339   48.236   32.126
  355.397    0.264    0.346   56.851   29.778
  355.697    0.270    0.357   56.860   29.735
  355.997    0.279    0.369   45.801   31.425
  356.297    0.285    0.367   32.900   35.786
  356.597    0.274    0.346   27.990   31.950
  356.897    0.239    0.323   31.072   27.479
  357.197    0.195    0.300   42.146   19.237
  357.497    0.038    0.289   77.810   14.243
  357.797    0.030    0.278   80.892   11.799
  358.097    0.028    0.267   71.679   10.937
  358.397    0.026    0.260   72.917   11.127
  358.697    0.035    0.258   72.310   11.541
  358.997    0.037    0.261   73.549   11.744
  359.297    0.038    0.267   74.787   11.735
  359.597    0.042    0.272   77.253   11.721
  359.897    0.044    0.271   79.106   11.710
  360.197    0.051    0.262   81.573   11.479
  360.497    0.051    0.267   74.204   11.252
  360.797    0.050    0.275   77.900   11.035
  361.097    0.053    0.275   77.909   10.819
  361.397    0.049    0.273   82.221   10.602
  361.697    0.045    0.269   83.458   10.395
  361.997    0.044    0.264   77.320   10.194
  362.297    0.039    0.253   77.327    9.992
  362.597    0.032    0.247   75.492    9.798
  362.897    0.032    0.229   82.262    9.788
  363.197    0.032    0.207   81.655    9.961
  363.497    0.018    0.184   74.286   10.526
  363.797    0.004    0.163   68.147   12.680
  364.097    0.000    0.105   52.171   18.764
  364.397    0.000    0.076   16.524   30.494
  364.697    0.001    0.070   15.304   51.444
  364.997    0.007    0.074   16.541   58.582
  365.297    0.004    0.085   20.852   55.320
  365.597    0.007    0.100   19.630   48.475
  365.897    0.011    0.104   23.941   44.090
  366.197    0.010    0.094   20.262   41.640
  366.497    0.007    0.100   25.188   39.322
  366.797    0.010    0.113   33.802   38.560
