~VERSION INFORMATION
 VERS.                 2.0:   CWLS LOG ASCII STANDARD -VERSION 2.0
 WRAP.                  NO:   ONE LINE PER DEPTH STEP
~WELL INFORMATION BLOCK
#MNEM.UNIT           DATA                    DESCRIPTION OF MNEMONIC
#---------    -------------------            -------------------------------
# Generated from Intellog Unique Number	CC_88_90/WELL/2299
WELL.         10-29-090-16W4                 : Well_name    - WELL
LOC .         AA/10-29-090-16W4/0            : Location     - LOCATION
UWI .         AA/10-29-090-16W400            : Uwi          - UNIQUE WELL ID
ENTR.         DW                             : Entered      - ENTERED BY
SRVC.         SCHLUMBERGER                   : Scn          - SERVICE COMPANY
STRT.M        75                             : top_depth    - START DEPTH
STOP.M        234.75                         : bot_depth    - STOP DEPTH
STEP.M        0.25                           : increment    - STEP LENGTH
 NULL. -999.2500:NULL Value
~CURVE INFORMATION BLOCK
#MNEM UNIT       ERCB CURVE CODE    CURVE DESCRIPTION
#-----------   ------------------   ----------------------------------
DEPT.M        00 001 00 00         : DEPTH        - DEPTH
GR  .API      00 310 00 00         : GR           - GAMMA RAY
DPHI.V/V      00 890 00 00         : PHID         - DENSITY POROSITY (SANDSTONE)
NPHI.V/V      00 330 00 00         : PHIN         - NEUTRON POROSITY (SANDSTONE)
ILD .OHMM     00 120 00 00         : RESD         - DEEP RESISTIVITY (DIL)
~PARAMETER INFORMATION
#MNEM.UNIT           DATA             DESCRIPTION OF MNEMONIC
#---------         -----------     ------------------------------
GL  .M        485.33               : gl           - GROUND LEVEL ELEVATION
EREF.M        488.62               : kb           - ELEVATION OF DEPTH REFERENCE
DATM.M        488.62               : datum        - DATUM ELEVATION
TDD .M        244                  : tdd          - TOTAL DEPTH DRILLER
RUN .         ONE                  : Run          - RUN NUMBER
ENG .         BILL                 : Engineer     - RECORDING ENGINEER
WIT .         JIM                  : Witness      - WITNESSED BY
MUD .         GEL                  : Mud_type     - MUD TYPE
MATR.         SANDSTONE            : Logunit      - NEUTRON MATRIX
TMAX.C        27                   : BHT          - MAXIMUM RECORDED TEMPERATURE
BHTD.M        244                  : BHTDEP       - MAXIMUM RECORDED TEMPERATURE
MATR.         1                    : LOGUNIT      - NEUTRON MATRIX
RMT .C        25                   : MDTP         - TEMPERATURE OF MUD
NEUT.         1                    : NEUTRON      - NEUTRON TYPE
RESI.         0                    : RESIST       - RESISTIVITY TYPE
RMC .OHMM     0.25                 : RMC          - RESISTIVITY OF MUD CAKE
RMF .OHMM     0.25                 : RMF          - RESISTIVITY OF MUD FILTRATE
SUFT.C        15                   : SUFT         - SURFACE TEMPERATURE
~A  DEPTH       GR     PHID     PHIN     RESD
# ...
  205.500  119.499    0.145    0.411   42.855
  205.750  127.253    0.239    0.431   31.782
  206.000  128.740    0.253    0.410   25.235
  206.250  127.434    0.221    0.379   19.878
  206.500  128.208    0.203    0.360   16.135
  206.750  128.288    0.193    0.360   15.899
  207.000  123.262    0.194    0.370   15.104
  207.250  119.022    0.214    0.351   15.897
  207.500  115.828    0.225    0.341   18.147
  207.750  113.212    0.230    0.351   19.674
  208.000  115.034    0.248    0.372   22.244
  208.250  120.393    0.271    0.389   25.479
  208.500  120.813    0.272    0.396   25.618
  208.750  116.363    0.260    0.404   26.422
  209.000  117.328    0.257    0.416   26.939
  209.250  120.797    0.265    0.439   27.489
  209.500  119.459    0.276    0.446   27.268
  209.750  116.405    0.278    0.428   25.017
  210.000  120.178    0.262    0.414   21.591
  210.250  127.075    0.243    0.388   18.163
  210.500  130.283    0.238    0.365   15.393
  210.750  128.316    0.233    0.369   14.719
  211.000  122.447    0.216    0.373   17.447
  211.250  116.179    0.194    0.352   21.947
  211.500  115.289    0.166    0.330   24.593
  211.750  122.477    0.123    0.320   25.062
  212.000  132.112    0.172    0.338   24.967
  212.250  134.375    0.213    0.357   23.362
  212.500  130.035    0.212    0.363   21.254
  212.750  129.562    0.223    0.370   20.138
  213.000  136.196    0.227    0.376   19.209
  213.250  139.750    0.200    0.362   18.395
  213.500  145.212    0.184    0.364   16.719
  213.750  151.318    0.176    0.372   14.768
  214.000  155.482    0.169    0.381   13.560
  214.250  157.202    0.175    0.392   13.051
  214.500  154.698    0.187    0.397   12.652
  214.750  146.832    0.192    0.394   12.741
  215.000  137.660    0.197    0.385   13.875
  215.250  135.757    0.214    0.381   15.080
  215.500  138.185    0.228    0.381   15.848
  215.750  138.830    0.225    0.380   17.160
  216.000  139.936    0.219    0.381   19.146
  216.250  140.497    0.213    0.384   19.509
  216.500  135.528    0.223    0.378   19.633
  216.750  134.188    0.226    0.384   18.812
  217.000  140.346    0.204    0.390   17.018
  217.250  136.239    0.196    0.400   15.648
  217.500  116.032    0.227    0.426   15.243
  217.750  119.263    0.203    0.395   15.574
  218.000  128.383    0.148    0.352   17.469
  218.250  130.176    0.171    0.357   19.564
  218.500  125.056    0.221    0.377   21.334
  218.750  117.782    0.222    0.378   22.890
  219.000  113.554    0.230    0.382   23.964
  219.250  114.494    0.245    0.384   25.560
  219.500  120.789    0.258    0.383   26.556
  219.750  128.323    0.257    0.374   27.331
  220.000  132.367    0.259    0.362   28.144
  220.250  133.507    0.263    0.354   27.485
  220.500  135.076    0.244    0.345   23.954
  220.750  134.743    0.227    0.342   19.235
  221.000  132.101    0.207    0.342   15.911
  221.250  121.253    0.217    0.359   16.002
  221.500  112.326    0.251    0.397   18.454
  221.750  114.286    0.281    0.426   27.136
  222.000  119.089    0.302    0.422   42.923
  222.250  126.614    0.289    0.408   46.123
  222.500  134.660    0.278    0.387   40.774
  222.750  138.378    0.269    0.366   29.790
  223.000  137.453    0.244    0.357   20.133
  223.250  129.494    0.224    0.358   16.966
  223.500  113.100    0.238    0.371   16.965
  223.750  103.564    0.259    0.400   20.416
  224.000  100.594    0.313    0.417   24.239
  224.250  102.014    0.317    0.426   25.872
  224.500  106.301    0.287    0.410   25.336
  224.750  113.500    0.275    0.370   22.621
  225.000  123.380    0.237    0.348   17.977
  225.250  131.421    0.195    0.335   15.262
  225.500  141.668    0.178    0.342   13.329
  225.750  149.199    0.189    0.384   12.347
  226.000  148.666    0.214    0.439   11.723
  226.250  142.448    0.221    0.442   10.838
  226.500  135.814    0.179    0.375   10.553
  226.750  130.936    0.125    0.340   10.498
  227.000  134.429    0.103    0.334   10.953
  227.250  142.286    0.101    0.335   11.311
  227.500  147.913    0.114    0.351   11.414
  227.750  149.261    0.136    0.372   11.298
  228.000  148.082    0.149    0.369   10.741
  228.250  146.813    0.163    0.361   10.400
  228.500  142.975    0.181    0.357   10.056
  228.750  141.725    0.148    0.368    9.904
  229.000  130.245    0.101    0.385    9.988
  229.250  106.763    0.116    0.402   10.191
  229.500   94.073    0.163    0.434   11.121
  229.750   84.212    0.164    0.419   13.221
  230.000   65.615    0.128    0.219   16.402
  230.250   54.901    0.045    0.084   47.047
  230.500   54.789   -0.009    0.078   86.514
  230.750   55.621    0.002    0.071  100.969
  231.000   58.347    0.000    0.076  103.627
  231.250   61.041   -0.000    0.089  115.443
  231.500   62.401    0.000    0.095  128.460
  231.750   63.027   -0.000    0.099  147.757
  232.000   63.382    0.000    0.104  165.194
  232.250   62.241   -0.000    0.109  174.760
  232.500   59.028   -0.000    0.113  186.050
  232.750   57.161    0.008    0.100  189.134
  233.000   58.642    0.014    0.093  192.787
  233.250   63.353    0.015    0.093  190.289
  233.500   69.302    0.013    0.099  183.912
  233.750   73.797    0.009    0.109  171.618
  234.000   76.813    0.003    0.119  142.842
  234.250   81.931    0.000    0.147  118.349
  234.500   85.950   -0.000    0.171   94.947
  234.750   86.626    0.000    0.188   72.975
