~VERSION INFORMATION
 VERS.                 2.0:   CWLS LOG ASCII STANDARD -VERSION 2.0
 WRAP.                  NO:   ONE LINE PER DEPTH STEP
~WELL INFORMATION BLOCK
#MNEM.UNIT           DATA                    DESCRIPTION OF MNEMONIC
#---------    -------------------            -------------------------------
# Generated from Intellog Unique Number	CC_88_90/WELL/1168
WELL.         10-08-090-14W4                 : Well_name    - WELL
LOC .         AA/10-08-090-14W4/0            : Location     - LOCATION
UWI .         AA/10-08-090-14W400            : Uwi          - UNIQUE WELL ID
ENTR.         DW                             : Entered      - ENTERED BY
SRVC.         SCHLUMBERGER                   : Scn          - SERVICE COMPANY
STRT.M        80                             : top_depth    - START DEPTH
STOP.M        214.75                         : bot_depth    - STOP DEPTH
STEP.M        0.25                           : increment    - STEP LENGTH
 NULL. -999.2500:NULL Value
~CURVE INFORMATION BLOCK
#MNEM UNIT       ERCB CURVE CODE    CURVE DESCRIPTION
#-----------   ------------------   ----------------------------------
DEPT.M        00 001 00 00         : DEPTH        - DEPTH
GR  .API      00 310 00 00         : GR           - GAMMA RAY
DPHI.V/V      00 890 00 00         : PHID         - DENSITY POROSITY (SANDSTONE)
NPHI.V/V      00 330 00 00         : PHIN         - NEUTRON POROSITY (SANDSTONE)
ILD .OHMM     00 120 00 00         : RESD         - DEEP RESISTIVITY (DIL)
~PARAMETER INFORMATION
#MNEM.UNIT           DATA             DESCRIPTION OF MNEMONIC
#---------         -----------     ------------------------------
GL  .M        477.8                : gl           - GROUND LEVEL ELEVATION
EREF.M        480.8                : kb           - ELEVATION OF DEPTH REFERENCE
DATM.M        480.8                : datum        - DATUM ELEVATION
TDD .M        225                  : tdd          - TOTAL DEPTH DRILLER
RUN .         ONE                  : Run          - RUN NUMBER
ENG .         BILL                 : Engineer     - RECORDING ENGINEER
WIT .         JIM                  : Witness      - WITNESSED BY
MUD .         GEL                  : Mud_type     - MUD TYPE
MATR.         SANDSTONE            : Logunit      - NEUTRON MATRIX
TMAX.C        10                   : BHT          - MAXIMUM RECORDED TEMPERATURE
BHTD.M        225                  : BHTDEP       - MAXIMUM RECORDED TEMPERATURE
MATR.         1                    : LOGUNIT      - NEUTRON MATRIX
RMT .C        25                   : MDTP         - TEMPERATURE OF MUD
NEUT.         1                    : NEUTRON      - NEUTRON TYPE
RESI.         0                    : RESIST       - RESISTIVITY TYPE
RMC .OHMM     0.25                 : RMC          - RESISTIVITY OF MUD CAKE
RMF .OHMM     0.25                 : RMF          - RESISTIVITY OF MUD FILTRATE
SUFT.C        4                    : SUFT         - SURFACE TEMPERATURE
~A  DEPTH       GR     PHID     PHIN     RESD
# ...
  167.000   52.117    0.314    0.383   84.017
  167.250   53.895    0.312    0.387   89.959
  167.500   56.682    0.306    0.384   92.322
  167.750   58.394    0.306    0.373   91.815
  168.000   58.581    0.312    0.367   90.052
  168.250   57.903    0.316    0.375   88.963
  168.500   57.347    0.318    0.392   87.458
  168.750   56.257    0.310    0.395   82.259
  169.000   55.536    0.304    0.385   77.781
  169.250   55.228    0.309    0.381   75.719
  169.500   55.543    0.316    0.391   75.202
  169.750   56.769    0.318    0.406   75.401
  170.000   58.273    0.319    0.418   75.367
  170.250   59.266    0.313    0.429   73.331
  170.500   60.193    0.307    0.438   68.634
  170.750   61.180    0.305    0.438   61.938
  171.000   62.158    0.302    0.426   55.748
  171.250   63.148    0.301    0.417   50.728
  171.500   64.104    0.312    0.422   45.401
  171.750   65.034    0.313    0.422   40.860
  172.000   66.527    0.308    0.403   35.149
  172.250   67.647    0.304    0.393   33.349
  172.500   68.921    0.306    0.401   34.600
  172.750   71.125    0.300    0.410   33.946
  173.000   73.684    0.281    0.412   27.899
  173.250   76.439    0.288    0.402   12.583
  173.500   78.032    0.287    0.397    5.995
  173.750   92.814    0.292    0.410    5.202
  174.000  113.023    0.284    0.432    3.821
  174.250  121.878    0.263    0.453    2.785
  174.500  122.758    0.274    0.476    2.644
  174.750  121.690    0.288    0.503    2.632
  175.000  120.908    0.282    0.522    2.791
  175.250  123.397    0.269    0.537    3.096
  175.500  126.439    0.269    0.552    3.329
  175.750  124.835    0.268    0.566    3.592
  176.000  121.197    0.234    0.576    4.085
  176.250  123.954    0.190    0.556    4.326
  176.500  127.441    0.170    0.540    4.194
  176.750  129.901    0.210    0.494    3.946
  177.000  131.135    0.251    0.457    3.686
  177.250  131.628    0.249    0.478    3.616
  177.500  130.772    0.264    0.505    4.017
  177.750  122.318    0.288    0.519    4.445
  178.000  112.781    0.250    0.541    4.808
  178.250  106.024    0.220    0.567    6.816
  178.500  103.860    0.190    0.541    9.040
  178.750  105.625    0.151    0.443    9.937
  179.000  105.159    0.176    0.360   10.932
  179.250   97.378    0.189    0.363   11.665
  179.500   91.885    0.220    0.383   12.371
  179.750   86.918    0.253    0.432   13.348
  180.000   81.348    0.269    0.481   14.374
  180.250   76.817    0.271    0.469   15.732
  180.500   73.341    0.272    0.419   17.881
  180.750   74.278    0.291    0.389   19.679
  181.000   74.198    0.279    0.383   21.853
  181.250   73.483    0.269    0.400   26.277
  181.500   71.193    0.299    0.422   30.621
  181.750   67.710    0.321    0.419   33.346
  182.000   67.457    0.297    0.389   37.370
  182.250   68.110    0.299    0.384   42.515
  182.500   66.675    0.299    0.398   46.608
  182.750   63.511    0.296    0.420   49.274
  183.000   60.955    0.299    0.405   51.482
  183.250   60.506    0.301    0.366   50.986
  183.500   61.592    0.297    0.376   46.115
  183.750   63.362    0.295    0.399   44.355
  184.000   67.174    0.297    0.404   45.103
  184.250   65.677    0.301    0.399   44.771
  184.500   61.479    0.305    0.396   42.634
  184.750   60.696    0.305    0.398   37.499
  185.000   60.679    0.300    0.400   28.326
  185.250   61.549    0.295    0.399   21.477
  185.500   63.725    0.289    0.394   18.218
  185.750   69.188    0.248    0.358   17.366
  186.000   72.739    0.212    0.332   17.369
  186.250   71.158    0.229    0.346   17.879
  186.500   69.639    0.252    0.353   19.080
  186.750   68.842    0.245    0.349   19.666
  187.000   70.377    0.236    0.347   20.819
  187.250   72.507    0.247    0.346   22.060
  187.500   73.161    0.261    0.341   23.004
  187.750   73.176    0.271    0.340   23.550
  188.000   73.641    0.288    0.357   23.523
  188.250   72.494    0.293    0.383   23.937
  188.500   72.555    0.304    0.380   23.921
  188.750   73.229    0.284    0.368   24.514
  189.000   73.545    0.267    0.372   26.049
  189.250   73.210    0.284    0.385   27.710
  189.500   71.481    0.294    0.398   29.542
  189.750   68.195    0.304    0.412   34.267
  190.000   61.338    0.282    0.399   47.734
  190.250   55.009    0.273    0.385   56.352
  190.500   51.774    0.290    0.383  109.196
  190.750   50.805    0.303    0.385  191.517
  191.000   51.406    0.308    0.389  202.624
  191.250   52.429    0.310    0.389  190.596
  191.500   52.859    0.320    0.392  178.938
  191.750   53.964    0.320    0.385  166.801
  192.000   55.351    0.315    0.377  153.790
  192.250   56.301    0.319    0.383  146.875
  192.500   57.260    0.324    0.404  155.814
  192.750   56.770    0.332    0.448  180.642
  193.000   55.998    0.316    0.420  194.049
  193.250   56.066    0.311    0.403  214.595
  193.500   56.715    0.326    0.420  263.393
  193.750   57.006    0.328    0.415  306.201
  194.000   57.537    0.314    0.399  313.720
  194.250   60.182    0.313    0.394  311.577
  194.500   61.440    0.327    0.397  132.373
  194.750   68.225    0.325    0.390   11.112
  195.000   80.010    0.314    0.367   12.312
  195.250  102.714    0.310    0.350    8.729
  195.500  134.341    0.286    0.349    9.077
  195.750  128.778    0.226    0.361   10.456
  196.000  116.705    0.227    0.418   14.302
  196.250  103.039    0.249    0.469   20.666
  196.500   91.710    0.300    0.549   30.622
  196.750   92.467    0.345    0.552   38.863
  197.000   98.869    0.287    0.359   37.436
  197.250  101.513    0.272    0.357   34.647
  197.500   98.782    0.290    0.383   31.451
  197.750   97.016    0.292    0.390   27.273
  198.000   97.899    0.272    0.399   23.360
  198.250   99.806    0.240    0.389   20.276
  198.500  105.339    0.201    0.367   17.318
  198.750  115.178    0.198    0.358   15.482
  199.000  116.116    0.233    0.369   14.011
  199.250  109.838    0.245    0.379   13.188
  199.500  105.299    0.238    0.382   13.034
  199.750  106.304    0.242    0.380   13.090
  200.000  109.974    0.244    0.378   13.319
  200.250  111.683    0.261    0.381   13.736
  200.500  111.850    0.237    0.366   14.237
  200.750  111.437    0.225    0.360   14.441
  201.000  110.765    0.233    0.371   14.292
  201.250  110.338    0.228    0.378   13.663
  201.500  110.290    0.232    0.379   12.616
  201.750  110.352    0.241    0.372   12.365
  202.000  115.619    0.230    0.361   12.505
  202.250  125.758    0.217    0.350   12.871
  202.500  129.725    0.201    0.342   13.210
  202.750  122.383    0.194    0.351   13.423
  203.000  113.718    0.219    0.385   13.627
  203.250  109.983    0.242    0.406   13.252
  203.500  105.074    0.272    0.406   12.496
  203.750   96.102    0.256    0.391   10.777
  204.000   89.848    0.224    0.402    8.912
  204.250   92.310    0.235    0.410    7.882
  204.500  102.830    0.249    0.349    7.194
  204.750  118.315    0.248    0.350    6.835
  205.000  120.309    0.282    0.440    6.761
  205.250  122.586    0.281    0.505    6.919
  205.500  115.878    0.253    0.525    7.160
  205.750   97.931    0.275    0.536    7.611
  206.000   98.841    0.335    0.541    8.378
  206.250  108.461    0.392    0.586    8.793
  206.500  111.549    0.474    0.606    9.239
  206.750  110.684    0.539    0.606    9.470
  207.000  114.972    0.600    0.637    9.280
  207.250  122.520    0.501    0.578    9.021
  207.500  121.404    0.160    0.363    9.053
  207.750  109.597    0.132    0.380    9.303
  208.000  101.028    0.169    0.433    9.993
  208.250  101.698    0.165    0.358   10.833
  208.500  104.483    0.159    0.278   11.766
  208.750  103.525    0.163    0.286   12.995
  209.000  100.730    0.178    0.288   14.259
  209.250   95.145    0.197    0.303   14.979
  209.500   89.268    0.219    0.332   15.551
  209.750   86.512    0.243    0.362   15.650
  210.000   88.039    0.223    0.384   15.163
  210.250   94.979    0.169    0.404   14.836
