~VERSION INFORMATION
 VERS.                 2.0:   CWLS LOG ASCII STANDARD -VERSION 2.0
 WRAP.                  NO:   ONE LINE PER DEPTH STEP
~WELL INFORMATION BLOCK
#MNEM.UNIT           DATA                    DESCRIPTION OF MNEMONIC
#---------    -------------------            -------------------------------
# Generated from Intellog Unique Number	CN_91_93/WELL/1174
WELL.         16-02-091-09W4                 : Well_name    - WELL
LOC .         AA/16-02-091-09W4/0            : Location     - LOCATION
UWI .         AA/16-02-091-09W400            : Uwi          - UNIQUE WELL ID
ENTR.         JOETTE                         : Entered      - ENTERED BY
SRVC.         SCHLUMBERGER                   : Scn          - SERVICE COMPANY
DATE.         01/14/92                       : Date         - LOG DATE
STRT.F        50                             : top_depth    - START DEPTH
STOP.F        439.6                          : bot_depth    - STOP DEPTH
STEP.F        0.8202                         : increment    - STEP LENGTH
 NULL. -999.2500:NULL Value
~CURVE INFORMATION BLOCK
#MNEM UNIT       ERCB CURVE CODE    CURVE DESCRIPTION
#-----------   ------------------   ----------------------------------
DEPT.F        00 001 00 00         : DEPTH        - DEPTH
GR  .API      00 310 00 00         : GR           - GAMMA RAY
CALI.IN       00 280 01 00         : CAL          - CALIPER
DPHI.V/V      00 890 00 00         : PHID         - DENSITY POROSITY (SANDSTONE)
ILD .OHMM     00 120 00 00         : RESD         - DEEP RESISTIVITY (DIL)
~PARAMETER INFORMATION
#MNEM.UNIT           DATA             DESCRIPTION OF MNEMONIC
#---------         -----------     ------------------------------
GL  .M        360.243              : gl           - GROUND LEVEL ELEVATION
EREF.M        361.615              : kb           - ELEVATION OF DEPTH REFERENCE
DATM.M        360.243              : datum        - DATUM ELEVATION
TDD .M        138.379              : tdd          - TOTAL DEPTH DRILLER
RUN .         ONE                  : Run          - RUN NUMBER
ENG .         BILL                 : Engineer     - RECORDING ENGINEER
WIT .         JIM                  : Witness      - WITNESSED BY
MUD .         GEL                  : Mud_type     - MUD TYPE
MATR.         SANDSTONE            : Logunit      - NEUTRON MATRIX
TMAX.F        52                   : BHT          - MAXIMUM RECORDED TEMPERATURE
BHTD.F        454                  : BHTDEP       - MAXIMUM RECORDED TEMPERATURE
RMT .F        52                   : MDTP         - TEMPERATURE OF MUD
MUDD.LB/G     9.16666              : MWT          - MUD DENSITY
NEUT.         1                    : NEUTRON      - NEUTRON TYPE
RESI.         0                    : RESIST       - RESISTIVITY TYPE
RM  .OHMM     5.68                 : RM           - RESISTIVITY OF MUD
RMC .OHMM     5.68                 : RMC          - RESISTIVITY OF MUD CAKE
RMF .OHMM     5.68                 : RMF          - RESISTIVITY OF MUD FILTRATE
SUFT.F        39.2                 : SUFT         - SURFACE TEMPERATURE
~A  DEPTH       GR      CAL     PHID     RESD
# ...
  192.717   87.078    8.242    0.380    8.136
  193.537   87.102    8.243    0.379    9.187
  194.357   86.730    8.285    0.383    9.105
  195.177   85.363    8.307    0.384    7.419
  195.997   84.993    8.350    0.383    7.353
  196.818   85.614    8.350    0.391    7.424
  197.638   86.829    8.396    0.401    7.088
  198.458   88.847    8.437    0.409    7.711
  199.278   88.670    8.459    0.383    8.788
  200.098   87.306    8.422    0.388    8.009
  200.919   86.334    8.326    0.382    7.298
  201.739   84.374    8.326    0.392    6.713
  202.559   85.197    8.291    0.399    6.591
  203.379   85.415    8.213    0.386    7.798
  204.199   82.259    8.156    0.394    7.585
  205.020   81.886    8.100    0.412    5.275
  205.840   81.315    8.062    0.428    4.103
  206.660   79.554    8.044    0.441    3.375
  207.480   81.166    8.008    0.442    5.532
  208.301   83.184    7.990    0.444    7.051
  209.121   83.206    7.933    0.405    7.743
  209.941   77.861    7.836    0.371    7.745
  210.761   75.302    7.720    0.335    7.820
  211.581   73.739    7.662    0.292   11.570
  212.402   75.159    7.724    0.265   16.038
  213.222   76.572    7.846    0.353   13.315
  214.042   78.982    7.988    0.381    7.977
  214.862   80.597    8.030    0.375    9.008
  215.682   80.820    8.030    0.372    9.011
  216.503   78.661    8.056    0.373    9.356
  217.323   78.087    8.077    0.364    9.714
  218.143   77.521    8.077    0.376    8.450
  218.963   75.751    8.102    0.377    8.452
  219.783   71.403    8.124    0.396    9.815
  220.604   73.220    8.147    0.434    7.850
  221.424   73.642    8.149    0.482    5.211
  222.244   68.899    8.172    0.524    3.692
  223.064   68.719    8.234    0.506    2.792
  223.885   69.347    8.356    0.499    3.461
  224.705   69.769    8.457    0.486    3.836
  225.525   71.983    8.599    0.472    4.291
  226.345   73.790    8.741    0.467    4.414
  227.165   75.409    8.585    0.414    6.843
  227.986   70.859    8.468    0.403    7.444
  228.806   68.700    8.391    0.406    6.847
  229.626   66.336    8.592    0.454    6.182
  230.446   67.156    8.873    0.432    5.957
  231.266   67.979    8.557    0.387    7.523
  232.087   69.398    8.341    0.362    7.885
  232.907   67.830    8.244    0.373    7.670
  233.727   64.674    8.267    0.365    7.461
  234.547   64.308    8.309    0.362    8.040
  235.367   65.923    8.333    0.369    9.601
  236.188   68.326    8.374    0.379    6.996
  237.008   74.715    8.374    0.403    4.687
  237.828   76.926    8.420    0.454    4.733
  238.648   80.532    8.461    0.450    4.647
  239.468   80.954    8.461    0.450    4.692
  240.289   78.000    8.486    0.446    5.655
  241.109   76.233    8.508    0.410    5.657
  241.929   77.450    8.508    0.425    5.252
  242.749   81.252    8.513    0.437    4.742
  243.570   82.668    8.513    0.440    4.788
  244.390   83.295    8.540    0.435    5.112
  245.210   82.124    8.540    0.446    4.791
  246.030   79.760    8.543    0.446    5.068
  246.850   74.021    8.545    0.440    4.976
  247.671   72.061    8.567    0.441    5.167
  248.491   74.071    8.567    0.421    5.673
  249.311   73.108    8.573    0.408    5.366
  250.131   72.331    8.573    0.417    6.173
  250.951   76.139    8.599    0.412    5.785
  251.772   73.778    8.599    0.392    5.079
  252.592   68.244    8.603    0.337    4.501
  253.412   67.663    8.625    0.297    6.476
  254.232   65.302    8.608    0.259   14.305
  255.052   62.346    8.352    0.254   19.464
  255.873   59.588    7.997    0.271   15.138
  256.693   59.414    7.840    0.316    9.591
  257.513   59.236    7.763    0.321   10.932
  258.333   61.650    7.706    0.330    9.870
  259.154   65.650    7.706    0.339    8.665
  259.974   69.454    7.652    0.338    8.273
  260.794   73.653    7.634    0.346   10.447
  261.614   81.035    7.634    0.370   10.162
  262.434   74.696    7.619    0.365    9.977
  263.255   64.783    7.619    0.345   10.457
  264.075   61.829    7.585    0.317   12.603
  264.895   63.043    7.547    0.324   14.911
  265.715   65.056    7.547    0.317   14.236
  266.535   64.484    7.532    0.316   11.600
  267.356   59.937    7.435    0.311   12.619
  268.176   55.390    7.457    0.317   17.010
  268.996   53.428    7.559    0.321   14.934
  269.816   71.742    7.622    0.349   10.006
  270.636   80.913    7.622    0.336    7.929
  271.457   82.925    7.647    0.341    9.736
  272.277   83.745    7.647    0.328   11.098
  273.097   82.577    7.672    0.318    8.712
  273.917   74.453    7.694    0.276    8.961
  274.738   70.701    7.694    0.303   22.979
  275.558   66.750    7.698    0.328   31.264
  276.378   63.595    7.701    0.337   22.994
  277.198   60.039    7.706    0.314   22.160
  278.018   55.889    7.707    0.331   24.331
  278.839   52.138    7.669    0.335   27.220
  279.659   50.373    7.632    0.314   22.598
  280.479   50.994    7.594    0.328   20.402
  281.299   50.628    7.579    0.331   34.394
  282.119   50.646    7.560    0.316   45.082
  282.940   51.864    7.503    0.322   32.242
  283.760   54.081    7.487    0.330   21.008
  284.580   53.109    7.469    0.315   49.075
  285.400   52.143    7.469    0.343   85.873
  286.220   54.351    7.474    0.350   35.769
  287.041   58.749    7.455    0.356   20.645
  287.861   65.535    7.455    0.340   11.374
  288.681   59.199    7.441    0.320   15.331
  289.501   54.450    7.441    0.299   49.628
  290.322   52.093    7.427    0.287   33.252
  291.142   56.291    7.428    0.300   25.149
  291.962   63.273    7.433    0.309   19.198
  292.782   66.882    7.434    0.292   17.013
  293.602   59.944    7.434    0.303   11.943
  294.423   54.204    7.438    0.302   18.341
  295.243   51.049    7.438    0.313   26.637
  296.063   49.884    7.444    0.320   23.826
  296.883   49.909    7.444    0.335   21.114
  297.703   50.927    7.469    0.336   19.421
  298.524   49.560    7.491    0.318   25.935
  299.344   48.588    7.491    0.324   18.037
  300.164   56.766    7.516    0.310   14.292
  300.984   63.154    7.578    0.313   18.561
  301.804   55.424    7.620    0.319   25.253
  302.625   47.895    7.620    0.328   35.996
  303.445   44.342    7.645    0.338   28.523
  304.265   47.547    7.645    0.321   24.580
  305.085   50.954    7.712    0.310   23.035
  305.906   54.159    7.733    0.319   17.422
  306.726   62.135    7.733    0.331   11.457
  307.546   73.890    7.757    0.338    8.585
  308.366   77.496    7.799    0.324    9.339
  309.186   75.731    7.804    0.327    9.000
  310.007   72.576    7.824    0.332    7.976
  310.827   67.231    7.847    0.344    9.885
  311.647   63.280    7.849    0.338   10.754
  312.467   63.308    7.851    0.353   10.364
  313.287   58.562    7.854    0.352   13.210
  314.108   61.168    7.817    0.361   11.706
  314.928   63.581    7.821    0.349   10.471
  315.748   64.003    7.782    0.338    9.366
  316.568   63.432    7.764    0.351    8.777
  317.388   62.860    7.749    0.345   10.003
  318.209   63.090    7.750    0.333    9.201
  319.029   64.503    7.732    0.322    9.204
  319.849   67.112    7.755    0.315    8.546
  320.669   66.938    7.758    0.327   10.791
  321.490   62.984    7.740    0.329   11.101
  322.310   62.217    7.624    0.350    9.838
  323.130   64.431    7.507    0.364    8.398
  323.950   63.266    7.507    0.319    8.720
  324.770   60.105    7.433    0.314   12.088
  325.591   56.154    7.316    0.353   14.434
  326.411   53.194    7.258    0.324   16.451
  327.231   48.250    7.258    0.317   19.103
  328.051   48.079    7.245    0.327   16.461
  328.871   48.302    7.265    0.331   12.923
  329.692   49.321    7.288    0.346   13.798
  330.512   51.532    7.330    0.316   17.425
  331.332   53.346    7.392    0.307   13.808
  332.152   55.759    7.434    0.318   12.122
  332.972   54.989    7.457    0.320   13.310
  333.793   56.212    7.459    0.306   16.808
  334.613   57.821    7.462    0.325   15.175
