~VERSION INFORMATION
 VERS.                 2.0:   CWLS LOG ASCII STANDARD -VERSION 2.0
 WRAP.                  NO:   ONE LINE PER DEPTH STEP
~WELL INFORMATION BLOCK
#MNEM.UNIT           DATA                    DESCRIPTION OF MNEMONIC
#---------    -------------------            -------------------------------
# Generated from Intellog Unique Number	CN_91_93/WELL/3631
WELL.         10-18-093-06W4                 : Well_name    - WELL
LOC .         AA/10-18-093-06W4/0            : Location     - LOCATION
UWI .         AA/10-18-093-06W400            : Uwi          - UNIQUE WELL ID
ENTR.         JOETTE                         : Entered      - ENTERED BY
SRVC.         SCHLUMBERGER                   : Scn          - SERVICE COMPANY
DATE.         03/18/92                       : Date         - LOG DATE
STRT.M        65                             : top_depth    - START DEPTH
STOP.M        265                            : bot_depth    - STOP DEPTH
STEP.M        0.25                           : increment    - STEP LENGTH
 NULL. -999.2500:NULL Value
~CURVE INFORMATION BLOCK
#MNEM UNIT       ERCB CURVE CODE    CURVE DESCRIPTION
#-----------   ------------------   ----------------------------------
DEPT.M        00 001 00 00         : DEPTH        - DEPTH
ILD .OHMM     00 120 00 00         : RESD         - DEEP RESISTIVITY (DIL)
CALI.MM       00 280 01 00         : CAL          - CALIPER
GR  .API      00 310 00 00         : GR           - GAMMA RAY
NPHI.V/V      00 330 00 00         : PHIN         - NEUTRON POROSITY (SANDSTONE)
DPHI.V/V      00 890 00 00         : PHID         - DENSITY POROSITY (SANDSTONE)
~PARAMETER INFORMATION
#MNEM.UNIT           DATA             DESCRIPTION OF MNEMONIC
#---------         -----------     ------------------------------
GL  .M        547.76               : gl           - GROUND LEVEL ELEVATION
EREF.M        550.46               : kb           - ELEVATION OF DEPTH REFERENCE
DATM.M        550.46               : datum        - DATUM ELEVATION
TDD .M        266.5                : tdd          - TOTAL DEPTH DRILLER
RUN .         ONE                  : Run          - RUN NUMBER
ENG .         BILL                 : Engineer     - RECORDING ENGINEER
WIT .         JIM                  : Witness      - WITNESSED BY
MUD .         GEL                  : Mud_type     - MUD TYPE
MATR.         SANDSTONE            : Logunit      - NEUTRON MATRIX
TMAX.C        16                   : BHT          - MAXIMUM RECORDED TEMPERATURE
BHTD.M        266.5                : BHTDEP       - MAXIMUM RECORDED TEMPERATURE
RMT .C        37                   : MDTP         - TEMPERATURE OF MUD
MUDD.KG/M     9666.66              : MWT          - MUD DENSITY
NEUT.         1                    : NEUTRON      - NEUTRON TYPE
RESI.         0                    : RESIST       - RESISTIVITY TYPE
RM  .OHMM     12                   : RM           - RESISTIVITY OF MUD
RMC .OHMM     12                   : RMC          - RESISTIVITY OF MUD CAKE
RMF .OHMM     12                   : RMF          - RESISTIVITY OF MUD FILTRATE
SUFT.C        4                    : SUFT         - SURFACE TEMPERATURE
~A  DEPTH     RESD      CAL       GR     PHIN     PHID
# ...
  101.500   20.817  166.295   58.442    0.432    0.306
  101.750   20.823  166.320   60.297    0.417    0.286
  102.000   19.693  167.382   60.304    0.401    0.274
  102.250   17.282  167.394   60.326    0.403    0.312
  102.500   16.965  167.425   60.333    0.431    0.322
  102.750   16.348  167.449   61.571    0.451    0.307
  103.000   15.754  168.499   64.034    0.457    0.315
  103.250   15.763  168.517   63.437    0.446    0.311
  103.500   15.772  168.536   61.622    0.441    0.315
  103.750   16.078  168.566   60.406    0.459    0.335
  104.000   17.023  167.564   59.812    0.469    0.342
  104.250   17.683  166.581   62.275    0.472    0.337
  104.500   18.032  165.573   64.121    0.469    0.340
  104.750   17.703  165.597   62.912    0.468    0.331
  105.000   16.745  165.628   61.703    0.462    0.321
  105.250   16.134  165.658   63.553    0.454    0.315
  105.500   14.699  165.676   66.631    0.459    0.313
  105.750   14.165  165.694   67.258    0.466    0.325
  106.000   13.648  164.705   67.269    0.469    0.321
  106.250   13.150  164.729   66.066    0.470    0.325
  106.500   12.916  164.759   64.850    0.470    0.318
  106.750   12.922  164.771   64.252    0.468    0.298
  107.000   13.172  164.796   65.495    0.459    0.280
  107.250   13.687  164.820   67.341    0.444    0.280
  107.500   13.953  164.844   69.804    0.458    0.311
  107.750   13.703  164.869   65.538    0.463    0.320
  108.000   13.203  164.893   63.101    0.464    0.325
  108.250   11.803  165.943   64.952    0.459    0.315
  108.500   10.750  165.961   66.802    0.455    0.312
  108.750   10.361  165.998   67.429    0.447    0.306
  109.000   10.364  164.996   66.219    0.447    0.320
  109.250   10.570  165.014   66.853    0.460    0.308
  109.500   10.978  165.045   68.088    0.459    0.306
  109.750   11.623  164.049   66.267    0.458    0.316
  110.000   12.540  164.073   66.278    0.465    0.315
  110.250   13.026  165.124   66.904    0.456    0.296
  110.500   13.035  165.136   68.146    0.436    0.285
  110.750   12.800  165.160   67.549    0.439    0.293
  111.000   12.331  165.184   64.500    0.453    0.290
  111.250   11.883  166.235   62.067    0.456    0.298
  111.500   11.451  166.265   63.917    0.449    0.282
  111.750   11.034  166.277   66.995    0.444    0.274
  112.000   10.633  165.281   68.842    0.444    0.273
  112.250   10.247  165.312   70.693    0.435    0.260
  112.500   10.062  164.316   71.931    0.429    0.247
  112.750    9.880  164.340   71.949    0.438    0.242
  113.000    9.702  164.359   70.740    0.443    0.236
  113.250    9.526  165.409   70.139    0.445    0.245
  113.500    9.535  170.533   71.997    0.449    0.262
  113.750    9.537  173.611   72.623    0.463    0.277
  114.000    9.366  171.607   72.638    0.475    0.291
  114.250    9.199  171.620   72.037    0.461    0.274
  114.500    9.030  171.650   71.443    0.464    0.281
  114.750    8.867  171.668   72.070    0.466    0.294
  115.000    8.708  170.679   72.080    0.464    0.283
  115.250    8.390  169.677   71.483    0.466    0.285
  115.500    8.087  167.661   75.173    0.479    0.270
  115.750    7.940  167.698   77.027    0.486    0.253
  116.000    7.945  167.710   77.034    0.479    0.280
  116.250    8.099  167.740   77.053    0.478    0.287
  116.500    8.738  167.758   74.619    0.489    0.291
  116.750    9.604  167.789   72.798    0.489    0.282
  117.000   10.756  166.787   72.809    0.451    0.275
  117.250   12.989  166.811   72.827    0.443    0.269
  117.500   15.395  166.842   71.614    0.465    0.281
  117.750   17.243  166.872   69.793    0.469    0.293
  118.000   17.911  166.884   64.912    0.454    0.297
  118.250   19.327  166.915   59.419    0.437    0.285
  118.500   19.702  166.939   56.373    0.421    0.279
  118.750   19.716  165.943   55.776    0.425    0.278
  119.000   19.357  165.967   57.014    0.436    0.305
  119.250   18.304  164.972   57.641    0.438    0.309
  119.500   16.671  163.982   57.047    0.437    0.304
  119.750   14.352  164.000   57.066    0.449    0.319
  120.000   11.901  165.039   57.073    0.465    0.297
  120.250   11.253  167.109   58.311    0.475    0.278
  120.500   10.447  171.213   61.998    0.461    0.273
  120.750   10.450  176.331   67.520    0.438    0.266
  121.000   11.062  181.467   71.206    0.461    0.250
  121.250   13.358  177.405   64.489    0.460    0.267
  121.500   18.055  174.364   59.608    0.448    0.272
  121.750   23.951  178.480   53.503    0.434    0.288
  122.000   30.599  171.353   49.237    0.423    0.315
  122.250   33.638  166.289   47.420    0.416    0.321
  122.500   33.653  165.281   46.815    0.429    0.321
  122.750   31.830  164.292   46.833    0.439    0.324
  123.000   30.677  164.316   47.456    0.450    0.333
  123.250   30.115  164.347   48.086    0.455    0.326
  123.500   29.571  163.345   49.325    0.444    0.335
  123.750   29.037  163.369   50.567    0.443    0.357
  124.000   29.053  163.393   50.574    0.446    0.349
  124.250   29.074  163.418   48.753    0.451    0.333
  124.500   29.643  163.442   48.156    0.454    0.317
  124.750   30.801  163.466   48.174    0.451    0.311
  125.000   30.809  163.490   48.185    0.443    0.314
  125.250   32.008  164.541   48.815    0.436    0.322
  125.500   32.639  164.559   49.441    0.439    0.328
  125.750   32.662  165.603   50.064    0.451    0.330
  126.000   32.672  165.628   50.079    0.460    0.330
  126.250   32.690  165.658   49.489    0.458    0.312
  126.500   32.100  165.676   49.496    0.450    0.319
  126.750   32.732  165.706   48.290    0.455    0.331
  127.000   33.368  165.725   47.081    0.452    0.334
  127.250   35.329  165.749   49.544    0.451    0.326
  127.500   36.698  165.779   52.010    0.453    0.339
  127.750   38.861  164.784   52.017    0.419    0.343
  128.000   38.877  164.808   48.972    0.419    0.330
  128.250   38.186  163.806   45.926    0.425    0.331
  128.500   37.491  163.837   43.493    0.423    0.337
  128.750   36.814  164.881   42.284    0.437    0.352
  129.000   35.476  164.899   42.914    0.412    0.348
  129.250   34.191  164.923   44.149    0.406    0.342
  129.500   33.564  164.954   46.615    0.402    0.335
  129.750   31.746  163.958   50.301    0.410    0.329
  130.000   30.023  163.982   51.536    0.427    0.324
  130.250   28.927  162.987   50.327    0.441    0.327
  130.500   27.365  163.017   48.513    0.433    0.333
  130.750   26.866  163.029   47.912    0.416    0.333
  131.000   26.385  162.033   47.922    0.399    0.332
  131.250   25.901  162.064   48.553    0.404    0.336
  131.500   25.916  161.068   49.179    0.418    0.338
  131.750   24.974  161.092   49.809    0.425    0.335
  132.000   23.181  161.117   50.432    0.425    0.322
  132.250   21.512  161.141   51.055    0.424    0.314
  132.500   19.225  161.165   52.909    0.424    0.316
  132.750   17.511  161.190   55.984    0.431    0.319
  133.000   16.879  161.208   58.442    0.452    0.319
  133.250   17.207  161.232   54.785    0.462    0.320
  133.500   17.541  162.282   52.964    0.464    0.327
  133.750   18.572  162.307   51.755    0.475    0.326
  134.000   19.300  162.325   55.444    0.481    0.322
  134.250   19.305  162.355   53.623    0.471    0.328
  134.500   20.062  162.379   49.350    0.462    0.340
  134.750   20.837  162.404   44.469    0.431    0.340
  135.000   25.638  162.428   42.040    0.439    0.334
  135.250   30.958  162.452   43.278    0.448    0.339
  135.500   33.399  162.477   45.125    0.438    0.350
  135.750   33.414  163.521   43.307    0.429    0.345
  136.000   32.815  163.545   40.874    0.429    0.333
  136.250   32.218  163.569   42.721    0.435    0.330
  136.500   32.857  163.588   45.183    0.439    0.335
  136.750   33.495  163.618   45.813    0.440    0.339
  137.000   34.798  163.636   44.604    0.435    0.345
  137.250   35.474  163.667   43.395    0.432    0.350
  137.500   36.865  163.685   42.185    0.428    0.340
  137.750   37.580  163.715   42.812    0.429    0.335
