~VERSION INFORMATION
 VERS.                 2.0:   CWLS LOG ASCII STANDARD -VERSION 2.0
 WRAP.                  NO:   ONE LINE PER DEPTH STEP
~WELL INFORMATION BLOCK
#MNEM.UNIT           DATA                    DESCRIPTION OF MNEMONIC
#---------    -------------------            -------------------------------
# Generated from Intellog Unique Number	CN_94_101/WELL/5036
WELL.         13-29-097-12W4                 : Well_name    - WELL
LOC .         AA/13-29-097-12W4/0            : Location     - LOCATION
UWI .         AA/13-29-097-12W400            : Uwi          - UNIQUE WELL ID
ENTR.         JOETTE                         : Entered      - ENTERED BY
SRVC.         SCHLUMBERGER                   : Scn          - SERVICE COMPANY
DATE.         08/17/92                       : Date         - LOG DATE
STRT.M        25                             : top_depth    - START DEPTH
STOP.M        205                            : bot_depth    - STOP DEPTH
STEP.M        0.25                           : increment    - STEP LENGTH
 NULL. -999.2500:NULL Value
~CURVE INFORMATION BLOCK
#MNEM UNIT       ERCB CURVE CODE    CURVE DESCRIPTION
#-----------   ------------------   ----------------------------------
DEPT.M        00 001 00 00         : DEPTH        - DEPTH
ILD .OHMM     00 120 00 00         : RESD         - DEEP RESISTIVITY (DIL)
GR  .API      00 310 00 00         : GR           - GAMMA RAY
NPHI.V/V      00 330 00 00         : PHIN         - NEUTRON POROSITY (SANDSTONE)
DPHI.V/V      00 890 00 00         : PHID         - DENSITY POROSITY (SANDSTONE)
~PARAMETER INFORMATION
#MNEM.UNIT           DATA             DESCRIPTION OF MNEMONIC
#---------         -----------     ------------------------------
GL  .M        448.3                : gl           - GROUND LEVEL ELEVATION
EREF.M        448.3                : kb           - ELEVATION OF DEPTH REFERENCE
DATM.M        448.3                : datum        - DATUM ELEVATION
TDD .M        215                  : tdd          - TOTAL DEPTH DRILLER
RUN .         ONE                  : Run          - RUN NUMBER
ENG .         BILL                 : Engineer     - RECORDING ENGINEER
WIT .         JIM                  : Witness      - WITNESSED BY
MUD .         GEL                  : Mud_type     - MUD TYPE
MATR.         SANDSTONE            : Logunit      - NEUTRON MATRIX
TMAX.C        17                   : BHT          - MAXIMUM RECORDED TEMPERATURE
BHTD.M        215                  : BHTDEP       - MAXIMUM RECORDED TEMPERATURE
RMT .C        17                   : MDTP         - TEMPERATURE OF MUD
MUDD.KG/M     1030                 : MWT          - MUD DENSITY
NEUT.         1                    : NEUTRON      - NEUTRON TYPE
RESI.         0                    : RESIST       - RESISTIVITY TYPE
RM  .OHMM     16.5                 : RM           - RESISTIVITY OF MUD
RMC .OHMM     16.5                 : RMC          - RESISTIVITY OF MUD CAKE
RMF .OHMM     16.5                 : RMF          - RESISTIVITY OF MUD FILTRATE
SUFT.C        4                    : SUFT         - SURFACE TEMPERATURE
~A  DEPTH     RESD       GR     PHIN     PHID
# ...
  155.500    6.407  132.207    0.606    0.289
  155.750    7.867  126.815    0.613    0.280
  156.000   10.163  123.824    0.607    0.272
  156.250   11.415  111.810    0.588    0.264
  156.500   12.877   91.367    0.465    0.251
  156.750   14.339   70.924    0.433    0.238
  157.000   15.594   57.096    0.418    0.224
  157.250   17.265   50.507    0.384    0.210
  157.500   18.517   45.710    0.360    0.205
  157.750   20.187   41.521    0.401    0.232
  158.000   23.103   37.333    0.380    0.250
  158.250   27.059   31.339    0.366    0.269
  158.500   25.406   28.963    0.332    0.277
  158.750   20.637   28.387    0.315    0.285
  159.000   21.061   27.202    0.322    0.280
  159.250   23.977   26.626    0.331    0.265
  159.500   27.930   29.662    0.318    0.251
  159.750   32.508   35.106    0.316    0.252
  160.000   34.595   40.556    0.346    0.261
  160.250   32.941   44.803    0.359    0.257
  160.500   28.796   45.424    0.361    0.253
  160.750   27.556   46.654    0.351    0.257
  161.000   25.072   47.884    0.358    0.252
  161.250   23.834   49.114    0.364    0.245
  161.500   22.806   50.344    0.370    0.245
  161.750   22.607   47.366    0.363    0.249
  162.000   23.030   42.576    0.340    0.262
  162.250   22.413   42.595    0.339    0.274
  162.500   21.176   47.444    0.357    0.280
  162.750   18.899   51.075    0.370    0.285
  163.000   17.041   55.917    0.380    0.288
  163.250   16.631   67.984    0.390    0.281
  163.500   17.678   71.628    0.400    0.276
  163.750   19.142   77.079    0.408    0.271
  164.000   20.810   78.910    0.416    0.276
  164.250   21.856   83.144    0.431    0.284
  164.500   23.113   86.788    0.426    0.286
  164.750   22.082   89.216    0.422    0.281
  165.000   21.052   95.262    0.422    0.287
  165.250   20.022   98.900    0.422    0.298
  165.500   21.069   96.518    0.420    0.302
  165.750   21.702   92.938    0.416    0.298
  166.000   20.881   90.549    0.415    0.292
  166.250   19.847   89.371    0.416    0.292
  166.500   17.155   89.397    0.397    0.294
  166.750   15.918   91.837    0.384    0.284
  167.000   15.720   99.081    0.388    0.276
  167.250   16.352  104.532    0.392    0.262
  167.500   16.983  109.380    0.398    0.244
  167.750   16.783  116.022    0.413    0.233
  168.000   16.374  120.268    0.405    0.230
  168.250   15.967  115.471    0.412    0.209
  168.500   16.185  112.487    0.419    0.259
  168.750   16.608  111.309    0.424    0.254
  169.000   17.034  114.358    0.418    0.256
  169.250   17.040  114.973    0.410    0.266
  169.500   17.046  118.015    0.406    0.265
  169.750   16.433  119.239    0.409    0.252
  170.000   15.817  118.662    0.412    0.232
  170.250   15.204  116.889    0.406    0.220
  170.500   15.212  115.710    0.400    0.237
  170.750   16.051  113.328    0.400    0.243
  171.000   17.096  112.144    0.405    0.218
  171.250   18.765  110.972    0.418    0.216
  171.500   22.098  110.396    0.421    0.232
  171.750   26.885  109.826    0.418    0.258
  172.000   28.137  109.839    0.416    0.272
  172.250   31.884  107.457    0.408    0.279
  172.500   33.553  102.666    0.401    0.268
  172.750   28.785   99.695    0.404    0.273
  173.000   25.886   99.106    0.412    0.294
  173.250   25.478  102.142    0.417    0.309
  173.500   27.563  104.582    0.422    0.312
  173.750   37.127   99.785    0.424    0.300
  174.000   40.873   85.965    0.425    0.294
  174.250   45.035   83.582    0.427    0.299
  174.500   28.842   86.023    0.427    0.293
  174.750   26.151   88.457    0.425    0.295
  175.000   26.990   90.884    0.416    0.291
  175.250   28.661   94.522    0.414    0.283
  175.500   30.541   96.354    0.419    0.273
  175.750   30.133   93.972    0.420    0.267
  176.000   29.519   90.988    0.415    0.279
  176.250   30.565   84.391    0.402    0.291
  176.500   32.025   87.434    0.394    0.289
  176.750   32.241   91.674    0.385    0.272
  177.000   29.549   94.703    0.389    0.265
  177.250   27.896   96.535    0.395    0.262
  177.500   29.566   89.337    0.402    0.281
  177.750   33.312   82.740    0.411    0.290
  178.000   34.151   82.766    0.418    0.290
  178.250   34.577   85.206    0.421    0.289
  178.500   34.792   87.038    0.424    0.282
  178.750   35.633   86.462    0.427    0.291
  179.000   35.847   80.461    0.424    0.301
  179.250   36.478   76.875    0.419    0.301
  179.500   36.071   89.550    0.383    0.292
  179.750   31.716   88.372    0.393    0.288
  180.000   28.609   87.193    0.398    0.283
  180.250   25.087   87.219    0.390    0.279
  180.500   24.472   87.258    0.395    0.276
  180.750   24.896   87.879    0.400    0.273
  181.000   26.150   89.116    0.399    0.266
  181.250   28.029   90.935    0.405    0.260
  181.500   34.060   93.369    0.410    0.254
  181.750   36.145   91.588    0.415    0.270
  182.000   37.401   85.594    0.414    0.277
  182.250   38.450   81.412    0.406    0.275
  182.500   39.077   79.632    0.397    0.272
  182.750   39.916   77.852    0.389    0.286
  183.000   41.586   75.463    0.389    0.291
  183.250   44.296   83.917    0.394    0.286
  183.500   45.965   91.167    0.407    0.283
  183.750   45.978   98.418    0.417    0.286
  184.000   45.359   81.587    0.422    0.283
  184.250   41.421   82.817    0.408    0.274
  184.500   36.443   87.659    0.378    0.266
  184.750   30.221   93.705    0.388    0.266
  185.000   30.852   99.751    0.397    0.284
  185.250   32.937   99.175    0.396    0.277
  185.500   36.893  100.405    0.394    0.278
  185.750   43.132   97.420    0.395    0.279
  186.000   49.993   73.974    0.407    0.278
  186.250   51.457   72.187    0.418    0.302
  186.500   52.296   77.029    0.418    0.312
  186.750   51.891   80.071    0.400    0.313
  187.000   50.859   75.275    0.386    0.318
  187.250   49.621   64.464    0.418    0.315
  187.500   46.927   54.255    0.424    0.314
  187.750   39.252   50.669    0.410    0.318
  188.000   35.522   50.695    0.404    0.312
  188.250   35.740   50.721    0.402    0.314
  188.500   36.369   50.753    0.397    0.319
  188.750   37.208   52.585    0.390    0.322
  189.000   38.877   56.825    0.387    0.324
  189.250   40.339   60.457    0.387    0.322
  189.500   41.803   65.299    0.385    0.315
  189.750   42.850   71.345    0.382    0.307
  190.000   43.689   71.973    0.398    0.293
  190.250   44.945   66.580    0.412    0.297
  190.500   45.782   59.382    0.405    0.307
  190.750   46.831   41.949    0.404    0.318
  191.000   48.083   38.369    0.403    0.312
  191.250   48.714   37.786    0.399    0.316
  191.500   49.140   35.404    0.393    0.322
  191.750   49.148   34.828    0.392    0.323
  192.000   48.325   36.064    0.392    0.320
  192.250   47.085   37.890    0.392    0.320
  192.500   44.394   39.126    0.387    0.319
  192.750   40.871   38.550    0.382    0.311
  193.000   38.180   37.365    0.373    0.310
  193.250   35.904   38.602    0.365    0.308
  193.500   34.251   41.029    0.371    0.308
  193.750   33.636   41.664    0.391    0.313
  194.000   34.269   42.291    0.398    0.321
  194.250   34.483   43.521    0.400    0.327
  194.500   34.076   43.541    0.400    0.321
  194.750   25.569   43.567    0.402    0.314
  195.000   23.501   44.194    0.366    0.312
  195.250   23.096   44.829    0.357    0.315
  195.500   24.140   47.263    0.363    0.317
  195.750   25.604   52.118    0.375    0.312
  196.000   26.649   53.950    0.382    0.306
  196.250   26.034   55.775    0.397    0.299
  196.500   24.796   57.600    0.398    0.299
  196.750   23.350   60.041    0.382    0.296
  197.000   23.151   61.866    0.377    0.286
  197.250   23.576   66.106    0.371    0.278
  197.500   24.000   70.955    0.366    0.258
  197.750   18.607   74.586    0.357    0.263
  198.000   16.123   81.235    0.354    0.267
  198.250   12.808  101.736    0.357    0.260
  198.500   11.572  110.190    0.337    0.249
  198.750   10.750  119.246    0.350    0.233
