~VERSION INFORMATION
 VERS.                 2.0:   CWLS LOG ASCII STANDARD -VERSION 2.0
 WRAP.                  NO:   ONE LINE PER DEPTH STEP
~WELL INFORMATION BLOCK
#MNEM.UNIT           DATA                    DESCRIPTION OF MNEMONIC
#---------    -------------------            -------------------------------
# Generated from Intellog Unique Number	CS_77_79/WELL/943
WELL.         PEX PCEJ THORNBURY OV          : Well_name    - WELL
LOC .         AA/10-10-079-14W4/0            : Location     - LOCATION
UWI .         AA/10-10-079-14W4/0            : Uwi          - UNIQUE WELL ID
ENTR.         JHS                            : Entered      - ENTERED BY
SRVC.         SCHLUMBERGER                   : Scn          - SERVICE COMPANY
STRT.M        265                            : top_depth    - START DEPTH
STOP.M        505                            : bot_depth    - STOP DEPTH
STEP.M        0.25                           : increment    - STEP LENGTH
 NULL. -999.2500:NULL Value
~CURVE INFORMATION BLOCK
#MNEM UNIT       ERCB CURVE CODE    CURVE DESCRIPTION
#-----------   ------------------   ----------------------------------
DEPT.M        00 001 00 00         : DEPTH        - DEPTH
DPHI.V/V      00 890 00 00         : PHID         - DENSITY POROSITY (LIMESTONE)
NPHI.V/V      00 330 00 00         : PHIN         - NEUTRON POROSITY (LIMESTONE)
GR  .API      00 310 00 00         : GR           - GAMMA RAY
ILD .OHMM     00 120 00 00         : RESD         - DEEP RESISTIVITY (DIL)
~PARAMETER INFORMATION
#MNEM.UNIT           DATA             DESCRIPTION OF MNEMONIC
#---------         -----------     ------------------------------
GL  .M        690.52               : gl           - GROUND LEVEL ELEVATION
EREF.M        693.42               : kb           - ELEVATION OF DEPTH REFERENCE
DATM.M        693.42               : datum        - DATUM ELEVATION
TDD .M        504.5                : tdd          - TOTAL DEPTH DRILLER
RUN .         ONE                  : Run          - RUN NUMBER
ENG .         BILL                 : Engineer     - RECORDING ENGINEER
WIT .         JIM                  : Witness      - WITNESSED BY
MUD .         GEL                  : Mud_type     - MUD TYPE
MATR.         LIMESTONE            : Logunit      - NEUTRON MATRIX
TMAX.C        19                   : BHT          - MAXIMUM RECORDED TEMPERATURE
BHTD.M        504.5                : BHTDEP       - MAXIMUM RECORDED TEMPERATURE
MATR.         1                    : LOGUNIT      - NEUTRON MATRIX
RMT .C        25                   : MDTP         - TEMPERATURE OF MUD
NEUT.         1                    : NEUTRON      - NEUTRON TYPE
RESI.         0                    : RESIST       - RESISTIVITY TYPE
RMC .OHMM     0.25                 : RMC          - RESISTIVITY OF MUD CAKE
RMF .OHMM     0.25                 : RMF          - RESISTIVITY OF MUD FILTRATE
SUFT.C        15                   : SUFT         - SURFACE TEMPERATURE
~A  DEPTH     PHID     PHIN       GR     RESD
# ...
  482.500    0.161    0.344   86.330   16.854
  482.750    0.175    0.334   90.073   16.839
  483.000    0.190    0.365   96.928   16.518
  483.250    0.164    0.371   94.448   15.893
  483.500    0.176    0.378   91.967   15.007
  483.750    0.193    0.367  100.068   14.716
  484.000    0.211    0.357   91.986   14.983
  484.250    0.198    0.349   86.394   15.261
  484.500    0.184    0.359   85.156   15.837
  484.750    0.180    0.371   90.767   16.751
  485.000    0.168    0.374   93.889   17.717
  485.250    0.187    0.362   99.499   18.047
  485.500    0.208    0.360   87.681   19.082
  485.750    0.222    0.350   82.089   19.076
  486.000    0.207    0.339   93.923   19.063
  486.250    0.190    0.351  103.269   18.340
  486.500    0.199    0.350   95.810   16.992
  486.750    0.183    0.358   99.553   15.745
  487.000    0.191    0.369  108.897   14.585
  487.250    0.217    0.372  128.823   15.722
  487.500    0.202    0.352  119.496   17.599
  487.750    0.177    0.337   95.852   18.969
  488.000    0.215    0.331   81.545   20.837
  488.250    0.238    0.334   66.617   22.043
  488.500    0.219    0.335   75.963   23.313
  488.750    0.213    0.332   82.195   21.601
  489.000    0.192    0.355   89.052   21.587
  489.250    0.187    0.373   97.152   22.401
  489.500    0.217    0.382   89.070   23.252
  489.750    0.240    0.388   77.875   23.680
  490.000    0.225    0.374   70.413   23.217
  490.250    0.215    0.364   80.384   22.770
  490.500    0.210    0.361   82.258   22.331
  490.750    0.214    0.356   86.623   21.895
  491.000    0.203    0.351   90.370   22.727
  491.250    0.269    0.352   89.755   24.497
  491.500    0.276    0.369   72.957   29.022
  491.750    0.285    0.377   71.098   35.048
  492.000    0.282    0.386   68.617   40.738
  492.250    0.296    0.407   68.003   41.502
  492.500    0.277    0.389   78.595   39.931
  492.750    0.257    0.375   86.694   36.998
  493.000    0.253    0.374   82.346   29.458
  493.250    0.274    0.358   69.285   24.828
  493.500    0.208    0.344   84.231   20.147
  493.750    0.179    0.344   97.935   18.320
  494.000    0.130    0.352  105.412   15.439
  494.250    0.081    0.351  107.909   14.037
  494.500    0.052    0.349  107.917   13.004
  494.750    0.102    0.379  111.040   12.277
  495.000    0.153    0.370  110.425   12.269
  495.250    0.168    0.364   89.895   12.736
  495.500    0.249    0.365   78.700   14.805
  495.750    0.264    0.386   87.423   16.576
  496.000    0.295    0.370   86.186   18.558
  496.250    0.290    0.384   81.216   22.836
  496.500    0.301    0.392   85.582   30.310
  496.750    0.313    0.382   84.347   40.233
  497.000    0.292    0.376   89.334   47.666
  497.250    0.279    0.377   84.365   49.472
  497.500    0.262    0.414   85.618   41.702
  497.750    0.238    0.402   86.251   28.006
  498.000    0.242    0.403   86.258   21.475
  498.250    0.215    0.398   90.624   17.101
  498.500    0.211    0.391   90.010   14.967
  498.750    0.221    0.382   92.509   14.134
  499.000    0.213    0.384   95.631   13.094
  499.250    0.200    0.374   88.791   12.360
  499.500    0.154    0.364   85.067   12.118
  499.750    0.027    0.369   87.566   12.114
  500.000    0.000    0.392   85.707   12.107
  500.250    0.000    0.399   87.584   12.097
  500.500    0.000    0.408   89.458   12.319
  500.750    0.000    0.414   90.713   12.545
  501.000    0.208    0.413   85.120   12.540
  501.250    0.213    0.396   88.862   12.531
  501.500    0.211    0.394   88.871   12.520
  501.750    0.215    0.408   85.148   12.511
  502.000    0.206    0.413   90.757   12.507
  502.250    0.205    0.403   96.991   12.494
  502.500    0.195    0.394   98.244   12.485
  502.750    0.189    0.397   86.428   12.479
  503.000    0.212    0.414   82.700   12.472
  503.250    0.200    0.405   88.934   12.464
  503.500    0.202    0.398   88.944   12.456
  503.750    0.217    0.397   91.444   12.681
  504.000    0.211    0.407   92.695   12.674
  504.250    0.207    0.407   93.326   12.668
  504.500    0.237    0.402   90.845   12.653
  504.750    0.227    0.403   91.478   12.178
  505.000    0.221    0.413   91.485   12.405
