~VERSION INFORMATION
 VERS.                 2.0:   CWLS LOG ASCII STANDARD -VERSION 2.0
 WRAP.                  NO:   ONE LINE PER DEPTH STEP
~WELL INFORMATION BLOCK
#MNEM.UNIT           DATA                    DESCRIPTION OF MNEMONIC
#---------    -------------------            -------------------------------
# Generated from Intellog Unique Number	CN_91_93/WELL/2660
WELL.         15-26-091-14W4                 : Well_name    - WELL
LOC .         AA/15-26-091-14W4/0            : Location     - LOCATION
UWI .         AA/15-26-091-14W400            : Uwi          - UNIQUE WELL ID
ENTR.         joette                         : Entered      - ENTERED BY
SRVC.         SCHLUMBERGER                   : Scn          - SERVICE COMPANY
DATE.         02/05/92                       : Date         - LOG DATE
STRT.M        75                             : top_depth    - START DEPTH
STOP.M        180                            : bot_depth    - STOP DEPTH
STEP.M        0.25                           : increment    - STEP LENGTH
 NULL. -999.2500:NULL Value
~CURVE INFORMATION BLOCK
#MNEM UNIT       ERCB CURVE CODE    CURVE DESCRIPTION
#-----------   ------------------   ----------------------------------
DEPT.M        00 001 00 00         : DEPTH        - DEPTH
GR  .API      00 310 00 00         : GR           - GAMMA RAY
CALI.MM       00 280 01 00         : CAL          - CALIPER
NPHI.V/V      00 330 00 00         : PHIN         - NEUTRON POROSITY (SANDSTONE)
DPHI.V/V      00 890 00 00         : PHID         - DENSITY POROSITY (SANDSTONE)
ILD .OHMM     00 120 00 00         : RESD         - DEEP RESISTIVITY (DIL)
~PARAMETER INFORMATION
#MNEM.UNIT           DATA             DESCRIPTION OF MNEMONIC
#---------         -----------     ------------------------------
GL  .M        472.4                : gl           - GROUND LEVEL ELEVATION
EREF.M        475.4                : kb           - ELEVATION OF DEPTH REFERENCE
DATM.M        475.4                : datum        - DATUM ELEVATION
TDD .M        190                  : tdd          - TOTAL DEPTH DRILLER
RUN .         ONE                  : Run          - RUN NUMBER
ENG .         BILL                 : Engineer     - RECORDING ENGINEER
WIT .         JIM                  : Witness      - WITNESSED BY
MUD .         GEL                  : Mud_type     - MUD TYPE
MATR.         SANDSTONE            : Logunit      - NEUTRON MATRIX
TMAX.C        18                   : BHT          - MAXIMUM RECORDED TEMPERATURE
BHTD.M        190                  : BHTDEP       - MAXIMUM RECORDED TEMPERATURE
RMT .C        15                   : MDTP         - TEMPERATURE OF MUD
MUDD.KG/M     1007                 : MWT          - MUD DENSITY
NEUT.         1                    : NEUTRON      - NEUTRON TYPE
RESI.         0                    : RESIST       - RESISTIVITY TYPE
RM  .OHMM     3.5                  : RM           - RESISTIVITY OF MUD
RMC .OHMM     3.5                  : RMC          - RESISTIVITY OF MUD CAKE
RMF .OHMM     3.5                  : RMF          - RESISTIVITY OF MUD FILTRATE
SUFT.C        4                    : SUFT         - SURFACE TEMPERATURE
~A  DEPTH       GR      CAL     PHIN     PHID     RESD
# ...
  111.500   63.595  165.469    0.320    0.151   24.649
  111.750   61.760  167.351    0.331    0.205   25.538
  112.000   64.093  169.234    0.384    0.244   26.000
  112.250   69.998  170.165    0.411    0.273   26.937
  112.500   68.746  172.068    0.422    0.223   28.461
  112.750   68.101  172.958    0.428    0.176   29.487
  113.000   67.456  173.848    0.400    0.156   28.892
  113.250   68.015  174.779    0.364    0.120   29.390
  113.500   70.323  175.669    0.340    0.155   31.039
  113.750   72.073  175.607    0.346    0.209   32.172
  114.000   73.227  177.510    0.375    0.233   31.509
  114.250   74.356  177.428    0.399    0.258   30.311
  114.500   74.890  179.311    0.413    0.271   28.605
  114.750   76.044  179.270    0.428    0.273   26.002
  115.000   77.794  181.152    0.442    0.275   23.636
  115.250   81.305  184.048    0.432    0.271   21.485
  115.500   84.829  185.971    0.431    0.266   18.453
  115.750   87.162  189.859    0.438    0.258   17.415
  116.000   89.495  192.754    0.441    0.243   16.442
  116.250   91.815  196.642    0.452    0.222   15.216
  116.500   92.386  201.502    0.462    0.221   14.914
  116.750   92.932  204.398    0.462    0.220   14.069
  117.000   91.084  206.301    0.461    0.188   13.529
  117.250   88.641  207.211    0.470    0.163   13.261
  117.500   89.187  207.150    0.480    0.150   12.505
  117.750   91.532  205.083    0.473    0.183   12.494
  118.000   95.651  200.018    0.462    0.230   12.242
  118.250   97.984  199.936    0.457    0.248   11.994
  118.500  100.912  199.874    0.455    0.237   11.529
  118.750  102.054  199.792    0.470    0.228   11.296
  119.000  102.005  200.682    0.478    0.213   11.063
  119.250  102.514  200.600    0.483    0.186   10.840
  119.500  103.073  199.526    0.481    0.214   10.621
  119.750  103.036  197.418    0.481    0.226   10.406
  120.000  101.784  196.385    0.487    0.204   10.389
  120.250  100.556  195.310    0.494    0.187    9.986
  120.500   98.732  193.223    0.464    0.151    9.977
  120.750   94.490  192.169    0.415    0.163    9.590
  121.000   92.071  191.053    0.415    0.180    9.393
  121.250   93.213  189.979    0.415    0.203    9.377
  121.500   96.141  189.938    0.418    0.206    9.539
  121.750  100.248  190.828    0.432    0.217    9.703
  122.000  101.415  192.751    0.460    0.231    9.875
  122.250  103.152  194.613    0.465    0.244   10.231
  122.500  103.103  195.565    0.465    0.254   10.407
  122.750  102.446  197.468    0.464    0.242   10.783
  123.000  101.801  199.350    0.460    0.236   11.181
  123.250  101.740  201.253    0.454    0.233   11.373
  123.500  101.095  203.136    0.448    0.228   11.355
  123.750  101.046  205.018    0.443    0.215   11.130
  124.000  101.009  204.977    0.461    0.203   10.698
  124.250  100.960  202.890    0.450    0.197   10.477
  124.500  103.888  202.808    0.445    0.217   10.469
  124.750  107.399  202.746    0.482    0.223   10.645
  125.000  108.541  202.664    0.471    0.225   10.623
  125.250  109.087  202.541    0.461    0.219   10.605
  125.500  107.252  202.501    0.458    0.188   10.387
  125.750  106.024  202.419    0.449    0.162   10.185
  126.000  101.794  199.318    0.447    0.187    9.794
  126.250  101.745  199.277    0.480    0.228    9.414
  126.500  102.887  197.210    0.503    0.235    8.719
  126.750  104.624  195.143    0.523    0.229    7.926
  127.000  106.373  193.056    0.530    0.223    7.071
  127.250  106.300  190.948    0.538    0.216    6.302
  127.500  105.680  190.907    0.537    0.185    5.948
  127.750  105.023  190.825    0.524    0.187    5.830
  128.000  106.152  190.723    0.517    0.226    5.712
  128.250  107.294  190.641    0.494    0.252    5.597
  128.500  108.448  190.579    0.482    0.250    5.588
  128.750  110.781  190.497    0.486    0.242    5.686
  129.000  113.113  192.359    0.485    0.234    5.891
  129.250  114.231  193.290    0.480    0.222    6.109
  129.500  112.420  195.173    0.474    0.208    6.452
  129.750  109.393  195.111    0.463    0.178    6.560
  130.000  103.985  196.022    0.447    0.144    6.671
  130.250   96.790  195.940    0.439    0.120    6.788
  130.500  101.504  195.878    0.477    0.159    7.033
  130.750  106.207  194.804    0.479    0.221    7.157
  131.000  108.539  193.688    0.465    0.217    7.848
  131.250  110.872  193.627    0.450    0.234    8.288
  131.500  111.406  193.504    0.436    0.227    8.591
  131.750  111.381  194.455    0.429    0.224    8.573
  132.000  108.926  194.373    0.443    0.207    8.563
  132.250  105.291  196.235    0.456    0.177    8.541
  132.500  102.277  196.194    0.427    0.131    8.696
  132.750   98.072  196.071    0.414    0.081    9.009
  133.000   96.819  192.020    0.376    0.120    9.695
  133.250   97.974  189.994    0.400    0.181   10.053
  133.500  100.294  189.912    0.428    0.220    9.659
  133.750  102.627  192.787    0.453    0.215    9.472
  134.000  104.364  194.710    0.480    0.210    9.108
  134.250  104.923  197.605    0.459    0.204    8.588
  134.500  106.052  198.516    0.444    0.194    8.418
  134.750  106.611  198.434    0.436    0.192    8.245
  135.000  107.157  200.316    0.432    0.204    8.228
  135.250  106.512  197.278    0.440    0.212    8.373
  135.500  104.652  190.228    0.452    0.221    8.363
  135.750  104.032  192.131    0.455    0.223    8.664
  136.000  102.767  197.011    0.456    0.207    8.653
  136.250  101.539  200.899    0.445    0.144    8.803
  136.500   99.704  203.795    0.449    0.087    8.951
  136.750  101.429  202.720    0.475    0.131    9.449
  137.000  103.774  196.683    0.500    0.246    9.616
  137.250  106.690  191.639    0.521    0.255    9.782
  137.500  104.842  189.572    0.541    0.260    9.584
  137.750  103.018  191.475    0.557    0.260    8.712
  138.000   98.788  195.363    0.568    0.269    7.628
  138.250   96.978  202.228    0.594    0.275    6.310
  138.500   92.748  207.109    0.590    0.243    5.632
  138.750   88.530  209.012    0.558    0.229    4.747
  139.000   84.300  206.924    0.487    0.238    4.651
  139.250   80.678  204.878    0.418    0.278    5.005
  139.500   74.091  200.826    0.381    0.309    5.698
  139.750   69.861  195.761    0.329    0.346    6.609
  140.000   63.857  192.702    0.360    0.375    7.527
  140.250   57.853  194.584    0.401    0.391    8.731
  140.500   47.668  195.515    0.426    0.423    9.573
  140.750   41.664  196.405    0.426    0.436   10.298
  141.000   36.839  197.336    0.396    0.393   10.285
  141.250   33.825  198.206    0.385    0.349   10.073
  141.500   31.989  198.124    0.403    0.309    9.678
  141.750   30.749  198.062    0.399    0.295    9.310
  142.000   30.080  198.932    0.393    0.299    9.118
  142.250   30.031  199.863    0.391    0.295    8.941
  142.500   32.363  200.814    0.388    0.296    8.927
  142.750   34.101  203.689    0.380    0.303    9.081
  143.000   34.647  205.572    0.381    0.309    9.772
  143.250   34.585  207.516    0.395    0.321   10.917
  143.500   34.548  209.398    0.407    0.324   12.197
  143.750   33.916  210.309    0.419    0.317   14.689
  144.000   33.867  210.247    0.430    0.312   15.806
  144.250   33.210  211.137    0.435    0.316   17.986
  144.500   33.161  211.076    0.435    0.324   19.363
  144.750   33.124  210.973    0.435    0.325   22.886
  145.000   33.075  209.858    0.433    0.318   26.557
  145.250   33.026  209.796    0.429    0.308   27.003
  145.500   33.547  208.722    0.431    0.307   25.966
  145.750   33.510  208.660    0.434    0.311   23.593
  146.000   34.069  207.586    0.437    0.311   20.657
  146.250   35.198  205.478    0.437    0.311   18.784
  146.500   36.352  204.424    0.437    0.317   16.758
  146.750   37.482  202.357    0.437    0.322   14.937
  147.000   39.802  200.311    0.436    0.325   13.835
  147.250   42.743  197.231    0.435    0.326   13.056
  147.500   46.267  196.177    0.441    0.320   12.322
  147.750   50.398  193.097    0.448    0.309   11.628
