~VERSION INFORMATION
 VERS.                 2.0:   CWLS LOG ASCII STANDARD -VERSION 2.0
 WRAP.                  NO:   ONE LINE PER DEPTH STEP
~WELL INFORMATION BLOCK
#MNEM.UNIT           DATA                    DESCRIPTION OF MNEMONIC
#---------    -------------------            -------------------------------
# Generated from Intellog Unique Number	utf_inj/WELL/589
WELL.         AO-33                          : Well_name    - WELL              
LOC .         AA/12-18-093-12W4/0            : Location     - LOCATION          
UWI .         AA/12-18-093-12W400            : Uwi          - UNIQUE WELL ID    
ENTR.         JHS                            : Entered      - ENTERED BY        
SRVC.         SCHLUMBERGER                   : Scn          - SERVICE COMPANY   
STRT.M        2                              : top_depth    - START DEPTH       
STOP.M        158                            : bot_depth    - STOP DEPTH        
STEP.M        0.25                           : increment    - STEP LENGTH       
NULL.         -999.250                       : null         - NULL VALUE       
~CURVE INFORMATION BLOCK
#MNEM UNIT       ERCB CURVE CODE    CURVE DESCRIPTION
#-----------   ------------------   ----------------------------------
DEPT.M        00 001 00 00         : DEPTH        - DEPTH                       
GR  .API      00 310 00 00         : GR           - GAMMA RAY                   
DPHI.V/V      00 890 00 00         : PHID         - DENSITY POROSITY (SANDSTONE)
NPHI.V/V      00 330 00 00         : PHIN         - NEUTRON POROSITY (SANDSTONE)
ILD .OHMM     00 120 00 00         : RESD         - DEEP RESISTIVITY (DIL)      
SP  .MV       00 010 00 00         : SP           - SPONTANEOUS POTENTIAL       
CALI.MM       00 280 01 00         : CAL          - CALIPER                     
~PARAMETER INFORMATION       
#MNEM.UNIT           DATA             DESCRIPTION OF MNEMONIC
#---------         -----------     ------------------------------
GL  .M        423.5                : gl           - GROUND LEVEL ELEVATION      
EREF.M        423.5                : kb           - ELEVATION OF DEPTH REFERENCE
DATM.M        423.5                : datum        - DATUM ELEVATION             
TDD .M        162                  : tdd          - TOTAL DEPTH DRILLER         
RUN .         ONE                  : Run          - RUN NUMBER                  
ENG .         BILL                 : Engineer     - RECORDING ENGINEER          
WIT .         JIM                  : Witness      - WITNESSED BY                
MUD .         GEL                  : Mud_type     - MUD TYPE                    
MATR.         SANDSTONE            : Logunit      - NEUTRON MATRIX              
TMAX.C        6.5                  : BHT          - MAXIMUM RECORDED TEMPERATURE
BHTD.M        151.49               : BHTDEP       - MAXIMUM RECORDED TEMPERATURE
MATR.         1                    : LOGUNIT      - NEUTRON MATRIX              
RMT .C        25                   : MDTP         - TEMPERATURE OF MUD          
NEUT.         1                    : NEUTRON      - NEUTRON TYPE                
RESI.         0                    : RESIST       - RESISTIVITY TYPE            
RMC .OHMM     0.25                 : RMC          - RESISTIVITY OF MUD CAKE     
RMF .OHMM     0.25                 : RMF          - RESISTIVITY OF MUD FILTRATE 
SUFT.C        15                   : SUFT         - SURFACE TEMPERATURE         
~A  DEPTH       GR     PHID     PHIN     RESD       SP      CAL
# ...
   33.250   85.132    0.313    0.658   12.248    0.000  152.428
   33.500   78.769    0.333    0.669   12.219    0.000  146.858
   33.750  101.299    0.322    0.671   14.187    0.000  144.915
   34.000   90.499    0.314    0.626   13.374    0.000  146.598
   34.250  105.518    0.306    0.600   12.133    0.000  143.446
   34.500  102.921    0.301    0.618   12.104    0.000  146.353
   34.750   93.398    0.314    0.574   10.987    0.000  145.635
   35.000   98.960    0.344    0.542   12.276    0.000  146.713
   35.250   98.851    0.352    0.565   11.363    0.000  147.791
   35.500  105.084    0.347    0.619   10.909    0.000  149.474
   35.750  106.253    0.356    0.614   10.890    0.000  146.926
   36.000   90.453    0.349    0.559    9.689    0.000  147.433
   36.250  107.962    0.337    0.659    9.139    0.000  146.698
   36.500  107.853    0.329    0.664    9.648    0.000  144.755
   36.750  107.788    0.337    0.641   10.374    0.000  143.416
   37.000   91.361    0.334    0.667   10.953    0.000  142.093
   37.250  101.317    0.337    0.627   10.528    0.000  146.781
   37.500  104.368    0.352    0.598    9.739    0.000  147.875
   37.750  104.281    0.359    0.594   11.089    0.000  152.007
   38.000  104.822    0.339    0.627    9.872    0.000  148.856
   38.250   94.066    0.330    0.665   11.461    0.000  149.934
   38.500   87.053    0.278    0.649   13.299    0.000  146.194
   38.750   78.179    0.346    0.691   10.379    0.000  150.294
   39.000  106.358    0.355    0.706   11.818    0.000  150.163
   39.250   99.995    0.361    0.695   15.079    0.000  151.241
   39.500   99.908    0.315    0.668   17.830    0.000  154.769
   39.750  110.491    0.299    0.619   15.585    0.000  155.227
   40.000  100.968    0.282    0.581   14.139    0.000  153.300
   40.250  102.785    0.240    0.556   12.352    0.000  151.961
   40.500   99.539    0.268    0.587   10.208    0.000  153.039
   40.750  107.005    0.286    0.587    9.266    0.000  151.128
   41.000  111.290    0.314    0.483    9.071    0.000  154.020
   41.250  115.618    0.326    0.530    8.880    0.000  152.093
   41.500  125.574    0.326    0.694    8.694    0.000  142.293
   41.750  128.019    0.321    0.695   10.087    0.000  142.163
   42.000   98.390    0.287    0.682   10.847    0.000  139.615
   42.250   90.772    0.230    0.567   12.357    0.000  146.149
   42.500  109.536    0.110    0.497   41.331    0.000  141.772
   42.750   79.907    0.257    0.393   17.288    0.000  142.866
   43.000   96.160    0.325    0.559   11.164    0.000  140.335
   43.250  113.041    0.309    0.675    9.565    0.000  140.809
   43.500  137.453    0.293    0.627    9.718    0.000  140.695
   43.750  146.781    0.287    0.599    9.706    0.000  146.607
   44.000  138.535    0.281    0.656    9.868    0.000  146.477
   44.250  134.682    0.277    0.624   10.623    0.000  147.572
   44.500  142.733    0.284    0.709   10.592    0.000  151.083
   44.750  125.700    0.278    0.683   10.369    0.000  148.536
   45.000  121.220    0.275    0.673   10.151    0.000  151.443
   45.250  121.133    0.286    0.533   10.510    0.000  142.232
   45.500  129.812    0.291    0.586   11.524    0.000  141.513
   45.750  121.587    0.270    0.623   11.070    0.000  142.592
   46.000  111.437    0.266    0.661   10.240    0.000  141.253
   46.250  132.689    0.272    0.656    9.296    0.000  140.534
   46.500  125.720    0.276    0.552    8.604    0.000  141.629
   46.750  128.772    0.278    0.500    9.257    0.000  140.894
   47.000  154.418    0.286    0.579   11.577    0.000  138.951
   47.250  153.097    0.299    0.620   13.705    0.000  138.837
   47.500  140.436    0.299    0.635   16.514    0.000  139.310
   47.750  109.574    0.306    0.645   18.792    0.000  140.389
   48.000   94.402    0.322    0.540   18.053    0.000  144.488
   48.250   84.879    0.321    0.545   17.018    0.000  141.353
   48.500   76.611    0.320    0.542   19.758    0.000  141.827
   48.750   77.152    0.274    0.561   20.458    0.000  140.488
   49.000   82.714    0.302    0.588   18.924    0.000  142.807
   49.250   93.946    0.315    0.558   16.552    0.000  142.677
   49.500   91.327    0.288    0.566   13.156    0.000  144.359
   49.750  104.464    0.270    0.555   14.146    0.000  147.267
   50.000  101.239    0.274    0.619   12.849    0.000  143.527
   50.250   92.971    0.251    0.637   11.886    0.000  140.979
   50.500   84.725    0.183    0.497   16.975    0.000  140.849
   50.750   84.011    0.105    0.472   24.721    0.000  144.344
   51.000   86.435    0.289    0.517   19.662    0.000  141.208
   51.250   75.656    0.309    0.549   18.535    0.000  142.907
   51.500   69.272    0.302    0.533   16.500    0.000  140.948
   51.750   63.536    0.276    0.507   14.153    0.000  142.647
   52.000  101.151    0.259    0.524   13.342    0.000  143.725
   52.250  121.170    0.267    0.575   14.628    0.000  142.369
   52.500  117.945    0.267    0.596   14.863    0.000  141.684
   52.750  112.837    0.263    0.652   14.286    0.000  141.553
   53.000   98.899    0.260    0.631   13.467    0.000  142.648
   53.250  112.035    0.261    0.574   13.176    0.000  148.528
   53.500  115.087    0.275    0.611   13.659    0.000  147.826
   53.750  109.957    0.293    0.574   13.114    0.000  141.652
   54.000  104.849    0.293    0.561   12.598    0.000  150.603
   54.250  111.039    0.285    0.581   12.807    0.000  156.532
   54.500  106.559    0.283    0.550   15.442    0.000  148.545
   54.750   93.898    0.284    0.546   15.117    0.000  145.410
   55.000   85.024    0.294    0.616   12.959    0.000  144.071
   55.250   86.192    0.282    0.655   13.690    0.000  140.314
   55.500   85.478    0.270    0.559   13.394    0.000  138.975
   55.750   87.902    0.284    0.551   11.707    0.000  135.840
   56.000   90.953    0.296    0.591   11.247    0.000  135.072
   56.250   83.291    0.317    0.620   19.049    0.000  133.162
   56.500   86.992    0.337    0.599   16.340    0.000  137.278
   56.750   83.139    0.331    0.580   14.274    0.000  137.735
   57.000   84.308    0.314    0.552   13.704    0.000  137.621
   57.250   83.593    0.308    0.543   11.762    0.000  138.095
   57.500   91.038    0.316    0.588   15.576    0.000  137.377
   57.750   91.600    0.307    0.678   16.137    0.000  138.471
   58.000   80.195    0.291    0.708   17.047    0.000  148.026
   58.250   75.087    0.252    0.644   18.330    0.000  144.270
   58.500   77.510    0.265    0.612   17.290    0.000  138.684
   58.750   76.796    0.303    0.593   17.249    0.000  137.966
   59.000   89.240    0.306    0.578   14.786    0.000  137.836
   59.250   83.526    0.248    0.560   13.930    0.000  136.513
   59.500   79.046    0.235    0.562   11.956    0.000  139.992
   59.750   96.533    0.286    0.558   11.060    0.000  139.878
   60.000  114.042    0.292    0.612   12.833    0.000  139.764
   60.250  104.540    0.293    0.692   13.295    0.000  139.013
   60.500  108.847    0.301    0.687   12.533    0.000  138.931
   60.750  105.622    0.301    0.641   13.232    0.000  139.993
   61.000  102.397    0.300    0.580   15.646    0.000  139.896
   61.250   92.246    0.297    0.542   17.804    0.000  137.936
   61.500   96.553    0.293    0.616   16.470    0.000  146.903
   61.750  114.689    0.300    0.587   14.679    0.000  155.200
   62.000  112.092    0.291    0.594   12.831    0.000  154.514
   62.250   89.388    0.281    0.566   11.209    0.000  148.341
   62.500   89.302    0.310    0.542   12.770    0.000  155.478
   62.750  106.789    0.293    0.584   11.806    0.000  147.492
   63.000  105.446    0.282    0.612   11.558    0.000  148.570
   63.250  114.796    0.301    0.718   11.974    0.000  148.456
   63.500  107.783    0.319    0.732   11.946    0.000  144.096
   63.750   96.399    0.305    0.673   13.609    0.000  151.217
   64.000   95.035    0.299    0.646   14.368    0.000  155.333
   64.250  103.757    0.297    0.620   12.080    0.000  155.219
