~VERSION INFORMATION
 VERS.                 2.0:   CWLS LOG ASCII STANDARD -VERSION 2.0
 WRAP.                  NO:   ONE LINE PER DEPTH STEP
~WELL INFORMATION BLOCK
#MNEM.UNIT           DATA                    DESCRIPTION OF MNEMONIC
#---------    -------------------            -------------------------------
# Generated from Intellog Unique Number	CC_84_87/WELL/2342
NULL.         -999.25                        : NULL_VALUE
WELL.         PCI PCEJ HANGST OV             : Well_name    - WELL              
LOC .         13-14-084-12W4                 : Location     - LOCATION          
UWI .         AA/13-14-084-12W400            : Uwi          - UNIQUE WELL ID    
ENTR.         DW                             : Entered      - ENTERED BY        
SRVC.         SCHLUMBERGER                   : Scn          - SERVICE COMPANY   
DATE.         29 JAN 84                      : Date         - LOG DATE
STRT.M        105                            : top_depth    - START DEPTH       
STOP.M        309.899                        : bot_depth    - STOP DEPTH        
STEP.M        0.3                            : increment    - STEP LENGTH       
~CURVE INFORMATION BLOCK
#MNEM UNIT       ERCB CURVE CODE    CURVE DESCRIPTION
#-----------   ------------------   ----------------------------------
DEPT.M        00 001 00 00         : DEPTH        - DEPTH                       
DPHI.V/V      00 890 00 00         : PHID         - DENSITY POROSITY (LIMESTONE)
NPHI.V/V      00 330 00 00         : PHIN         - NEUTRON POROSITY (LIMESTONE)
GR  .API      00 310 00 00         : GR           - GAMMA RAY                   
ILD .OHMM     00 120 00 00         : RESD         - DEEP RESISTIVITY (DIL)      
~PARAMETER INFORMATION       
#MNEM.UNIT           DATA             DESCRIPTION OF MNEMONIC
#---------         -----------     ------------------------------
GL  .M        562.4                : gl           - GROUND LEVEL ELEVATION      
EREF.M        565.6                : kb           - ELEVATION OF DEPTH REFERENCE
DATM.M        565.6                : datum        - DATUM ELEVATION             
TDD .M        328                  : tdd          - TOTAL DEPTH DRILLER         
RUN .         ONE                  : Run          - RUN NUMBER                  
ENG .         BILL                 : Engineer     - RECORDING ENGINEER          
WIT .         JIM                  : Witness      - WITNESSED BY                
MUD .         GEL                  : Mud_type     - MUD TYPE                    
MATR.         LIMESTONE            : Logunit      - NEUTRON MATRIX              
TMAX.C        18.2                 : BHT          - MAXIMUM RECORDED TEMPERATURE
BHTD.M        328                  : BHTDEP       - MAXIMUM RECORDED TEMPERATURE
MATR.         1                    : LOGUNIT      - NEUTRON MATRIX              
RMT .C        25                   : MDTP         - TEMPERATURE OF MUD          
NEUT.         1                    : NEUTRON      - NEUTRON TYPE                
RESI.         0                    : RESIST       - RESISTIVITY TYPE            
RMC .OHMM     0.25                 : RMC          - RESISTIVITY OF MUD CAKE     
RMF .OHMM     0.25                 : RMF          - RESISTIVITY OF MUD FILTRATE 
SUFT.C        4                    : SUFT         - SURFACE TEMPERATURE         
~A  DEPTH     PHID     PHIN       GR     RESD
  105.000    0.176    0.557   28.321   19.191
  105.300    0.227    0.474   41.641   18.804
  105.600    0.287    0.393   48.905   18.761
  105.900    0.305    0.368   53.142   18.728
  106.200    0.312    0.394   55.563   19.411
  106.500    0.337    0.424   50.717   20.124
  106.800    0.346    0.400   49.504   22.901
  107.100    0.307    0.376   47.080   28.617
  107.400    0.255    0.355   44.656   30.776
  107.700    0.163    0.341   43.443   30.734
  108.000    0.172    0.345   53.130   17.184
  108.300    0.251    0.367   69.477   13.965
  108.600    0.257    0.393   74.924   11.782
  108.900    0.249    0.416   77.950    9.756
  109.200    0.271    0.429   78.554    8.870
  109.500    0.256    0.407   80.974    8.687
  109.800    0.233    0.395   85.817    9.009
  110.100    0.234    0.421   81.576   10.441
  110.400    0.274    0.433   77.941   12.104
  110.700    0.273    0.395   69.462   12.784
  111.000    0.261    0.377   69.460   13.248
  111.300    0.270    0.381   77.330   12.983
  111.600    0.287    0.431   80.962   12.029
  111.900    0.306    0.473   87.015    9.240
  112.200    0.295    0.461   91.858    8.886
  112.500    0.246    0.432   96.094    9.212
  112.800    0.264    0.416   86.404   10.880
  113.100    0.273    0.409   63.998   13.852
  113.400    0.266    0.424   51.280   18.305
  113.700    0.300    0.360   44.012   19.332
  114.000    0.294    0.349   44.010   17.247
  114.300    0.267    0.350   59.752   14.020
  114.600    0.256    0.378   68.833    9.448
  114.900    0.267    0.438   70.042    9.086
  115.200    0.292    0.470   67.618   11.353
  115.500    0.333    0.407   57.323   13.924
  115.800    0.310    0.404   56.715   15.551
  116.100    0.285    0.407   66.401   14.951
  116.400    0.299    0.422   67.611   13.341
  116.700    0.289    0.434   68.820   11.687
  117.000    0.277    0.432   70.029    9.856
  117.300    0.292    0.403   70.028    8.961
  117.600    0.283    0.443   74.265    8.302
  117.900    0.248    0.493   83.951    7.837
  118.200    0.243    0.459   85.160    7.681
  118.500    0.246    0.438   85.159    7.961
  118.800    0.266    0.444   85.762    9.059
  119.100    0.301    0.421   74.256   10.702
  119.400    0.305    0.417   65.171   13.368
  119.700    0.316    0.422   57.903   14.926
  120.000    0.322    0.448   60.323   15.475
  120.300    0.315    0.462   66.376   15.743
  120.600    0.297    0.462   63.952   15.420
  120.900    0.297    0.450   59.712   14.024
  121.200    0.309    0.414   56.683   12.053
  121.500    0.309    0.405   55.470   10.363
  121.800    0.271    0.406   65.762    8.579
  122.100    0.238    0.439   86.953    7.374
  122.400    0.247    0.468   91.190    6.461
  122.700    0.256    0.471   94.821    5.657
  123.000    0.261    0.465   87.553    5.047
  123.300    0.251    0.465   89.368    4.763
  123.600    0.231    0.486   92.394    4.666
  123.900    0.244    0.481   94.209    4.662
  124.200    0.269    0.479   99.656    4.830
  124.500    0.260    0.481  103.893    5.706
  124.800    0.249    0.519   99.047    6.997
  125.100    0.280    0.503   88.146    8.422
  125.400    0.271    0.428   82.695   10.139
  125.700    0.258    0.421   87.537   11.974
  126.000    0.249    0.431   94.801   13.372
  126.300    0.244    0.459   86.322   15.499
  126.600    0.309    0.430   68.760   16.684
  126.900    0.306    0.416   71.181   18.278
  127.200    0.301    0.427   70.573   18.941
  127.500    0.327    0.442   59.672   18.913
  127.800    0.339    0.408   57.248   17.852
  128.100    0.267    0.404   80.256   17.168
  128.400    0.254    0.404   86.915   18.135
  128.700    0.284    0.406   82.675   19.509
  129.000    0.298    0.419   75.406   20.982
  129.300    0.304    0.410   74.799   21.349
  129.600    0.311    0.399   76.009   20.919
  129.900    0.333    0.431   74.190   18.665
  130.200    0.327    0.397   72.372   15.749
  130.500    0.306    0.406   73.581   12.560
  130.800    0.293    0.411   91.139   11.420
  131.100    0.272    0.397   91.743   10.782
  131.400    0.250    0.381   91.741    9.620
  131.700    0.191    0.383   96.584    7.817
  132.000    0.181    0.464  100.215    6.353
  132.300    0.180    0.498  102.029    5.885
  132.600    0.184    0.516  103.844    5.988
  132.900    0.194    0.508  109.292    6.441
  133.200    0.152    0.499  108.079    6.801
  133.500    0.144    0.460  100.811    6.420
  133.800    0.166    0.460  102.626    5.623
  134.100    0.221    0.471  117.762    4.925
  134.400    0.221    0.495  125.027    4.078
  134.700    0.210    0.511  120.786    3.506
  135.000    0.209    0.508  112.307    3.247
  135.300    0.324    0.522  114.727    3.429
  135.600    0.406    0.602  109.276    7.649
  135.900    0.441    0.539   97.769   11.101
  136.200    0.328    0.461   92.923   13.870
  136.500    0.348    0.419   77.783   20.503
  136.800    0.344    0.399   96.553   18.986
  137.100    0.309    0.406   97.156   17.599
  137.400    0.280    0.420   78.383   16.610
  137.700    0.272    0.403   89.886   17.532
  138.000    0.286    0.383   91.701   18.517
  138.300    0.309    0.399   88.066   18.147
  138.600    0.303    0.416   82.009   15.025
  138.900    0.291    0.363   84.430   11.121
  139.200    0.281    0.369   93.510    8.387
  139.500    0.208    0.405  105.014    7.625
  139.800    0.215    0.493  118.939    9.176
  140.100    0.310    0.488  114.093   11.468
  140.400    0.325    0.394  101.981   15.727
  140.700    0.307    0.391   93.501   17.240
  141.000    0.303    0.450   95.316   17.868
  141.300    0.303    0.435   98.947   17.837
  141.600    0.294    0.393  100.156   17.155
  141.900    0.281    0.424   98.338   16.195
  142.200    0.276    0.421   91.676   14.720
  142.500    0.269    0.397   83.197   13.640
  142.800    0.275    0.396   78.956   12.630
  143.100    0.270    0.414   91.065   13.588
  143.400    0.274    0.389   91.063   14.353
  143.700    0.289    0.386   82.584   15.731
  144.000    0.297    0.413   71.683   16.006
  144.300    0.276    0.420   70.470   14.822
  144.600    0.247    0.409   69.257   14.255
  144.900    0.272    0.403   67.439   15.052
  145.200    0.275    0.411   67.437   16.812
  145.500    0.270    0.436   65.618   19.860
  145.800    0.296    0.385   54.717   21.769
  146.100    0.326    0.388   54.110   22.146
  146.400    0.316    0.419   53.502   21.299
  146.700    0.311    0.411   55.317   19.006
  147.000    0.300    0.421   65.004   16.339
  147.300    0.316    0.431   65.607   14.038
  147.600    0.303    0.392   62.578   13.504
  147.900    0.297    0.398   69.237   12.984
  148.200    0.291    0.430   78.923   12.255
  148.500    0.274    0.431   79.527   12.007
  148.800    0.259    0.421   78.920   11.123
  149.100    0.279    0.422   77.102   10.502
  149.400    0.281    0.480   71.044    9.908
  149.700    0.294    0.464   71.648    9.530
  150.000    0.308    0.457   80.124    9.165
  150.300    0.292    0.442   87.993    8.650
  150.600    0.279    0.422   93.442    8.011
  150.900    0.259    0.402  103.734    7.421
  151.200    0.205    0.402  101.915    6.875
  151.500    0.227    0.447  102.519    6.373
  151.800    0.230    0.446  115.233    5.580
  152.100    0.224    0.441  117.048    5.570
  152.400    0.240    0.454  115.835    5.994
  152.700    0.236    0.455  106.750    6.819
  153.000    0.247    0.468  103.721    7.907
  153.300    0.243    0.424  104.930    9.343
  153.600    0.231    0.412  104.323   11.456
  153.900    0.264    0.430   97.660   13.277
  154.201    0.249    0.455   89.181   13.763
  154.501    0.241    0.464   89.785   13.231
  154.801    0.260    0.452   92.205   12.030
  155.101    0.258    0.448   86.148   11.147
  155.401    0.251    0.447   86.751    9.945
  155.701    0.248    0.441   91.594    9.044
  156.001    0.276    0.498   97.647    8.864
  156.301    0.302    0.488  100.068    9.534
  156.601    0.282    0.427   95.827   10.260
  156.901    0.266    0.401   90.376   11.246
