~VERSION INFORMATION
 VERS.                 2.0:   CWLS LOG ASCII STANDARD -VERSION 2.0
 WRAP.                  NO:   ONE LINE PER DEPTH STEP
~WELL INFORMATION BLOCK
#MNEM.UNIT           DATA                    DESCRIPTION OF MNEMONIC
#---------    -------------------            -------------------------------
# Generated from Intellog Unique Number	CW_82_90/WELL/875
WELL.         PHILLIPS ET AK GRABIR IV 10-17 : Well_name    - WELL
LOC .         AA/10-17-084-19W4/0            : Location     - LOCATION
UWI .         AA/10-17-084-19W400            : Uwi          - UNIQUE WELL ID
ENTR.         JAYE                           : Entered      - ENTERED BY
SRVC.         SCHLUMBERGER                   : Scn          - SERVICE COMPANY
DATE.         2 MAR 81                       : Date         - LOG DATE
STRT.M        200                            : top_depth    - START DEPTH
STOP.M        365                            : bot_depth    - STOP DEPTH
STEP.M        0.25                           : increment    - STEP LENGTH
 NULL. -999.2500:NULL Value
~CURVE INFORMATION BLOCK
#MNEM UNIT       ERCB CURVE CODE    CURVE DESCRIPTION
#-----------   ------------------   ----------------------------------
DEPT.M        00 001 00 00         : DEPTH        - DEPTH
CALI.MM       00 280 01 00         : CAL          - CALIPER
GR  .API      00 310 00 00         : GR           - GAMMA RAY
DPHI.V/V      00 890 00 00         : PHID         - DENSITY POROSITY (SANDSTONE)
NPHI.V/V      00 330 00 00         : PHIN         - NEUTRON POROSITY (SANDSTONE)
ILD .OHMM     00 120 00 00         : RESD         - DEEP RESISTIVITY (DIL)
~PARAMETER INFORMATION
#MNEM.UNIT           DATA             DESCRIPTION OF MNEMONIC
#---------         -----------     ------------------------------
GL  .M        613                  : gl           - GROUND LEVEL ELEVATION
EREF.M        615.82               : kb           - ELEVATION OF DEPTH REFERENCE
DATM.M        613                  : datum        - DATUM ELEVATION
TDD .M        373                  : tdd          - TOTAL DEPTH DRILLER
RUN .         ONE                  : Run          - RUN NUMBER
ENG .         ISBISTER             : Engineer     - RECORDING ENGINEER
WIT .         THOMAS               : Witness      - WITNESSED BY
BASE.         EDMONTON             : Branch       - HOME BASE OF LOGGING UNIT
MUD .         GEL MUD              : Mud_type     - MUD TYPE
MATR.         SANDSTONE            : Logunit      - NEUTRON MATRIX
TMAX.C        20                   : BHT          - MAXIMUM RECORDED TEMPERATURE
BHTD.M        373                  : BHTDEP       - MAXIMUM RECORDED TEMPERATURE
RMT .C        14                   : MDTP         - TEMPERATURE OF MUD
MUDD.KG/M     1000                 : MWT          - MUD DENSITY
NEUT.         1                    : NEUTRON      - NEUTRON TYPE
RESI.         0                    : RESIST       - RESISTIVITY TYPE
RM  .OHMM     2.6                  : RM           - RESISTIVITY OF MUD
RMC .OHMM     0                    : RMC          - RESISTIVITY OF MUD CAKE
RMF .OHMM     2.11                 : RMF          - RESISTIVITY OF MUD FILTRATE
SUFT.C        0                    : SUFT         - SURFACE TEMPERATURE
~A  DEPTH      CAL       GR     PHID     PHIN     RESD
# ...
  273.000  227.318   55.019    0.323    0.500   19.239
  273.250  226.992   53.077    0.316    0.508   18.076
  273.500  226.563   53.320    0.314    0.511   17.647
  273.750  226.030   53.873    0.304    0.473   17.128
  274.000  225.393   53.552    0.301    0.477   16.790
  274.250  225.067   57.846    0.319    0.497   16.098
  274.500  225.675   59.333    0.307    0.505   15.496
  274.750  225.868   58.763    0.307    0.500   14.976
  275.000  208.021   55.959    0.305    0.483   14.388
  275.250  224.734   55.702    0.306    0.476   13.934
  275.500  225.760   55.630    0.313    0.482   13.359
  275.750  227.303   56.186    0.301    0.466   13.043
  276.000  228.017   57.678    0.290    0.463   12.558
  276.250  228.314   59.295    0.290    0.463   12.286
  276.500  228.297   60.787    0.285    0.486   11.851
  276.750  227.870   61.781    0.283    0.502   11.431
  277.000  227.335   62.960    0.280    0.507   11.002
  277.250  226.799   64.202    0.287    0.514   10.421
  277.500  226.476   65.445    0.288    0.518    9.908
  277.750  226.461   68.313    0.289    0.509    9.250
  278.000  229.249   71.493    0.292    0.494    8.652
  278.250  232.666   74.237    0.326    0.478    7.962
  278.500  242.212   75.792    0.336    0.448    7.253
  278.750  256.952   75.470    0.330    0.467    6.757
  279.000  266.496   73.213    0.359    0.499    6.181
  279.250  280.303   67.889    0.371    0.529    5.665
  279.500  262.313   64.317    0.381    0.552    5.245
  279.750  237.464   62.121    0.439    0.567    4.937
  280.000  270.803   61.987    0.526    0.582    4.666
  280.250  308.507   61.666    0.569    0.595    4.492
  280.500  262.255   61.533    0.575    0.628    4.625
  280.750  243.641   61.962    0.574    0.651    4.992
  281.000  287.370   61.079    0.554    0.656    5.566
  281.250  321.231   59.069    0.538    0.645    6.144
  281.500  377.636   56.872    0.540    0.631    6.879
  281.750  352.374   55.927    0.544    0.614    7.926
  282.000  330.954   55.856    0.540    0.725    8.785
  282.250  305.691   56.910    0.545    0.716    9.897
  282.500  281.570   58.967    0.551    0.702   11.195
  282.750  292.154   61.210    0.552    0.685   12.036
  283.000  278.215   62.327    0.515    0.661   12.321
  283.250  281.214   63.320    0.462    0.529   12.404
  283.500  242.340   66.812    0.393    0.540   12.436
  283.750  271.107   67.930    0.453    0.525   12.473
  284.000  241.064   68.359    0.478    0.528   12.428
  284.250  280.950   68.225    0.461    0.530   12.334
  284.500  278.959   69.406    0.484    0.532   12.270
  284.750  242.683   72.461    0.469    0.541   12.225
  285.000  260.851   74.016    0.412    0.516   12.090
  285.250  262.708   73.445    0.309    0.478   12.070
  285.500  234.119   71.624    0.292    0.455   12.103
  285.750  239.612   61.300    0.270    0.464   12.111
  286.000  224.738   55.727    0.255    0.471   12.119
  286.250  225.140   54.841    0.278    0.467   12.254
  286.500  225.955   55.648    0.263    0.440   12.362
  286.750  226.667   58.139    0.252    0.437   12.420
  287.000  227.692   59.194    0.261    0.443   12.107
  287.250  228.925   59.562    0.253    0.439   11.916
  287.500  230.156   59.991    0.242    0.430   11.731
  287.750  230.872   60.421    0.241    0.419   11.860
  288.000  231.688   61.351    0.236    0.402   12.188
  288.250  231.778   62.343    0.231    0.407   12.524
  288.500  232.075   62.335    0.230    0.416   12.846
  288.750  227.905   59.701    0.231    0.456   13.012
  289.000  226.644   61.755    0.222    0.471   13.182
  289.250  230.162   64.749    0.204    0.437   13.245
  289.500  230.563   65.491    0.175    0.418   13.065
  289.750  231.068   64.233    0.207    0.437   12.553
  290.000  231.677   62.285    0.210    0.455   12.206
  290.250  231.766   61.340    0.207    0.478   11.583
  290.500  231.960   61.520    0.255    0.491   11.013
  290.750  232.881   62.761    0.267    0.460    9.890
  291.000  234.113   64.754    0.289    0.453    8.737
  291.250  243.242   65.559    0.316    0.481    8.257
  291.500  279.180   64.738    0.347    0.504    8.263
  291.750  335.379   60.477    0.389    0.547    8.491
  292.000  319.050   58.906    0.504    0.574    9.091
  292.250  297.735   58.524    0.458    0.570    9.514
  292.500  227.584   59.391    0.420    0.542   10.208
  292.750  227.777   61.821    0.307    0.503   10.552
  293.000  228.907   62.563    0.249    0.473   10.777
  293.250  230.866   61.930    0.282    0.459    9.979
  293.500  242.385   60.046    0.293    0.487    9.147
  293.750  262.945   59.850    0.331    0.517    8.934
  294.000  251.084   60.655    0.436    0.574    8.885
  294.250  232.159   59.083    0.362    0.568    8.998
  294.500  228.404   57.950    0.308    0.555    9.497
  294.750  226.517   57.004    0.290    0.537    9.960
  295.000  225.463   55.745    0.294    0.547   10.663
  295.250  225.140   54.924    0.284    0.529   11.461
  295.500  225.022   55.541    0.292    0.476   11.778
  295.750  226.149   57.346    0.304    0.474   11.524
  296.000  227.902   58.964    0.317    0.485   11.047
  296.250  231.420   61.269    0.337    0.494   10.526
  296.500  243.875   63.136    0.362    0.504    9.847
  296.750  271.188   65.254    0.387    0.512    9.344
  297.000  273.562   67.497    0.399    0.525    8.921
  297.250  262.743   70.115    0.333    0.529    8.587
  297.500  230.618   68.668    0.314    0.512    8.318
  297.750  234.138   67.098    0.289    0.491    8.221
  298.000  235.682   66.402    0.268    0.497    8.211
  298.250  235.773   67.018    0.289    0.508    8.301
  298.500  261.318   67.573    0.306    0.517    8.513
  298.750  260.055   67.128    0.303    0.514    8.820
  299.000  240.821   66.870    0.298    0.513    9.100
  299.250  261.483   67.236    0.295    0.497    9.314
  299.500  257.208   67.665    0.287    0.480    9.040
  299.750  243.685   68.470    0.323    0.469    8.579
  300.000  229.437   69.838    0.343    0.472    8.325
  300.250  252.588   71.393    0.332    0.479    8.229
  300.500  272.008   72.510    0.345    0.513    8.526
  300.750  266.488   73.064    0.348    0.562    9.451
  301.000  278.006   72.681    0.357    0.561   10.074
  301.250  288.177   71.986    0.348    0.541   11.536
  301.500  290.446   71.415    0.332    0.517   13.790
  301.750  252.508   70.717    0.306    0.479   15.856
  302.000  228.387   70.397    0.275    0.449   17.046
  302.250  223.695   71.890    0.237    0.449   17.023
  302.500  225.033   73.445    0.198    0.446   16.186
  302.750  226.989   74.250    0.222    0.446   15.049
  303.000  227.911   81.120    0.276    0.450   15.752
  303.250  227.898   84.800    0.289    0.464   16.826
  303.500  226.323   82.165    0.264    0.491   18.423
  303.750  224.855   77.093    0.224    0.492   19.283
  304.000  224.111   68.206    0.205    0.476   19.297
  304.250  224.932   62.946    0.190    0.429   18.422
  304.500  226.372   58.873    0.142    0.387   16.510
  304.750  228.747   59.490    0.105    0.347   15.040
  305.000  229.667   61.795    0.126    0.328   13.563
  305.250  229.861   65.102    0.150    0.367   12.920
  305.500  230.053   66.094    0.241    0.474   12.038
  305.750  230.351   61.646    0.245    0.470   11.587
  306.000  230.646   61.763    0.252    0.456   11.064
  306.250  230.843   63.317    0.238    0.451   10.825
  306.500  231.244   65.185    0.242    0.454   10.744
  306.750  231.542   66.679    0.215    0.470   10.840
  307.000  231.422   67.921    0.223    0.473   11.393
  307.250  231.408   67.286    0.231    0.475   12.072
  307.500  231.602   66.215    0.231    0.478   12.767
  307.750  243.432   65.519    0.239    0.461   13.390
  308.000  246.015   64.949    0.241    0.463   13.845
  308.250  247.976   64.066    0.229    0.456   14.314
  308.500  229.673   63.245    0.207    0.436   15.136
  308.750  227.684   61.986    0.190    0.413   16.984
  309.000  227.253   59.664    0.205    0.418   20.219
  309.250  227.446   56.843    0.195    0.446   24.515
