~VERSION INFORMATION
 VERS.                 2.0:   CWLS LOG ASCII STANDARD -VERSION 2.0
 WRAP.                  NO:   ONE LINE PER DEPTH STEP
~WELL INFORMATION BLOCK
#MNEM.UNIT           DATA                    DESCRIPTION OF MNEMONIC
#---------    -------------------            -------------------------------
# Generated from Intellog Unique Number	CN_91_93/WELL/3934
WELL.         16-21-092-08W4                 : Well_name    - WELL
LOC .         AA/16-21-092-08W4/0            : Location     - LOCATION
UWI .         AA/16-21-092-08W400            : Uwi          - UNIQUE WELL ID
ENTR.         JOETTE                         : Entered      - ENTERED BY
SRVC.         SCHLUMBERGER                   : Scn          - SERVICE COMPANY
DATE.         03/16/92                       : Date         - LOG DATE
STRT.F        30                             : top_depth    - START DEPTH
STOP.F        550.013                        : bot_depth    - STOP DEPTH
STEP.F        0.8202                         : increment    - STEP LENGTH
 NULL. -999.2500:NULL Value
~CURVE INFORMATION BLOCK
#MNEM UNIT       ERCB CURVE CODE    CURVE DESCRIPTION
#-----------   ------------------   ----------------------------------
DEPT.F        00 001 00 00         : DEPTH        - DEPTH
GR  .API      00 310 00 00         : GR           - GAMMA RAY
CALI.IN       00 280 01 00         : CAL          - CALIPER
NPHI.V/V      00 330 00 00         : PHIN         - NEUTRON POROSITY (SANDSTONE)
ILD .OHMM     00 120 00 00         : RESD         - DEEP RESISTIVITY (DIL)
~PARAMETER INFORMATION
#MNEM.UNIT           DATA             DESCRIPTION OF MNEMONIC
#---------         -----------     ------------------------------
GL  .M        433.73               : gl           - GROUND LEVEL ELEVATION
EREF.M        434.95               : kb           - ELEVATION OF DEPTH REFERENCE
DATM.M        434.95               : datum        - DATUM ELEVATION
TDD .M        168.859              : tdd          - TOTAL DEPTH DRILLER
RUN .         ONE                  : Run          - RUN NUMBER
ENG .         BILL                 : Engineer     - RECORDING ENGINEER
WIT .         JIM                  : Witness      - WITNESSED BY
MUD .         GEL                  : Mud_type     - MUD TYPE
MATR.         SANDSTONE            : Logunit      - NEUTRON MATRIX
TMAX.F        50                   : BHT          - MAXIMUM RECORDED TEMPERATURE
BHTD.F        554                  : BHTDEP       - MAXIMUM RECORDED TEMPERATURE
RMT .F        50                   : MDTP         - TEMPERATURE OF MUD
MUDD.LB/G     9.9                  : MWT          - MUD DENSITY
NEUT.         1                    : NEUTRON      - NEUTRON TYPE
RESI.         0                    : RESIST       - RESISTIVITY TYPE
RM  .OHMM     2.5                  : RM           - RESISTIVITY OF MUD
RMC .OHMM     1.8                  : RMC          - RESISTIVITY OF MUD CAKE
RMF .OHMM     1.8                  : RMF          - RESISTIVITY OF MUD FILTRATE
SUFT.F        39.2                 : SUFT         - SURFACE TEMPERATURE
~A  DEPTH       GR      CAL     PHIN     RESD
   30.000   35.518    8.533    0.514  275.903
   30.820   37.304    8.458    0.497  260.935
   31.640   40.254    8.498    0.469  237.723
   32.461   40.860    8.579    0.462  251.711
   33.281   41.489    8.697    0.476  261.718
   34.101   40.939    8.932    0.517  257.000
   34.921   37.470    9.478    0.538  238.532
   35.742   35.188    9.790    0.545  201.617
   36.562   35.794    9.948    0.512  180.226
   37.382   38.744    9.989    0.490  152.304
   38.202   41.105    9.953    0.489  117.188
   39.022   43.457    9.683    0.493   95.379
   39.843   46.415    9.530    0.497   70.666
   40.663   46.446    9.415    0.501   68.114
   41.483   46.478    9.341    0.522   64.432
   42.303   44.763    9.381    0.553   57.619
   43.123   42.466    9.462    0.566   50.547
   43.944   39.013    9.541    0.567   52.546
   44.764   37.290    9.622    0.562   55.638
   45.584   35.575    9.624    0.537   57.815
   46.404   34.450    9.586    0.542   61.217
   47.224   33.907    9.396    0.548   60.137
   48.045   33.947    9.398    0.533   55.838
   48.865   33.970    9.516    0.542   53.800
   49.685   34.010    9.712    0.562   46.337
   50.505   34.033   10.103    0.565   49.053
   51.325   33.483    9.911    0.534   56.006
   52.146   31.768    9.563    0.462   62.741
   52.966   30.651    9.100    0.478   61.622
   53.786   33.593    8.714    0.472   55.095
   54.606   35.946    8.795    0.480   66.553
   55.426   34.821    8.874    0.504   75.985
   56.247   33.688    8.955    0.514   63.005
   57.067   33.137    8.957    0.513   51.280
   57.887   34.333    8.997    0.498   40.959
   58.707   35.545    9.077    0.481   32.729
   59.528   36.151    9.235    0.473   34.648
   60.348   36.764    9.508    0.468   45.968
   61.168   37.386    9.860    0.456   73.608
   61.988   32.760    9.824    0.453   73.667
   62.808   30.471    9.399    0.460   67.114
   63.629   30.503    9.052    0.472   61.156
   64.449   31.108    8.937    0.486   56.773
   65.269   32.312    8.978    0.502   53.725
   66.089   33.508    9.059    0.513   55.816
   66.909   34.712    9.022    0.518   61.352
   67.730   35.900    8.907    0.496   70.047
   68.550   36.521    8.832    0.454   62.628
   69.370   35.978    8.796    0.447   54.952
   70.190   34.846    8.799    0.460   51.992
   71.010   34.303    8.800    0.499   57.148
   71.831   33.760    8.881    0.494   66.486
   72.651   33.784    8.921    0.498   62.904
   73.471   33.233    8.807    0.528   48.381
   74.291   32.101    8.498    0.557   33.250
   75.112   31.550   10.170    0.564   37.256
   75.932   32.746   11.026    0.550   40.189
   76.752   32.785   12.115    0.548   48.546
   77.572   31.668   12.700    0.557   57.538
   78.392   31.102   10.644    0.453   69.490
   79.213   31.142    8.162    0.465   93.978
   80.033   31.755    8.087    0.514   82.443
   80.853   31.787    8.362    0.552   41.164
   81.673   30.662    8.518    0.557   48.789
   82.493   30.701    8.754    0.553   58.947
   83.314   30.733    8.795    0.542   56.818
   84.134   30.764    8.759    0.444   52.746
   84.954   30.214    8.722    0.426   49.884
   85.774   29.663    8.724    0.421   43.779
   86.594   29.687    8.726    0.424   54.897
   87.415   29.734    8.923    0.426   63.855
   88.235   29.184    9.158    0.437   66.353
   89.055   28.051    9.510    0.445   63.970
   89.875   27.500    9.201    0.439   60.511
   90.695   29.286    8.737    0.435   54.102
   91.516   31.646    8.390    0.453   25.057
   92.336   34.006    8.237    0.463   24.152
   93.156   36.366    8.046    0.452   26.059
   93.976   39.324    7.892    0.445   30.892
   94.797   39.348    7.818    0.430   37.316
   95.617   37.641    7.858    0.410   42.588
   96.437   35.926    7.860    0.414   39.535
   97.257   34.203    7.862    0.412   41.082
   98.077   32.489    7.826    0.417   54.515
   98.898   30.774    7.712    0.436   49.665
   99.718   29.075    7.676    0.460   40.422
  100.538   30.853    7.677    0.486   53.639
  101.358   32.041    7.641    0.516   45.329
  102.178   35.581    7.644    0.483   34.870
  102.999   36.776    7.646    0.459   39.805
  103.819   35.644    7.647    0.442   49.914
  104.639   33.347    7.650    0.439   70.076
  105.459   29.885    7.654    0.430   66.287
  106.280   29.917    7.655    0.422   50.993
  107.100   31.113    7.656    0.425   32.507
  107.920   32.899    7.659    0.441   25.007
  108.740   35.259    7.661    0.449   33.184
  109.560   37.619    7.702    0.435   44.025
  110.381   37.076    7.743    0.431   59.515
  111.201   30.696    7.824    0.427   49.368
  112.021   26.677    7.825    0.426   44.139
  112.841   26.700    7.905    0.428   35.925
  113.661   27.306    8.024    0.433   30.935
  114.482   28.510    8.065    0.441   27.143
  115.302   30.288    8.106    0.458   22.938
  116.122   32.656    7.992    0.449   19.384
  116.942   35.016    7.878    0.435   22.979
  117.762   36.794    7.919    0.428   25.743
  118.583   38.572    7.960    0.422   31.090
  119.403   39.775    7.962    0.418   64.780
  120.223   39.815    7.965    0.415   59.006
  121.043   36.936    7.966    0.431   47.131
  121.864   32.884    8.008    0.448   34.269
  122.684   29.431    8.009    0.450   28.966
  123.504   29.462    8.051    0.437   32.449
  124.324   29.502    8.053    0.429   38.459
  125.144   30.698    8.056    0.431   44.734
  125.965   31.311    8.019    0.429   54.037
  126.785   32.499    7.983    0.427   44.815
  127.605   34.285    7.984    0.425   25.523
  128.425   36.653    7.986    0.425   12.506
  129.245   39.595    8.028    0.429   23.271
  130.066   44.866    8.030    0.437   21.603
  130.886   55.958    8.033    0.446   16.309
  131.706   56.580    8.073    0.451   11.421
  132.526   57.201    8.077    0.465   10.605
  133.346   60.718    8.039    0.460   10.031
  134.167   70.072    7.925    0.466    9.852
  134.987   75.932    7.888    0.476   10.632
  135.807   79.457    7.852    0.480   11.472
  136.627   78.906    7.815    0.457   11.481
  137.448   74.871    7.778    0.446   11.066
  138.268   70.819    7.742    0.433   10.468
  139.088   70.269    7.744    0.434   10.092
  139.908   72.055    7.747    0.443    9.729
  140.728   74.422    7.787    0.434    9.922
  141.549   76.775    7.789    0.424   10.505
  142.369   80.897    7.831    0.413   11.126
  143.189   80.929    7.833    0.411   11.781
  144.009   75.713    7.835    0.408   12.954
  144.829   68.177    7.838    0.408   13.977
  145.650   61.813    7.801    0.412   15.366
  146.470   59.523    7.803    0.414   17.210
  147.290   56.636    7.805    0.417   19.280
  148.110   54.347    7.808    0.410   20.034
  148.930   53.215    7.771    0.398   15.412
  149.751   53.246    7.773    0.404   10.793
  150.571   53.860    7.776    0.411    7.703
  151.391   56.810    7.778    0.428    7.151
  152.211   59.162    7.780    0.436    7.572
  153.031   67.934    7.782    0.436    8.974
  153.852   73.204    7.785    0.442   10.841
  154.672   72.654    7.787    0.436   11.481
  155.492   69.201    7.789    0.420   10.457
  156.312   67.486    7.791    0.425    9.529
  157.133   67.525    7.794    0.426    8.681
  157.953   68.147    7.796    0.431    7.762
  158.773   68.178    7.761    0.441    7.481
  159.593   67.045    7.761    0.450   10.114
  160.413   68.241    7.763    0.446    9.751
  161.234   70.019    7.766    0.439    8.556
  162.054   69.469    7.769    0.436    8.725
  162.874   68.344    7.771    0.440   10.737
  163.694   68.957    7.773    0.442   13.722
  164.514   67.825    7.776    0.438   16.572
  165.335   62.617    7.777    0.428   21.577
  166.155   57.999    7.779    0.408   21.599
  166.975   55.112    7.782    0.391   17.579
  167.795   52.233    7.784    0.339   11.419
  168.615   51.683    7.786    0.304    9.294
  169.436   54.633    7.788    0.325    8.791
  170.256   59.911    7.790    0.375    8.161
  171.076   64.592    7.794    0.402    7.720
  171.896   69.871    7.795    0.424    7.729
