~VERSION INFORMATION
 VERS.                 2.0:   CWLS LOG ASCII STANDARD -VERSION 2.0
 WRAP.                  NO:   ONE LINE PER DEPTH STEP
~WELL INFORMATION BLOCK
#MNEM.UNIT           DATA                    DESCRIPTION OF MNEMONIC
#---------    -------------------            -------------------------------
# Generated from Intellog Unique Number	CN_94_101/WELL/1073
WELL.         11-14-096-14W4                 : Well_name    - WELL
LOC .         AA/11-14-096-14W4/0            : Location     - LOCATION
UWI .         AA/11-14-096-14W400            : Uwi          - UNIQUE WELL ID
ENTR.         JOETTE                         : Entered      - ENTERED BY
SRVC.         SCHLUMBERGER                   : Scn          - SERVICE COMPANY
DATE.         05/03/92                       : Date         - LOG DATE
STRT.M        60.5                           : top_depth    - START DEPTH
STOP.M        295                            : bot_depth    - STOP DEPTH
STEP.M        0.25                           : increment    - STEP LENGTH
 NULL. -999.2500:NULL Value
~CURVE INFORMATION BLOCK
#MNEM UNIT       ERCB CURVE CODE    CURVE DESCRIPTION
#-----------   ------------------   ----------------------------------
DEPT.M        00 001 00 00         : DEPTH        - DEPTH
ILD .OHMM     00 120 00 00         : RESD         - DEEP RESISTIVITY (DIL)
DPHI.V/V      00 890 00 00         : PHID         - DENSITY POROSITY (SANDSTONE)
NPHI.V/V      00 330 00 00         : PHIN         - NEUTRON POROSITY (SANDSTONE)
GR  .API      00 310 00 00         : GR           - GAMMA RAY
CALI.MM       00 280 01 00         : CAL          - CALIPER
~PARAMETER INFORMATION
#MNEM.UNIT           DATA             DESCRIPTION OF MNEMONIC
#---------         -----------     ------------------------------
GL  .M        530.78               : gl           - GROUND LEVEL ELEVATION
EREF.M        533.78               : kb           - ELEVATION OF DEPTH REFERENCE
DATM.M        533.78               : datum        - DATUM ELEVATION
TDD .M        296                  : tdd          - TOTAL DEPTH DRILLER
RUN .         ONE                  : Run          - RUN NUMBER
ENG .         BILL                 : Engineer     - RECORDING ENGINEER
WIT .         JIM                  : Witness      - WITNESSED BY
MUD .         GEL                  : Mud_type     - MUD TYPE
MATR.         SANDSTONE            : Logunit      - NEUTRON MATRIX
TMAX.C        25                   : BHT          - MAXIMUM RECORDED TEMPERATURE
BHTD.M        296                  : BHTDEP       - MAXIMUM RECORDED TEMPERATURE
RMT .C        10                   : MDTP         - TEMPERATURE OF MUD
MUDD.KG/M     1115                 : MWT          - MUD DENSITY
NEUT.         1                    : NEUTRON      - NEUTRON TYPE
RESI.         0                    : RESIST       - RESISTIVITY TYPE
RM  .OHMM     0.62                 : RM           - RESISTIVITY OF MUD
RMC .OHMM     0.62                 : RMC          - RESISTIVITY OF MUD CAKE
RMF .OHMM     0.62                 : RMF          - RESISTIVITY OF MUD FILTRATE
SUFT.C        4                    : SUFT         - SURFACE TEMPERATURE
~A  DEPTH     RESD     PHID     PHIN       GR      CAL
# ...
  133.500   28.908    0.365    0.432   39.810  173.465
  133.750   29.464    0.367    0.431   41.045  172.529
  134.000   29.493    0.369    0.421   41.088  172.572
  134.250   28.440    0.370    0.428   40.510  172.629
  134.500   27.928    0.367    0.449   40.535  172.687
  134.750   26.441    0.370    0.433   41.166  172.744
  135.000   25.024    0.360    0.428   44.181  172.816
  135.250   22.415    0.357    0.446   47.793  172.859
  135.500   21.211    0.354    0.453   53.797  172.945
  135.750   19.354    0.363    0.448   58.014  172.973
  136.000   18.314    0.356    0.443   60.433  174.053
  136.250   17.018    0.354    0.450   61.055  174.053
  136.500   16.717    0.349    0.460   60.493  175.176
  136.750   17.687    0.338    0.464   59.335  175.176
  137.000   16.435    0.339    0.458   59.966  175.248
  137.250   15.552    0.334    0.450   59.404  175.305
  137.500   14.451    0.316    0.457   58.851  175.362
  137.750   15.007    0.310    0.452   58.868  175.405
  138.000   16.174    0.307    0.441   59.507  175.477
  138.250   16.491    0.308    0.445   60.725  175.534
  138.500   16.194    0.316    0.456   62.566  175.606
  138.750   15.618    0.309    0.452   63.179  175.635
  139.000   15.060    0.302    0.442   65.002  175.692
  139.250   15.354    0.300    0.446   65.036  175.750
  139.500   15.939    0.303    0.451   59.705  174.842
  139.750   16.552    0.324    0.446   60.344  174.885
  140.000   15.961    0.350    0.435   62.159  174.928
  140.250   14.833    0.338    0.449   64.578  175.994
  140.500   14.571    0.360    0.454   66.401  176.051
  140.750   13.289    0.360    0.454   66.435  178.110
  141.000   10.648    0.340    0.459   70.047  180.154
  141.250    9.019    0.321    0.478   74.850  181.177
  141.500    7.362    0.327    0.502   77.866  182.228
  141.750    5.684    0.333    0.490   82.669  183.293
  142.000    4.905    0.325    0.487   88.665  183.350
  142.250    4.642    0.313    0.498   93.469  185.381
  142.500    4.395    0.307    0.493   95.301  189.413
  142.750    4.398    0.314    0.496   95.335  190.464
  143.000    4.401    0.316    0.503   94.773  190.521
  143.250    4.404    0.307    0.502   95.395  188.577
  143.500    4.488    0.291    0.490   98.419  187.641
  143.750    4.491    0.267    0.482  100.830  196.640
  144.000    4.495    0.257    0.502   99.672  203.682
  144.250    4.582    0.250    0.515   97.339  207.714
  144.500    4.585    0.247    0.512   97.952  209.758
  144.750    4.588    0.267    0.493   97.987  210.781
  145.000    4.591    0.254    0.500   98.617  212.854
  145.250    4.681    0.249    0.512   99.248  213.876
  145.500    4.683    0.236    0.537   99.282  214.956
  145.750    4.774    0.215    0.559   98.124  214.985
  146.000    4.605    0.182    0.557   98.159  215.071
  146.250    4.522    0.197    0.538  101.762  215.099
  146.500    4.442    0.256    0.520  105.969  217.173
  146.750    4.363    0.266    0.523  103.023  219.217
  147.000    4.209    0.259    0.536   99.480  221.248
  147.250    4.211    0.258    0.553   99.523  224.271
  147.500    4.136    0.267    0.564  100.154  228.303
  147.750    4.138    0.270    0.569  100.785  232.364
  148.000    4.143    0.275    0.566  100.828  233.400
  148.250    4.222    0.281    0.558  100.845  234.437
  148.500    4.224    0.268    0.545  100.283  234.494
  148.750    4.229    0.267    0.551  100.318  234.552
  149.000    4.231    0.279    0.558  100.352  234.624
  149.250    4.233    0.267    0.568  101.000  234.667
  149.500    4.237    0.261    0.576  101.034  234.753
  149.750    4.239    0.270    0.571  101.060  233.802
  150.000    4.164    0.280    0.573  101.103  232.880
  150.250    4.090    0.282    0.580  100.524  232.923
  150.500    4.018    0.284    0.575   98.770  232.001
  150.750    3.947    0.278    0.566   97.016  232.030
  151.000    3.877    0.295    0.568   97.059  231.094
  151.250    3.808    0.295    0.556   97.076  231.151
  151.500    3.742    0.282    0.542   97.111  230.215
  151.750    3.743    0.286    0.557   95.953  229.264
  152.000    3.746    0.276    0.582   95.391  227.363
  152.250    3.818    0.284    0.583   94.233  226.413
  152.500    3.821    0.283    0.566   93.084  225.462
  152.750    3.895    0.279    0.575   90.734  224.526
  153.000    3.970    0.298    0.575   90.768  223.590
  153.250    4.047    0.305    0.546   93.187  222.653
  153.500    4.050    0.291    0.517   92.625  221.717
  153.750    4.129    0.276    0.526   90.266  220.810
  154.000    4.131    0.303    0.524   89.100  220.838
  154.250    3.985    0.312    0.515   88.538  220.924
  154.500    3.913    0.307    0.510   87.389  220.953
  154.750    3.504    0.315    0.505   85.635  221.990
  155.000    3.196    0.333    0.507   85.073  224.049
  155.250    2.970    0.352    0.513   87.501  228.066
  155.500    2.660    0.367    0.524   88.710  238.074
  155.750    2.565    0.381    0.548   91.129  246.080
  156.000    2.566    0.393    0.608   91.769  240.176
  156.250    2.568    0.399    0.605   91.794  235.251
  156.500    2.667    0.335    0.596   90.645  235.308
  156.750    2.770    0.335    0.594   90.092  242.321
  157.000    2.823    0.334    0.609   90.126  243.386
  157.250    2.877    0.322    0.612   90.144  245.431
  157.500    2.989    0.318    0.619   91.371  238.533
  157.750    3.046    0.317    0.600   92.597  238.605
  158.000    3.048    0.310    0.582   92.632  238.634
  158.250    3.050    0.289    0.564   93.876  239.685
  158.500    3.052    0.293    0.535   93.893  239.742
  158.750    3.054    0.297    0.537   94.523  240.793
  159.000    3.114    0.304    0.552   95.145  241.844
  159.250    3.116    0.318    0.566   94.584  242.924
  159.500    3.117    0.307    0.585   96.407  242.952
  159.750    3.119    0.295    0.578   96.441  241.022
  160.000    3.121    0.294    0.576   94.099  238.113
  160.250    3.123    0.301    0.564   93.538  235.190
  160.500    3.126    0.301    0.549   93.581  234.225
  160.750    3.128    0.303    0.539   93.598  233.303
  161.000    3.189    0.301    0.543   92.440  232.367
  161.250    3.250    0.296    0.544   90.090  231.431
  161.500    3.313    0.303    0.547   87.143  230.494
  161.750    3.505    0.290    0.537   84.197  229.558
  162.000    3.574    0.283    0.528   84.231  228.607
  162.250    3.509    0.284    0.538   89.631  225.713
  162.500    3.384    0.286    0.545   89.674  223.754
  162.750    3.514    0.297    0.554   87.316  217.864
  163.000    3.858    0.297    0.514   83.764  212.954
  163.250    4.157    0.299    0.485   80.230  210.995
  163.500    4.650    0.312    0.480   80.265  205.091
  163.750    5.103    0.307    0.487   79.694  198.221
  164.000    5.707    0.315    0.492   80.334  197.257
  164.250    6.266    0.314    0.485   81.560  193.339
  164.500    5.716    0.313    0.483   83.383  192.418
  164.750    5.117    0.303    0.481   83.418  192.461
  165.000    4.668    0.293    0.476   81.067  190.545
  165.250    5.030    0.295    0.484   76.929  186.614
  165.500    5.730    0.298    0.501   74.570  182.697
  165.750    6.290    0.280    0.487   71.027  179.787
  166.000    7.168    0.265    0.454   68.072  178.823
  166.250    7.304    0.252    0.458   64.538  176.907
  166.500    7.449    0.272    0.466   64.573  176.950
  166.750    7.452    0.278    0.453   66.396  177.007
  167.000    7.319    0.242    0.439   70.007  177.065
  167.250    7.191    0.231    0.439   72.426  177.151
  167.500    7.330    0.273    0.449   73.057  177.194
  167.750    7.612    0.297    0.465   71.899  177.237
  168.000    7.903    0.300    0.462   68.953  177.309
  168.250    8.676    0.238    0.454   65.410  177.352
  168.500    9.702    0.189    0.433   63.647  177.352
  168.750   10.850    0.157    0.391   65.479  172.527
  169.000   11.479    0.312    0.365   67.302  175.551
  169.250   11.485    0.327    0.396   69.116  175.594
  169.500   10.286    0.334    0.417   70.948  175.651
  169.750    9.040    0.332    0.440   72.770  176.702
