~VERSION INFORMATION
 VERS.                 2.0:   CWLS LOG ASCII STANDARD -VERSION 2.0
 WRAP.                  NO:   ONE LINE PER DEPTH STEP
~WELL INFORMATION BLOCK
#MNEM.UNIT           DATA                    DESCRIPTION OF MNEMONIC
#---------    -------------------            -------------------------------
# Generated from Intellog Unique Number	CW_82_90/WELL/1033
WELL.         14-05-082-21W4                 : Well_name    - WELL
LOC .         AA/14-05-082-21W4/0            : Location     - LOCATION
UWI .         AA/14-05-082-21W4/0            : Uwi          - UNIQUE WELL ID
ENTR.         JAYE                           : Entered      - ENTERED BY
SRVC.         SCHLUMBERGER                   : Scn          - SERVICE COMPANY
DATE.         26 JAN 82                      : Date         - LOG DATE
STRT.M        225                            : top_depth    - START DEPTH
STOP.M        430                            : bot_depth    - STOP DEPTH
STEP.M        0.25                           : increment    - STEP LENGTH
 NULL. -999.2500:NULL Value
~CURVE INFORMATION BLOCK
#MNEM UNIT       ERCB CURVE CODE    CURVE DESCRIPTION
#-----------   ------------------   ----------------------------------
DEPT.M        00 001 00 00         : DEPTH        - DEPTH
CALI.MM       00 280 01 00         : CAL          - CALIPER
GR  .API      00 310 00 00         : GR           - GAMMA RAY
NPHI.V/V      00 330 00 00         : PHIN         - NEUTRON POROSITY (SANDSTONE)
DPHI.V/V      00 890 00 00         : PHID         - DENSITY POROSITY (SANDSTONE)
ILD .OHMM     00 120 00 00         : RESD         - DEEP RESISTIVITY (DIL)
~PARAMETER INFORMATION
#MNEM.UNIT           DATA             DESCRIPTION OF MNEMONIC
#---------         -----------     ------------------------------
GL  .M        615.3                : gl           - GROUND LEVEL ELEVATION
EREF.M        619.8                : kb           - ELEVATION OF DEPTH REFERENCE
DATM.M        615.3                : datum        - DATUM ELEVATION
TDD .M        437                  : tdd          - TOTAL DEPTH DRILLER
RUN .         ONE                  : Run          - RUN NUMBER
ENG .         KUZIO                : Engineer     - RECORDING ENGINEER
WIT .         WALKER               : Witness      - WITNESSED BY
BASE.         EDMONTON             : Branch       - HOME BASE OF LOGGING UNIT
MUD .         GEL CHEM             : Mud_type     - MUD TYPE
MATR.         SANDSTONE            : Logunit      - NEUTRON MATRIX
TMAX.C        24.4                 : BHT          - MAXIMUM RECORDED TEMPERATURE
BHTD.M        437                  : BHTDEP       - MAXIMUM RECORDED TEMPERATURE
RMT .C        14.4                 : MDTP         - TEMPERATURE OF MUD
MUDD.KG/M     1060                 : MWT          - MUD DENSITY
NEUT.         1                    : NEUTRON      - NEUTRON TYPE
RESI.         0                    : RESIST       - RESISTIVITY TYPE
RM  .OHMM     6.58                 : RM           - RESISTIVITY OF MUD
RMC .OHMM     0.25                 : RMC          - RESISTIVITY OF MUD CAKE
RMF .OHMM     5.72                 : RMF          - RESISTIVITY OF MUD FILTRATE
SUFT.C        4                    : SUFT         - SURFACE TEMPERATURE
~A  DEPTH      CAL       GR     PHIN     PHID     RESD
# ...
  298.000  167.458   50.366    0.442    0.340   17.738
  298.250  166.100   48.679    0.290    0.302   20.382
  298.500  164.117   49.179    0.195    0.070   26.401
  298.750  163.073   48.617    0.168    0.022   34.844
  299.000  161.298   50.493    0.222    0.117   33.584
  299.250  159.524   53.056    0.341    0.343   23.201
  299.500  157.749   58.119    0.406    0.351   16.857
  299.750  156.914   62.245    0.453    0.351   14.496
  300.000  156.078   64.370    0.459    0.348   14.155
  300.250  155.451   63.434    0.458    0.346   14.350
  300.500  155.136   57.934    0.458    0.350   14.224
  300.750  155.135   56.372    0.460    0.351   13.787
  301.000  155.134   61.748    0.466    0.345   13.847
  301.250  155.653   62.061    0.474    0.338   13.856
  301.500  156.069   62.312    0.452    0.339   13.836
  301.750  156.277   63.937    0.441    0.346   13.794
  302.000  156.379   61.125    0.447    0.344   13.418
  302.250  156.378   60.313    0.451    0.345   13.302
  302.500  156.272   61.689    0.449    0.354   13.384
  302.750  156.271   60.752    0.449    0.356   13.392
  303.000  156.061   60.440    0.463    0.348   13.377
  303.250  156.268   63.191    0.462    0.345   13.284
  303.500  155.954   65.317    0.472    0.348   13.191
  303.750  155.223   64.005    0.483    0.352   13.028
  304.000  155.117   60.880    0.478    0.355   12.792
  304.250  154.802   61.881    0.486    0.358   12.539
  304.500  154.801   63.944    0.477    0.359   12.336
  304.750  154.800   65.820    0.456    0.349   12.228
  305.000  154.798   66.195    0.454    0.339   12.211
  305.250  154.588   65.383    0.445    0.347   11.972
  305.500  154.796   66.009    0.465    0.339   11.710
  305.750  155.003   65.947    0.484    0.329   10.591
  306.000  155.106   65.135    0.473    0.340   10.759
  306.250  155.104   66.011    0.456    0.353   11.133
  306.500  154.790   68.011    0.456    0.346   11.803
  306.750  154.788   68.262    0.463    0.342   11.592
  307.000  154.787   69.575    0.469    0.342   11.404
  307.250  154.368   70.201    0.460    0.345   11.410
  307.500  154.263   71.389    0.444    0.345   11.505
  307.750  153.844   70.952    0.437    0.346   11.509
  308.000  153.530   67.015    0.462    0.342   11.623
  308.250  153.529   65.016    0.485    0.340   11.697
  308.500  154.049   67.329    0.486    0.352   11.793
  308.750  154.360   67.017    0.498    0.347   11.864
  309.000  154.567   67.642    0.478    0.343   12.049
  309.250  154.566   69.331    0.455    0.345   11.724
  309.500  154.878   70.081    0.464    0.336   11.470
  309.750  155.084   67.769    0.483    0.334   11.285
  310.000  155.083   68.770    0.474    0.342   11.270
  310.250  155.290   70.520    0.468    0.339   11.233
  310.500  155.185   71.584    0.474    0.328   11.303
  310.750  155.600   71.147    0.474    0.343   11.291
  311.000  155.912   70.960    0.472    0.342   11.254
  311.250  156.015   71.835    0.476    0.339   11.282
  311.500  155.909   70.961    0.481    0.346   11.119
  311.750  155.699   70.024    0.500    0.339   11.043
  312.000  155.906   70.962    0.504    0.325   10.743
  312.250  156.114   75.275    0.472    0.335   10.510
  312.500  156.634   75.526    0.458    0.337   10.264
  312.750  156.528   71.464    0.464    0.346   10.060
  313.000  156.318   70.840    0.466    0.355   10.548
  313.250  156.212   73.403    0.471    0.343   10.915
  313.500  156.524   78.341    0.486    0.336   10.679
  313.750  157.044   84.279    0.467    0.329    9.443
  314.000  158.816   91.217    0.437    0.312    7.577
  314.250  161.005   97.093    0.439    0.278    6.552
  314.500  163.715  101.656    0.466    0.241    4.612
  314.750  164.756   94.844    0.499    0.220    4.306
  315.000  164.129   86.219    0.518    0.258    4.704
  315.250  161.625   79.658    0.494    0.272    5.236
  315.500  157.973   75.971    0.486    0.245    6.522
  315.750  157.346   69.159    0.460    0.214    6.850
  316.000  159.847   61.222    0.400    0.099    7.170
  316.250  161.828   63.348    0.389    0.081    6.936
  316.500  162.348   87.723    0.429    0.194    6.427
  316.750  161.303   88.724    0.474    0.245    5.813
  317.000  159.633   90.599    0.489    0.262    5.948
  317.250  158.693   94.725    0.468    0.259    6.634
  317.500  157.336   99.038    0.470    0.258    8.641
  317.750  155.979   88.851    0.479    0.265   10.761
  318.000  155.143   84.102    0.477    0.277   12.600
  318.250  155.454   76.728    0.443    0.287   14.291
  318.500  156.600   76.791    0.428    0.272   14.650
  318.750  158.476   86.166    0.418    0.250   13.152
  319.000  159.831   95.729    0.420    0.225   11.674
  319.250  160.872   96.480    0.431    0.215    9.597
  319.500  160.662   94.793    0.429    0.211    7.831
  319.750  158.783   94.231    0.409    0.215    8.461
  320.000  157.947   96.669    0.423    0.237    9.295
  320.250  158.259   97.607    0.456    0.265    9.710
  320.500  158.466   92.608    0.478    0.273    9.862
  320.750  155.962   92.796    0.482    0.257    9.867
  321.000  156.586   94.422    0.459    0.246    9.599
  321.250  157.315  101.297    0.446    0.233    8.715
  321.500  158.565  101.110    0.452    0.238    8.968
  321.750  159.607  100.174    0.464    0.238    9.598
  322.000  161.482  100.049    0.461    0.230    9.496
  322.250  162.420   97.612    0.455    0.225    9.187
  322.500  162.835   95.488    0.440    0.228    8.641
  322.750  162.730   96.363    0.432    0.239    9.371
  323.000  161.581   98.052    0.443    0.238    9.324
  323.250  161.475   97.302    0.467    0.237    9.330
  323.500  160.744   94.240    0.457    0.241    9.387
  323.750  159.908   96.241    0.452    0.241    9.375
  324.000  159.594   96.179    0.456    0.238    9.380
  324.250  158.967   93.680    0.457    0.239    9.491
  324.500  159.070   95.305    0.459    0.242    9.550
  324.750  159.590   99.306    0.435    0.234    9.326
  325.000  161.153  104.994    0.425    0.222    9.039
  325.250  163.342  106.932    0.447    0.221    8.129
  325.500  165.530  108.683    0.467    0.218    7.366
  325.750  165.946  105.558    0.488    0.208    7.454
  326.000  163.963   98.059    0.488    0.220    7.903
  326.250  161.772   89.934    0.466    0.247    9.376
  326.500  160.727   80.623    0.439    0.287   10.034
  326.750  159.370   72.311    0.441    0.296   10.442
  327.000  158.847   72.499    0.438    0.284   10.625
  327.250  158.533   74.062    0.437    0.273   10.791
  327.500  158.010   76.250    0.430    0.260   10.777
  327.750  157.696   77.751    0.425    0.256   10.564
  328.000  157.381   79.876    0.426    0.269   10.354
  328.250  157.067   81.502    0.434    0.275    8.449
  328.500  156.857   82.815    0.436    0.267    7.416
  328.750  156.960   82.378    0.436    0.257    7.762
  329.000  156.959   79.816    0.433    0.262    9.345
  329.250  156.749   78.129    0.429    0.286   10.154
  329.500  156.852   82.817    0.421    0.271   10.390
  329.750  157.163   88.818    0.416    0.260   10.732
  330.000  157.787   93.319    0.432    0.250   10.421
  330.250  158.829   88.382    0.393    0.214    9.932
  330.500  159.349   88.445    0.353    0.153    9.519
  330.750  159.556   92.258    0.378    0.187    8.987
  331.000  159.972   91.321    0.426    0.218    8.205
  331.250  160.179   89.072    0.440    0.206    7.434
  331.500  159.969   89.760    0.431    0.209    7.795
  331.750  159.550   90.135    0.432    0.241    7.429
  332.000  160.071   97.761    0.456    0.248    6.911
  332.250  163.615   98.262    0.498    0.254    6.416
  332.500  166.847   99.262    0.518    0.272    3.738
  332.750  163.091  101.138    0.509    0.275    3.861
  333.000  161.212  108.013    0.498    0.267    4.331
  333.250  160.168  106.951    0.484    0.253    3.961
  333.500  158.811   96.077    0.473    0.256    5.561
  333.750  158.601   88.203    0.479    0.268    6.354
  334.000  158.704   84.141    0.470    0.268    7.126
  334.250  158.598   83.516    0.483    0.269    7.786
