~VERSION INFORMATION
 VERS.                 2.0:   CWLS LOG ASCII STANDARD -VERSION 2.0
 WRAP.                  NO:   ONE LINE PER DEPTH STEP
~WELL INFORMATION BLOCK
#MNEM.UNIT           DATA                    DESCRIPTION OF MNEMONIC
#---------    -------------------            -------------------------------
# Generated from Intellog Unique Number	CC_80_83/WELL/2416
NULL.         -999.25                        : NULL_VALUE
WELL.         PEX PCEJ HANGST OV             : Well_name    - WELL              
LOC .         11-29-082-08W4                 : Location     - LOCATION          
UWI .         AA/11-29-082-08W4/0            : Uwi          - UNIQUE WELL ID    
ENTR.         RJA                            : Entered      - ENTERED BY        
SRVC.         DRESSER ATLAS                  : Scn          - SERVICE COMPANY   
DATE.         24 FEB 80                      : Date         - LOG DATE
STRT.M        250                            : top_depth    - START DEPTH       
STOP.M        510.09                         : bot_depth    - STOP DEPTH        
STEP.M        0.3                            : increment    - STEP LENGTH       
~CURVE INFORMATION BLOCK
#MNEM UNIT       ERCB CURVE CODE    CURVE DESCRIPTION
#-----------   ------------------   ----------------------------------
DEPT.M        00 001 00 00         : DEPTH        - DEPTH                       
DPHI.V/V      00 890 00 00         : PHID         - DENSITY POROSITY (LIMESTONE)
NPHI.V/V      00 330 00 00         : PHIN         - NEUTRON POROSITY (LIMESTONE)
GR  .API      00 310 00 00         : GR           - GAMMA RAY                   
ILD .OHMM     00 120 00 00         : RESD         - DEEP RESISTIVITY (DIL)      
~PARAMETER INFORMATION       
#MNEM.UNIT           DATA             DESCRIPTION OF MNEMONIC
#---------         -----------     ------------------------------
GL  .M        735.57               : gl           - GROUND LEVEL ELEVATION      
EREF.M        739.17               : kb           - ELEVATION OF DEPTH REFERENCE
DATM.M        739.17               : datum        - DATUM ELEVATION             
TDD .M        518                  : tdd          - TOTAL DEPTH DRILLER         
RUN .         ONE                  : Run          - RUN NUMBER                  
ENG .         BILL                 : Engineer     - RECORDING ENGINEER          
WIT .         JIM                  : Witness      - WITNESSED BY                
MUD .         GEL                  : Mud_type     - MUD TYPE                    
MATR.         LIMESTONE            : Logunit      - NEUTRON MATRIX              
TMAX.C        15                   : BHT          - MAXIMUM RECORDED TEMPERATURE
BHTD.M        5182                 : BHTDEP       - MAXIMUM RECORDED TEMPERATURE
MATR.         1                    : LOGUNIT      - NEUTRON MATRIX              
RMT .C        25                   : MDTP         - TEMPERATURE OF MUD          
NEUT.         1                    : NEUTRON      - NEUTRON TYPE                
RESI.         0                    : RESIST       - RESISTIVITY TYPE            
RMC .OHMM     0.25                 : RMC          - RESISTIVITY OF MUD CAKE     
RMF .OHMM     0.25                 : RMF          - RESISTIVITY OF MUD FILTRATE 
SUFT.C        15                   : SUFT         - SURFACE TEMPERATURE         
~A  DEPTH     PHID     PHIN       GR     RESD
  250.000    0.243    0.399   96.940    4.145
  250.300    0.230    0.398   93.218    4.376
  250.600    0.227    0.361   80.637    4.594
  250.900    0.226    0.381   86.646    4.778
  251.200    0.225    0.371   89.751    4.867
  251.500    0.223    0.397   85.839    4.919
  251.800    0.222    0.417   91.168    4.806
  252.100    0.225    0.406   95.504    4.858
  252.400    0.225    0.401   97.373    4.938
  252.700    0.226    0.417   94.210    4.946
  253.000    0.228    0.391   91.984    4.841
  253.300    0.226    0.391   90.804    4.721
  253.600    0.227    0.403   97.858    4.508
  253.900    0.231    0.388   94.585    4.347
  254.200    0.225    0.393   91.732    4.255
  254.500    0.222    0.404   98.678    4.181
  254.800    0.225    0.390   85.225    4.101
  255.100    0.234    0.403   97.185    3.999
  255.400    0.229    0.390   91.730    3.892
  255.700    0.223    0.398   90.183    3.810
  256.000    0.222    0.415   90.237    3.722
  256.300    0.222    0.403   90.924    3.678
  256.600    0.224    0.373   90.558    3.655
  256.900    0.222    0.384   85.911    3.653
  257.200    0.216    0.399   94.204    3.650
  257.500    0.224    0.414   97.008    3.663
  257.800    0.234    0.420   84.547    3.738
  258.100    0.234    0.422   94.639    3.779
  258.400    0.232    0.400   89.320    3.770
  258.700    0.231    0.402   94.714    3.704
  259.000    0.234    0.425   99.670    3.633
  259.300    0.231    0.446   89.756    3.522
  259.600    0.220    0.454  101.835    3.435
  259.900    0.218    0.454  103.145    3.382
  260.200    0.223    0.409   94.577    3.399
  260.500    0.227    0.416   89.749    3.456
  260.800    0.228    0.411   94.714    3.533
  261.100    0.228    0.416  101.286    3.578
  261.400    0.230    0.416  101.099    3.597
  261.700    0.232    0.423   98.048    3.554
  262.000    0.232    0.438  101.654    3.492
  262.300    0.231    0.445   98.739    3.417
  262.600    0.232    0.425   99.303    3.371
  262.900    0.238    0.457   97.631    3.300
  263.200    0.235    0.444   91.178    3.249
  263.500    0.233    0.428   94.027    3.138
  263.800    0.234    0.462  100.107    3.008
  264.100    0.236    0.420   98.428    2.967
  264.400    0.239    0.429  100.297    2.960
  264.700    0.236    0.429  102.462    2.936
  265.000    0.235    0.413  107.363    2.940
  265.300    0.239    0.411   98.996    2.966
  265.600    0.239    0.431  105.623    3.016
  265.900    0.235    0.441  108.717    3.094
  266.200    0.231    0.440  105.929    3.157
  266.500    0.236    0.423  105.877    3.163
  266.800    0.242    0.427  102.030    3.155
  267.100    0.244    0.457  104.204    3.100
  267.400    0.240    0.474   95.083    3.057
  267.700    0.237    0.462  101.351    3.044
  268.000    0.237    0.463   93.353    3.089
  268.300    0.235    0.458   91.868    3.176
  268.600    0.234    0.459   97.135    3.198
  268.900    0.234    0.466   98.493    3.197
  269.200    0.232    0.440   96.457    3.189
  269.500    0.234    0.428   87.963    3.145
  269.799    0.235    0.422   84.987    3.120
  270.099    0.232    0.446   93.723    3.136
  270.399    0.235    0.457   97.698    3.140
  270.699    0.241    0.464  101.909    3.139
  270.999    0.244    0.447   90.317    3.149
  271.299    0.247    0.426   87.718    3.153
  271.599    0.254    0.451   93.853    3.157
  271.899    0.252    0.444   90.122    3.150
  272.199    0.248    0.457   91.187    3.136
  272.499    0.248    0.457   97.140    3.104
  272.799    0.251    0.440   86.230    3.085
  273.099    0.250    0.438   90.817    3.089
  273.399    0.249    0.447   88.338    3.076
  273.699    0.252    0.461   97.940    3.063
  273.999    0.258    0.459   98.133    3.027
  274.299    0.261    0.444   90.260    2.968
  274.599    0.263    0.448   97.825    2.917
  274.899    0.263    0.450   95.468    2.877
  275.199    0.265    0.478   92.864    2.789
  275.499    0.266    0.477   94.904    2.746
  275.799    0.268    0.473   90.816    2.739
  276.099    0.268    0.460   89.702    2.759
  276.399    0.264    0.466   94.787    2.935
  276.699    0.250    0.421   90.509    3.128
  276.999    0.233    0.408   91.623    3.309
  277.299    0.211    0.383   83.320    3.467
  277.599    0.217    0.396   93.604    3.558
  277.899    0.223    0.409   97.391    3.550
  278.199    0.222    0.402   98.563    3.548
  278.499    0.218    0.415   97.452    3.682
  278.799    0.216    0.398   89.457    3.745
  279.099    0.217    0.413   93.055    3.843
  279.399    0.219    0.424   90.383    3.762
  279.699    0.217    0.417   94.785    3.545
  279.999    0.211    0.439  105.076    3.425
  280.299    0.208    0.464  103.388    3.359
  280.599    0.209    0.447  100.675    3.421
  280.899    0.207    0.441   92.740    3.591
  281.199    0.203    0.410   89.882    3.736
  281.499    0.204    0.395   95.721    4.127
  281.799    0.201    0.388   81.898    4.260
  282.099    0.206    0.383   84.745    4.131
  282.399    0.210    0.415   93.053    3.879
  282.699    0.208    0.397   93.859    3.943
  282.999    0.211    0.386   75.076    4.656
  283.299    0.210    0.326   63.615    5.528
  283.599    0.216    0.342   73.718    5.588
  283.899    0.226    0.356   75.570    4.864
  284.199    0.228    0.369   68.572    4.092
  284.499    0.223    0.401   88.095    3.763
  284.799    0.221    0.382   94.290    3.704
  285.099    0.221    0.358   84.007    4.024
  285.399    0.230    0.380   74.525    5.114
  285.699    0.246    0.380   79.602    6.428
  285.999    0.264    0.377   80.217    8.002
  286.299    0.278    0.365   76.443   10.346
  286.599    0.275    0.353   70.187   12.639
  286.899    0.260    0.326   68.817   14.423
  287.199    0.249    0.326   66.829   13.464
  287.499    0.239    0.325   66.279   10.947
  287.799    0.229    0.309   77.435    8.362
  288.099    0.228    0.326   87.041    6.749
  288.399    0.233    0.388   91.755    6.312
  288.699    0.243    0.388   88.164    6.779
  288.999    0.258    0.354   59.652    7.662
  289.299    0.238    0.365   76.383    8.662
  289.599    0.235    0.361   96.096    9.444
  289.899    0.247    0.359   99.685    9.333
  290.199    0.259    0.362   98.258   10.177
  290.499    0.280    0.398   91.326   12.290
  290.799    0.320    0.440   72.481   14.844
  291.099    0.330    0.373   53.388   17.293
  291.399    0.299    0.346   65.044   18.855
  291.699    0.297    0.347   64.299   19.062
  291.999    0.299    0.358   68.447   19.090
  292.299    0.305    0.346   69.247   19.742
  292.599    0.309    0.334   64.664   19.915
  292.899    0.308    0.330   62.319   19.831
  293.199    0.292    0.332   62.320   19.267
  293.499    0.285    0.325   71.740   18.611
  293.799    0.287    0.330   69.940   18.111
  294.099    0.283    0.342   73.787   17.595
  294.398    0.279    0.333   67.024   16.774
  294.698    0.292    0.334   59.898   16.020
  294.998    0.288    0.331   71.735   15.415
  295.298    0.284    0.344   63.684   15.204
  295.598    0.286    0.335   58.470   14.965
  295.898    0.286    0.323   66.534   14.962
  296.198    0.292    0.329   56.678   15.238
  296.498    0.271    0.318   72.048   15.724
  296.798    0.272    0.341   66.906   16.109
  297.098    0.300    0.349   60.769   16.976
  297.398    0.288    0.356   66.147   17.100
  297.698    0.273    0.335   63.127   16.704
  297.998    0.268    0.352   66.104   16.508
  298.298    0.266    0.343   71.867   16.619
  298.598    0.280    0.343   75.152   16.869
  298.898    0.288    0.363   69.195   17.379
  299.198    0.288    0.369   66.226   18.313
  299.498    0.286    0.364   62.881   18.829
  299.798    0.291    0.372   55.257   18.155
  300.098    0.293    0.386   64.988   18.597
  300.398    0.282    0.350   57.794   18.730
  300.698    0.292    0.346   61.020   18.544
  300.998    0.297    0.323   70.189   18.290
  301.298    0.293    0.303   80.671   18.176
  301.598    0.275    0.328   73.108   17.261
  301.898    0.276    0.332   81.408   16.145
