~VERSION INFORMATION
 VERS.                 2.0:   CWLS LOG ASCII STANDARD -VERSION 2.0
 WRAP.                  NO:   ONE LINE PER DEPTH STEP
~WELL INFORMATION BLOCK
#MNEM.UNIT           DATA                    DESCRIPTION OF MNEMONIC
#---------    -------------------            -------------------------------
# Generated from Intellog Unique Number	CN_94_101/WELL/1069
WELL.         SUNCOR INC.                    : Well_name    - WELL
LOC .         AA/10-20-094-06W4/0            : Location     - LOCATION
UWI .         AA/10-20-094-06W400            : Uwi          - UNIQUE WELL ID
ENTR.         JOETTE                         : Entered      - ENTERED BY
SRVC.         SCHLUMBERGER                   : Scn          - SERVICE COMPANY
DATE.         04/10/92                       : Date         - LOG DATE
STRT.M        50                             : top_depth    - START DEPTH
STOP.M        300                            : bot_depth    - STOP DEPTH
STEP.M        0.25                           : increment    - STEP LENGTH
 NULL. -999.2500:NULL Value
~CURVE INFORMATION BLOCK
#MNEM UNIT       ERCB CURVE CODE    CURVE DESCRIPTION
#-----------   ------------------   ----------------------------------
DEPT.M        00 001 00 00         : DEPTH        - DEPTH
ILD .OHMM     00 120 00 00         : RESD         - DEEP RESISTIVITY (DIL)
DPHI.V/V      00 890 00 00         : PHID         - DENSITY POROSITY (SANDSTONE)
NPHI.V/V      00 330 00 00         : PHIN         - NEUTRON POROSITY (SANDSTONE)
GR  .API      00 310 00 00         : GR           - GAMMA RAY
CALI.MM       00 280 01 00         : CAL          - CALIPER
~PARAMETER INFORMATION
#MNEM.UNIT           DATA             DESCRIPTION OF MNEMONIC
#---------         -----------     ------------------------------
GL  .M        578.2                : gl           - GROUND LEVEL ELEVATION
EREF.M        581.4                : kb           - ELEVATION OF DEPTH REFERENCE
DATM.M        581.4                : datum        - DATUM ELEVATION
TDD .M        304                  : tdd          - TOTAL DEPTH DRILLER
RUN .         ONE                  : Run          - RUN NUMBER
ENG .         BILL                 : Engineer     - RECORDING ENGINEER
WIT .         JIM                  : Witness      - WITNESSED BY
MUD .         GEL                  : Mud_type     - MUD TYPE
MATR.         SANDSTONE            : Logunit      - NEUTRON MATRIX
TMAX.C        15                   : BHT          - MAXIMUM RECORDED TEMPERATURE
BHTD.M        304                  : BHTDEP       - MAXIMUM RECORDED TEMPERATURE
RMT .C        10                   : MDTP         - TEMPERATURE OF MUD
MUDD.KG/M     1050                 : MWT          - MUD DENSITY
NEUT.         1                    : NEUTRON      - NEUTRON TYPE
RESI.         0                    : RESIST       - RESISTIVITY TYPE
RM  .OHMM     13.1                 : RM           - RESISTIVITY OF MUD
RMC .OHMM     13.1                 : RMC          - RESISTIVITY OF MUD CAKE
RMF .OHMM     13.1                 : RMF          - RESISTIVITY OF MUD FILTRATE
SUFT.C        4                    : SUFT         - SURFACE TEMPERATURE
~A  DEPTH     RESD     PHID     PHIN       GR      CAL
# ...
  196.000   14.559    0.257    0.500  111.817  175.415
  196.250   15.131    0.253    0.481  109.354  175.443
  196.500   15.443    0.207    0.457  104.422  174.423
  196.750   15.165    0.167    0.435  100.108  172.383
  197.000   14.613    0.161    0.425  100.123  166.232
  197.250   13.313    0.192    0.458  103.221  164.182
  197.500   11.454    0.231    0.449  107.557  162.156
  197.750    9.857    0.252    0.446  110.040  162.170
  198.000    8.324    0.239    0.464  113.759  162.184
  198.250    7.301    0.243    0.499  118.096  163.233
  198.500    6.525    0.260    0.513  123.053  168.402
  198.750    5.945    0.259    0.506  123.068  178.719
  199.000    5.838    0.247    0.512  120.608  182.857
  199.250    5.733    0.240    0.520  119.383  183.906
  199.500    5.741    0.250    0.523  117.541  184.960
  199.750    5.745    0.259    0.517  115.081  189.103
  200.000    5.750    0.260    0.512  112.618  192.207
  200.250    5.544    0.256    0.505  111.393  190.166
  200.500    5.146    0.254    0.515  116.348  188.121
  200.750    4.688    0.263    0.529  121.921  185.060
  201.000    4.434    0.271    0.569  127.493  183.015
  201.250    4.193    0.285    0.598  128.122  183.029
  201.500    3.965    0.276    0.604  125.665  180.988
  201.750    3.680    0.272    0.576  126.912  178.953
  202.000    3.482    0.286    0.573  128.778  178.977
  202.250    3.486    0.291    0.563  128.786  178.991
  202.500    3.555    0.285    0.549  128.180  177.990
  202.750    3.911    0.270    0.535  125.102  177.999
  203.000    4.383    0.247    0.518  117.698  178.023
  203.250    5.716    0.250    0.511  111.531  175.982
  203.500    7.314    0.260    0.509  105.981  175.997
  203.750    9.542    0.261    0.489  102.291  176.025
  204.000    9.025    0.259    0.481  102.915  176.035
  204.250    8.699    0.271    0.491  105.398  176.054
  204.500    8.871    0.278    0.498  110.355  175.043
  204.750    9.052    0.282    0.489  114.692  175.062
  205.000    9.586    0.266    0.474  117.178  174.056
  205.250   10.747    0.252    0.463  115.336  173.046
  205.500   12.049    0.237    0.453  114.111  172.030
  205.750   12.764    0.232    0.442  115.358  169.994
  206.000   12.544    0.229    0.428  115.370  168.979
  206.250   11.861    0.241    0.427  114.761  165.918
  206.500   10.800    0.262    0.438  112.300  164.902
  206.750    9.472    0.263    0.454  111.694  162.867
  207.000    8.796    0.258    0.464  113.559  161.846
  207.250    8.802    0.251    0.477  116.045  162.895
  207.500    8.813    0.240    0.484  115.439  166.013
  207.750    8.986    0.226    0.474  112.978  168.087
  208.000    9.168    0.231    0.478  110.518  171.201
  208.250    9.350    0.237    0.492  108.058  172.250
  208.500    9.014    0.226    0.487  106.213  171.239
  208.750    8.210    0.218    0.473  109.314  169.193
  209.000    7.477    0.228    0.462  110.561  164.068
  209.250    7.343    0.227    0.493  115.516  169.232
  209.500    7.079    0.225    0.493  118.623  176.459
  209.750    7.085    0.215    0.480  116.780  183.687
  210.000    7.229    0.198    0.467  117.410  185.771
  210.250    7.518    0.211    0.470  119.893  184.760
  210.500    7.522    0.221    0.484  122.373  180.660
  210.750    7.529    0.237    0.503  123.002  177.589
  211.000    7.257    0.254    0.527  121.778  174.519
  211.250    6.737    0.249    0.542  124.882  173.504
  211.500    6.369    0.247    0.548  127.983  171.468
  211.750    5.801    0.243    0.551  130.466  171.482
  212.000    5.385    0.237    0.555  131.095  170.476
  212.250    5.289    0.232    0.547  131.103  170.495
  212.500    5.196    0.233    0.522  131.118  170.514
  212.750    5.104    0.247    0.518  129.891  170.533
  213.000    5.109    0.257    0.517  126.198  172.617
  213.250    5.114    0.252    0.523  124.973  172.631
  213.500    5.120    0.242    0.527  124.985  173.690
  213.750    5.126    0.232    0.520  126.232  173.699
  214.000    5.129    0.245    0.505  126.243  173.718
  214.250    5.235    0.256    0.482  126.255  172.712
  214.500    5.237    0.253    0.480  126.266  171.701
  214.750    5.244    0.249    0.487  124.424  171.716
  215.000    5.350    0.251    0.477  119.492  171.735
  215.250    5.455    0.240    0.481  117.650  171.754
  215.500    5.564    0.229    0.491  121.369  171.778
  215.750    6.010    0.212    0.482  123.234  170.767
  216.000    6.485    0.205    0.462  121.392  170.786
  216.250    7.409    0.194    0.436  119.550  170.805
  216.500    8.793    0.177    0.431  119.561  169.794
  216.750    9.673    0.138    0.436  119.572  169.814
  217.000   10.055    0.116    0.444  112.169  169.837
  217.250   10.257    0.091    0.421  100.441  169.847
  217.500   10.075    0.161    0.395   99.216  169.871
  217.750    9.714    0.235    0.431  104.789  170.920
  218.000    9.363    0.229    0.456  107.272  170.939
  218.250    9.194    0.233    0.470  109.755  171.988
  218.500    9.033    0.229    0.487  112.241  172.012
  218.750    9.042    0.223    0.478  114.721  171.001
  219.000    9.221    0.214    0.457  117.204  169.995
  219.250    9.955    0.199    0.450  117.833  168.975
  219.500   11.161    0.151    0.435  115.991  167.973
  219.750   11.172    0.117    0.411  111.062  166.953
  220.000    9.798    0.111    0.417  102.420  164.912
  220.250    6.001    0.167    0.455   98.727  166.991
  220.500    4.699    0.205    0.497  104.300  174.219
  220.750    3.821    0.237    0.549  108.636  180.417
  221.000    3.352    0.263    0.566  109.266  184.555
  221.250    3.420    0.309    0.584  107.423  186.639
  221.500    3.554    0.309    0.600  105.581  187.683
  221.750    3.837    0.286    0.597  104.360  187.707
  222.000    4.303    0.276    0.572  106.840  186.691
  222.250    4.556    0.261    0.546  110.559  184.651
  222.500    5.108    0.251    0.524  110.570  183.645
  222.750    5.839    0.248    0.534  109.964  183.674
  223.000    5.955    0.237    0.526  113.685  183.688
  223.250    5.959    0.228    0.504  114.312  183.702
  223.500    6.079    0.221    0.484  113.705  184.761
  223.750    5.971    0.227    0.468  112.481  184.770
  224.000    5.868    0.235    0.479  111.875  184.799
  224.250    5.871    0.238    0.490  113.740  185.843
  224.500    5.877    0.232    0.483  114.987  185.857
  224.750    5.884    0.227    0.458  113.150  185.876
  225.000    5.891    0.220    0.453  110.687  185.900
  225.250    6.011    0.216    0.445  111.938  185.919
  225.500    6.014    0.243    0.450  114.421  185.938
  225.750    6.020    0.256    0.465  116.901  185.953
  226.000    6.027    0.248    0.476  120.002  187.011
  226.250    5.919    0.246    0.493  118.777  188.050
  226.500    5.598    0.244    0.504  112.610  190.129
  226.750    5.296    0.242    0.510  112.621  192.213
  227.000    5.105    0.236    0.505  113.251  195.326
  227.250    5.014    0.226    0.493  108.937  195.336
  227.500    4.925    0.238    0.483  108.330  198.458
  227.750    4.837    0.265    0.491  111.431  198.468
  228.000    4.753    0.264    0.505  116.389  201.576
  228.250    4.579    0.253    0.523  118.869  203.655
  228.500    4.332    0.248    0.543  120.734  205.739
  228.750    4.098    0.255    0.559  120.746  204.733
  229.000    4.261    0.258    0.576  124.467  202.683
  229.250    4.512    0.253    0.582  126.332  197.557
  229.500    4.963    0.244    0.553  124.490  193.452
  229.750    5.568    0.238    0.522  114.612  187.297
  230.000    5.787    0.237    0.491  109.063  186.291
  230.250    5.902    0.235    0.487  110.316  186.301
  230.500    5.795    0.228    0.482  112.181  186.325
  230.750    5.589    0.225    0.477  114.043  186.344
  231.000    5.593    0.224    0.470  115.293  183.273
  231.250    5.597    0.220    0.460  112.212  180.208
  231.500    5.818    0.213    0.431  106.663  178.158
  231.750    7.308    0.205    0.378   98.642  174.057
  232.000    9.529    0.214    0.157   86.295  169.957
  232.250   14.453    0.228    0.112   70.859  167.917
