~VERSION INFORMATION
 VERS.                 2.0:   CWLS LOG ASCII STANDARD -VERSION 2.0
 WRAP.                  NO:   ONE LINE PER DEPTH STEP
~WELL INFORMATION BLOCK
#MNEM.UNIT           DATA                    DESCRIPTION OF MNEMONIC
#---------    -------------------            -------------------------------
# Generated from Intellog Unique Number	CW_82_90/WELL/927
WELL.         10-26-082-22W4                 : Well_name    - WELL
LOC .         AA/10-26-082-22W4/0            : Location     - LOCATION
UWI .         AA/10-26-082-22W4/0            : Uwi          - UNIQUE WELL ID
ENTR.         JAYE                           : Entered      - ENTERED BY
SRVC.         SCHLUMBERGER                   : Scn          - SERVICE COMPANY
DATE.         18 JAN 82                      : Date         - LOG DATE
STRT.M        225                            : top_depth    - START DEPTH
STOP.M        430                            : bot_depth    - STOP DEPTH
STEP.M        0.25                           : increment    - STEP LENGTH
 NULL. -999.2500:NULL Value
~CURVE INFORMATION BLOCK
#MNEM UNIT       ERCB CURVE CODE    CURVE DESCRIPTION
#-----------   ------------------   ----------------------------------
DEPT.M        00 001 00 00         : DEPTH        - DEPTH
CALI.MM       00 280 01 00         : CAL          - CALIPER
GR  .API      00 310 00 00         : GR           - GAMMA RAY
DPHI.V/V      00 890 00 00         : PHID         - DENSITY POROSITY (SANDSTONE)
NPHI.V/V      00 330 00 00         : PHIN         - NEUTRON POROSITY (SANDSTONE)
ILD .OHMM     00 120 00 00         : RESD         - DEEP RESISTIVITY (DIL)
~PARAMETER INFORMATION
#MNEM.UNIT           DATA             DESCRIPTION OF MNEMONIC
#---------         -----------     ------------------------------
GL  .M        626.3                : gl           - GROUND LEVEL ELEVATION
EREF.M        630.7                : kb           - ELEVATION OF DEPTH REFERENCE
DATM.M        626.3                : datum        - DATUM ELEVATION
TDD .M        436                  : tdd          - TOTAL DEPTH DRILLER
RUN .         ONE                  : Run          - RUN NUMBER
ENG .         GARTH                : Engineer     - RECORDING ENGINEER
WIT .         WALKER               : Witness      - WITNESSED BY
BASE.         EDMONTON             : Branch       - HOME BASE OF LOGGING UNIT
MUD .         GEL CHEM             : Mud_type     - MUD TYPE
MATR.         SANDSTONE            : Logunit      - NEUTRON MATRIX
TMAX.C        23.8                 : BHT          - MAXIMUM RECORDED TEMPERATURE
BHTD.M        436                  : BHTDEP       - MAXIMUM RECORDED TEMPERATURE
RMT .C        23.8                 : MDTP         - TEMPERATURE OF MUD
MUDD.KG/M     0                    : MWT          - MUD DENSITY
NEUT.         1                    : NEUTRON      - NEUTRON TYPE
RESI.         0                    : RESIST       - RESISTIVITY TYPE
RM  .OHMM     3.14                 : RM           - RESISTIVITY OF MUD
RMC .OHMM     0.25                 : RMC          - RESISTIVITY OF MUD CAKE
RMF .OHMM     1.628                : RMF          - RESISTIVITY OF MUD FILTRATE
SUFT.C        4                    : SUFT         - SURFACE TEMPERATURE
~A  DEPTH      CAL       GR     PHID     PHIN     RESD
# ...
  371.000  241.919   87.881    0.236    0.454   10.052
  371.250  241.919   86.316    0.243    0.438    9.911
  371.500  243.229   84.004    0.237    0.444   10.687
  371.750  243.219   82.502    0.220    0.453   11.569
  372.000  243.927   81.560    0.206    0.454   12.266
  372.250  244.325   84.287    0.181    0.438   12.486
  372.500  244.311   88.384    0.179    0.447   12.104
  372.750  242.737   88.436    0.200    0.448   11.669
  373.000  241.374   88.738    0.207    0.459   11.503
  373.250  242.397   92.270    0.203    0.470   11.556
  373.500  246.418   91.767    0.210    0.477   11.586
  373.750  246.304   89.144    0.228    0.452   12.515
  374.000  245.561   87.331    0.225    0.430   12.735
  374.250  245.129   87.757    0.212    0.431   12.607
  374.500  244.493   90.359    0.206    0.449   12.128
  374.750  244.166   94.020    0.210    0.448   12.003
  375.000  244.669   98.490    0.216    0.447   12.193
  375.250  244.446   98.916    0.223    0.449   12.572
  375.500  243.496   95.796    0.226    0.438   13.011
  375.750  243.583   92.054    0.214    0.437   13.193
  376.000  244.810   91.173    0.198    0.445   13.005
  376.250  245.934   96.514    0.192    0.474   12.774
  376.500  246.438   99.242    0.209    0.494   12.595
  376.750  246.629   96.991    0.217    0.490   13.107
  377.000  247.025   94.929    0.210    0.466   13.592
  377.250  247.218   94.732    0.199    0.456   14.147
  377.500  247.205   96.900    0.192    0.460   14.424
  377.750  247.601   98.260    0.187    0.480   13.925
  378.000  248.210   98.499    0.180    0.488   13.681
  378.250  248.087   97.557    0.198    0.488   13.412
  378.500  247.138   96.737    0.198    0.489   13.175
  378.750  245.983   95.981    0.205    0.480   13.061
  379.000  244.930   95.600    0.202    0.477   13.218
  379.250  243.770   92.043    0.194    0.484   13.454
  379.500  242.821   90.043    0.183    0.500   13.792
  379.750  241.976   95.571    0.187    0.486   13.804
  380.000  242.790  100.413    0.202    0.456   13.660
  380.250  245.991  100.590    0.216    0.448   13.240
  380.500  248.567   98.153    0.216    0.452   13.152
  380.750  249.587   96.838    0.198    0.450   13.115
  381.000  249.986   99.379    0.179    0.435   12.904
  381.250  250.593  105.031    0.126    0.430   12.581
  381.500  250.991  101.413    0.153    0.441   12.016
  381.750  251.079   96.364    0.193    0.440   11.934
  382.000  251.064   92.746    0.178    0.471   12.284
  382.250  250.942   95.536    0.168    0.477   12.688
  382.500  250.717   96.335    0.170    0.479   12.814
  382.750  250.702   97.010    0.182    0.491   12.732
  383.000  250.686   97.746    0.180    0.467   12.812
  383.250  250.359   97.489    0.178    0.447   12.796
  383.500  250.343  100.714    0.183    0.431   12.684
  383.750  250.639  105.368    0.181    0.429   12.648
  384.000  250.830  104.801    0.172    0.442   12.587
  384.250  250.918  101.929    0.173    0.460   12.502
  384.500  250.488  101.546    0.158    0.475   12.397
  384.750  249.742  103.652    0.153    0.475   11.884
  385.000  249.419  104.078    0.160    0.469   11.585
  385.250  249.404   99.278    0.174    0.453   11.442
  385.500  248.658   99.517    0.112    0.433   11.215
  385.750  248.231  103.987    0.104    0.427    9.365
  386.000  248.214  109.141    0.201    0.463    9.603
  386.250  248.613  108.198    0.208    0.462   10.336
  386.500  250.360  109.681    0.206    0.434   10.019
  386.750  249.306  104.446    0.194    0.427    9.445
  387.000  246.283  106.800    0.189    0.428    9.380
  387.250  246.993  106.541    0.191    0.432   10.154
  387.500  244.696   96.080    0.193    0.433   11.348
  387.750  243.124   81.638    0.187    0.428   17.099
  388.000  242.798   76.714    0.165    0.378   23.821
  388.250  243.299   82.800    0.088    0.325   29.222
  388.500  243.699   90.940    0.084    0.329   29.081
  388.750  244.615   91.055    0.235    0.366   29.157
  389.000  245.429   83.393    0.217    0.366   33.371
  389.250  246.866   76.603    0.195    0.356   36.060
  389.500  248.715   74.602    0.155    0.337   36.424
  389.750  250.462   75.091    0.085    0.316   38.125
  390.000  247.024   75.579    0.125    0.316   40.584
  390.250  244.623   74.200    0.120    0.323   37.195
  390.500  245.021   71.764    0.146    0.316   32.902
  390.750  246.458   71.817    0.150    0.348   31.251
  391.000  246.752   70.003    0.145    0.401   30.353
  391.250  246.217   68.874    0.143    0.366   30.775
  391.500  245.061   71.664    0.124    0.351   30.285
  391.750  244.527   73.645    0.121    0.343   29.356
  392.000  244.407   71.458    0.125    0.344   27.934
  392.250  245.220   71.199    0.133    0.357   25.939
  392.500  246.033   72.621    0.133    0.378   23.776
  392.750  246.537   73.669    0.131    0.395   22.879
  393.000  246.520   73.160    0.120    0.368   22.596
  393.250  245.883   73.214    0.122    0.357   22.274
  393.500  244.829   75.008    0.162    0.403   18.459
  393.750  244.192   80.536    0.206    0.397   17.331
  394.000  243.966   84.943    0.229    0.397   16.650
  394.250  244.262   81.450    0.240    0.420   15.576
  394.500  244.763   77.396    0.242    0.442   14.766
  394.750  244.333   69.735    0.215    0.459   13.970
  395.000  245.044   64.063    0.188    0.444   14.061
  395.250  245.650   59.637    0.117    0.404   18.588
  395.500  246.462   57.699    0.083    0.307   26.186
  395.750  247.276   62.355    0.075    0.290   28.773
  396.000  247.985   73.668    0.075    0.286   29.388
  396.250  247.245   75.525    0.133    0.298   28.178
  396.500  245.259   72.341    0.156    0.326   24.101
  396.750  244.929   74.198    0.162    0.359   22.340
  397.000  245.225   74.251    0.165    0.385   21.495
  397.250  245.210   75.051    0.158    0.398   20.798
  397.500  244.883   76.534    0.144    0.425   20.505
  397.750  244.867   79.634    0.143    0.422   20.292
  398.000  244.643   82.113    0.136    0.420   19.673
  398.250  244.107   85.277    0.165    0.449   18.472
  398.500  244.094   89.186    0.210    0.459   16.932
  398.750  243.766   89.052    0.215    0.459   16.505
  399.000  243.752   85.434    0.207    0.448   16.700
  399.250  243.836   82.750    0.198    0.436   16.873
  399.500  243.926   81.558    0.185    0.444   17.140
  399.750  243.599   88.329    0.175    0.435   17.220
  400.000  243.890   90.000    0.192    0.426   16.383
  400.250  244.394   89.181    0.189    0.450   15.073
  400.500  244.378   90.603    0.122    0.434   15.835
  400.750  244.676   92.646    0.145    0.416   16.509
  401.000  244.655   93.073    0.174    0.427   15.975
  401.250  244.643   89.454    0.185    0.442   14.024
  401.500  244.936   88.883    0.156    0.438   14.572
  401.750  245.128   91.737    0.140    0.428   15.364
  402.000  245.322   97.761    0.162    0.429   15.437
  402.250  246.342  100.738    0.168    0.433   15.419
  402.500  248.607  103.404    0.152    0.425   15.396
  402.750  249.937  106.816    0.159    0.417   15.267
  403.000  250.130  110.103    0.161    0.412   14.664
  403.250  250.423  110.840    0.152    0.425   14.269
  403.500  250.824  109.711    0.143    0.431   14.145
  403.750  250.494  109.141    0.163    0.435   13.867
  404.000  249.961  112.056    0.184    0.456   13.171
  404.250  249.532  114.286    0.183    0.455   12.529
  404.500  248.683  108.862    0.194    0.452   12.196
  404.750  248.149  104.312    0.176    0.456   11.755
  405.000  247.822  111.955    0.155    0.448   12.099
  405.250  248.224  117.483    0.104    0.437   12.453
  405.500  249.140  121.516    0.142    0.429   12.047
  405.750  251.406  117.525    0.170    0.422   11.401
  406.000  254.189  114.467    0.192    0.413    9.185
  406.250  255.831  111.658    0.191    0.406    8.889
  406.500  257.163  110.216    0.196    0.415    9.967
  406.750  257.043  112.136    0.196    0.436   10.052
  407.000  255.782  116.357    0.186    0.451   10.130
  407.250  254.212  116.783    0.174    0.447    9.861
