~VERSION INFORMATION
 VERS.                 2.0:   CWLS LOG ASCII STANDARD -VERSION 2.0
 WRAP.                  NO:   ONE LINE PER DEPTH STEP
~WELL INFORMATION BLOCK
#MNEM.UNIT           DATA                    DESCRIPTION OF MNEMONIC
#---------    -------------------            -------------------------------
# Generated from Intellog Unique Number	CN_91_93/WELL/3602
WELL.         AOSTRA AO-26                   : Well_name    - WELL
LOC .         AA/16-12-093-13W4/0            : Location     - LOCATION
UWI .         AA/16-12-093-13W400            : Uwi          - UNIQUE WELL ID
ENTR.         JHS                            : Entered      - ENTERED BY
SRVC.         SCHLUMBERGER                   : Scn          - SERVICE COMPANY
STRT.M        15                             : top_depth    - START DEPTH
STOP.M        164.75                         : bot_depth    - STOP DEPTH
STEP.M        0.25                           : increment    - STEP LENGTH
 NULL. -999.2500:NULL Value
~CURVE INFORMATION BLOCK
#MNEM UNIT       ERCB CURVE CODE    CURVE DESCRIPTION
#-----------   ------------------   ----------------------------------
DEPT.M        00 001 00 00         : DEPTH        - DEPTH
NPHI.V/V      00 330 00 00         : PHIN         - NEUTRON POROSITY (SANDSTONE)
DPHI.V/V      00 890 00 00         : PHID         - DENSITY POROSITY (SANDSTONE)
GR  .API      00 310 00 00         : GR           - GAMMA RAY
CALI.MM       00 280 01 00         : CAL          - CALIPER
ILD .OHMM     00 120 00 00         : RESD         - DEEP RESISTIVITY (DIL)
~PARAMETER INFORMATION
#MNEM.UNIT           DATA             DESCRIPTION OF MNEMONIC
#---------         -----------     ------------------------------
GL  .M        430.5                : gl           - GROUND LEVEL ELEVATION
EREF.M        430.5                : kb           - ELEVATION OF DEPTH REFERENCE
DATM.M        430.5                : datum        - DATUM ELEVATION
TDD .M        167                  : tdd          - TOTAL DEPTH DRILLER
RUN .         ONE                  : Run          - RUN NUMBER
ENG .         BILL                 : Engineer     - RECORDING ENGINEER
WIT .         JIM                  : Witness      - WITNESSED BY
MUD .         GEL                  : Mud_type     - MUD TYPE
MATR.         SANDSTONE            : Logunit      - NEUTRON MATRIX
TMAX.C        8.1                  : BHT          - MAXIMUM RECORDED TEMPERATURE
BHTD.M        167                  : BHTDEP       - MAXIMUM RECORDED TEMPERATURE
MATR.         1                    : LOGUNIT      - NEUTRON MATRIX
RMT .C        15                   : MDTP         - TEMPERATURE OF MUD
NEUT.         1                    : NEUTRON      - NEUTRON TYPE
RESI.         0                    : RESIST       - RESISTIVITY TYPE
RMC .OHMM     12.5                 : RMC          - RESISTIVITY OF MUD CAKE
RMF .OHMM     12.5                 : RMF          - RESISTIVITY OF MUD FILTRATE
SUFT.C        15                   : SUFT         - SURFACE TEMPERATURE
~A  DEPTH     PHIN     PHID       GR      CAL     RESD
# ...
   51.500    0.621    0.314  100.469  146.026   11.363
   51.750    0.693    0.285  106.470  146.039   11.150
   52.000    0.662    0.290  108.277  147.856   11.365
   52.250    0.652    0.304  136.465  144.856   11.366
   52.500    0.636    0.264  138.871  148.481   11.153
   52.750    0.600    0.262  134.682  144.279   11.368
   53.000    0.546    0.246  132.893  146.094   11.809
   53.250    0.505    0.286  142.492  149.719   11.810
   53.500    0.456    0.306  136.504  150.931   11.371
   53.750    0.493    0.278  135.313  150.340   11.372
   54.000    0.577    0.278  137.119  149.750   11.591
   54.250    0.604    0.281  131.731  152.771   11.814
   54.500    0.603    0.265  121.546  150.977   12.042
   54.750    0.567    0.276  122.154  147.376   12.274
   55.000    0.544    0.252  117.964  150.999   12.510
   55.250    0.593    0.217  113.775  159.438   11.378
   55.500    0.645    0.207  126.976  157.042    9.963
   55.750    0.617    0.251  125.784  158.255    9.235
   56.000    0.689    0.310  134.786  144.421    9.594
   56.250    0.672    0.336  113.809  148.045   11.382
   56.500    0.607    0.307   83.236  151.670   12.757
   56.750    0.594    0.302   85.045  149.873   12.758
   57.000    0.617    0.292   75.459  146.273   17.288
   57.250    0.594    0.281   70.668  143.877   22.987
   57.500    0.564    0.329   71.876  146.298   26.761
   57.750    0.550    0.357   89.273  144.499   25.282
   58.000    0.577    0.341   91.679  139.695   22.562
   58.250    0.638    0.308   90.488  146.328   20.134
   58.500    0.641    0.315   88.697  145.136   16.654
   58.750    0.667    0.306  104.893  146.351   13.516
   59.000    0.708    0.332  105.501  142.753   12.528
   59.250    0.693    0.287   97.714  140.958   20.921
   59.500    0.602    0.296   78.536  145.783   23.897
   59.750    0.670    0.278   75.546  145.191   28.896
   60.000    0.649    0.192   80.350  141.590   34.284
   60.250    0.508    0.158   80.360  141.602   23.454
   60.500    0.495    0.231   91.758  146.429   15.743
   60.750    0.549    0.280  112.751  147.648   14.593
   61.000    0.614    0.296  116.356  147.658   15.746
   61.250    0.583    0.268  115.165  146.463   16.049
   61.500    0.565    0.257  103.781  144.669   15.453
   61.750    0.573    0.278   95.394  146.486   15.163
   62.000    0.541    0.291   93.004  148.305   14.326
   62.250    0.534    0.283  101.406  147.109   14.057
   62.500    0.555    0.273  100.814  145.918   14.058
   62.750    0.599    0.271  100.222  144.124   14.060
   63.000    0.573    0.283  107.425  144.135   14.605
   63.250    0.557    0.289   94.842  142.943   15.759
   63.500    0.602    0.283   91.254  142.952   17.330
   63.750    0.643    0.220   82.866  146.576   21.357
   64.000    0.615    0.251   72.681  143.575   19.059
   64.250    0.614    0.310   87.678  144.791   16.375
   64.500    0.661    0.276  102.678  140.590   13.804
   64.750    0.674    0.264   96.090  140.600   13.545
   65.000    0.604    0.299   78.109  144.827   16.693
   65.250    0.566    0.302   82.314  140.622   17.015
   65.500    0.605    0.325   94.915  144.248   17.342
   65.750    0.636    0.285   92.524  146.667   16.698
   66.000    0.613    0.271   87.136  141.257   13.811
   66.250    0.687    0.316   85.345  146.084   19.441
   66.500    0.582    0.298   80.556  147.299   18.718
   66.750    0.567    0.305   71.570  145.505   18.367
   67.000    0.582    0.310   84.769  149.128   19.819
   67.250    0.551    0.244   77.582  151.547   22.212
   67.500    0.510    0.213   73.393  152.161   26.354
   67.750    0.482    0.246   94.386  150.970   23.970
   68.000    0.552    0.285  114.779  152.184   20.206
   68.250    0.587    0.278  124.380  152.797   16.399
   68.500    0.627    0.267  132.182  149.195   12.336
   68.750    0.662    0.273  109.406  146.196   11.219
   69.000    0.706    0.281   98.622  148.015   13.566
   69.250    0.725    0.317   99.829  147.423   15.793
   69.500    0.634    0.324   96.839  150.444   15.795
   69.750    0.622    0.329   91.451  145.640   15.499
   70.000    0.660    0.335   95.657  152.273   17.704
   70.250    0.692    0.345   87.869  155.292   19.469
   70.500    0.620    0.335   97.470  153.500   14.370
   70.750    0.609    0.304   96.279  150.501   12.583
   71.000    0.607    0.294   84.896  151.113   14.929
   71.250    0.620    0.302  101.690  148.116   14.374
   71.500    0.555    0.315  110.092  149.332   12.586
   71.750    0.552    0.331  104.104  147.535   13.074
   72.000    0.542    0.336  107.110  148.751   13.075
   72.250    0.570    0.328   98.124  144.548   13.583
   72.500    0.538    0.325   98.732  144.558   15.515
   72.750    0.576    0.312   99.339  152.997   15.814
   73.000    0.623    0.238  100.548  151.804   13.586
   73.250    0.620    0.235  106.554  151.214   11.238
   73.500    0.651    0.253  109.558  155.441   13.849
   73.750    0.587    0.227  100.572  160.266   24.482
   74.000    0.525    0.191   92.785  159.074   21.437
   74.250    0.440    0.151  100.587  159.087   18.071
   74.500    0.522    0.239   93.400  153.677   16.127
   74.750    0.551    0.310  111.396  151.280   15.528
   75.000    0.566    0.298  116.800  158.517   13.597
   75.250    0.575    0.292  107.814  159.131   11.462
   75.500    0.535    0.311  110.821  152.520    9.662
   75.750    0.500    0.327  110.230  154.338    9.303
   76.000    0.469    0.337  109.636  160.969    9.482
   76.250    0.446    0.321  115.640  163.388   10.039
   76.500    0.552    0.290  122.842  169.419   10.628
   76.750    0.595    0.283  109.660  162.807   12.373
   77.000    0.662    0.288   94.079  147.167   14.680
   77.250    0.609    0.280   98.283  151.394   14.963
   77.500    0.648    0.239  108.484  154.414   13.609
   77.750    0.622    0.249  121.683  158.041   13.354
   78.000    0.594    0.262  118.095  154.437   13.355
   78.250    0.630    0.257  118.101  153.244   14.411
   78.500    0.653    0.216  118.109  152.652   15.256
   78.750    0.695    0.183  105.527  155.071   18.101
   79.000    0.596    0.165  111.529  159.898   22.308
   79.250    0.526    0.185  110.338  161.115   18.805
   79.500    0.557    0.217  110.346  156.911   16.782
   79.750    0.561    0.251  113.351  150.903   16.158
   80.000    0.557    0.260  135.545  144.293   17.770
   80.250    0.556    0.246  138.551  147.314   18.459
   80.500    0.522    0.256  119.373  149.131   17.772
   80.750    0.540    0.259  105.588  156.364   18.115
   81.000    0.589    0.269   97.202  152.764   19.178
   81.250    0.635    0.271  109.803  150.367   21.090
   81.500    0.605    0.267   95.421  145.563   23.192
   81.750    0.540    0.271  108.022  141.965   23.640
   82.000    0.522    0.295   97.235  142.578   21.912
   82.250    0.523    0.295  103.239  141.985   20.311
   82.500    0.558    0.283   90.056  147.417   19.556
   82.750    0.562    0.280   95.460  155.250   17.787
   83.000    0.551    0.290  109.258  175.126   17.126
   83.250    0.572    0.301  112.264  199.217   21.510
   83.500    0.574    0.311  108.075  172.141   22.345
   83.750    0.585    0.329  116.477  165.529   25.044
   84.000    0.611    0.298   99.097  155.909   30.863
   84.250    0.321    0.166   75.122  145.687   59.991
   84.500    0.211    0.091   74.530  143.892  108.081
   84.750    0.272    0.061   87.728  151.127  108.091
   85.000    0.314    0.221   93.732  145.721   38.045
   85.250    0.410    0.214   99.736  154.760   25.057
   85.500    0.487    0.224   93.148  167.413   21.123
   85.750    0.511    0.263   85.963  155.385   21.530
   86.000    0.539    0.257   91.965  145.765   21.944
   86.250    0.572    0.253  101.568  145.178   20.341
   86.500    0.558    0.253   91.381  145.188   23.235
   86.750    0.598    0.260   99.783  144.597   24.136
   87.000    0.630    0.276   96.793  144.608   21.134
   87.250    0.591    0.278   89.606  145.218   19.966
   87.500    0.576    0.268   96.808  145.833   19.593
   87.750    0.558    0.258   96.816  148.856   16.206
