~VERSION INFORMATION
 VERS.                 2.0:   CWLS LOG ASCII STANDARD -VERSION 2.0
 WRAP.                  NO:   ONE LINE PER DEPTH STEP
~WELL INFORMATION BLOCK
#MNEM.UNIT           DATA                    DESCRIPTION OF MNEMONIC
#---------    -------------------            -------------------------------
# Generated from Intellog Unique Number	CN_91_93/WELL/2773
WELL.         14-17-093-10W4                 : Well_name    - WELL
LOC .         AA/14-17-093-10W4/0            : Location     - LOCATION
UWI .         AA/14-17-093-10W400            : Uwi          - UNIQUE WELL ID
ENTR.         JO                             : Entered      - ENTERED BY
SRVC.         SCHLUMBERGER                   : Scn          - SERVICE COMPANY
DATE.         03/23/92                       : Date         - LOG DATE
STRT.M        0                              : top_depth    - START DEPTH
STOP.M        71                             : bot_depth    - STOP DEPTH
STEP.M        0.25                           : increment    - STEP LENGTH
 NULL. -999.2500:NULL Value
~CURVE INFORMATION BLOCK
#MNEM UNIT       ERCB CURVE CODE    CURVE DESCRIPTION
#-----------   ------------------   ----------------------------------
DEPT.M        00 001 00 00         : DEPTH        - DEPTH
GR  .API      00 310 00 00         : GR           - GAMMA RAY
NPHI.V/V      00 330 00 00         : PHIN         - NEUTRON POROSITY (SANDSTONE)
DPHI.V/V      00 890 00 00         : PHID         - DENSITY POROSITY (SANDSTONE)
ILD .OHMM     00 120 00 00         : RESD         - DEEP RESISTIVITY (DIL)
~PARAMETER INFORMATION
#MNEM.UNIT           DATA             DESCRIPTION OF MNEMONIC
#---------         -----------     ------------------------------
GL  .M        314.7                : gl           - GROUND LEVEL ELEVATION
EREF.M        314.7                : kb           - ELEVATION OF DEPTH REFERENCE
DATM.M        314.7                : datum        - DATUM ELEVATION
TDD .M        73.8                 : tdd          - TOTAL DEPTH DRILLER
RUN .         ONE                  : Run          - RUN NUMBER
ENG .         BILL                 : Engineer     - RECORDING ENGINEER
WIT .         JIM                  : Witness      - WITNESSED BY
MUD .         GEL                  : Mud_type     - MUD TYPE
MATR.         SANDSTONE            : Logunit      - NEUTRON MATRIX
TMAX.C        5                    : BHT          - MAXIMUM RECORDED TEMPERATURE
BHTD.M        73.8                 : BHTDEP       - MAXIMUM RECORDED TEMPERATURE
RMT .C        11                   : MDTP         - TEMPERATURE OF MUD
MUDD.KG/M     1020                 : MWT          - MUD DENSITY
NEUT.         1                    : NEUTRON      - NEUTRON TYPE
RESI.         0                    : RESIST       - RESISTIVITY TYPE
RM  .OHMM     19                   : RM           - RESISTIVITY OF MUD
RMC .OHMM     19                   : RMC          - RESISTIVITY OF MUD CAKE
RMF .OHMM     19                   : RMF          - RESISTIVITY OF MUD FILTRATE
SUFT.C        4                    : SUFT         - SURFACE TEMPERATURE
~A  DEPTH       GR     PHIN     PHID     RESD
    0.000   45.112    0.214    0.092    0.000
    0.250   39.372    0.220    0.097    0.000
    0.500   26.110    0.229    0.103    0.000
    0.750   25.482    0.223    0.106    0.000
    1.000   36.585    0.217    0.100    0.000
    1.250   37.157    0.217    0.093    0.000
    1.500   30.815    0.221    0.093    0.000
    1.750   34.097    0.224    0.096    0.000
    2.000   37.679    0.221    0.093    0.000
    2.250   31.935    0.208    0.089    0.000
    2.500   27.698    0.195    0.094    0.000
    2.750   25.269    0.198    0.107    0.000
    3.000   21.631    0.214    0.135    0.000
    3.250   25.216    0.221    0.127    0.000
    3.500   23.085    0.233    0.127    0.000
    3.750   32.681    0.237    0.140    0.000
    4.000   32.952    0.249    0.143    0.000
    4.250   37.740    0.229    0.152    0.000
    4.500   31.699    0.258    0.149    0.000
    4.750   41.597    0.234    0.129    0.000
    5.000   33.751    0.248    0.154    0.000
    5.250   24.700    0.239    0.136    0.000
    5.500   32.191    0.216    0.125    0.000
    5.750   41.190    0.239    0.148    0.000
    6.000   40.261    0.227    0.130    0.000
    6.250   42.340    0.236    0.144    0.000
    6.500   34.190    0.231    0.132    0.000
    6.750   37.171    0.249    0.107    0.000
    7.000   44.666    0.214    0.117    0.000
    7.250   46.443    0.189    0.150    0.000
    7.500   49.123    0.326    0.147    0.000
    7.750   46.988    0.457    0.105    0.000
    8.000   47.864    0.467    0.110    0.000
    8.250   52.652    0.420    0.111    0.000
    8.500   45.104    0.410    0.116    0.000
    8.750   36.658    0.448    0.084    0.000
    9.000   52.269    0.511    0.121    0.000
    9.250   57.655    0.455    0.130    0.000
    9.500   59.430    0.460    0.105    0.000
    9.750   49.783    0.466    0.066    0.000
   10.000   51.561    0.402    0.063 4027.230
   10.250   62.661    0.153    0.106 4173.940
   10.500   64.436    0.147    0.226 3366.640
   10.750   70.731    0.147    0.272 1208.750
   11.000   57.469    0.148    0.280  589.834
   11.250   49.925    0.153    0.281 1088.340
   11.500   41.474    0.219    0.284 1606.510
   11.750   29.720    0.464    0.320 2201.060
   12.000   38.715    0.400    0.311  482.789
   12.250   32.674    0.464    0.297  176.593
   12.500   28.136    0.523    0.293  434.695
   12.750   32.317    0.470    0.333  717.401
   13.000   42.819    0.515    0.373   80.540
   13.250   45.198    0.487    0.373  108.315
   13.500   39.458    0.517    0.344   84.948
   13.750   25.594    0.529    0.309  116.387
   14.000   40.607    0.492    0.295  107.909
   14.250   45.693    0.472    0.281   77.824
   14.500   48.072    0.419    0.260   70.170
   14.750   43.234    0.464    0.231   58.715
   15.000   41.704    0.416    0.222   56.510
   15.250   48.594    0.433    0.225   55.399
   15.500   56.988    0.405    0.216   57.409
   15.750   52.447    0.380    0.218   56.289
   16.000   42.797    0.431    0.223   40.227
   16.250   43.974    0.474    0.235   34.302
   16.500   41.541    0.459    0.232   42.022
   16.750   49.935    0.425    0.237   43.967
   17.000   49.304    0.461    0.242   45.168
   17.250   56.802    0.442    0.251   48.138
   17.500   59.482    0.415    0.227   54.770
   17.750   76.897    0.371    0.210   49.384
   18.000   77.168    0.405    0.171   29.848
   18.250   91.583    0.531    0.208   37.612
   18.500  107.191    0.467    0.251   43.590
   18.750  108.671    0.508    0.262   35.154
   19.000  105.333    0.519    0.239   33.205
   19.250   77.339    0.458    0.229   29.662
   19.500   75.208    0.569    0.261   71.007
   19.750   86.609    0.485    0.285   46.663
   20.000   87.484    0.489    0.292   38.697
   20.250   86.856    0.469    0.256   22.326
   20.500   69.084    0.606    0.287   28.134
   20.750   72.967    0.417    0.295   64.278
   21.000   80.161    0.447    0.286   93.149
   21.250   80.736    0.472    0.315  111.009
   21.500   80.405    0.446    0.300   92.916
   21.750   73.462    0.484    0.285   57.214
   22.000   61.102    0.443    0.290  140.836
   22.250   66.191    0.491    0.299   70.679
   22.500   53.230    0.426    0.294  121.065
   22.750   55.910    0.431    0.310  234.015
   23.000   51.974    0.460    0.332  256.495
   23.250   61.571    0.480    0.322  183.274
   23.500   48.907    0.460    0.301   99.079
   23.750   55.503    0.447    0.316  204.394
   24.000   33.521    0.457    0.288  148.787
   24.250   29.585    0.447    0.307  182.330
   24.500   33.468    0.445    0.311  254.537
   24.750   40.655    0.416    0.303  242.671
   25.000   47.849    0.423    0.315  302.960
   25.250   51.134    0.473    0.304  101.920
   25.500   55.919    0.437    0.284   79.933
   25.750   54.689    0.473    0.276   63.856
   26.000   72.706    0.407    0.252   42.356
   26.250  111.780    0.394    0.221   33.219
   26.500  100.022    0.496    0.194   23.958
   26.750   75.634    0.473    0.186   20.053
   27.000   89.444    0.417   -0.026   27.731
   27.250  112.874    0.456    0.018   73.545
   27.500  116.757    0.460    0.189   19.067
   27.750  108.911    0.407    0.211   18.010
   28.000  116.102    0.501    0.172   17.988
   28.250  112.764    0.461    0.199   20.086
   28.500  110.636    0.518    0.203   20.061
   28.750   91.660    0.474    0.230   18.257
   29.000  108.177    0.450    0.214   19.460
   29.250  121.082    0.473    0.212   18.378
   29.500  100.903    0.469    0.208   17.848
   29.750   95.464    0.565    0.230   18.851
   30.000   91.227    0.466    0.213   23.320
   30.250   96.313    0.520    0.205   17.456
   30.500   91.775    0.498    0.215   18.264
   30.750   81.521    0.517    0.212   17.739
   31.000   84.802    0.378    0.232   31.536
   31.250  101.319    0.544    0.231   35.876
   31.500  109.412    0.483    0.218   40.434
   31.750  104.574    0.511    0.233   20.673
   32.000  101.533    0.468    0.231   18.984
   32.250   87.977    0.503    0.197   25.538
   32.500   91.559    0.468    0.200   23.678
   32.750   89.428    0.525    0.241   30.397
   33.000   80.380    0.496    0.278   36.563
   33.250   86.668    0.468    0.248   33.581
   33.500  107.094    0.432    0.218   31.425
   33.750   96.238    0.442    0.241   35.755
   34.000   87.785    0.445    0.220   32.833
   34.250   84.457    0.408    0.225   33.104
   34.500   60.670    0.459    0.242   39.825
   34.750   62.144    0.499    0.280   38.681
   35.000   53.396    0.500    0.306  202.238
   35.250   60.286    0.427    0.290  131.695
   35.500   70.487    0.483    0.282   55.380
   35.750   85.798    0.455    0.255   34.741
   36.000   83.967    0.482    0.246   40.639
   36.250   88.451    0.413    0.256   56.208
   36.500   97.750    0.439    0.263   53.580
   36.750   97.119    0.409    0.272   71.401
   37.000   89.274    0.434    0.275   85.091
   37.250   75.110    0.456    0.281   53.379
   37.500   83.507    0.463    0.276  276.540
   37.750   93.705    0.372    0.250   79.418
   38.000  104.808    0.407    0.265   52.687
   38.250   76.207    0.419    0.268   94.541
   38.500   68.662    0.485    0.282  489.788
   38.750   85.178    0.471    0.273   65.612
   39.000   77.931    0.472    0.265   85.003
   39.250   64.673    0.437    0.265   49.972
   39.500   86.900    0.379    0.272   87.189
   39.750   84.768    0.473    0.259   67.120
   40.000   76.021    0.463    0.283   64.579
   40.250   72.679    0.415    0.298   59.330
   40.500   66.044    0.450    0.281  134.321
   40.750   54.285    0.479    0.298  376.664
   41.000   66.585    0.427    0.283  289.966
   41.250   56.638    0.421    0.277  142.817
   41.500   70.141    0.474    0.287  109.944
   41.750   74.933    0.409    0.279   93.737
   42.000   60.769    0.412    0.277  126.063
   42.250   71.568    0.479    0.290  171.145
   42.500   79.364    0.400    0.309  232.350
   42.750   73.019    0.505    0.278  129.143
   43.000   67.880    0.429    0.252  194.208
   43.250   55.517    0.462    0.229   83.978
