~VERSION INFORMATION
 VERS.                 2.0:   CWLS LOG ASCII STANDARD -VERSION 2.0
 WRAP.                  NO:   ONE LINE PER DEPTH STEP
~WELL INFORMATION BLOCK
#MNEM.UNIT           DATA                    DESCRIPTION OF MNEMONIC
#---------    -------------------            -------------------------------
# Generated from Intellog Unique Number	CC_88_90/WELL/2304
WELL.         11-14-090-09W4                 : Well_name    - WELL
LOC .         AA/11-14-090-09W4/0            : Location     - LOCATION
UWI .         AA/11-14-090-09W400            : Uwi          - UNIQUE WELL ID
ENTR.         DW                             : Entered      - ENTERED BY
SRVC.         SCHLUMBERGER                   : Scn          - SERVICE COMPANY
STRT.M        15.24                          : top_depth    - START DEPTH
STOP.M        133.74                         : bot_depth    - STOP DEPTH
STEP.M        0.25                           : increment    - STEP LENGTH
 NULL. -999.2500:NULL Value
~CURVE INFORMATION BLOCK
#MNEM UNIT       ERCB CURVE CODE    CURVE DESCRIPTION
#-----------   ------------------   ----------------------------------
DEPT.M        00 001 00 00         : DEPTH        - DEPTH
GR  .API      00 310 00 00         : GR           - GAMMA RAY
DPHI.V/V      00 890 00 00         : PHID         - DENSITY POROSITY (SANDSTONE)
NPHI.V/V      00 330 00 00         : PHIN         - NEUTRON POROSITY (SANDSTONE)
ILD .OHMM     00 120 00 00         : RESD         - DEEP RESISTIVITY (DIL)
~PARAMETER INFORMATION
#MNEM.UNIT           DATA             DESCRIPTION OF MNEMONIC
#---------         -----------     ------------------------------
GL  .M        369.113              : gl           - GROUND LEVEL ELEVATION
EREF.M        370.332              : kb           - ELEVATION OF DEPTH REFERENCE
DATM.M        370.332              : datum        - DATUM ELEVATION
TDD .M        134.112              : tdd          - TOTAL DEPTH DRILLER
RUN .         ONE                  : Run          - RUN NUMBER
ENG .         BILL                 : Engineer     - RECORDING ENGINEER
WIT .         JIM                  : Witness      - WITNESSED BY
MUD .         GEL                  : Mud_type     - MUD TYPE
MATR.         SANDSTONE            : Logunit      - NEUTRON MATRIX
TMAX.C        23.8889              : BHT          - MAXIMUM RECORDED TEMPERATURE
BHTD.M        134.112              : BHTDEP       - MAXIMUM RECORDED TEMPERATURE
MATR.         1                    : LOGUNIT      - NEUTRON MATRIX
RMT .C        25                   : MDTP         - TEMPERATURE OF MUD
NEUT.         0                    : NEUTRON      - NEUTRON TYPE
RESI.         0                    : RESIST       - RESISTIVITY TYPE
RMC .OHMM     0.25                 : RMC          - RESISTIVITY OF MUD CAKE
RMF .OHMM     0.25                 : RMF          - RESISTIVITY OF MUD FILTRATE
SUFT.C        4                    : SUFT         - SURFACE TEMPERATURE
~A  DEPTH       GR     PHID     PHIN     RESD
# ...
  102.240   52.544    0.250    0.353   12.595
  102.490   52.557    0.239    0.341   13.185
  102.740   55.407    0.258    0.326   13.927
  102.990   59.484    0.248    0.340   13.698
  103.240   61.027    0.252    0.347   13.025
  103.490   59.002    0.261    0.325   12.737
  103.740   57.721    0.263    0.311   12.339
  103.990   58.053    0.253    0.309   11.873
  104.240   56.516    0.226    0.283   12.540
  104.490   55.456    0.209    0.271   13.871
  104.740   54.542    0.216    0.272   13.607
  104.990   54.889    0.227    0.278   12.943
  105.240   58.397    0.233    0.285   12.500
  105.490   62.185    0.237    0.299   11.702
  105.740   60.336    0.234    0.309   11.330
  105.990   56.842    0.246    0.293   11.647
  106.240   54.386    0.259    0.279   11.638
  106.490   53.620    0.274    0.276   10.912
  106.740   49.548    0.288    0.269   11.889
  106.990   38.958    0.292    0.266   12.483
  107.240   31.406    0.300    0.280   10.883
  107.490   29.753    0.329    0.303   48.962
  107.740   31.161    0.338    0.321  120.124
  107.990   34.492    0.322    0.335  162.484
  108.240   38.117    0.314    0.343  164.923
  108.490   38.581    0.312    0.343  163.467
  108.740   38.493    0.316    0.364   88.126
  108.990   36.251    0.319    0.361   45.655
  109.240   32.905    0.325    0.337  102.175
  109.490   30.800    0.328    0.331  151.991
  109.740   30.794    0.317    0.345  127.520
  109.990   32.259    0.313    0.342  166.751
  110.240   31.347    0.315    0.340  193.422
  110.490   30.026    0.326    0.345  221.926
  110.740   29.794    0.336    0.360  226.295
  110.990   29.755    0.337    0.368  162.139
  111.240   29.012    0.333    0.345  108.130
  111.490   27.193    0.328    0.338  184.185
  111.740   27.085    0.332    0.344  233.948
  111.990   29.568    0.327    0.364  194.003
  112.240   30.622    0.305    0.374  119.506
  112.490   27.758    0.293    0.359   99.606
  112.740   26.205    0.314    0.355  154.225
  112.990   28.804    0.318    0.343   84.906
  113.240   31.083    0.312    0.366   82.231
  113.490   32.965    0.323    0.380  101.007
  113.740   37.489    0.335    0.357   45.184
  113.990   43.900    0.315    0.354   34.657
  114.240   47.760    0.296    0.353   27.450
  114.490   44.062    0.297    0.353   19.326
  114.740   36.956    0.312    0.354   46.709
  114.990   33.246    0.320    0.358   78.123
  115.240   34.378    0.317    0.359   66.128
  115.490   37.322    0.321    0.358   46.950
  115.740   41.632    0.315    0.365   37.674
  115.990   45.242    0.295    0.371   33.345
  116.240   49.842    0.269    0.359   26.253
  116.490   55.977    0.254    0.331   18.784
  116.740   59.918    0.262    0.321   16.524
  116.990   60.089    0.267    0.341   14.741
  117.240   58.932    0.271    0.342   14.075
  117.490   57.016    0.284    0.338   12.415
  117.740   55.282    0.303    0.344   26.639
  117.990   51.055    0.312    0.351   52.696
  118.240   42.614    0.306    0.362   49.401
  118.490   45.549    0.309    0.382   30.630
  118.740   50.450    0.288    0.361   21.301
  118.990   52.162    0.267    0.348   18.142
  119.240   52.890    0.263    0.364   15.190
  119.490   54.422    0.252    0.365   16.609
  119.740   57.685    0.236    0.375   16.608
  119.990   56.197    0.223    0.348   13.525
  120.240   49.220    0.204    0.341   11.380
  120.490   42.451    0.129    0.358   11.746
  120.740   39.785    0.065    0.343   19.669
  120.990   40.903    0.149    0.307   35.246
  121.240   47.031    0.241    0.322   31.191
  121.490   49.635    0.276    0.337   18.532
  121.740   51.288    0.273    0.348   13.919
  121.990   53.474    0.275    0.362   15.753
  122.240   52.260    0.292    0.369   15.039
  122.490   50.484    0.297    0.375   14.211
  122.740   50.340    0.295    0.378   15.521
  122.990   51.526    0.269    0.362   15.624
  123.240   53.632    0.240    0.341   14.232
  123.490   54.531    0.243    0.339   13.290
  123.740   52.286    0.265    0.350   12.700
  123.990   51.267    0.266    0.356   12.675
  124.240   52.425    0.262    0.345   14.056
  124.490   55.501    0.259    0.333   14.681
  124.740   53.422    0.270    0.329   13.238
  124.990   44.559    0.304    0.340   11.622
  125.240   41.254    0.338    0.369   12.126
  125.490   39.989    0.361    0.386   14.834
  125.740   38.148    0.347    0.397   21.751
  125.990   36.280    0.329    0.384   20.055
  126.240   37.131    0.325    0.353   12.925
  126.490   41.722    0.311    0.349   19.384
  126.740   43.563    0.317    0.353   24.398
  126.990   35.143    0.329    0.357   16.623
  127.240   31.176    0.329    0.356    9.882
  127.490   36.227    0.322    0.350   28.263
  127.740   42.981    0.308    0.338   48.129
  127.990   51.141    0.276    0.324   20.578
  128.240   52.928    0.268    0.341   10.047
  128.490   48.943    0.272    0.335    9.549
  128.740   42.443    0.277    0.324   11.536
  128.990   34.642    0.285    0.337   13.548
  129.240   27.572    0.298    0.342   22.817
  129.490   27.372    0.303    0.332   72.712
  129.740   36.323    0.283    0.323  100.525
  129.990   51.054    0.259    0.320   59.184
  130.240   61.809    0.238    0.323   12.884
  130.490   62.949    0.218    0.329   14.037
  130.740   60.755    0.206    0.334   12.109
  130.990   59.265    0.187    0.337   11.847
  131.240   40.813    0.188    0.318   12.359
  131.490   14.853    0.206    0.293   12.361
  131.740    1.122    0.205    0.286   12.629
  131.990    0.215    0.181    0.292   13.005
  132.240    0.050    0.192    0.296   13.063
  132.490    0.051    0.211    0.313   12.111
  132.740    0.085    0.268    0.341   11.716
  132.990    0.195    0.334    0.401   11.111
  133.240    0.469    0.365    0.463    9.893
  133.490    0.413    0.389    0.475    9.988
  133.740    0.692    0.404    0.524   10.022
