~VERSION INFORMATION
 VERS.                 2.0:   CWLS LOG ASCII STANDARD -VERSION 2.0
 WRAP.                  NO:   ONE LINE PER DEPTH STEP
~WELL INFORMATION BLOCK
#MNEM.UNIT           DATA                    DESCRIPTION OF MNEMONIC
#---------    -------------------            -------------------------------
# Generated from Intellog Unique Number	CN_94_101/WELL/5051
WELL.         16-02-099-08W4                 : Well_name    - WELL
LOC .         AA/16-02-099-08W4/0            : Location     - LOCATION
UWI .         AA/16-02-099-08W400            : Uwi          - UNIQUE WELL ID
ENTR.         T                              : Entered      - ENTERED BY
SRVC.         SCHLUMBERGER                   : Scn          - SERVICE COMPANY
DATE.         08/13/92                       : Date         - LOG DATE
STRT.M        3.048                          : top_depth    - START DEPTH
STOP.M        61.048                         : bot_depth    - STOP DEPTH
STEP.M        0.25                           : increment    - STEP LENGTH
 NULL. -999.2500:NULL Value
~CURVE INFORMATION BLOCK
#MNEM UNIT       ERCB CURVE CODE    CURVE DESCRIPTION
#-----------   ------------------   ----------------------------------
DEPT.M        00 001 00 00         : DEPTH        - DEPTH
GR  .API      00 310 00 00         : GR           - GAMMA RAY
NPHI.V/V      00 330 00 00         : PHIN         - NEUTRON POROSITY (SANDSTONE)
ILD .OHMM     00 120 00 00         : RESD         - DEEP RESISTIVITY (DIL)
~PARAMETER INFORMATION
#MNEM.UNIT           DATA             DESCRIPTION OF MNEMONIC
#---------         -----------     ------------------------------
GL  .M        287.64               : gl           - GROUND LEVEL ELEVATION
EREF.M        287.64               : kb           - ELEVATION OF DEPTH REFERENCE
DATM.M        287.64               : datum        - DATUM ELEVATION
TDD .M        62.1792              : tdd          - TOTAL DEPTH DRILLER
RUN .         ONE                  : Run          - RUN NUMBER
ENG .         BILL                 : Engineer     - RECORDING ENGINEER
WIT .         JIM                  : Witness      - WITNESSED BY
MUD .         GEL                  : Mud_type     - MUD TYPE
MATR.         SANDSTONE            : Logunit      - NEUTRON MATRIX
TMAX.C        20                   : BHT          - MAXIMUM RECORDED TEMPERATURE
BHTD.M        62.1792              : BHTDEP       - MAXIMUM RECORDED TEMPERATURE
RMT .C        20                   : MDTP         - TEMPERATURE OF MUD
MUDD.KG/M     1090                 : MWT          - MUD DENSITY
NEUT.         1                    : NEUTRON      - NEUTRON TYPE
RESI.         0                    : RESIST       - RESISTIVITY TYPE
RM  .OHMM     13.1                 : RM           - RESISTIVITY OF MUD
RMC .OHMM     8.4                  : RMC          - RESISTIVITY OF MUD CAKE
RMF .OHMM     11                   : RMF          - RESISTIVITY OF MUD FILTRATE
SUFT.C        4                    : SUFT         - SURFACE TEMPERATURE
~A  DEPTH       GR     PHIN     RESD
    3.048   30.155    0.379  264.570
    3.298   47.100    0.389  250.494
    3.548   61.366    0.400  247.201
    3.798   67.675    0.414  240.286
    4.048   64.236    0.429  226.128
    4.298   69.617    0.443  219.131
    4.548   76.792    0.443  208.594
    4.798   83.122    0.427  198.057
    5.048   76.116    0.416  191.143
    5.298   69.089    0.397  188.014
    5.548   55.879    0.395  181.017
    5.798   47.079    0.406  174.103
    6.048   47.206    0.417  163.566
    6.298   43.724    0.423  145.868
    6.548   35.853    0.431  131.709
    6.798   30.599    0.439  124.712
    7.048   29.797    0.426  690.319
    7.298   40.517    0.417  625.453
    7.548   52.144    0.421  538.772
    7.798   54.887    0.408  477.527
    8.048   41.698    0.408  376.441
    8.298   43.555    0.419  293.382
    8.548   40.981    0.426  257.573
    8.798   37.499    0.420  257.903
    9.048   32.287    0.418  254.610
    9.298   29.712    0.432  233.125
    9.548   32.434    0.438  226.210
    9.798   36.064    0.434  230.161
   10.048   47.691    0.434  230.491
   10.298   51.342    0.442  219.954
   10.548   50.540    0.449  224.070
   10.798   52.397    0.452  213.451
   11.048   53.368    0.452  202.996
   11.298   45.476    0.453  214.192
   11.548   41.129    0.458  225.305
   11.798   35.009    0.461  240.122
   12.048   28.910    0.463  225.963
   12.298   33.405    0.461  219.131
   12.548   40.580    0.452  233.866
   12.798   51.321    0.441  248.848
   13.048   48.746    0.435  252.799
   13.298   42.627    0.435  256.750
   13.548   40.939    0.445  256.997
   13.798   43.682    0.458  246.460
   14.048   48.219    0.465  217.896
   14.298   48.282    0.459  214.603
   14.548   46.615    0.458  222.176
   14.798   44.041    0.454  226.128
   15.048   30.809    0.446  226.457
   15.298   37.119    0.440  230.408
   15.548   46.066    0.439  234.360
   15.798   43.492    0.445  227.363
   16.048   38.259    0.449  209.664
   16.298   41.002    0.452  224.481
   16.548   34.882    0.456  235.677
   16.798   42.965    0.463  239.628
   17.048   56.343    0.466  247.284
   17.298   65.333    0.474  243.991
   17.548   68.942    0.480  236.994
   17.798   78.775    0.482  215.591
   18.048   84.220    0.486  212.298
   18.298   66.536    0.481  216.332
   18.548   57.778    0.471  220.283
   18.798   70.271    0.478  202.420
   19.048   90.740    0.486   61.270
   19.298  118.321    0.500   63.110
   19.548  145.016    0.509   70.023
   19.798  127.374    0.506   78.755
   20.048  108.846    0.509   83.857
   20.298  121.339    0.516   89.691
   20.548   93.927    0.519   90.081
   20.798   83.376    0.520   89.022
   21.048   98.548    0.508   88.326
   21.298  111.927    0.510   85.086
   21.548  116.464    0.517   78.592
   21.798  116.548    0.510   71.735
   22.048  114.881    0.500   68.871
   22.298  114.966    0.492   67.805
   22.548  109.732    0.487   65.660
   22.798  117.794    0.487   62.789
   23.048  114.333    0.487   58.462
   23.298  111.737    0.492   54.511
   23.548  112.750    0.497   52.721
   23.798  110.154    0.496   50.575
   24.048  105.807    0.494   48.436
   24.298  117.414    0.498   47.008
   24.548  114.839    0.501   44.869
   24.798  105.174    0.504   47.796
   25.048   98.168    0.497   51.803
   25.298  122.204    0.496   59.086
   25.548  137.355    0.496   71.798
   25.798  133.029    0.485   86.691
   26.048  126.023    0.481   85.632
   26.298  122.563    0.493   79.137
   26.548  122.668    0.508   76.267
   26.798  128.070    0.521   75.933
   27.048  135.224    0.489   74.874
   27.298  133.536    0.475   72.373
   27.548  122.985    0.488   70.220
   27.798  110.682    0.490   68.443
   28.048  116.063    0.474   66.290
   28.298  120.600    0.475   63.789
   28.548  126.889    0.478   63.079
   28.798  134.063    0.480   60.570
   29.048  139.508    0.484   56.613
   29.298  143.116    0.491   53.742
   29.548  136.110    0.494   49.784
   29.798  145.058    0.489   46.558
   30.048  154.047    0.484   43.318
   30.298  147.020    0.487   39.361
   30.548  136.448    0.483   36.483
   30.798  132.101    0.476   33.974
   31.048  124.209    0.478   33.641
   31.298  120.748    0.479   34.756
   31.548  149.215    0.469   35.871
   31.798  159.070    0.475   37.001
   32.048  149.405    0.485   37.029
   32.298  139.740    0.492   36.695
   32.548  128.281    0.490   36.361
   32.798  145.227    0.486   35.665
   33.048  151.515    0.472   35.693
   33.298  149.827    0.470   35.715
   33.548  144.594    0.471   35.743
   33.798  137.588    0.464   35.778
   34.048  127.036    0.455   36.894
   34.298  159.070    0.461   37.640
   34.548  159.154    0.473   39.118
   34.798  154.786    0.495   41.320
   35.048  140.690    0.498   46.798
   35.298  130.138    0.484   50.081
   35.548  131.109    0.446   53.378
   35.798  121.444    0.441   52.319
   36.048  114.459    0.448   50.891
   36.298  110.112    0.459   48.752
   36.548  103.971    0.458   48.418
   36.798  105.828    0.465   48.809
   37.048  126.319    0.470   49.924
   37.298  130.856    0.466   51.033
   37.548  122.056    0.456   48.887
   37.798  108.867    0.455   51.814
   38.048  121.339    0.461   56.923
   38.298  136.511    0.459   52.233
   38.548  135.709    0.458   46.826
   38.798  129.590    0.457   45.042
   39.048  118.173    0.459   48.339
   39.298  119.144    0.476   48.730
   39.548  121.001    0.486   49.483
   39.798  122.858    0.482   54.222
   40.048  120.284    0.500   55.700
   40.298  120.389    0.502   55.728
   40.548  124.019    0.487   51.408
   40.798  126.741    0.479   51.806
   41.048  121.529    0.474   54.009
   41.298  118.068    0.467   55.842
   41.548  114.607    0.459   58.044
   41.798  110.239    0.449   62.066
   42.048  105.005    0.440   62.457
   42.298  106.018    0.441   63.224
   42.548  100.764    0.441   64.339
   42.798   92.850    0.443   65.078
   43.048   80.527    0.456   67.281
   43.298   90.382    0.474   69.484
   43.548  112.623    0.489   71.324
   43.798  122.478    0.469   71.715
   44.048  112.813    0.462   69.569
   44.298  101.376    0.462   67.792
   44.548   91.690    0.468   68.545
   44.798   97.999    0.470   69.291
   45.048  113.151    0.459   72.226
   45.298  119.461    0.447   70.805
   45.548   92.049    0.419   59.599
   45.798   62.864    0.395   66.143
   46.048   50.561    0.374   72.709
   46.298   38.216    0.376   75.266
   46.548   53.389    0.391   74.208
   46.798   47.269    0.400   92.724
   47.048   34.038    0.394  240.183
   47.298   20.849    0.385  381.786
   47.548   24.458    0.387  370.582
   47.798   36.085    0.391  261.030
   48.048   44.146    0.392  304.458
   48.298   48.704    0.392  304.170
   48.548   50.561    0.392  267.498
   48.798   54.191    0.392  230.827
   49.048   55.141    0.393  339.686
   49.298   54.360    0.389  372.141
   49.548   52.672    0.382  360.938
   49.798   45.645    0.368  575.364
   50.048   35.980    0.361  698.776
   50.298   28.974    0.372  734.927
   50.548   31.759    0.385  840.148
   50.798   30.957    0.374 1090.270
   51.048   30.155    0.369 1347.020
   51.298   25.787    0.374 1602.790
   51.548   14.350    0.380 1895.870
   51.798   18.866    0.371 1897.840
   52.048   25.154    0.367 1971.980
   52.298   23.466    0.372 2373.540
   52.548   21.778    0.374 2448.170
   52.798   20.111    0.368 2304.840
   53.048   19.330    0.363 2924.850
   53.298   15.848    0.365 3290.090
   53.548   15.067    0.365 3909.600
   53.798   22.242    0.359 3620.970
   54.048   21.419    0.357 3150.720
   54.298   11.775    0.350 2644.130
   54.548    6.542    0.346 2209.700
   54.798   11.058    0.332 1630.460
   55.048   20.005    0.334 1233.840
   55.298   33.384    0.340 1162.180
   55.548   50.329    0.346 1345.790
   55.798   54.845    0.343 1820.000
   56.048   43.408    0.335 2403.690
   56.298   33.743    0.318 2550.970
   56.548   41.825    0.311 2879.880
   56.798   35.684    0.309 3099.810
   57.048   39.314    0.303 3101.790
