~VERSION INFORMATION
 VERS.                 2.0:   CWLS LOG ASCII STANDARD -VERSION 2.0
 WRAP.                  NO:   ONE LINE PER DEPTH STEP
~WELL INFORMATION BLOCK
#MNEM.UNIT           DATA                    DESCRIPTION OF MNEMONIC
#---------    -------------------            -------------------------------
# Generated from Intellog Unique Number	CC_84_87/WELL/2334
WELL.         ARCO ACT MCMURRAY              : Well_name    - WELL
LOC .         AA/11-29-084-09W4/0            : Location     - LOCATION
UWI .         AA/11-29-084-09W400            : Uwi          - UNIQUE WELL ID
ENTR.         JHS                            : Entered      - ENTERED BY
SRVC.         SCHLUMBERGER                   : Scn          - SERVICE COMPANY
STRT.M        210.312                        : top_depth    - START DEPTH
STOP.M        441.812                        : bot_depth    - STOP DEPTH
STEP.M        0.25                           : increment    - STEP LENGTH
 NULL. -999.2500:NULL Value
~CURVE INFORMATION BLOCK
#MNEM UNIT       ERCB CURVE CODE    CURVE DESCRIPTION
#-----------   ------------------   ----------------------------------
DEPT.M        00 001 00 00         : DEPTH        - DEPTH
GR  .API      00 310 00 00         : GR           - GAMMA RAY
DPHI.V/V      00 890 00 00         : PHID         - DENSITY POROSITY (SANDSTONE)
NPHI.V/V      00 330 00 00         : PHIN         - NEUTRON POROSITY (SANDSTONE)
ILD .OHMM     00 120 00 00         : RESD         - DEEP RESISTIVITY (DIL)
~PARAMETER INFORMATION
#MNEM.UNIT           DATA             DESCRIPTION OF MNEMONIC
#---------         -----------     ------------------------------
GL  .M        687.629              : gl           - GROUND LEVEL ELEVATION
EREF.M        690.677              : kb           - ELEVATION OF DEPTH REFERENCE
DATM.M        690.677              : datum        - DATUM ELEVATION
TDD .M        441.96               : tdd          - TOTAL DEPTH DRILLER
RUN .         ONE                  : Run          - RUN NUMBER
ENG .         BILL                 : Engineer     - RECORDING ENGINEER
WIT .         JIM                  : Witness      - WITNESSED BY
MUD .         GEL                  : Mud_type     - MUD TYPE
MATR.         SANDSTONE            : Logunit      - NEUTRON MATRIX
TMAX.C        20.5556              : BHT          - MAXIMUM RECORDED TEMPERATURE
BHTD.M        441.96               : BHTDEP       - MAXIMUM RECORDED TEMPERATURE
MATR.         1                    : LOGUNIT      - NEUTRON MATRIX
RMT .C        25                   : MDTP         - TEMPERATURE OF MUD
NEUT.         1                    : NEUTRON      - NEUTRON TYPE
RESI.         0                    : RESIST       - RESISTIVITY TYPE
RMC .OHMM     0.25                 : RMC          - RESISTIVITY OF MUD CAKE
RMF .OHMM     0.25                 : RMF          - RESISTIVITY OF MUD FILTRATE
SUFT.C        15                   : SUFT         - SURFACE TEMPERATURE
~A  DEPTH       GR     PHID     PHIN     RESD
# ...
  297.312   42.783    0.320    0.384   21.171
  297.562   43.798    0.323    0.371   20.829
  297.812   44.300    0.295    0.353   20.791
  298.062   42.667    0.254    0.357   20.578
  298.312   40.050    0.266    0.330   20.413
  298.562   39.318    0.327    0.273   21.519
  298.812   41.020    0.362    0.294   23.571
  299.062   43.043    0.363    0.376   24.030
  299.312   44.660    0.359    0.394   23.733
  299.562   45.880    0.361    0.387   23.174
  299.812   46.599    0.362    0.393   22.319
  300.062   47.120    0.361    0.398   21.262
  300.312   48.179    0.358    0.404   20.334
  300.562   48.977    0.353    0.412   19.984
  300.812   46.627    0.346    0.403   19.951
  301.062   45.981    0.333    0.388   19.948
  301.312   47.616    0.323    0.389   19.964
  301.562   50.142    0.327    0.396   19.904
  301.812   52.954    0.338    0.393   19.573
  302.062   49.903    0.346    0.399   19.248
  302.312   49.523    0.352    0.395   19.186
  302.562   50.131    0.350    0.395   19.230
  302.812   51.617    0.343    0.387   19.129
  303.062   53.627    0.337    0.376   18.740
  303.312   53.578    0.334    0.392   18.165
  303.562   58.061    0.333    0.407   17.657
  303.812   60.459    0.331    0.403   16.694
  304.062   58.663    0.320    0.389   15.744
  304.312   56.667    0.303    0.376   14.564
  304.562   57.561    0.299    0.377   13.430
  304.812   59.549    0.310    0.383   13.312
  305.062   59.526    0.312    0.370   13.091
  305.312   60.524    0.310    0.372   13.183
  305.562   62.522    0.314    0.381   13.504
  305.812   61.410    0.325    0.380   14.072
  306.062   58.794    0.334    0.378   14.611
  306.312   58.954    0.337    0.384   14.283
  306.562   56.227    0.332    0.384   13.091
  306.812   57.596    0.323    0.373   11.664
  307.062   60.430    0.323    0.375   11.001
  307.312   58.778    0.328    0.381   10.696
  307.562   56.856    0.332    0.387   10.203
  307.812   60.188    0.336    0.410   10.099
  308.062   59.270    0.337    0.405   10.417
  308.312   59.279    0.331    0.397   10.503
  308.562   62.174    0.328    0.414   10.385
  308.812   64.108    0.326    0.424   10.155
  309.062   63.662    0.319    0.402    9.839
  309.312   63.770    0.323    0.385    9.540
  309.562   64.759    0.329    0.393    9.115
  309.812   66.070    0.315    0.411    8.717
  310.062   70.693    0.304    0.413    8.246
  310.312   75.043    0.306    0.396    7.775
  310.562   72.818    0.311    0.379    7.474
  310.812   67.335    0.323    0.381    7.386
  311.062   67.859    0.326    0.396    7.598
  311.312   66.440    0.325    0.390    7.915
  311.562   65.380    0.313    0.400    8.427
  311.812   66.953    0.302    0.412    9.163
  312.062   67.964    0.304    0.403    9.772
  312.312   68.591    0.303    0.406    9.858
  312.562   73.654    0.304    0.423    9.563
  312.812   76.306    0.312    0.413    9.243
  313.062   78.463    0.308    0.412    8.363
  313.312   80.261    0.285    0.423    7.562
  313.562   78.690    0.267    0.417    7.282
  313.812   75.715    0.273    0.412    6.838
  314.062   75.652    0.264    0.427    6.718
  314.312   75.842    0.265    0.411    6.698
  314.562   78.306    0.272    0.390    6.784
  314.812   83.088    0.270    0.399    6.809
  315.062   86.144    0.267    0.419    6.487
  315.312   85.861    0.277    0.428    5.899
  315.562   84.755    0.285    0.444    5.382
  315.812   78.563    0.278    0.431    4.948
  316.062   67.454    0.268    0.420    4.752
  316.312   58.956    0.260    0.395    4.974
  316.562   57.342    0.274    0.360    5.340
  316.812   58.515    0.312    0.362    6.240
  317.062   59.142    0.298    0.358    9.133
  317.312   58.962    0.269    0.358   10.703
  317.562   62.658    0.255    0.355   11.225
  317.812   68.284    0.291    0.361   11.187
  318.062   71.553    0.338    0.381   10.618
  318.312   74.631    0.321    0.386    9.771
  318.562   80.889    0.295    0.380    7.412
  318.812   88.501    0.280    0.406    5.243
  319.062   94.635    0.272    0.440    3.953
  319.312   93.975    0.270    0.454    3.355
  319.562   88.671    0.278    0.453    3.128
  319.812   87.108    0.296    0.452    2.995
  320.062   87.207    0.309    0.459    2.987
  320.312   91.563    0.313    0.466    3.054
  320.562   93.382    0.309    0.468    3.210
  320.812   91.993    0.305    0.462    3.269
  321.062   92.063    0.301    0.451    3.123
  321.312   93.089    0.296    0.456    2.990
  321.562   92.341    0.297    0.497    3.024
  321.812   89.375    0.302    0.494    3.152
  322.062   87.480    0.306    0.469    3.318
  322.312   85.308    0.294    0.438    3.578
  322.562   82.756    0.278    0.411    3.921
  322.812   82.377    0.285    0.417    4.297
  323.062   78.639    0.299    0.402    4.906
  323.312   73.392    0.317    0.371    5.746
  323.562   69.859    0.331    0.355    6.481
  323.812   68.076    0.341    0.354    7.529
  324.062   67.623    0.344    0.343    8.738
  324.312   69.941    0.332    0.318    9.370
  324.562   71.016    0.318    0.310   10.295
  324.812   54.401    0.276    0.315   10.992
  325.062   42.170    0.239    0.296   13.541
  325.312   41.186    0.262    0.268   17.365
  325.562   41.645    0.280    0.255   22.619
  325.812   44.361    0.232    0.245   29.409
  326.062   49.661    0.275    0.251   30.591
  326.312   61.444    0.375    0.281   29.493
  326.562   66.609    0.414    0.310   25.077
  326.812   62.479    0.400    0.329   19.608
  327.062   57.920    0.377    0.352   16.469
  327.312   55.645    0.340    0.379   14.415
  327.562   53.144    0.336    0.390   12.924
  327.812   51.092    0.335    0.384   12.001
  328.062   49.028    0.315    0.381   11.659
  328.312   49.052    0.302    0.384   11.514
  328.562   51.292    0.321    0.381   11.358
  328.812   51.505    0.349    0.378   11.371
  329.062   50.215    0.346    0.390   11.369
  329.312   52.906    0.336    0.390   11.362
  329.562   56.187    0.339    0.376   11.359
  329.812   55.339    0.341    0.381   11.355
  330.062   53.194    0.338    0.401   11.351
  330.312   53.916    0.343    0.397   11.348
  330.562   52.555    0.338    0.406   11.346
  330.812   50.597    0.339    0.383   11.341
  331.062   50.847    0.341    0.389   11.345
  331.312   51.696    0.337    0.408   11.318
  331.562   51.542    0.340    0.393   11.362
  331.812   52.163    0.351    0.379   11.537
  332.062   53.693    0.351    0.377   11.525
  332.312   54.298    0.352    0.381   11.658
  332.562   52.785    0.348    0.391   11.840
  332.812   52.653    0.343    0.399   12.049
  333.062   55.941    0.344    0.400   12.145
  333.312   58.729    0.345    0.408   11.937
  333.562   57.959    0.339    0.426   11.924
  333.812   55.412    0.339    0.419   11.959
  334.062   53.831    0.345    0.407   11.817
  334.312   54.531    0.348    0.395   11.682
  334.562   55.911    0.345    0.389   11.718
  334.812   55.138    0.335    0.402   11.701
  335.062   52.601    0.329    0.392   11.509
  335.312   51.405    0.330    0.396   11.498
  335.562   52.574    0.329    0.398   11.358
  335.812   55.036    0.324    0.379   11.312
  336.062   56.427    0.321    0.371   11.495
  336.312   55.771    0.325    0.387   11.470
  336.562   56.452    0.328    0.371   11.468
  336.812   60.170    0.327    0.371   11.449
  337.062   60.568    0.319    0.378   11.541
  337.312   55.916    0.321    0.375   11.780
  337.562   50.701    0.270    0.343   12.588
  337.812   47.428    0.126    0.276   14.259
  338.062   45.857    0.094    0.225   15.657
  338.312   51.203    0.123    0.176   16.612
  338.562   57.218    0.215    0.255   16.613
  338.812   59.101    0.302    0.365   15.719
  339.062   57.662    0.317    0.379   14.464
  339.312   54.590    0.308    0.377   13.201
  339.562   52.479    0.299    0.382   12.223
  339.812   52.483    0.280    0.396   11.426
  340.062   58.819    0.292    0.394   11.015
  340.312   65.496    0.315    0.391   10.550
  340.562   66.539    0.318    0.394    9.968
