~VERSION INFORMATION
 VERS.                 2.0:   CWLS LOG ASCII STANDARD -VERSION 2.0
 WRAP.                  NO:   ONE LINE PER DEPTH STEP
~WELL INFORMATION BLOCK
#MNEM.UNIT           DATA                    DESCRIPTION OF MNEMONIC
#---------    -------------------            -------------------------------
# Generated from Intellog Unique Number	CN_94_101/WELL/5029
WELL.         12-12-099-15W4                 : Well_name    - WELL
LOC .         AA/12-12-099-15W4/0            : Location     - LOCATION
UWI .         AA/12-12-099-15W400            : Uwi          - UNIQUE WELL ID
ENTR.         TIM                            : Entered      - ENTERED BY
SRVC.         SCHLUMBERGER                   : Scn          - SERVICE COMPANY
DATE.         08/13/92                       : Date         - LOG DATE
STRT.M        295                            : top_depth    - START DEPTH
STOP.M        495                            : bot_depth    - STOP DEPTH
STEP.M        0.25                           : increment    - STEP LENGTH
 NULL. -999.2500:NULL Value
~CURVE INFORMATION BLOCK
#MNEM UNIT       ERCB CURVE CODE    CURVE DESCRIPTION
#-----------   ------------------   ----------------------------------
DEPT.M        00 001 00 00         : DEPTH        - DEPTH
GR  .API      00 310 00 00         : GR           - GAMMA RAY
ILD .OHMM     00 120 00 00         : RESD         - DEEP RESISTIVITY (DIL)
NPHI.V/V      00 330 00 00         : PHIN         - NEUTRON POROSITY (SANDSTONE)
DPHI.V/V      00 890 00 00         : PHID         - DENSITY POROSITY (SANDSTONE)
~PARAMETER INFORMATION
#MNEM.UNIT           DATA             DESCRIPTION OF MNEMONIC
#---------         -----------     ------------------------------
GL  .M        740.9                : gl           - GROUND LEVEL ELEVATION
EREF.M        744.35               : kb           - ELEVATION OF DEPTH REFERENCE
DATM.M        744.35               : datum        - DATUM ELEVATION
TDD .M        497.5                : tdd          - TOTAL DEPTH DRILLER
RUN .         ONE                  : Run          - RUN NUMBER
ENG .         BILL                 : Engineer     - RECORDING ENGINEER
WIT .         JIM                  : Witness      - WITNESSED BY
MUD .         GEL                  : Mud_type     - MUD TYPE
MATR.         SANDSTONE            : Logunit      - NEUTRON MATRIX
TMAX.C        25                   : BHT          - MAXIMUM RECORDED TEMPERATURE
BHTD.M        497.5                : BHTDEP       - MAXIMUM RECORDED TEMPERATURE
RMT .C        10                   : MDTP         - TEMPERATURE OF MUD
MUDD.KG/M     1100                 : MWT          - MUD DENSITY
NEUT.         1                    : NEUTRON      - NEUTRON TYPE
RESI.         0                    : RESIST       - RESISTIVITY TYPE
RM  .OHMM     0.52                 : RM           - RESISTIVITY OF MUD
RMC .OHMM     0.72                 : RMC          - RESISTIVITY OF MUD CAKE
RMF .OHMM     0.72                 : RMF          - RESISTIVITY OF MUD FILTRATE
SUFT.C        4                    : SUFT         - SURFACE TEMPERATURE
~A  DEPTH       GR     RESD     PHIN     PHID
# ...
  425.500   81.681    9.201    0.391    0.182
  425.750   84.023    9.023    0.368    0.162
  426.000   85.196    7.600    0.428    0.154
  426.250   89.901    6.162    0.444    0.207
  426.500   93.433    5.495    0.465    0.244
  426.750   97.551    4.994    0.480    0.276
  427.000   99.893    4.805    0.493    0.295
  427.250  101.057    4.894    0.502    0.294
  427.500  101.039    5.082    0.499    0.288
  427.750  100.431    5.377    0.489    0.280
  428.000   99.231    5.909    0.482    0.263
  428.250   97.441    6.253    0.481    0.231
  428.500   96.242    6.492    0.476    0.220
  428.750   95.042    6.366    0.467    0.200
  429.000   95.615    5.569    0.465    0.198
  429.250   97.961    5.160    0.499    0.242
  429.500   99.716    4.514    0.511    0.267
  429.750  100.285    4.103    0.538    0.273
  430.000  100.272    3.589    0.559    0.283
  430.250   99.655    3.200    0.559    0.277
  430.500   99.641    2.965    0.534    0.275
  430.750   99.037    3.020    0.533    0.283
  431.000   98.424    3.319    0.538    0.303
  431.250   97.820    4.012    0.547    0.310
  431.500   97.212    4.667    0.545    0.318
  431.750   96.008    5.130    0.535    0.326
  432.000   95.404    5.746    0.526    0.337
  432.250   95.386    6.079    0.515    0.312
  432.500   95.364    5.961    0.499    0.307
  432.750   96.533    5.627    0.490    0.311
  433.000  100.056    5.520    0.493    0.310
  433.250  100.038    5.517    0.491    0.300
  433.500   98.839    5.948    0.479    0.289
  433.750   97.044    6.536    0.453    0.290
  434.000   95.845    6.660    0.457    0.291
  434.250   94.645    6.913    0.460    0.274
  434.500   94.624    6.909    0.434    0.223
  434.750   95.788    6.776    0.411    0.201
  435.000   96.960    6.644    0.422    0.254
  435.250   99.302    6.516    0.443    0.278
  435.500  100.466    6.150    0.447    0.283
  435.750  100.449    5.806    0.453    0.282
  436.000  100.435    5.694    0.469    0.279
  436.250  100.409    5.690    0.470    0.277
  436.500  100.396    5.688    0.448    0.274
  436.750   99.783    5.684    0.442    0.271
  437.000   99.774    5.682    0.441    0.270
  437.250   99.161    5.571    0.447    0.273
  437.500   98.552    5.463    0.452    0.283
  437.750   96.762    5.158    0.462    0.290
  438.000   96.154    4.778    0.471    0.302
  438.250   97.313    4.181    0.495    0.312
  438.500   98.486    3.800    0.507    0.327
  438.750  100.832    3.587    0.521    0.341
  439.000  101.401    3.585    0.532    0.334
  439.250  101.383    3.583    0.527    0.322
  439.500  100.175    3.581    0.520    0.322
  439.750   98.985    3.579    0.522    0.320
  440.000   97.194    3.714    0.516    0.311
  440.250   95.995    3.857    0.506    0.305
  440.500   94.791    4.004    0.499    0.329
  440.750   94.769    4.078    0.504    0.322
  441.000   94.760    4.077    0.511    0.310
  441.250   95.329    3.922    0.518    0.304
  441.500   95.316    3.564    0.519    0.300
  441.750   95.880    3.179    0.513    0.304
  442.000   95.872    2.835    0.512    0.319
  442.250   95.263    2.576    0.507    0.357
  442.500   94.064    2.433    0.513    0.376
  442.750   91.087    2.385    0.544    0.385
  443.000   88.710    2.476    0.557    0.381
  443.250   85.734    2.670    0.567    0.378
  443.500   82.167    3.352    0.568    0.373
  443.750   79.199    4.289    0.532    0.368
  444.000   73.273    5.184    0.471    0.359
  444.250   67.346    6.508    0.426    0.350
  444.500   62.602    8.327    0.411    0.338
  444.750   61.993   10.256    0.414    0.328
  445.000   65.521   11.272    0.428    0.313
  445.250   67.276   10.052    0.431    0.293
  445.500   67.849    8.629    0.429    0.281
  445.750   68.422    7.843    0.438    0.271
  446.000   71.359    6.733    0.458    0.293
  446.250   77.250    5.890    0.465    0.318
  446.500   80.778    5.457    0.468    0.323
  446.750   82.533    4.960    0.475    0.340
  447.000   86.647    4.593    0.483    0.333
  447.250   86.043    4.420    0.483    0.315
  447.500   84.844    4.172    0.483    0.306
  447.750   81.871    4.092    0.477    0.305
  448.000   64.123    4.248    0.443    0.299
  448.250   41.652    5.038    0.422    0.309
  448.500   42.225    5.751    0.398    0.316
  448.750   41.617    6.321    0.420    0.314
  449.000   39.236    7.216    0.362    0.270
  449.250   36.259    8.557    0.334    0.243
  449.500   35.651   12.988    0.300    0.212
  449.750   36.815   15.114    0.293    0.190
  450.000   38.570   18.266    0.315    0.206
  450.250   42.688   20.457    0.343    0.233
  450.500   46.216   18.596    0.366    0.277
  450.750   49.744   15.369    0.385    0.355
  451.000   50.912   12.703    0.400    0.368
  451.250   50.304   10.499    0.417    0.368
  451.500   49.686    8.843    0.420    0.364
  451.750   51.441    7.449    0.419    0.357
  452.000   53.787    6.899    0.420    0.341
  452.250   55.542    6.639    0.425    0.323
  452.500   52.575    6.266    0.428    0.306
  452.750   46.648    6.264    0.420    0.337
  453.000   41.313    6.260    0.397    0.326
  453.250   39.522    6.751    0.364    0.312
  453.500   38.323    7.561    0.352    0.305
  453.750   35.351    8.311    0.355    0.310
  454.000   31.779    9.670    0.367    0.317
  454.250   31.766   11.687    0.374    0.325
  454.500   31.162   13.338    0.376    0.326
  454.750   31.731   14.116    0.375    0.326
  455.000   33.481   15.222    0.371    0.322
  455.250   34.063   17.049    0.368    0.319
  455.500   35.819   17.701    0.365    0.315
  455.750   37.574   18.729    0.357    0.310
  456.000   39.328   16.386    0.350    0.303
  456.250   41.079   14.339    0.343    0.299
  456.500   41.648   11.850    0.341    0.292
  456.750   41.039   10.368    0.343    0.287
  457.000   39.254   10.560    0.348    0.284
  457.250   36.282   11.828    0.351    0.284
  457.500   33.305   12.517    0.356    0.277
  457.750   32.701   13.242    0.359    0.271
  458.000   30.911   12.743    0.361    0.263
  458.250   28.530    9.576    0.365    0.321
  458.500   26.739    8.871    0.364    0.312
  458.750   25.540    9.384    0.342    0.301
  459.000   23.154    9.561    0.323    0.301
  459.250   21.951   10.915    0.323    0.301
  459.500   21.933   14.507    0.321    0.297
  459.750   21.924   36.086    0.317    0.296
  460.000   21.902   43.618    0.313    0.292
  460.250   23.066   72.814    0.311    0.289
  460.500   24.817  158.614    0.308    0.282
  460.750   27.158  308.248    0.312    0.277
  461.000   28.327  338.778    0.321    0.291
  461.250   30.082  332.217    0.350    0.301
  461.500   33.019  307.733    0.360    0.307
  461.750   34.183  194.939    0.371    0.343
  462.000   36.533  177.149    0.375    0.349
  462.250   40.056  152.085    0.386    0.342
  462.500   42.407  135.623    0.395    0.334
  462.750   42.975  114.243    0.405    0.330
  463.000   42.958   98.079    0.413    0.331
  463.250   44.717   81.062    0.428    0.333
  463.500   47.063   75.088    0.431    0.336
  463.750   48.818   68.245    0.433    0.338
  464.000   49.391   58.581    0.436    0.341
  464.250   49.369   53.235    0.437    0.346
  464.500   48.761   52.219    0.440    0.348
  464.750   47.561   49.291    0.442    0.344
  465.000   45.776   48.337    0.444    0.338
  465.250   41.622   49.223    0.445    0.338
  465.500   42.195   50.146    0.445    0.343
  465.750   43.946   51.072    0.440    0.349
  466.000   45.110   54.038    0.434    0.354
  466.250   45.096   57.184    0.424    0.349
  466.500   43.297   60.512    0.420    0.344
  466.750   42.107   66.506    0.416    0.343
  467.000   39.130   74.495    0.409    0.346
  467.250   36.158   95.313    0.400    0.351
  467.500   35.550  119.654    0.397    0.353
  467.750   35.528  171.579    0.396    0.357
  468.000   35.515  207.366    0.397    0.362
  468.250   36.666  308.870    0.403    0.365
  468.500   37.243  418.366    0.407    0.363
  468.750   37.234  459.803    0.411    0.355
