~VERSION INFORMATION
 VERS.                 2.0:   CWLS LOG ASCII STANDARD -VERSION 2.0
 WRAP.                  NO:   ONE LINE PER DEPTH STEP
~WELL INFORMATION BLOCK
#MNEM.UNIT           DATA                    DESCRIPTION OF MNEMONIC
#---------    -------------------            -------------------------------
# Generated from Intellog Unique Number	CS_77_79/WELL/992
WELL.         PEX PCEJ LEISMER OV            : Well_name    - WELL
LOC .         AA/11-08-078-08W4/0            : Location     - LOCATION
UWI .         AA/11-08-078-08W4/0            : Uwi          - UNIQUE WELL ID
ENTR.         JHS                            : Entered      - ENTERED BY
SRVC.         SCHLUMBERGER                   : Scn          - SERVICE COMPANY
STRT.M        155                            : top_depth    - START DEPTH
STOP.M        375                            : bot_depth    - STOP DEPTH
STEP.M        0.25                           : increment    - STEP LENGTH
 NULL. -999.2500:NULL Value
~CURVE INFORMATION BLOCK
#MNEM UNIT       ERCB CURVE CODE    CURVE DESCRIPTION
#-----------   ------------------   ----------------------------------
DEPT.M        00 001 00 00         : DEPTH        - DEPTH
DPHI.V/V      00 890 00 00         : PHID         - DENSITY POROSITY (LIMESTONE)
NPHI.V/V      00 330 00 00         : PHIN         - NEUTRON POROSITY (LIMESTONE)
GR  .API      00 310 00 00         : GR           - GAMMA RAY
ILD .OHMM     00 120 00 00         : RESD         - DEEP RESISTIVITY (DIL)
RHOB.KG/M3    00 350 00 00         : DENS         - BULK DENSITY
~PARAMETER INFORMATION
#MNEM.UNIT           DATA             DESCRIPTION OF MNEMONIC
#---------         -----------     ------------------------------
GL  .M        587.96               : gl           - GROUND LEVEL ELEVATION
EREF.M        591.54               : kb           - ELEVATION OF DEPTH REFERENCE
DATM.M        591.54               : datum        - DATUM ELEVATION
TDD .M        377.6                : tdd          - TOTAL DEPTH DRILLER
RUN .         ONE                  : Run          - RUN NUMBER
ENG .         BILL                 : Engineer     - RECORDING ENGINEER
WIT .         JIM                  : Witness      - WITNESSED BY
MUD .         GEL                  : Mud_type     - MUD TYPE
MATR.         LIMESTONE            : Logunit      - NEUTRON MATRIX
TMAX.C        17                   : BHT          - MAXIMUM RECORDED TEMPERATURE
BHTD.M        377.6                : BHTDEP       - MAXIMUM RECORDED TEMPERATURE
MATR.         1                    : LOGUNIT      - NEUTRON MATRIX
RMT .C        25                   : MDTP         - TEMPERATURE OF MUD
NEUT.         1                    : NEUTRON      - NEUTRON TYPE
RESI.         0                    : RESIST       - RESISTIVITY TYPE
RMC .OHMM     0.25                 : RMC          - RESISTIVITY OF MUD CAKE
RMF .OHMM     0.25                 : RMF          - RESISTIVITY OF MUD FILTRATE
SUFT.C        15                   : SUFT         - SURFACE TEMPERATURE
~A  DEPTH     PHID     PHIN       GR     RESD     DENS
# ...
  337.500    0.207    0.454  151.508    6.179 2355.670
  337.750    0.207    0.426  140.980    7.045 2355.700
  338.000    0.213    0.397  126.115    8.340 2345.280
  338.250    0.238    0.370   96.991    9.510 2303.530
  338.500    0.256    0.366   88.324   11.470 2272.210
  338.750    0.258    0.375   85.237   12.598 2268.070
  339.000    0.250    0.362   88.965   12.839 2282.740
  339.250    0.244    0.352   99.513   12.141 2293.220
  339.500    0.238    0.350  102.003   11.480 2303.710
  339.750    0.233    0.366  103.254   11.270 2312.090
  340.000    0.245    0.366   90.247   11.272 2291.240
  340.250    0.256    0.367   90.877   11.926 2272.470
  340.500    0.264    0.369   84.690   13.099 2257.880
  340.750    0.267    0.373   76.643   14.120 2253.720
  341.000    0.274    0.372   68.595   16.100 2241.230
  341.250    0.270    0.367   70.467   18.706 2247.540
  341.500    0.267    0.372   76.675   20.935 2253.840
  341.750    0.274    0.382   73.586   22.147 2241.330
  342.000    0.289    0.368   52.521   26.217 2216.290
  342.250    0.297    0.336   47.572   34.081 2201.710
  342.500    0.292    0.316   50.683   41.883 2210.090
  342.750    0.286    0.327   45.118   39.604 2220.570
  343.000    0.279    0.349   51.944   35.406 2233.150
  343.250    0.276    0.372   65.590   31.648 2237.370
  343.500    0.268    0.390   77.378   28.828 2252.030
  343.750    0.279    0.410   71.190   28.832 2233.260
  344.000    0.298    0.384   48.885   31.669 2199.860
  344.250    0.293    0.369   51.378   34.783 2208.260
  344.500    0.290    0.372   56.345   39.663 2214.550
  344.750    0.295    0.378   52.638   39.672 2206.230
  345.000    0.302    0.361   57.608   40.431 2193.740
  345.250    0.299    0.361   47.698   41.202 2197.950
  345.500    0.302    0.359   52.048   44.418 2193.800
  345.750    0.309    0.367   55.779   46.120 2181.300
  346.000    0.299    0.356   59.507   46.130 2198.050
  346.250    0.297    0.370   64.479   43.619 2202.270
  346.500    0.292    0.362   63.868   38.271 2210.660
  346.750    0.285    0.365   66.359   36.189 2223.230
  347.000    0.274    0.356   73.187   36.196 2242.080
  347.250    0.296    0.352   63.279   34.225 2204.500
  347.500    0.298    0.351   56.472   31.766 2200.360
  347.750    0.289    0.358   61.442   31.772 2215.020
  348.000    0.285    0.348   63.313   33.614 2223.410
  348.250    0.289    0.368   62.082   34.255 2215.090
  348.500    0.287    0.398   65.815   34.263 2219.310
  348.750    0.293    0.390   61.483   33.010 2208.890
  349.000    0.284    0.371   52.197   29.509 2223.550
  349.250    0.266    0.347   65.224   26.380 2254.930
  349.500    0.245    0.369   78.251   23.582 2290.490
  349.750    0.227    0.386   85.081   24.033 2321.870
  350.000    0.280    0.393   83.231   24.955 2232.050
  350.250    0.295    0.376   73.943   27.410 2204.930
  350.500    0.300    0.370   77.053   29.548 2196.610
  350.750    0.298    0.363   68.387   29.005 2200.820
  351.000    0.282    0.355   77.075   24.513 2228.020
  351.250    0.257    0.348  102.499   20.332 2269.850
  351.500    0.243    0.344  109.948   16.551 2294.960
  351.750    0.244    0.360   99.422   14.252 2292.910
  352.000    0.248    0.351   98.193   13.477 2286.670
  352.250    0.232    0.350  111.840   14.527 2313.870
  352.500    0.227    0.360  109.992   15.957 2322.270
  352.750    0.238    0.356  104.424   16.262 2303.500
  353.000    0.258    0.345   95.754   15.964 2268.000
  353.250    0.240    0.343   93.906   16.270 2299.390
  353.500    0.232    0.360   99.496   15.674 2314.050
  353.750    0.233    0.361  104.465   13.497 2312.000
  354.000    0.238    0.356  108.195   11.842 2303.680
  354.250    0.239    0.372  109.445   11.409 2301.620
  354.500    0.240    0.361  106.975   11.412 2299.570
  354.750    0.241    0.365  110.705   11.202 2297.510
  355.000    0.245    0.359   95.841   10.592 2291.270
  355.250    0.250    0.347  105.147   10.795 2282.950
  355.500    0.251    0.340  110.118   11.421 2280.900
  355.750    0.256    0.393  115.086   11.860 2272.580
  356.000    0.263    0.383  116.957   12.315 2260.080
  356.250    0.250    0.367  116.966   12.317 2283.100
  356.500    0.239    0.357   95.902   11.867 2301.940
  356.750    0.231    0.353   82.897   11.869 2314.510
  357.000    0.237    0.351   97.783   12.325 2304.110
  357.250    0.248    0.364  103.995   13.039 2285.330
  357.500    0.258    0.355  102.762   13.540 2268.640
  357.750    0.275    0.350   82.939   13.799 2239.430
  358.000    0.304    0.372   64.974   13.546 2189.310
  358.250    0.281    0.353   69.942   13.050 2229.050
  358.500    0.232    0.345   89.169   11.887 2312.670
  358.750    0.203    0.340  104.055   11.032 2362.870
  359.000    0.201    0.348  104.069   10.048 2367.080
  359.250    0.199    0.369  109.656    9.501 2369.200
  359.500    0.202    0.381  116.486   10.437 2365.070
  359.750    0.210    0.391  115.874   11.251 2350.470
  360.000    0.251    0.392  100.388   11.465 2281.540
  360.250    0.281    0.373   78.085   11.905 2229.330
  360.500    0.284    0.354   81.814   12.833 2225.190
  360.750    0.248    0.357   96.081   14.362 2285.830
  361.000    0.214    0.369  102.291   15.194 2344.370
  361.250    0.246    0.381   78.747   15.197 2290.070
  361.500    0.297    0.356   50.245   14.105 2202.340
  361.750    0.275    0.337   58.933   13.337 2240.000
  362.000    0.222    0.326   83.117   12.377 2329.880
  362.250    0.206    0.338  102.344   11.704 2357.090
  362.500    0.280    0.363   95.536   11.067 2231.740
  362.750    0.297    0.353   68.273   10.465 2202.530
  363.000    0.296    0.347   57.126   10.083 2204.650
  363.250    0.277    0.333   54.037    9.714 2236.030
  363.500    0.245    0.322   86.900    9.535 2290.390
  363.750    0.211    0.321  101.787    9.537 2348.940
  364.000    0.217    0.360  101.178    9.363 2338.530
  364.250    0.262    0.374   87.552    9.191 2261.240
  364.500    0.284    0.380   57.808    8.855 2223.680
  364.750    0.273    0.381   69.598    8.218 2242.530
  365.000    0.270    0.383   80.145    7.485 2248.820
  365.250    0.267    0.372   92.553    6.691 2253.030
  365.500    0.289    0.363   92.566    5.762 2215.450
  365.750    0.310    0.385   86.377    5.151 2179.960
  366.000    0.328    0.376   59.112    4.963 2148.650
  366.250    0.336    0.360   44.866    4.964 2136.160
  366.500    0.336    0.348   54.794    5.252 2136.180
  366.750    0.312    0.370   71.540    5.556    0.000
  367.000    0.213    0.386   98.204    6.103    0.000
  367.250    0.178    0.422  132.928    6.337    0.000
  367.500    0.172    0.415  136.656    6.704    0.000
  367.750    0.175    0.406  141.008    6.962    0.000
  368.000    0.180    0.392  141.017    7.229    0.000
  368.250    0.181    0.348  130.492    7.648    0.000
  368.500    0.179    0.321  134.842    8.400    0.000
  368.750    0.179    0.295  131.132    9.759    0.000
  369.000    0.180    0.258  111.306   11.128    0.000
  369.250    0.156    0.219   91.481   13.676    0.000
  369.500    0.107    0.190   40.664   17.124    0.000
  369.750    0.068    0.159   22.081   21.441    0.000
  370.000    0.055    0.128   20.855   27.355    0.000
  370.250    0.068    0.121   20.864   34.254    0.000
  370.500    0.086    0.137   20.876   42.095    0.000
  370.750    0.097    0.163   20.886   45.378    0.000
  371.000    0.101    0.175   20.892   46.246    0.000
  371.250    0.102    0.168   20.905   46.255    0.000
  371.500    0.096    0.159   20.918   43.739    0.000
  371.750    0.087    0.147   20.926   42.142    0.000
  372.000    0.080    0.141   21.555   40.603    0.000
  372.250    0.077    0.136   21.569   39.855    0.000
  372.500    0.072    0.131   20.958   39.124    0.000
  372.750    0.076    0.130   20.968   38.410    0.000
  373.000    0.081    0.133   20.978   39.140    0.000
  373.250    0.078    0.141   20.989   38.423    0.000
  373.500    0.075    0.143   20.999   38.433    0.000
  373.750    0.071    0.139   21.010   39.167    0.000
