~VERSION INFORMATION
 VERS.                 2.0:   CWLS LOG ASCII STANDARD -VERSION 2.0
 WRAP.                  NO:   ONE LINE PER DEPTH STEP
~WELL INFORMATION BLOCK
#MNEM.UNIT           DATA                    DESCRIPTION OF MNEMONIC
#---------    -------------------            -------------------------------
# Generated from Intellog Unique Number	CC_84_87/WELL/2340
NULL.         -999.25                        : NULL_VALUE
WELL.         ARCO ACI MCMURRAY              : Well_name    - WELL
LOC .         12-11-085-10W4                 : Location     - LOCATION          
UWI .         AA/12-11-085-10W400            : Uwi          - UNIQUE WELL ID    
ENTR.         DW                             : Entered      - ENTERED BY        
SRVC.         DRESSER ATLAS                  : Scn          - SERVICE COMPANY   
DATE.         31 JAN 76                      : Date         - LOG DATE
STRT.M        91.44                          : top_depth    - START DEPTH       
STOP.M        326.136                        : bot_depth    - STOP DEPTH        
STEP.M        0.3048                         : increment    - STEP LENGTH       
~CURVE INFORMATION BLOCK
#MNEM UNIT       ERCB CURVE CODE    CURVE DESCRIPTION
#-----------   ------------------   ----------------------------------
DEPT.M        00 001 00 00         : DEPTH        - DEPTH                       
RHOB.KG/M3    00 350 00 00         : DENS         - BULK DENSITY                
NPHI.V/V      00 330 00 00         : PHIN         - NEUTRON POROSITY (LIMESTONE)
GR  .API      00 310 00 00         : GR           - GAMMA RAY                   
ILD .OHMM     00 120 00 00         : RESD         - DEEP RESISTIVITY (DIL)      
~PARAMETER INFORMATION       
#MNEM.UNIT           DATA             DESCRIPTION OF MNEMONIC
#---------         -----------     ------------------------------
GL  .M        570.89               : gl           - GROUND LEVEL ELEVATION      
EREF.M        573.634              : kb           - ELEVATION OF DEPTH REFERENCE
DATM.M        573.634              : datum        - DATUM ELEVATION             
TDD .M        324.307              : tdd          - TOTAL DEPTH DRILLER         
RUN .         ONE                  : Run          - RUN NUMBER                  
ENG .         BILL                 : Engineer     - RECORDING ENGINEER          
WIT .         JIM                  : Witness      - WITNESSED BY                
MUD .         GEL                  : Mud_type     - MUD TYPE                    
MATR.         LIMESTONE            : Logunit      - NEUTRON MATRIX              
TMAX.C        15.5556              : BHT          - MAXIMUM RECORDED TEMPERATURE
BHTD.M        324.307              : BHTDEP       - MAXIMUM RECORDED TEMPERATURE
MATR.         1                    : LOGUNIT      - NEUTRON MATRIX              
RMT .C        25                   : MDTP         - TEMPERATURE OF MUD          
NEUT.         1                    : NEUTRON      - NEUTRON TYPE                
RESI.         0                    : RESIST       - RESISTIVITY TYPE            
RMC .OHMM     0.25                 : RMC          - RESISTIVITY OF MUD CAKE     
RMF .OHMM     0.25                 : RMF          - RESISTIVITY OF MUD FILTRATE 
SUFT.C        15                   : SUFT         - SURFACE TEMPERATURE         
~A  DEPTH     DENS     PHIN       GR     RESD
   91.440 2183.090    0.465   91.790    2.877
   91.745 2160.940    0.462   90.579    3.217
   92.050 2158.920    0.466   88.775    3.733
   92.354 2132.750    0.477   83.368    4.098
   92.659 2070.360    0.450   74.964    4.178
   92.964 2090.470    0.376   65.359    4.103
   93.269 2130.700    0.176   52.158    4.422
   93.574 2156.840    0.398   40.756    5.326
   93.878 2162.860    0.477   49.142    5.231
   94.183 2070.300    0.386   56.929    4.349
   94.488 2007.910    0.373   51.523    3.966
   94.793 2056.190    0.370   35.922    3.824
   95.098 2098.420    0.397   42.510    3.756
   95.402 2116.520    0.429   61.090    4.048
   95.707 2573.220    0.292   68.878    4.611
   96.012 2194.960    0.170   62.870    4.529
   96.317 2098.370    0.231   43.670    4.055
   96.622 2090.310    0.293   48.460    3.498
   96.926 2106.390    0.443   60.447    2.700
   97.231 2102.360    0.511   91.619    2.373
   97.536 2108.380    0.498   94.009    2.375
   97.841 2202.920    0.481   93.399    2.559
   98.146 2200.900    0.482   91.593    2.758
   98.450 2176.750    0.464   90.383    2.917
   98.755 2122.410    0.478   92.773    2.919
   99.060 2128.430    0.468   95.162    2.975
   99.365 2154.570    0.462   96.356    3.207
   99.670 2158.580    0.457   97.546    3.208
   99.975 2154.540    0.445   96.936    3.211
  100.279 2148.500    0.487   95.728    3.153
  100.584 2178.660    0.440   96.920    3.097
  100.889 2255.100    0.426  100.509    3.043
  101.194 2281.250    0.434  101.099    3.044
  101.498 2212.830    0.454   99.888    3.103
  101.803 2146.420    0.455  100.479    3.162
  102.108 2126.280    0.432   99.874    3.284
  102.413 2206.750    0.424   95.068    3.286
  102.718 2236.920    0.438   90.860    3.169
  103.022 2242.940    0.456   89.653    3.112
  103.327 2178.540    0.465   92.639    3.114
  103.632 2154.390    0.461   91.433    3.294
  103.937 2162.420    0.453   87.826    3.484
  104.242 2134.240    0.451   86.017    3.897
  104.546 2232.810    0.454   87.207    4.608
  104.851 2516.480    0.454   87.801    5.248
  105.156 2484.280    0.301   85.393    7.064
  105.461 2128.150    0.312   75.788    9.335
  105.766 2194.530    0.355   70.981    9.694
  106.070 2224.700    0.350   72.770    9.523
  106.375 2238.770    0.319   74.561    8.685
  106.680 2234.730    0.318   79.348    8.067
  106.985 2194.480    0.329   81.142    7.495
  107.290 2148.190    0.348   83.529    8.077
  107.595 2124.040    0.372   82.321    8.866
  107.899 2136.090    0.382   81.115    9.734
  108.204 2071.700    0.379   76.908   10.296
  108.509 2045.530    0.381   69.703   10.892
  108.814 2073.680    0.387   64.897   11.103
  109.119 2081.720    0.380   64.287   11.320
  109.423 2089.750    0.384   73.273   11.536
  109.728 2097.790    0.389   78.662   11.335
  110.033 2142.040    0.377   84.047   10.927
  110.338 2176.230    0.368   82.840    9.784
  110.643 2240.600    0.350   79.236    9.431
  110.947 2216.440    0.333   76.826   10.743
  111.252 2196.310    0.328   75.620   13.679
  111.557 2127.890    0.357   64.816   16.783
  111.862 2111.780    0.363   54.013   19.843
  112.167 2121.820    0.357   40.809   20.993
  112.471 2135.890    0.344   40.801   18.452
  112.776 2109.730    0.339   45.585   15.915
  113.081 2111.720    0.345   48.576   10.206
  113.386 2172.070    0.335   52.169    9.308
  113.691 2200.220    0.332   76.147    8.031
  113.995 2202.220    0.334   84.532    7.060
  114.300 2232.390    0.374   85.724    6.681
  114.605 2256.520    0.391   83.916    6.442
  114.910 2254.490    0.396   84.507    6.328
  115.215 2222.290    0.392   89.294    6.330
  115.519 2204.170    0.405   91.086    6.453
  115.824 2224.270    0.420   88.677    6.701
  116.129 2242.370    0.398   85.069    6.959
  116.434 2278.570    0.397   86.860    6.835
  116.739 2242.340    0.404   91.050    6.838
  117.043 2192.030    0.391   92.840    6.717
  117.348 2155.800    0.367   94.029    6.720
  117.653 2175.910    0.378   92.221    6.852
  117.958 2198.030    0.391   89.216    7.114
  118.263 2234.230    0.395   86.807    7.668
  118.567 2248.300    0.381   88.598    7.961
  118.872 2185.910    0.374   86.190    8.420
  119.177 2171.820    0.362   79.584    9.593
  119.482 2165.770    0.361   75.979   10.148
  119.787 2165.750    0.354   71.170   10.154
  120.091 2175.800    0.371   67.564   10.159
  120.396 2187.860    0.395   66.354   10.552
  120.701 2218.030    0.392   67.544   10.956
  121.006 2262.280    0.357   69.933   11.377
  121.311 2187.820    0.342   69.927   11.812
  121.615 2135.500    0.357   66.919   12.494
  121.920 2123.410    0.360   61.515   12.975
  122.225 2165.650    0.366   58.505   13.725
  122.530 2161.610    0.389   56.700   15.636
  122.835 2056.980    0.411   50.694   18.838
  123.139 2081.110    0.432   44.089   20.295
  123.444 1992.570    0.483   36.883   21.071
  123.749 2018.710    0.507   36.272   21.483
  124.054 1996.560    0.424   37.463   21.105
  124.359 2079.040    0.406   38.056   20.726
  124.663 2010.620    0.407   38.643   21.126
  124.968 2032.740    0.428   39.837   21.535
  125.273 2026.690    0.394   39.829   20.760
  125.578 1992.480    0.390   42.815   20.393
  125.883 1976.370    0.411   41.010   20.406
  126.187 2006.530    0.465   38.001   20.423
  126.492 1982.380    0.482   38.593   20.060
  126.797 1946.150    0.447   40.382   19.340
  127.102 2070.880    0.420   41.571   18.645
  127.407 1990.380    0.428   42.160   17.646
  127.711 2056.760    0.499   42.756   16.395
  128.016 2086.930    0.457   44.543   15.813
  128.321 2060.760    0.434   48.134   15.822
  128.626 1998.380    0.437   49.325   16.125
  128.931 2074.820    0.429   46.914   18.032
  129.235 2066.760    0.411   46.309   19.431
  129.540 2056.680    0.397   45.100   19.442
  129.845 2088.860    0.381   46.290   17.735
  130.150 2123.050    0.357   48.076   17.097
  130.455 2129.080    0.364   49.870   16.185
  130.759 2114.980    0.372   52.860   16.192
  131.064 2092.830    0.357   54.651   15.613
  131.369 2110.930    0.367   64.836   11.399
  131.674 2143.110    0.397   72.624    7.729
  131.979 2175.280    0.409   89.405    6.667
  132.283 2207.460    0.411  100.790    5.543
  132.588 2372.430    0.441  107.378    4.359
  132.893 2126.960    0.469  112.765    3.761
  133.198 2293.930    0.456  111.557    3.693
  133.503 2247.650    0.462  111.548    3.907
  133.807 2189.290    0.450  113.937    4.452
  134.112 2193.300    0.455  113.331    4.796
  134.417 2159.080    0.480  107.924    5.887
  134.722 2094.690    0.455  100.718    6.460
  135.027 2048.400    0.419   92.914    9.719
  135.331 2026.250    0.363   84.510   11.278
  135.636 2108.730    0.370   78.504   14.631
  135.941 2062.440    0.357   74.296   15.765
  136.246 2062.430    0.346   75.489   16.073
  136.550 2090.580    0.340   81.476   15.211
  136.855 2114.710    0.337   83.866   14.133
  137.160 2136.830    0.339   83.258   13.627
  137.465 2116.700    0.363   81.449   13.137
  137.770 2112.660    0.360   80.239   12.905
  138.074 2104.600    0.354   80.831   13.153
  138.379 2084.470    0.348   82.023   14.712
  138.684 2094.510    0.343   83.813   14.993
  138.989 2128.700    0.353   87.401   14.192
  139.294 2120.640    0.344   95.188   12.705
  139.598 2140.750    0.347   96.377    9.991
  139.903 2074.340    0.366   89.174    8.461
  140.208 1973.730    0.403   87.964    8.785
  140.513 2116.570    0.423   93.352   11.187
  140.818 2098.440    0.317   93.943   13.728
  141.122 2054.170    0.345   87.939   14.789
  141.427 2088.360    0.368   82.532   15.358
  141.732 2144.680    0.379   83.723   15.656
  142.037 2142.650    0.365   89.711   15.093
  142.342 2120.510    0.356   99.897   14.289
  142.646 2106.410    0.348  103.486   13.775
  142.951 2100.360    0.342   95.081   13.039
  143.256 2114.430    0.332   74.683   11.894
  143.561 2194.900    0.320   73.472   11.679
  143.866 2180.800    0.317   77.063   10.653
  144.170 2170.730    0.323   83.051    9.901
