~VERSION INFORMATION
 VERS.                 2.0:   CWLS LOG ASCII STANDARD -VERSION 2.0
 WRAP.                  NO:   ONE LINE PER DEPTH STEP
~WELL INFORMATION BLOCK
#MNEM.UNIT           DATA                    DESCRIPTION OF MNEMONIC
#---------    -------------------            -------------------------------
# Generated from Intellog Unique Number	CC_84_87/WELL/2307
NULL.         -999.25                        : NULL_VALUE
WELL.         PEX PCEJ MCMURRAY OV           : Well_name    - WELL
LOC .         10-26-087-16W4                 : Location     - LOCATION          
UWI .         AA/10-26-087-16W400            : Uwi          - UNIQUE WELL ID    
ENTR.         JOHN                           : Entered      - ENTERED BY        
SRVC.         SCHLUMBERGER                   : Scn          - SERVICE COMPANY   
DATE.         07 MAR 79                      : Date         - LOG DATE
STRT.M        100                            : top_depth    - START DEPTH       
STOP.M        265.001                        : bot_depth    - STOP DEPTH        
STEP.M        0.3                            : increment    - STEP LENGTH       
~CURVE INFORMATION BLOCK
#MNEM UNIT       ERCB CURVE CODE    CURVE DESCRIPTION
#-----------   ------------------   ----------------------------------
DEPT.M        00 001 00 00         : DEPTH        - DEPTH                       
DPHI.V/V      00 890 00 00         : PHID         - DENSITY POROSITY (LIMESTONE)
NPHI.V/V      00 330 00 00         : PHIN         - NEUTRON POROSITY (LIMESTONE)
GR  .API      00 310 00 00         : GR           - GAMMA RAY                   
ILD .OHMM     00 120 00 00         : RESD         - DEEP RESISTIVITY (DIL)      
~PARAMETER INFORMATION       
#MNEM.UNIT           DATA             DESCRIPTION OF MNEMONIC
#---------         -----------     ------------------------------
GL  .M        517.6                : gl           - GROUND LEVEL ELEVATION      
EREF.M        521.25               : kb           - ELEVATION OF DEPTH REFERENCE
DATM.M        521.25               : datum        - DATUM ELEVATION             
TDD .M        271                  : tdd          - TOTAL DEPTH DRILLER         
RUN .         ONE                  : Run          - RUN NUMBER                  
ENG .         BILL                 : Engineer     - RECORDING ENGINEER          
WIT .         JIM                  : Witness      - WITNESSED BY                
MUD .         GEL                  : Mud_type     - MUD TYPE                    
MATR.         LIMESTONE            : Logunit      - NEUTRON MATRIX              
TMAX.C        60                   : BHT          - MAXIMUM RECORDED TEMPERATURE
BHTD.M        271                  : BHTDEP       - MAXIMUM RECORDED TEMPERATURE
MATR.         1                    : LOGUNIT      - NEUTRON MATRIX              
RMT .C        25                   : MDTP         - TEMPERATURE OF MUD          
NEUT.         1                    : NEUTRON      - NEUTRON TYPE                
RESI.         0                    : RESIST       - RESISTIVITY TYPE            
RMC .OHMM     0.25                 : RMC          - RESISTIVITY OF MUD CAKE     
RMF .OHMM     0.25                 : RMF          - RESISTIVITY OF MUD FILTRATE 
SUFT.C        15                   : SUFT         - SURFACE TEMPERATURE         
~A  DEPTH     PHID     PHIN       GR     RESD
# ...
  204.401    0.246    0.413  116.063   16.769
  204.701    0.226    0.407  110.558   14.989
  205.001    0.219    0.397  112.429   13.652
  205.301    0.227    0.397  116.764   12.672
  205.601    0.212    0.421  118.636   11.985
  205.901    0.251    0.442  114.361   11.987
  206.201    0.261    0.415  111.315   11.993
  206.501    0.242    0.413  110.731   12.458
  206.801    0.197    0.428  113.213   12.700
  207.101    0.159    0.415  120.619   12.469
  207.401    0.150    0.425  124.338   11.790
  207.701    0.197    0.405  123.139   11.578
  208.001    0.198    0.398  121.315   12.024
  208.301    0.203    0.405  119.500   13.213
  208.601    0.186    0.416  116.456   12.973
  208.901    0.171    0.424  114.021   11.169
  209.201    0.124    0.426  113.437    9.090
  209.501    0.080    0.400  107.933    6.862
  209.801    0.195    0.418  111.647    5.180
  210.101    0.218    0.468  122.740    4.718
  210.401    0.235    0.484  123.997    5.185
  210.701    0.231    0.499  122.801    8.774
  211.001    0.250    0.493   96.386   14.301
  211.301    0.288    0.456   67.519   20.438
  211.601    0.305    0.380   60.169   32.693
  211.901    0.306    0.380   60.814   36.607
  212.201    0.299    0.374   64.535   38.746
  212.501    0.277    0.377   63.944   35.960
  212.801    0.277    0.394   63.968   29.819
  213.101    0.285    0.399   66.458   27.160
  213.401    0.277    0.401   69.563   26.169
  213.701    0.294    0.399   70.201   26.183
  214.001    0.284    0.400   68.389   27.194
  214.301    0.280    0.406   67.802   29.328
  214.601    0.289    0.412   68.444   34.094
  214.901    0.285    0.417   67.853   46.932
  215.201    0.288    0.431   62.963   57.721
  215.501    0.302    0.450   61.156   68.379
  215.801    0.314    0.438   61.175   72.371
  216.101    0.318    0.434   62.435   68.446
  216.401    0.313    0.443   63.075   64.718
  216.701    0.303    0.439   66.792   54.686
  217.001    0.294    0.429   70.507   46.204
  217.301    0.282    0.423   70.536   43.691
  217.601    0.286    0.425   69.955   39.797
  217.901    0.305    0.432   70.591   36.936
  218.201    0.289    0.445   73.084   33.642
  218.501    0.284    0.453   74.956   31.812
  218.801    0.291    0.452   75.596   30.081
  219.101    0.290    0.432   73.784   28.447
  219.401    0.288    0.425   72.574   26.400
  219.701    0.293    0.415   76.906   24.502
  220.001    0.286    0.437   80.628   27.435
  220.301    0.248    0.437   78.191   25.462
  220.601    0.107    0.404   75.150   10.741
  220.901    0.055    0.334   75.174    4.794
  221.201    0.078    0.345   89.955    3.975
  221.501    0.202    0.404  119.496    3.175
  221.801    0.259    0.503  135.510    2.892
  222.101    0.269    0.604  133.693    2.948
  222.401    0.266    0.626  123.269    3.005
  222.701    0.279    0.577  125.761    3.302
  223.001    0.248    0.515  124.558    3.767
  223.301    0.253    0.496  127.042    4.463
  223.601    0.235    0.477  125.840    4.813
  223.901    0.231    0.479  121.573    4.384
  224.201    0.221    0.445  122.821    3.919
  224.501    0.235    0.435  131.458    3.847
  224.801    0.238    0.490  132.714    4.309
  225.101    0.193    0.505  122.288    4.734
  225.401    0.133    0.503  108.792    7.716
  225.701    0.103    0.442  100.211   11.028
  226.001    0.200    0.381   92.246   13.563
  226.301    0.301    0.387   83.054   15.768
  226.601    0.351    0.313   68.323   17.005
  226.901    0.364    0.289   64.051   17.335
  227.201    0.335    0.302   65.928   17.019
  227.501    0.333    0.335   69.638   17.678
  227.801    0.306    0.388   76.429   20.942
  228.101    0.260    0.411   78.303   29.929
  228.401    0.267    0.416   67.263   41.200
  228.701    0.286    0.404   53.150   57.787
  229.001    0.294    0.367   48.262   72.421
  229.301    0.299    0.381   45.215   62.351
  229.601    0.282    0.372   45.240   52.680
  229.901    0.304    0.375   56.334   36.205
  230.201    0.291    0.358   68.044   29.466
  230.501    0.283    0.366   86.518   30.605
  230.801    0.265    0.430   84.699   39.822
  231.101    0.259    0.404   66.283   99.952
  231.401    0.252    0.360   68.162  130.052
  231.701    0.207    0.334   66.954  154.066
  232.001    0.129    0.329   64.526  127.747
  232.301    0.148    0.369   66.394   58.094
  232.601    0.257    0.333   73.184   41.456
  232.901    0.231    0.317   82.438   34.375
  233.201    0.190    0.326   89.225   32.509
  233.501    0.226    0.376   90.486   36.402
  233.801    0.258    0.400   81.906   40.756
  234.101    0.270    0.431   77.013   53.029
  234.401    0.306    0.421   75.820   61.650
  234.701    0.297    0.398   77.073   60.535
  235.001    0.281    0.393   80.173   56.182
  235.301    0.291    0.407   86.966   38.609
  235.601    0.272    0.401   96.828   26.043
  235.901    0.256    0.378  104.235   27.565
  236.201    0.248    0.374  103.645   29.727
  236.501    0.251    0.392   91.994   28.645
  236.801    0.272    0.371   89.564   25.128
  237.101    0.211    0.362   94.510   23.320
  237.401    0.217    0.357  101.298   22.052
  237.701    0.215    0.357  100.710   22.062
  238.001    0.227    0.360  102.586   20.864
  238.301    0.239    0.394  109.374   19.004
  238.601    0.224    0.391  107.559   17.971
  238.901    0.203    0.371   99.594   17.644
  239.201    0.217    0.349  100.235   17.651
  239.501    0.215    0.376  101.493   20.524
  239.801    0.220    0.404   95.374   22.132
  240.101    0.278    0.392   81.875   26.713
  240.401    0.284    0.384   85.591   27.232
  240.701    0.251    0.414   95.457   21.749
  241.001    0.235    0.412  100.406   17.370
  241.301    0.208    0.405  109.657   14.675
  241.601    0.197    0.407  121.363   14.409
  241.901    0.200    0.415  120.778   15.252
  242.201    0.214    0.412  114.655   16.761
  242.501    0.255    0.413  107.304   18.074
  242.801    0.278    0.375   96.881   20.240
  243.101    0.293    0.379   88.921   21.420
  243.401    0.310    0.403   87.100   23.984
  243.701    0.332    0.412   92.048   25.865
  244.001    0.331    0.402  100.069   26.869
  244.301    0.304    0.392  107.474   26.881
  244.601    0.234    0.393  107.504   26.392
  244.901    0.243    0.403  106.299   26.902
  245.201    0.251    0.410  105.096   29.016
  245.501    0.274    0.409   95.906   30.135
  245.801    0.263    0.399   97.161   33.745
  246.101    0.256    0.387  106.409   32.516
  246.401    0.259    0.383  108.287   30.177
  246.701    0.243    0.365  108.928   25.980
  247.001    0.230    0.370  110.797   21.951
  247.301    0.231    0.373  113.285   18.899
  247.602    0.218    0.363  116.389   16.893
  247.902    0.206    0.358  120.106   15.386
  248.202    0.205    0.367  121.363   14.825
  248.502    0.195    0.379  120.774   15.401
  248.802    0.197    0.374  113.425   16.923
  249.102    0.192    0.358  105.459   15.127
  249.402    0.195    0.358  100.567   11.419
  249.702    0.249    0.416  109.819   14.858
  250.002    0.262    0.474  109.848   20.073
  250.302    0.259    0.423  105.577   21.244
  250.602    0.227    0.342  110.518   27.644
  250.902    0.212    0.350  107.473   29.257
  251.202    0.227    0.369   97.050   29.271
  251.502    0.250    0.383   92.771   30.979
  251.802    0.258    0.398   94.642   34.691
  252.102    0.262    0.409   89.752   36.032
  252.402    0.267    0.403   89.171   29.324
  252.702    0.268    0.391   94.114   21.320
  253.002    0.274    0.377  106.438   14.380
  253.302    0.223    0.388  128.599   13.346
  253.602    0.247    0.453  127.395   14.666
  253.902    0.328    0.525  103.445   17.050
  254.202    0.378    0.614   92.410   22.605
  254.502    0.351    0.455  101.658   24.840
  254.802    0.301    0.407  112.754   22.205
  255.102    0.257    0.395  119.544   15.844
  255.402    0.217    0.383  123.259   10.102
  255.702    0.223    0.406  125.131    8.535
  256.002    0.304    0.534  124.549    8.701
  256.302    0.310    0.571  116.581   11.112
