~VERSION INFORMATION
 VERS.                 2.0:   CWLS LOG ASCII STANDARD -VERSION 2.0
 WRAP.                  NO:   ONE LINE PER DEPTH STEP
~WELL INFORMATION BLOCK
#MNEM.UNIT           DATA                    DESCRIPTION OF MNEMONIC
#---------    -------------------            -------------------------------
# Generated from Intellog Unique Number	CN_91_93/WELL/3694
WELL.         10-12-093-08W4                 : Well_name    - WELL
LOC .         AA/10-12-093-08W4/0            : Location     - LOCATION
UWI .         AA/10-12-093-08W400            : Uwi          - UNIQUE WELL ID
ENTR.         JOETTE                         : Entered      - ENTERED BY
SRVC.         SCHLUMBERGER                   : Scn          - SERVICE COMPANY
DATE.         03/22/92                       : Date         - LOG DATE
STRT.M        75                             : top_depth    - START DEPTH
STOP.M        225                            : bot_depth    - STOP DEPTH
STEP.M        0.25                           : increment    - STEP LENGTH
 NULL. -999.2500:NULL Value
~CURVE INFORMATION BLOCK
#MNEM UNIT       ERCB CURVE CODE    CURVE DESCRIPTION
#-----------   ------------------   ----------------------------------
DEPT.M        00 001 00 00         : DEPTH        - DEPTH
CALI.MM       00 280 01 00         : CAL          - CALIPER
GR  .API      00 310 00 00         : GR           - GAMMA RAY
NPHI.V/V      00 330 00 00         : PHIN         - NEUTRON POROSITY (SANDSTONE)
DPHI.V/V      00 890 00 00         : PHID         - DENSITY POROSITY (SANDSTONE)
ILD .OHMM     00 120 00 00         : RESD         - DEEP RESISTIVITY (DIL)
~PARAMETER INFORMATION
#MNEM.UNIT           DATA             DESCRIPTION OF MNEMONIC
#---------         -----------     ------------------------------
GL  .M        475.8                : gl           - GROUND LEVEL ELEVATION
EREF.M        475.8                : kb           - ELEVATION OF DEPTH REFERENCE
DATM.M        475.8                : datum        - DATUM ELEVATION
TDD .M        256.7                : tdd          - TOTAL DEPTH DRILLER
RUN .         ONE                  : Run          - RUN NUMBER
ENG .         BILL                 : Engineer     - RECORDING ENGINEER
WIT .         JIM                  : Witness      - WITNESSED BY
MUD .         GEL                  : Mud_type     - MUD TYPE
MATR.         SANDSTONE            : Logunit      - NEUTRON MATRIX
TMAX.C        16                   : BHT          - MAXIMUM RECORDED TEMPERATURE
BHTD.M        256.7                : BHTDEP       - MAXIMUM RECORDED TEMPERATURE
RMT .C        14                   : MDTP         - TEMPERATURE OF MUD
MUDD.KG/M     1070                 : MWT          - MUD DENSITY
NEUT.         1                    : NEUTRON      - NEUTRON TYPE
RESI.         0                    : RESIST       - RESISTIVITY TYPE
RM  .OHMM     4.5                  : RM           - RESISTIVITY OF MUD
RMC .OHMM     4.5                  : RMC          - RESISTIVITY OF MUD CAKE
RMF .OHMM     4.5                  : RMF          - RESISTIVITY OF MUD FILTRATE
SUFT.C        4                    : SUFT         - SURFACE TEMPERATURE
~A  DEPTH      CAL       GR     PHIN     PHID     RESD
# ...
  184.500  125.966   44.286    0.383    0.313  119.164
  184.750  126.029   40.156    0.392    0.295  149.050
  185.000  127.085   34.834    0.393    0.304  191.707
  185.250  128.173   31.904    0.367    0.331  233.192
  185.500  128.220   30.155    0.357    0.350  214.610
  185.750  129.323   27.811    0.358    0.326  208.873
  186.000  129.371   25.457    0.376    0.329  240.248
  186.250  130.411   25.495    0.387    0.333  380.969
  186.500  130.474   32.084    0.373    0.346  350.611
  186.750  131.514   38.077    0.372    0.338  234.088
  187.000  131.577   42.284    0.375    0.333  192.689
  187.250  132.633   37.557    0.369    0.337  160.840
  187.500  132.696   39.977    0.371    0.345  143.951
  187.750  133.784   52.531    0.366    0.346  127.072
  188.000  133.831   67.457    0.386    0.322  112.136
  188.250  132.886   90.135    0.437    0.306   88.522
  188.500  131.957   80.058    0.481    0.243  110.724
  188.750  132.020   84.255    0.455    0.297  132.819
  189.000  130.129   69.396    0.460    0.351  118.873
  189.250  130.193   55.141    0.456    0.368  103.464
  189.500  129.263   50.414    0.445    0.379   96.556
  189.750  129.327   44.497    0.419    0.385   95.280
  190.000  129.406   43.949    0.397    0.384  102.243
  190.250  128.445   43.391    0.391    0.368  117.620
  190.500  128.540   44.025    0.393    0.359  194.483
  190.750  128.571   45.840    0.396    0.360  178.957
  191.000  127.673   48.855    0.386    0.355  176.591
  191.250  127.721   47.107    0.376    0.338  186.842
  191.500  127.768   43.581    0.380    0.365  181.818
  191.750  127.863   50.765    0.388    0.376  158.251
  192.000  127.911   56.163    0.381    0.340  123.196
  192.250  127.958   63.943    0.388    0.316  104.277
  192.500  128.053   70.532    0.391    0.260   89.503
  192.750  129.093   67.592    0.413    0.280   83.528
  193.000  129.140   70.608    0.441    0.296   96.090
  193.250  129.251   67.668    0.429    0.313  112.095
  193.500  129.283   60.559    0.413    0.286  146.199
  193.750  129.362   53.451    0.401    0.278  231.833
  194.000  129.409   71.364    0.390    0.309  225.600
  194.250  129.488   63.660    0.418    0.349  196.357
  194.500  129.567   54.756    0.434    0.337  173.304
  194.750  130.607   51.221    0.421    0.343  159.520
  195.000  130.686   56.032    0.425    0.344  159.622
  195.250  130.718   53.093    0.427    0.305  155.330
  195.500  131.773   48.971    0.424    0.307  151.130
  195.750  132.845   45.427    0.416    0.316  141.062
  196.000  132.908   40.691    0.406    0.325  162.252
  196.250  133.964   35.965    0.391    0.352  189.306
  196.500  134.012   32.429    0.375    0.360  189.427
  196.750  134.075   31.276    0.367    0.362  192.179
  197.000  135.146   30.718    0.367    0.337  197.742
  197.250  136.218   30.161    0.365    0.331  322.435
  197.500  136.297   29.613    0.362    0.337  408.968
  197.750  137.337   28.479    0.355    0.332  457.533
  198.000  137.384   28.498    0.359    0.324  511.867
  198.250  138.456   27.940    0.361    0.315  556.988
  198.500  138.503   27.978    0.345    0.316  614.501
  198.750  138.582   27.439    0.362    0.326  726.917
  199.000  138.630   27.468    0.366    0.324  922.002
  199.250  138.709   26.315    0.355    0.324 1271.510
  199.500  138.756   24.566    0.345    0.328 1635.670
  199.750  137.843   22.231    0.339    0.328 1804.560
  200.000  137.922   22.250    0.330    0.316 1731.720
  200.250  136.961   24.075    0.324    0.303 1486.370
  200.500  137.040   24.708    0.321    0.291 1293.700
  200.750  136.126   28.319    0.313    0.286 1110.420
  201.000  136.205   36.704    0.308    0.291  494.749
  201.250  135.245   45.675    0.310    0.296  442.799
  201.500  135.324   55.242    0.315    0.292  380.064
  201.750  135.371   57.662    0.346    0.279  268.354
  202.000  135.450   63.059    0.371    0.271  147.389
  202.250  135.529   80.973    0.388    0.271  114.740
  202.500  135.576   81.606    0.387    0.244  102.725
  202.750  135.624   71.530    0.386    0.237   97.197
  203.000  135.719   68.580    0.387    0.225  104.267
  203.250  135.750   50.157    0.399    0.232  218.533
  203.500  135.845   45.421    0.411    0.263  241.099
  203.750  135.877   47.851    0.393    0.291  301.568
  204.000  135.956   52.057    0.369    0.319  269.902
  204.250  136.996   57.455    0.359    0.334  244.954
  204.500  137.059   56.897    0.368    0.324  213.202
  204.750  137.122   60.518    0.395    0.332  152.651
  205.000  137.217   64.120    0.395    0.302  270.593
  205.250  137.296   55.820    0.386    0.271  338.513
  205.500  137.344   32.642    0.370    0.259  423.415
  205.750  137.391   36.253    0.349    0.270  353.429
  206.000  137.486   39.269    0.322    0.276  316.318
  206.250  136.541   34.533    0.304    0.263  287.079
  206.500  136.604   28.616    0.322    0.253  253.376
  206.750  136.651   23.303    0.315    0.264  223.630
  207.000  136.730   20.354    0.311    0.284  194.642
  207.250  136.778   23.379    0.311    0.295  194.798
  207.500  136.841   27.576    0.312    0.287  206.138
  207.750  136.920   27.614    0.314    0.288  212.037
  208.000  136.999   27.066    0.318    0.293  230.692
  208.250  137.031   27.104    0.325    0.290  288.550
  208.500  137.126   27.132    0.334    0.288  318.345
  208.750  137.173   28.361    0.340    0.294  346.353
  209.000  137.268   27.813    0.346    0.304  341.774
  209.250  137.331   30.224    0.348    0.309  323.436
  209.500  137.379   28.475    0.342    0.301  301.843
  209.750  137.426   26.140    0.334    0.291  277.834
  210.000  137.505   24.392    0.315    0.291  259.285
  210.250  137.552   24.420    0.310    0.293  241.975
  210.500  137.631   25.659    0.312    0.286  228.955
  210.750  137.679   27.483    0.310    0.284  235.582
  211.000  137.742   29.903    0.306    0.284  267.302
  211.250  137.821   32.323    0.304    0.286  256.512
  211.500  138.877   35.339    0.301    0.284  226.398
  211.750  138.924   38.950    0.295    0.276  205.471
  212.000  138.988   43.752    0.288    0.266  191.753
  212.250  139.067   59.879    0.291    0.266  364.456
  212.500  139.114   35.491    0.288    0.261  396.519
  212.750  139.177   28.978    0.286    0.253  370.106
  213.000  139.272   29.016    0.282    0.249  345.397
  213.250  139.320   30.245    0.279    0.249  326.812
  213.500  139.383   33.865    0.280    0.249  237.282
  213.750  139.446   38.677    0.280    0.242  182.191
  214.000  139.525   41.088    0.278    0.248  195.474
  214.250  139.588   38.743    0.275    0.253  212.638
  214.500  139.636   36.409    0.273    0.264  180.041
  214.750  139.731   35.842    0.286    0.269  177.604
  215.000  139.794   36.475    0.297    0.264  172.829
  215.250  139.825   36.513    0.301    0.258  165.880
  215.500  139.889   37.147    0.277    0.249  165.959
  215.750  139.983   37.194    0.275    0.249  159.286
  216.000  140.031   36.636    0.283    0.255  157.155
  216.250  140.094   35.483    0.289    0.262  166.278
  216.500  140.157   30.747    0.303    0.270  186.023
  216.750  140.205   30.785    0.313    0.277  205.297
  217.000  138.299   35.011    0.312    0.281  194.282
  217.250  136.393   37.422    0.298    0.273  183.858
  217.500  133.462   37.469    0.293    0.268  173.965
  217.750  130.564   35.125    0.321    0.266  166.943
  218.000  129.634   33.972    0.442    0.266  147.344
  218.250  128.705   60.799    0.479    0.253  130.025
  218.500  128.753   68.588    0.489   -0.024   76.584
  218.750  127.839   76.368    0.487   -0.011   67.604
  219.000  127.902   74.620    0.486    0.012   68.597
  219.250  127.966   66.916    0.497    0.021   65.818
  219.500  128.045   59.212    0.487    0.036   78.952
  219.750  128.092   47.944    0.297    0.049  101.563
  220.000  128.155   46.176    0.270    0.041  118.479
  220.250  128.218   34.304    0.251    0.019  136.298
  220.500  129.290   30.182    0.251    0.012  170.482
  220.750  129.322   29.029    0.246   -0.001  185.510
