~VERSION INFORMATION
 VERS.                 2.0:   CWLS LOG ASCII STANDARD -VERSION 2.0
 WRAP.                  NO:   ONE LINE PER DEPTH STEP
~WELL INFORMATION BLOCK
#MNEM.UNIT           DATA                    DESCRIPTION OF MNEMONIC
#---------    -------------------            -------------------------------
# Generated from Intellog Unique Number	CS_77_79/WELL/964
WELL.         PEX PCEJ LEISMER OV            : Well_name    - WELL
LOC .         AA/10-26-079-08W4/0            : Location     - LOCATION
UWI .         AA/10-26-079-08W4/0            : Uwi          - UNIQUE WELL ID
ENTR.         JHS                            : Entered      - ENTERED BY
SRVC.         SCHLUMBERGER                   : Scn          - SERVICE COMPANY
STRT.M        175                            : top_depth    - START DEPTH
STOP.M        400                            : bot_depth    - STOP DEPTH
STEP.M        0.25                           : increment    - STEP LENGTH
 NULL. -999.2500:NULL Value
~CURVE INFORMATION BLOCK
#MNEM UNIT       ERCB CURVE CODE    CURVE DESCRIPTION
#-----------   ------------------   ----------------------------------
DEPT.M        00 001 00 00         : DEPTH        - DEPTH
DPHI.V/V      00 890 00 00         : PHID         - DENSITY POROSITY (LIMESTONE)
NPHI.V/V      00 330 00 00         : PHIN         - NEUTRON POROSITY (LIMESTONE)
GR  .API      00 310 00 00         : GR           - GAMMA RAY
ILD .OHMM     00 120 00 00         : RESD         - DEEP RESISTIVITY (DIL)
RHOB.KG/M3    00 350 00 00         : DENS         - BULK DENSITY
~PARAMETER INFORMATION
#MNEM.UNIT           DATA             DESCRIPTION OF MNEMONIC
#---------         -----------     ------------------------------
GL  .M        614.8                : gl           - GROUND LEVEL ELEVATION
EREF.M        618.45               : kb           - ELEVATION OF DEPTH REFERENCE
DATM.M        618.45               : datum        - DATUM ELEVATION
TDD .M        407.6                : tdd          - TOTAL DEPTH DRILLER
RUN .         ONE                  : Run          - RUN NUMBER
ENG .         BILL                 : Engineer     - RECORDING ENGINEER
WIT .         JIM                  : Witness      - WITNESSED BY
MUD .         GEL                  : Mud_type     - MUD TYPE
MATR.         LIMESTONE            : Logunit      - NEUTRON MATRIX
TMAX.C        19                   : BHT          - MAXIMUM RECORDED TEMPERATURE
BHTD.M        407.6                : BHTDEP       - MAXIMUM RECORDED TEMPERATURE
MATR.         1                    : LOGUNIT      - NEUTRON MATRIX
RMT .C        25                   : MDTP         - TEMPERATURE OF MUD
NEUT.         1                    : NEUTRON      - NEUTRON TYPE
RESI.         0                    : RESIST       - RESISTIVITY TYPE
RMC .OHMM     0.25                 : RMC          - RESISTIVITY OF MUD CAKE
RMF .OHMM     0.25                 : RMF          - RESISTIVITY OF MUD FILTRATE
SUFT.C        15                   : SUFT         - SURFACE TEMPERATURE
~A  DEPTH     PHID     PHIN       GR     RESD     DENS
# ...
  284.500    0.262    0.375   88.151   10.554    0.000
  284.750    0.266    0.386   85.659   10.754    0.000
  285.000    0.271    0.364   86.270   10.957    0.000
  285.250    0.268    0.353   86.260   10.956    0.000
  285.500    0.264    0.348   82.531   11.163    0.000
  285.750    0.259    0.353   86.238   11.162    0.000
  286.000    0.260    0.348   92.423   11.162    0.000
  286.250    0.261    0.363   94.273   11.161    0.000
  286.500    0.259    0.356   91.164   10.952    0.000
  286.750    0.261    0.345   88.674   10.748    0.000
  287.000    0.256    0.339   87.420   10.159    0.000
  287.250    0.251    0.349   91.128    9.602    0.000
  287.500    0.253    0.341   95.457    8.741    0.000
  287.750    0.255    0.335   99.787    8.108    0.000
  288.000    0.256    0.342  100.394    7.957    0.000
  288.250    0.249    0.367  102.863    7.381    0.000
  288.500    0.244    0.371   96.654    7.109    0.000
  288.750    0.250    0.371   98.497    6.719    0.000
  289.000    0.272    0.384   97.873    6.471    0.000
  289.250    0.281    0.398   96.619    6.351    0.000
  289.500    0.286    0.409   97.230    6.232    0.000
  289.750    0.288    0.420   95.357    6.002    0.000
  290.000    0.308    0.430   92.870    6.001    0.000
  290.250    0.318    0.416   91.618    6.001    0.000
  290.500    0.322    0.415   93.468    6.115    0.000
  290.750    0.318    0.429   93.456    6.230    0.000
  291.000    0.271    0.421   94.680    6.468    0.000
  291.250    0.265    0.412   95.914    6.715    0.000
  291.500    0.285    0.415   99.002    6.347    0.000
  291.750    0.329    0.426   93.412    5.999    0.000
  292.000    0.317    0.455   94.640    5.565    0.000
  292.250    0.283    0.461   97.730    4.972    0.000
  292.500    0.275    0.451  102.057    4.526    0.000
  292.750    0.288    0.461  101.426    4.044    0.000
  293.000    0.316    0.479  106.374    3.681    0.000
  293.250    0.306    0.474  105.742    3.351    0.000
  293.500    0.315    0.472  101.391    3.289    0.000
  293.750    0.322    0.470   97.662    3.479    0.000
  294.000    0.318    0.455  100.751    3.821    0.000
  294.250    0.293    0.438  102.598    5.063    0.000
  294.500    0.269    0.420  106.928    6.108    0.000
  294.750    0.284    0.390  106.297    7.098    0.000
  295.000    0.280    0.386  100.706    8.094    0.000
  295.250    0.271    0.373   96.978    8.890    0.000
  295.500    0.266    0.373   93.867    9.229    0.000
  295.750    0.266    0.370   95.094    9.057    0.000
  296.000    0.264    0.357   93.846    9.056    0.000
  296.250    0.279    0.359   96.309    8.722    0.000
  296.500    0.284    0.357   98.779    8.244    0.000
  296.750    0.283    0.375   96.910    7.792    0.000
  297.000    0.280    0.364   93.796    7.094    0.000
  297.250    0.281    0.351   93.791    6.458    0.000
  297.500    0.287    0.346   89.438    6.705    0.000
  297.750    0.267    0.327   85.709    7.503    0.000
  298.000    0.088    0.245   78.882    7.937    0.000
  298.250    0.069    0.230   62.135    8.556    0.000
  298.500    0.176    0.290   60.265    9.051    0.000
  298.750    0.236    0.348   91.245    8.882    0.000
  299.000    0.261    0.400  103.010    8.239    0.000
  299.250    0.263    0.405  109.196    7.501    0.000
  299.500    0.262    0.423  110.426    6.957    0.000
  299.750    0.259    0.428  104.835    6.957    0.000
  300.000    0.277    0.433  102.345    6.957    0.000
  300.250    0.284    0.422  101.715    6.956    0.000
  300.500    0.312    0.441  102.943    6.827    0.000
  300.750    0.330    0.460  107.889    6.099    0.000
  301.000    0.342    0.454  113.457    5.552    0.000
  301.250    0.332    0.480  111.589    4.689    0.000
  301.500    0.309    0.492  103.519    3.886    0.000
  301.750    0.301    0.484  107.848    3.344    0.000
  302.000    0.320    0.505  114.036    2.824    0.000
  302.250    0.323    0.503  116.503    2.430    0.000
  302.500    0.322    0.496  117.109    2.297    0.000
  302.750    0.346    0.491  113.999    2.297    0.000
  303.000    0.358    0.501  112.752    2.385    0.000
  303.250    0.362    0.501  111.499    2.523    0.000
  303.500    0.388    0.480  108.390    2.931    0.000
  303.750    0.432    0.464  102.800    3.406    0.000
  304.000    0.360    0.441   99.691    4.032    0.000
  304.250    0.301    0.426   97.820    5.051    0.000
  304.500    0.271    0.403  100.906    6.209    0.000
  304.750    0.257    0.395  104.617    6.819    0.000
  305.000    0.253    0.382  103.366    7.490    0.000
  305.250    0.252    0.375  105.832    8.073    0.000
  305.500    0.249    0.368  102.103    8.382    0.000
  305.750    0.250    0.361   98.373    8.381    0.000
  306.000    0.246    0.369   96.504    8.381    0.000
  306.250    0.235    0.353   95.873    7.921    0.000
  306.500    0.243    0.357   97.719    7.629    0.000
  306.750    0.287    0.366   94.609    7.211    0.000
  307.000    0.283    0.369   97.080    6.945    0.000
  307.250    0.275    0.386  102.026    6.944    0.000
  307.500    0.262    0.386   99.536    7.209    0.000
  307.750    0.257    0.388  106.344    7.485    0.000
  308.000    0.257    0.388  111.911    7.770    0.000
  308.250    0.261    0.363  111.281    7.917    0.000
  308.500    0.252    0.366  113.750    7.917    0.000
  308.750    0.235    0.361  113.116    8.066    0.000
  309.000    0.211    0.368  115.587    8.374    0.000
  309.250    0.206    0.359  114.954    8.532    0.000
  309.500    0.193    0.361  120.523    8.532    0.000
  309.750    0.177    0.371  118.031    8.217    0.000
  310.000    0.170    0.355  111.824    7.914    0.000
  310.250    0.180    0.370  104.994    7.341    0.000
  310.500    0.236    0.384  106.843    6.938    0.000
  310.750    0.246    0.393  108.071    6.682    0.000
  311.000    0.248    0.382  102.482    6.436    0.000
  311.250    0.333    0.385  106.811    6.316    0.000
  311.500    0.369    0.401  103.698    6.435    0.000
  311.750    0.374    0.410  107.407    6.681    0.000
  312.000    0.381    0.418  109.874    6.936    0.000
  312.250    0.310    0.407  106.145    7.476    0.000
  312.500    0.249    0.370  111.092    7.909    0.000
  312.750    0.241    0.360  107.362    8.366    0.000
  313.000    0.241    0.370  108.592    8.686    0.000
  313.250    0.247    0.368  108.580    8.685    0.000
  313.500    0.260    0.373  104.231    8.523    0.000
  313.750    0.262    0.365  106.700    8.523    0.000
  314.000    0.254    0.367  102.969    8.364    0.000
  314.250    0.244    0.363   97.381    7.905    0.000
  314.500    0.236    0.359   97.370    7.614    0.000
  314.750    0.270    0.373   96.739    7.196    0.000
  315.000    0.314    0.383  106.645    7.062    0.000
  315.250    0.353    0.404  107.251    6.930    0.000
  315.500    0.335    0.396  109.102    6.550    0.000
  315.750    0.300    0.384  109.710    6.308    0.000
  316.000    0.324    0.393  102.879    6.191    0.000
  316.250    0.344    0.396  100.392    5.636    0.000
  316.500    0.350    0.400  100.381    5.327    0.000
  316.750    0.373    0.435   99.130    5.327    0.000
  317.000    0.400    0.446   98.496    5.326    0.000
  317.250    0.435    0.468   96.006    5.530    0.000
  317.500    0.376    0.470   95.378    5.741    0.000
  317.750    0.322    0.393   99.704    6.305    0.000
  318.000    0.264    0.374   96.596    7.190    0.000
  318.250    0.251    0.365   91.005    8.047    0.000
  318.500    0.258    0.350   85.418    8.199    0.000
  318.750    0.280    0.368   84.786    8.198    0.000
  319.000    0.286    0.371   89.734    8.046    0.000
  319.250    0.279    0.375   92.820    7.895    0.000
  319.500    0.271    0.362   89.712    7.895    0.000
  319.750    0.274    0.373   89.081    7.894    0.000
  320.000    0.269    0.360   92.169    7.603    0.000
  320.250    0.264    0.370   92.775    7.323    0.000
  320.500    0.273    0.376   94.626    6.542    0.000
  320.750    0.274    0.366   98.335    5.630    0.000
