~VERSION INFORMATION
 VERS.                 2.0:   CWLS LOG ASCII STANDARD -VERSION 2.0
 WRAP.                  NO:   ONE LINE PER DEPTH STEP
~WELL INFORMATION BLOCK
#MNEM.UNIT           DATA                    DESCRIPTION OF MNEMONIC
#---------    -------------------            -------------------------------
# Generated from Intellog Unique Number	CN_91_93/WELL/3123
WELL.         10-29-092-17W4                 : Well_name    - WELL
LOC .         AA/10-29-092-17W4/0            : Location     - LOCATION
UWI .         AA/10-29-092-17W400            : Uwi          - UNIQUE WELL ID
ENTR.         JOETTE                         : Entered      - ENTERED BY
SRVC.         SCHLUMBERGER                   : Scn          - SERVICE COMPANY
DATE.         04/12/92                       : Date         - LOG DATE
STRT.F        250                            : top_depth    - START DEPTH
STOP.F        850.394                        : bot_depth    - STOP DEPTH
STEP.F        0.82                           : increment    - STEP LENGTH
 NULL. -999.2500:NULL Value
~CURVE INFORMATION BLOCK
#MNEM UNIT       ERCB CURVE CODE    CURVE DESCRIPTION
#-----------   ------------------   ----------------------------------
DEPT.F        00 001 00 00         : DEPTH        - DEPTH
CALI.IN       00 280 01 00         : CAL          - CALIPER
GR  .API      00 310 00 00         : GR           - GAMMA RAY
NPHI.V/V      00 330 00 00         : PHIN         - NEUTRON POROSITY (SANDSTONE)
DPHI.V/V      00 890 00 00         : PHID         - DENSITY POROSITY (SANDSTONE)
ILD .OHMM     00 120 00 00         : RESD         - DEEP RESISTIVITY (DIL)
~PARAMETER INFORMATION
#MNEM.UNIT           DATA             DESCRIPTION OF MNEMONIC
#---------         -----------     ------------------------------
GL  .M        512.6                : gl           - GROUND LEVEL ELEVATION
EREF.M        514.807              : kb           - ELEVATION OF DEPTH REFERENCE
DATM.M        514.807              : datum        - DATUM ELEVATION
TDD .M        270.358              : tdd          - TOTAL DEPTH DRILLER
RUN .         ONE                  : Run          - RUN NUMBER
ENG .         BILL                 : Engineer     - RECORDING ENGINEER
WIT .         JIM                  : Witness      - WITNESSED BY
MUD .         GEL                  : Mud_type     - MUD TYPE
MATR.         SANDSTONE            : Logunit      - NEUTRON MATRIX
TMAX.F        75                   : BHT          - MAXIMUM RECORDED TEMPERATURE
BHTD.F        887                  : BHTDEP       - MAXIMUM RECORDED TEMPERATURE
RMT .F        53                   : MDTP         - TEMPERATURE OF MUD
MUDD.LB/G     9.2                  : MWT          - MUD DENSITY
NEUT.         1                    : NEUTRON      - NEUTRON TYPE
RESI.         0                    : RESIST       - RESISTIVITY TYPE
RM  .OHMM     6.23                 : RM           - RESISTIVITY OF MUD
RMC .OHMM     6.23                 : RMC          - RESISTIVITY OF MUD CAKE
RMF .OHMM     6.23                 : RMF          - RESISTIVITY OF MUD FILTRATE
SUFT.F        39.2                 : SUFT         - SURFACE TEMPERATURE
~A  DEPTH      CAL       GR     PHIN     PHID     RESD
# ...
  609.252    7.003   83.473    0.430    0.180   14.991
  610.072    7.003   88.493    0.452    0.187   12.423
  610.892    7.044   94.769    0.452    0.186    9.028
  611.713    7.127   99.159    0.456    0.187    7.341
  612.533    7.168   99.151    0.462    0.201    6.803
  613.353    7.252   97.883    0.469    0.210    6.799
  614.173    7.251   97.874    0.469    0.212    7.320
  614.993    7.167   97.237    0.462    0.209    7.884
  615.814    7.124   94.714    0.467    0.206    8.651
  616.634    7.082   99.107    0.470    0.193    8.643
  617.454    7.081  104.124    0.464    0.192    7.864
  618.274    6.997  102.228    0.466    0.201    7.428
  619.094    6.829  102.217    0.474    0.163    7.147
  619.915    6.618  102.212    0.488    0.128    7.007
  620.735    6.618   99.061    0.462    0.090    7.404
  621.555    6.617   97.795    0.456    0.186    7.828
  622.375    6.868  105.957    0.462    0.240    8.273
  623.196    7.203  100.918    0.467    0.266    8.111
  624.016    7.034  102.166    0.462    0.229    7.108
  624.836    6.908  104.671    0.451    0.168    6.591
  625.656    6.782  100.265    0.452    0.121    6.710
  626.476    6.781   97.743    0.463    0.200    7.362
  627.297    7.158  100.874    0.485    0.239    7.635
  628.117    7.409  103.381    0.491    0.205    7.076
  628.937    7.618  107.144    0.484    0.236    6.811
  629.757    7.994  104.621    0.478    0.294    7.067
  630.577    8.329   99.584    0.473    0.333    7.469
  631.398    8.998   93.290    0.472    0.265    7.462
  632.218    8.830   85.111    0.468    0.216    7.883
  633.038    7.279   86.983    0.452    0.115    8.817
  633.858    6.776   82.577    0.418    0.135   11.887
  634.678    6.734   73.769    0.396    0.191   17.272
  635.499    6.775   72.504    0.376    0.210   20.812
  636.319    6.858   84.436    0.368    0.206   20.029
  637.139    7.067   98.255    0.354    0.200   13.760
  637.959    7.863  112.702    0.362    0.195    7.409
  638.780    7.024  120.235    0.419    0.202    6.024
  639.600    6.940  117.712    0.465    0.240    6.132
  640.420    7.065  102.619    0.463    0.300    6.603
  641.240    8.195   95.068    0.466    0.332    6.473
  642.060   10.206   91.289    0.502    0.245    6.116
  642.881    9.493   89.392    0.502    0.145    5.460
  643.701    8.780   92.528    0.473    0.083    5.064
  644.521    8.025   99.433    0.445    0.164    4.694
  645.341    6.851  112.623    0.432    0.201    5.347
  646.161    7.060  116.385    0.446    0.209    6.688
  646.982    7.269  106.320    0.462    0.222    6.199
  647.802    7.813  101.281    0.499    0.212    5.535
  648.622    8.693   98.760    0.545    0.216    5.132
  649.442    7.561   93.095    0.499    0.232    5.224
  650.262    6.890   83.657    0.462    0.294    5.521
  651.083    7.853   79.248    0.422    0.368    5.517
  651.903    7.433   73.583    0.385    0.410    5.617
  652.723    7.056   67.289    0.356    0.385    5.717
  653.543    6.762   58.481    0.329    0.378    6.392
  654.364    6.468   49.045    0.290    0.369    9.643
  655.184    6.216   39.609    0.254    0.361   14.277
  656.004    6.215   31.427    0.310    0.348   17.859
  656.824    6.173   28.276    0.340    0.328   24.533
  657.644    6.172   28.267    0.367    0.311   29.005
  658.465    6.213   28.885    0.391    0.285   28.442
  659.285    6.213   28.880    0.400    0.284   27.373
  660.105    6.296   29.500    0.406    0.303   26.350
  660.925    6.379   28.858    0.414    0.302   24.888
  661.745    6.462   27.593    0.420    0.312   24.405
  662.566    6.504   27.584    0.422    0.318   25.309
  663.386    6.503   25.063    0.426    0.313   26.755
  664.206    6.502   22.541    0.425    0.322   29.355
  665.026    6.460   23.160    0.422    0.325   31.611
  665.846    6.418   24.404    0.416    0.319   36.689
  666.667    6.417   24.395    0.405    0.316   40.255
  667.487    6.374   23.762    0.422    0.312   46.711
  668.307    6.332   23.754    0.414    0.317   49.378
  669.127    6.331   23.114    0.398    0.318   53.173
  669.948    6.331   23.105    0.383    0.313   58.342
  670.768    6.330   23.099    0.372    0.321   65.195
  671.588    6.330   23.090    0.376    0.322   68.888
  672.408    6.287   23.710    0.389    0.316   68.858
  673.228    6.245   24.958    0.402    0.312   68.813
  674.049    6.202   26.206    0.414    0.306   67.463
  674.869    6.160   27.452    0.421    0.308   71.300
  675.689    6.159   28.072    0.422    0.312   76.780
  676.509    6.159   28.061    0.422    0.312   89.112
  677.329    6.158   28.052    0.425    0.286   89.034
  678.150    6.157   29.298    0.445    0.279   76.580
  678.970    6.198   29.918    0.438    0.269   70.991
  679.790    6.240   29.914    0.407    0.291   69.614
  680.610    6.239   30.531    0.387    0.295   82.340
  681.430    6.239   31.151    0.416    0.294   95.566
  682.251    6.280   32.399    0.429    0.310  108.857
  683.071    6.280   33.648    0.429    0.327  108.763
  683.891    6.321   36.153    0.427    0.327   98.955
  684.711    6.321   39.917    0.359    0.327   93.468
  685.531    6.445   46.822    0.356    0.326   93.386
  686.352    6.235   54.355    0.431    0.296   84.947
  687.172    6.235   59.372    0.447    0.271   58.359
  687.992    6.234   57.480    0.458    0.256   30.846
  688.812    6.234   52.443    0.463    0.291   22.000
  689.633    6.233   50.549    0.452    0.315   18.923
  690.453    6.232   46.769    0.440    0.315   38.518
  691.273    6.232   42.359    0.433    0.300   68.759
  692.093    6.231   41.722    0.433    0.291   84.432
  692.913    6.189   44.229    0.437    0.285  105.616
  693.734    6.146   47.363    0.439    0.292  109.552
  694.554    6.146   49.868    0.437    0.303  107.403
  695.374    6.145   49.855    0.444    0.295  105.342
  696.194    6.144   46.704    0.452    0.287  103.253
  697.014    6.144   44.812    0.444    0.278  103.186
  697.835    6.143   46.686    0.431    0.277  105.045
  698.655    6.143   49.191    0.417    0.284  102.985
  699.475    6.142   54.211    0.419    0.276   99.156
  700.295    6.267   56.716    0.425    0.266   88.540
  701.115    6.392   59.223    0.440    0.240   74.742
  701.936    6.517   64.240    0.454    0.267   49.461
  702.756    6.726   63.603    0.465    0.266   33.342
  703.576    6.893   66.111    0.456    0.243   28.146
  704.396    6.809   67.359    0.438    0.287   28.115
  705.217    6.599   71.749    0.468    0.326   26.562
  706.037    6.598   71.112    0.493    0.324   15.709
  706.857    6.975   74.246    0.516    0.319   12.073
  707.677    7.603   75.490    0.533    0.316   10.189
  708.497    8.063   74.228    0.511    0.266    9.992
  709.318    6.428   74.848    0.495    0.243   11.597
  710.138    6.260   78.611    0.481    0.246   15.348
  710.958    6.259   84.258    0.462    0.249   16.840
  711.778    6.259   92.420    0.446    0.249   14.215
  712.598    6.258   94.925    0.480    0.224   11.134
  713.419    6.257   94.288    0.472    0.228    9.942
  714.239    6.299   91.132    0.467    0.216   10.308
  715.059    6.298   89.238    0.457    0.205   10.897
  715.879    6.340   87.972    0.451    0.196   11.958
  716.699    6.381   87.963    0.455    0.201   13.118
  717.520    6.422   87.955    0.446    0.194   13.351
  718.340    6.422   86.687    0.437    0.200   13.343
  719.160    6.337   83.540    0.426    0.210   13.084
  719.980    6.295   76.618    0.431    0.228   14.356
  720.801    6.169   69.695    0.428    0.243   16.665
  721.621    6.084   60.887    0.423    0.260   20.080
  722.441    6.042   55.220    0.426    0.286   24.652
  723.261    5.999   53.328    0.399    0.307   33.864
  724.081    5.957   53.317    0.425    0.315   37.156
  724.902    5.956   54.565    0.440    0.306   40.768
  725.722    5.955   55.813    0.445    0.297   45.567
  726.542    5.955   55.176    0.449    0.295   50.931
  727.362    5.954   54.541    0.449    0.292   54.856
  728.182    5.953   50.757    0.443    0.297   59.085
