~VERSION INFORMATION
 VERS.                 2.0:   CWLS LOG ASCII STANDARD -VERSION 2.0
 WRAP.                  NO:   ONE LINE PER DEPTH STEP
~WELL INFORMATION BLOCK
#MNEM.UNIT           DATA                    DESCRIPTION OF MNEMONIC
#---------    -------------------            -------------------------------
# Generated from Intellog Unique Number	CN_94_101/WELL/2560
WELL.         PETRO-CANADA EXPLORATION INC.  : Well_name    - WELL
LOC .         AA/10-11-094-16W4/0            : Location     - LOCATION
UWI .         AA/10-11-094-16W400            : Uwi          - UNIQUE WELL ID
ENTR.         JOETTE                         : Entered      - ENTERED BY
SRVC.         SCHLUMBERGER                   : Scn          - SERVICE COMPANY
DATE.         05/17/92                       : Date         - LOG DATE
STRT.F        300                            : top_depth    - START DEPTH
STOP.F        820.013                        : bot_depth    - STOP DEPTH
STEP.F        0.82                           : increment    - STEP LENGTH
 NULL. -999.2500:NULL Value
~CURVE INFORMATION BLOCK
#MNEM UNIT       ERCB CURVE CODE    CURVE DESCRIPTION
#-----------   ------------------   ----------------------------------
DEPT.F        00 001 00 00         : DEPTH        - DEPTH
CALI.IN       00 280 01 00         : CAL          - CALIPER
GR  .API      00 310 00 00         : GR           - GAMMA RAY
NPHI.V/V      00 330 00 00         : PHIN         - NEUTRON POROSITY (SANDSTONE)
DPHI.V/V      00 890 00 00         : PHID         - DENSITY POROSITY (SANDSTONE)
ILD .OHMM     00 120 00 00         : RESD         - DEEP RESISTIVITY (DIL)
~PARAMETER INFORMATION
#MNEM.UNIT           DATA             DESCRIPTION OF MNEMONIC
#---------         -----------     ------------------------------
GL  .F        1644.4               : gl           - GROUND LEVEL ELEVATION
EREF.F        1655.8               : kb           - ELEVATION OF DEPTH REFERENCE
DATM.F        1655.8               : datum        - DATUM ELEVATION
TDD .F        859                  : tdd          - TOTAL DEPTH DRILLER
RUN .         ONE                  : Run          - RUN NUMBER
ENG .         BILL                 : Engineer     - RECORDING ENGINEER
WIT .         JIM                  : Witness      - WITNESSED BY
MUD .         GEL                  : Mud_type     - MUD TYPE
MATR.         SANDSTONE            : Logunit      - NEUTRON MATRIX
TMAX.F        84                   : BHT          - MAXIMUM RECORDED TEMPERATURE
BHTD.F        859                  : BHTDEP       - MAXIMUM RECORDED TEMPERATURE
RMT .F        75                   : MDTP         - TEMPERATURE OF MUD
MUDD.LB/G     3                    : MWT          - MUD DENSITY
NEUT.         1                    : NEUTRON      - NEUTRON TYPE
RESI.         0                    : RESIST       - RESISTIVITY TYPE
RM  .OHMM     0.84                 : RM           - RESISTIVITY OF MUD
RMC .OHMM     0.84                 : RMC          - RESISTIVITY OF MUD CAKE
RMF .OHMM     0.7                  : RMF          - RESISTIVITY OF MUD FILTRATE
SUFT.F        39.2                 : SUFT         - SURFACE TEMPERATURE
~A  DEPTH      CAL       GR     PHIN     PHID     RESD
  300.000    7.044   77.806    0.476    0.235   18.684
  300.820    7.084   84.307    0.486    0.265   16.081
  301.640    7.164   91.987    0.500    0.278   13.840
  302.461    7.165   94.363    0.514    0.287   10.844
  303.281    7.127   93.202    0.530    0.297    8.658
  304.101    7.128   90.868    0.538    0.287    7.451
  304.921    7.130   89.118    0.544    0.285    6.535
  305.741    7.131   86.778    0.544    0.292    6.659
  306.562    7.132   85.609    0.541    0.298    6.914
  307.382    7.212   82.095    0.534    0.297    7.453
  308.202    7.252   79.162    0.528    0.267    8.187
  309.022    7.371   76.238    0.526    0.258    8.501
  309.843    7.491   73.899    0.521    0.284    8.994
  310.663    7.531   75.685    0.488    0.287    9.515
  311.483    7.611   79.824    0.494    0.111    9.880
  312.303    7.573   92.808    0.491    0.182   10.068
  313.123    7.456  105.208    0.478    0.213   10.068
  313.944    7.458  109.352    0.492    0.246    9.167
  314.764    7.419  112.906    0.512    0.256    7.889
  315.584    7.420  111.156    0.528    0.258    6.918
  316.404    7.500  107.643    0.547    0.263    6.182
  317.224    7.540  106.478    0.563    0.267    5.524
  318.045    7.542  107.675    0.573    0.241    4.844
  318.865    7.464  109.461    0.572    0.239    4.248
  319.685    7.387  110.662    0.572    0.253    4.249
  320.505    7.388  114.221    0.575    0.255    4.249
  321.325    7.389  115.414    0.579    0.234    4.170
  322.146    7.391  115.432    0.582    0.236    4.093
  322.966    7.392  116.035    0.585    0.231    4.093
  323.786    7.393  118.411    0.588    0.227    4.093
  324.606    7.433  114.303    0.588    0.240    4.017
  325.427    7.435  119.036    0.587    0.251    4.018
  326.247    7.357  116.697    0.584    0.247    3.870
  327.067    7.280  113.179    0.588    0.249    3.798
  327.887    7.320  111.429    0.594    0.256    3.728
  328.707    7.400  110.858    0.593    0.264    3.591
  329.528    7.519  110.282    0.582    0.268    3.524
  330.348    7.560  111.479    0.574    0.274    3.459
  331.168    7.561  113.855    0.572    0.276    3.395
  331.988    7.484  113.873    0.576    0.277    3.395
  332.808    7.446  110.355    0.582    0.265    3.395
  333.629    7.368  108.016    0.586    0.264    3.332
  334.449    7.330  106.266    0.583    0.271    3.332
  335.269    7.410  104.516    0.579    0.275    3.333
  336.089    7.489  102.177    0.573    0.263    3.333
  336.909    7.648   98.659    0.562    0.250    3.396
  337.730    7.806   92.194    0.556    0.223    3.461
  338.550    7.768   92.212    0.552    0.197    3.661
  339.370    7.376   95.177    0.548    0.207    3.874
  340.190    7.457   96.963    0.544    0.234    4.022
  341.010    7.693   95.803    0.550    0.254    4.336
  341.831    8.009   92.290    0.546    0.264    4.502
  342.651    7.971   94.076    0.547    0.264    4.675
  343.471    7.618   97.630    0.553    0.278    4.675
  344.291    7.148   98.832    0.563    0.268    4.764
  345.112    7.071   98.256    0.572    0.272    4.854
  345.932    7.112   96.511    0.579    0.281    5.136
  346.752    7.191   97.109    0.581    0.277    5.332
  347.572    7.231  100.074    0.582    0.282    5.642
  348.392    7.311  104.222    0.580    0.291    5.642
  349.213    7.391  107.183    0.583    0.280    5.234
  350.033    7.431  107.795    0.586    0.284    4.766
  350.853    7.512  105.451    0.583    0.300    4.258
  351.673    7.592  101.348    0.581    0.307    3.038
  352.493    7.592  102.545    0.577    0.299    2.926
  353.314    7.633  103.148    0.574    0.317    2.766
  354.134    7.595  103.167    0.574    0.296    2.664
  354.954    7.675  106.132    0.575    0.300    2.519
  355.774    7.754  109.686    0.576    0.295    2.426
  356.594    7.677  107.936    0.577    0.294    2.381
  357.415    7.678  105.597    0.577    0.296    2.426
  358.235    7.837  105.615    0.577    0.278    2.472
  359.055    7.916  106.223    0.576    0.294    2.473
  359.875    8.311  108.598    0.574    0.309    2.567
  360.696    7.958  106.853    0.568    0.319    2.616
  361.516    7.488  110.407    0.562    0.292    2.666
  362.336    7.253  110.430    0.559    0.279    2.617
  363.156    7.137  109.850    0.552    0.267    2.617
  363.976    7.217  108.689    0.542    0.278    2.617
  364.797    7.375  108.712    0.537    0.279    2.617
  365.617    7.533  109.320    0.533    0.284    2.617
  366.437    7.652  106.976    0.531    0.284    2.617
  367.257    7.811  102.275    0.530    0.301    2.617
  368.077    7.615   96.404    0.528    0.308    2.718
  368.898    7.577   94.060    0.526    0.285    2.769
  369.718    7.775   94.672    0.525    0.287    2.930
  370.538    8.090   95.279    0.523    0.292    3.279
  371.358    7.817   93.529    0.518    0.278    4.956
  372.178    7.464   91.190    0.513    0.253    5.444
  372.999    6.915   89.440    0.506    0.250    7.776
  373.819    6.798   92.401    0.501    0.260    8.074
  374.639    6.760   95.960    0.506    0.276    8.543
  375.459    6.722   97.157    0.514    0.238    8.705
  376.280    6.645   97.175    0.528    0.235    8.076
  377.100    6.725   96.604    0.546    0.244    7.216
  377.920    6.726   94.264    0.553    0.248    6.448
  378.740    6.806   92.510    0.545    0.260    5.762
  379.560    6.886   91.939    0.545    0.177    5.346
  380.381    6.612   86.653    0.543    0.205    5.346
  381.201    6.574   80.782    0.515    0.233    5.763
  382.021    6.536   84.921    0.504    0.268    6.450
  382.841    6.537   81.992    0.511    0.283    7.782
  383.661    6.578   77.296    0.517    0.255    8.389
  384.482    6.618   73.188    0.514    0.218    8.711
  385.302    6.737   66.723    0.517    0.114    8.876
  386.122    6.895   60.848    0.522    0.089    9.391
  386.942    6.818   60.272    0.522    0.277   10.316
  387.762    6.583   71.493    0.522    0.294   12.214
  388.583    6.506   77.999    0.522    0.286   12.682
  389.403    6.546   79.191    0.521    0.276   11.766
  390.223    6.627   77.441    0.522    0.266   10.514
  391.043    6.667   71.570    0.523    0.267   10.319
  391.864    6.786   70.401    0.525    0.266    9.939
  392.684    6.984   70.424    0.522    0.259    9.940
  393.504    7.025   72.210    0.491    0.236    9.756
  394.324    6.868   75.175    0.482    0.212   10.130
  395.144    6.594   79.908    0.485    0.197   10.322
  395.965    6.635   86.409    0.499    0.227   10.323
  396.785    6.715   91.142    0.514    0.261    9.399
  397.605    6.913   92.929    0.527    0.249    8.398
  398.425    6.992   90.000    0.533    0.247    7.504
  399.245    7.111   91.791    0.523    0.251    6.581
  400.066    7.231   95.341    0.524    0.241    5.880
  400.886    7.311   97.716    0.530    0.244    5.664
  401.706    7.350   99.503    0.526    0.267    5.559
  402.526    7.470   98.936    0.521    0.267    5.559
  403.346    7.707   95.414    0.527    0.262    5.456
  404.167    7.472   96.021    0.535    0.271    4.968
  404.987    7.513   96.039    0.551    0.267    4.696
  405.807    7.593   90.159    0.565    0.211    3.967
  406.627    7.279   83.694    0.576    0.175    3.612
  407.448    6.730   79.587    0.583    0.155    3.288
  408.268    6.849   84.320    0.590    0.249    3.109
  409.088    7.165   93.179    0.591    0.279    3.228
  409.908    7.245  102.632    0.590    0.265    3.751
  410.728    7.285  109.137    0.587    0.248    3.681
  411.549    7.208  109.156    0.581    0.263    3.480
  412.369    7.170  107.401    0.577    0.276    3.352
  413.189    7.172  108.009    0.572    0.282    3.229
  414.009    7.173  109.206    0.566    0.276    3.110
  414.829    7.252  109.822    0.561    0.268    3.110
  415.650    7.293  109.247    0.555    0.249    3.110
  416.470    7.254  108.666    0.550    0.246    3.169
  417.290    7.059  103.385    0.551    0.270    3.291
  418.110    6.824   99.862    0.554    0.277    3.548
  418.930    6.551   95.170    0.557    0.271    3.897
