~VERSION INFORMATION
 VERS.                 2.0:   CWLS LOG ASCII STANDARD -VERSION 2.0
 WRAP.                  NO:   ONE LINE PER DEPTH STEP
~WELL INFORMATION BLOCK
#MNEM.UNIT           DATA                    DESCRIPTION OF MNEMONIC
#---------    -------------------            -------------------------------
# Generated from Intellog Unique Number	CN_91_93/WELL/3639
WELL.         10-08-093-17W4                 : Well_name    - WELL
LOC .         AA/10-08-093-17W4/0            : Location     - LOCATION
UWI .         AA/10-08-093-17W400            : Uwi          - UNIQUE WELL ID
ENTR.         JOETTE                         : Entered      - ENTERED BY
SRVC.         SCHLUMBERGER                   : Scn          - SERVICE COMPANY
DATE.         03/20/92                       : Date         - LOG DATE
STRT.M        75                             : top_depth    - START DEPTH
STOP.M        255                            : bot_depth    - STOP DEPTH
STEP.M        0.25                           : increment    - STEP LENGTH
 NULL. -999.2500:NULL Value
~CURVE INFORMATION BLOCK
#MNEM UNIT       ERCB CURVE CODE    CURVE DESCRIPTION
#-----------   ------------------   ----------------------------------
DEPT.M        00 001 00 00         : DEPTH        - DEPTH
CALI.MM       00 280 01 00         : CAL          - CALIPER
GR  .API      00 310 00 00         : GR           - GAMMA RAY
NPHI.V/V      00 330 00 00         : PHIN         - NEUTRON POROSITY (SANDSTONE)
DPHI.V/V      00 890 00 00         : PHID         - DENSITY POROSITY (SANDSTONE)
ILD .OHMM     00 120 00 00         : RESD         - DEEP RESISTIVITY (DIL)
~PARAMETER INFORMATION
#MNEM.UNIT           DATA             DESCRIPTION OF MNEMONIC
#---------         -----------     ------------------------------
GL  .M        506.3                : gl           - GROUND LEVEL ELEVATION
EREF.M        509.95               : kb           - ELEVATION OF DEPTH REFERENCE
DATM.M        509.95               : datum        - DATUM ELEVATION
TDD .M        262                  : tdd          - TOTAL DEPTH DRILLER
RUN .         ONE                  : Run          - RUN NUMBER
ENG .         BILL                 : Engineer     - RECORDING ENGINEER
WIT .         JIM                  : Witness      - WITNESSED BY
MUD .         GEL                  : Mud_type     - MUD TYPE
MATR.         SANDSTONE            : Logunit      - NEUTRON MATRIX
TMAX.C        21                   : BHT          - MAXIMUM RECORDED TEMPERATURE
BHTD.M        262                  : BHTDEP       - MAXIMUM RECORDED TEMPERATURE
RMT .C        17.5                 : MDTP         - TEMPERATURE OF MUD
MUDD.KG/M     1130                 : MWT          - MUD DENSITY
NEUT.         1                    : NEUTRON      - NEUTRON TYPE
RESI.         0                    : RESIST       - RESISTIVITY TYPE
RM  .OHMM     9.4                  : RM           - RESISTIVITY OF MUD
RMC .OHMM     9.4                  : RMC          - RESISTIVITY OF MUD CAKE
RMF .OHMM     9.4                  : RMF          - RESISTIVITY OF MUD FILTRATE
SUFT.C        4                    : SUFT         - SURFACE TEMPERATURE
~A  DEPTH      CAL       GR     PHIN     PHID     RESD
# ...
  221.000  159.521   58.209    0.408    0.313  102.083
  221.250  161.478   58.788    0.411    0.314  106.180
  221.500  162.449   59.367    0.416    0.319  114.873
  221.750  164.406   59.346    0.418    0.323  117.134
  222.000  169.332   59.925    0.423    0.317  124.279
  222.250  174.271   60.508    0.429    0.326  126.633
  222.500  177.219   62.872    0.421    0.301  129.031
  222.750  182.144   64.042    0.415    0.302  123.737
  223.000  187.077   65.216    0.419    0.330  118.660
  223.250  193.001   65.200    0.426    0.331  113.750
  223.500  197.933   65.184    0.431    0.325  113.626
  223.750  202.865   64.576    0.423    0.327  118.100
  224.000  208.782   62.775    0.412    0.330  125.304
  224.250  214.713   60.374    0.400    0.330  132.994
  224.500  218.653   57.973    0.388    0.343  152.993
  224.750  224.571   56.767    0.382    0.337  175.998
  225.000  225.542   56.151    0.388    0.339  202.462
  225.250  225.515   55.548    0.395    0.354  232.822
  225.500  230.447   54.933    0.400    0.350  247.022
  225.750  228.430   54.917    0.395    0.345  251.792
  226.000  224.435   54.305    0.402    0.336  277.972
  226.250  224.408   54.293    0.408    0.323  283.340
  226.500  227.357   54.872    0.396    0.331  282.928
  226.750  229.307   55.451    0.385    0.327  271.418
  227.000  229.293   57.212    0.374    0.312  225.931
  227.250  225.292   57.799    0.371    0.289  163.187
  227.500  224.280   58.973    0.368    0.271  135.838
  227.750  222.256   60.139    0.370    0.280  113.073
  228.000  221.237   61.317    0.373    0.289   98.007
  228.250  221.210   62.487    0.360    0.296   79.920
  228.500  222.174   64.256    0.359    0.288   66.502
  228.750  219.179   67.219    0.401    0.281   60.042
  229.000  209.226   70.769    0.408    0.274   55.296
  229.250  206.224   74.324    0.413    0.281   50.907
  229.500  206.197   77.283    0.406    0.280   48.836
  229.750  208.147   80.842    0.410    0.270   45.879
  230.000  209.125   82.611    0.418    0.276   43.964
  230.250  210.090   83.186    0.413    0.281   43.053
  230.500  211.054   85.554    0.400    0.271   42.975
  230.750  213.011   89.108    0.394    0.253   42.053
  231.000  215.960   92.663    0.404    0.249   39.520
  231.250  218.901   96.808    0.421    0.238   37.154
  231.500  221.857   99.772    0.440    0.207   32.849
  231.750  225.790  104.512    0.460    0.197   27.354
  232.000  227.747  108.071    0.481    0.209   17.150
  232.250  228.698  112.216    0.494    0.215   12.898
  232.500  229.670  110.415    0.478    0.214   11.879
  232.750  229.636  107.427    0.468    0.201   11.862
  233.000  228.630  102.650    0.459    0.202   13.104
  233.250  228.603   99.059    0.438    0.225   13.909
  233.500  227.571   97.257    0.411    0.236   17.342
  233.750  226.566  100.217    0.395    0.234   22.080
  234.000  225.540  104.366    0.394    0.203   28.676
  234.250  225.520  103.751    0.407    0.197   35.767
  234.500  223.502  103.139    0.416    0.212   35.715
  234.750  220.493  107.293    0.435    0.182   32.892
  235.000  217.497  113.224    0.448    0.174   30.293
  235.250  216.485  116.782    0.428    0.169   28.458
  235.500  210.493  114.386    0.386    0.201   28.427
  235.750  208.489  110.795    0.370    0.185   28.955
  236.000  206.465  110.778    0.368    0.184   28.955
  236.250  205.459  112.547    0.374    0.193   26.598
  236.500  204.427  111.936    0.381    0.207   27.676
  236.750  202.423  108.944    0.391    0.219   28.787
  237.000  201.411  103.572    0.383    0.236   31.791
  237.250  200.392  100.580    0.370    0.252   37.319
  237.500  198.374  101.758    0.362    0.252   43.823
  237.750  196.357  107.094    0.350    0.238   50.413
  238.000  196.343  111.244    0.336    0.222   53.487
  238.250  195.325  117.179    0.341    0.205   52.340
  238.500  195.291  122.514    0.349    0.183   46.293
  238.750  194.265  124.287    0.357    0.172   36.267
  239.000  194.231  127.243    0.366    0.170   30.189
  239.250  193.226  127.222    0.373    0.169   26.701
  239.500  193.199  126.024    0.389    0.164   24.573
  239.750  193.165  120.652    0.417    0.169   24.537
  240.000  192.146  113.494    0.452    0.188   26.024
  240.250  191.127  109.312    0.450    0.178   27.631
  240.500  191.107  106.320    0.433    0.169   31.139
  240.750  190.088  106.296    0.417    0.167   32.388
  241.000  187.072  109.855    0.406    0.201   32.978
  241.250  186.060  114.008    0.393    0.212   32.294
  241.500  184.049  121.133    0.386    0.221   30.338
  241.750  184.029  126.473    0.393    0.211   27.930
  242.000  183.003  127.647    0.398    0.197   26.794
  242.250  182.983  128.817    0.489    0.186   25.704
  242.500  183.934  132.971    0.508    0.177   22.263
  242.750  185.884  137.120    0.492    0.164   21.802
  243.000  186.862  138.286    0.364    0.172   19.662
  243.250  190.803  137.079    0.373    0.168   18.471
  243.500  190.775  134.092    0.381    0.183   18.451
  243.750  188.765  128.124    0.386    0.226   19.192
  244.000  185.762  120.963    0.390    0.252   21.203
  244.250  180.769  122.141    0.394    0.260   23.903
  244.500  176.775  124.505    0.398    0.249   28.631
  244.750  172.787  125.675    0.396    0.232   32.266
  245.000  168.793  124.469    0.375    0.187   30.323
  245.250  166.782  125.643    0.361    0.172   29.089
  245.500  168.732  128.606    0.352    0.136   24.196
  245.750  169.696  133.346    0.348    0.140   22.292
  246.000  169.663  133.330    0.349    0.147   20.942
  246.250  169.636  129.152    0.351    0.144   20.919
  246.500  169.615  121.991    0.355    0.142   21.315
  246.750  168.583  115.428    0.362    0.143   24.529
  247.000  166.586  106.485    0.396    0.240   29.382
  247.250  157.632   98.733    0.422    0.291   38.160
  247.500  154.629   96.336    0.433    0.302   44.779
  247.750  153.610   93.939    0.428    0.304   49.471
  248.000  152.585   91.543    0.419    0.291   50.408
  248.250  152.564   86.166    0.404    0.278   51.362
  248.500  153.529   80.794    0.370    0.246   52.354
  248.750  156.471   73.042    0.356    0.094   58.978
  249.000  159.413   65.289    0.306    0.053   66.537
  249.250  161.376   50.990    0.118    0.013   82.990
  249.500  163.319   40.857    0.117    0.030  112.231
  249.750  164.284   36.675    0.122    0.047  232.148
  250.000  163.272   35.469    0.129    0.059  734.217
  250.250  162.246   35.444    0.131    0.054  934.135
  250.500  161.234   37.213    0.131    0.043  860.618
  250.750  160.222   38.387    0.133    0.041  776.734
  251.000  160.195   37.181    0.147    0.047  560.820
  251.250  159.169   35.970    0.158    0.041  538.006
  251.500  159.142   35.962    0.166    0.046  515.932
  251.750  158.123   35.942    0.171    0.069  605.415
  252.000  158.096   36.521    0.175    0.079  514.433
  252.250  158.076   37.104    0.176    0.086  379.295
  252.500  158.049   37.083    0.178    0.083  285.266
  252.750  160.006   36.468    0.180    0.087  223.482
  253.000  161.955   35.865    0.182    0.101  182.304
  253.250  162.913   37.039    0.183    0.099  148.714
  253.500  163.885   38.209    0.189    0.103  101.092
  253.750  163.858   39.383    0.192    0.103   85.869
  254.000  163.831   39.362    0.191    0.106   75.948
  254.250  163.804   39.342    0.187    0.110   68.545
  254.500  163.777   39.921    0.185    0.104   56.995
  254.750  163.736   40.508    0.180    0.097   53.602
  255.000  163.716   41.682    0.166    0.081   49.330
