~VERSION INFORMATION
 VERS.                 2.0:   CWLS LOG ASCII STANDARD -VERSION 2.0
 WRAP.                  NO:   ONE LINE PER DEPTH STEP
~WELL INFORMATION BLOCK
#MNEM.UNIT           DATA                    DESCRIPTION OF MNEMONIC
#---------    -------------------            -------------------------------
# Generated from Intellog Unique Number	CC_84_87/WELL/2327
NULL.         -999.25                        : NULL_VALUE
WELL.         SUN CHEECHAM                   : Well_name    - WELL              
LOC .         11-15-084-07W4                 : Location     - LOCATION          
UWI .         AA/11-15-084-07W4/0            : Uwi          - UNIQUE WELL ID    
ENTR.         DW                             : Entered      - ENTERED BY        
SRVC.         SCHLUMBERGER                   : Scn          - SERVICE COMPANY   
DATE.         15 JAN 80                      : Date         - LOG DATE
STRT.M        140                            : top_depth    - START DEPTH       
STOP.M        430.094                        : bot_depth    - STOP DEPTH        
STEP.M        0.3                            : increment    - STEP LENGTH       
~CURVE INFORMATION BLOCK
#MNEM UNIT       ERCB CURVE CODE    CURVE DESCRIPTION
#-----------   ------------------   ----------------------------------
DEPT.M        00 001 00 00         : DEPTH        - DEPTH                       
DPHI.V/V      00 890 00 00         : PHID         - DENSITY POROSITY (LIMESTONE)
NPHI.V/V      00 330 00 00         : PHIN         - NEUTRON POROSITY (LIMESTONE)
GR  .API      00 310 00 00         : GR           - GAMMA RAY                   
ILD .OHMM     00 120 00 00         : RESD         - DEEP RESISTIVITY (DIL)      
~PARAMETER INFORMATION       
#MNEM.UNIT           DATA             DESCRIPTION OF MNEMONIC
#---------         -----------     ------------------------------
GL  .M        591                  : gl           - GROUND LEVEL ELEVATION      
EREF.M        594.35               : kb           - ELEVATION OF DEPTH REFERENCE
DATM.M        594.35               : datum        - DATUM ELEVATION             
TDD .M        435                  : tdd          - TOTAL DEPTH DRILLER         
RUN .         ONE                  : Run          - RUN NUMBER                  
ENG .         BILL                 : Engineer     - RECORDING ENGINEER          
WIT .         JIM                  : Witness      - WITNESSED BY                
MUD .         GEL                  : Mud_type     - MUD TYPE                    
MATR.         LIMESTONE            : Logunit      - NEUTRON MATRIX              
TMAX.C        20.5                 : BHT          - MAXIMUM RECORDED TEMPERATURE
BHTD.M        435                  : BHTDEP       - MAXIMUM RECORDED TEMPERATURE
MATR.         1                    : LOGUNIT      - NEUTRON MATRIX              
RMT .C        25                   : MDTP         - TEMPERATURE OF MUD          
NEUT.         1                    : NEUTRON      - NEUTRON TYPE                
RESI.         0                    : RESIST       - RESISTIVITY TYPE            
RMC .OHMM     0.25                 : RMC          - RESISTIVITY OF MUD CAKE     
RMF .OHMM     0.25                 : RMF          - RESISTIVITY OF MUD FILTRATE 
SUFT.C        4                    : SUFT         - SURFACE TEMPERATURE         
~A  DEPTH     PHID     PHIN       GR     RESD
  140.000    0.278    0.572  106.978    3.198
  140.300    0.281    0.576  102.151    3.249
  140.600    0.262    0.566   98.534    3.243
  140.900    0.261    0.547   95.521    3.297
  141.200    0.264    0.540   93.714    3.288
  141.500    0.280    0.559   93.119    3.282
  141.800    0.275    0.547   97.360    3.275
  142.100    0.265    0.532   98.574    3.209
  142.400    0.267    0.523   94.353    3.204
  142.700    0.276    0.550   96.175    3.140
  143.000    0.280    0.564   94.369    3.075
  143.300    0.286    0.535   91.960    3.069
  143.600    0.291    0.522   93.782    3.008
  143.900    0.281    0.537   90.767    2.947
  144.200    0.281    0.561   87.150    2.886
  144.500    0.294    0.574   88.367    2.775
  144.800    0.280    0.605   92.606    2.720
  145.100    0.275    0.621   91.406    2.614
  145.400    0.279    0.617   90.206    2.562
  145.700    0.286    0.598   92.027    2.511
  146.000    0.293    0.603   92.034    2.460
  146.300    0.297    0.585   92.044    2.455
  146.600    0.291    0.574   92.656    2.495
  146.900    0.293    0.594   97.499    2.489
  147.200    0.297    0.572   98.715    2.483
  147.500    0.305    0.566   93.889    2.481
  147.800    0.327    0.569   88.457    2.429
  148.100    0.334    0.579   87.862    2.381
  148.400    0.325    0.592   90.289    2.290
  148.700    0.318    0.607   93.319    2.243
  149.000    0.316    0.615   95.743    2.238
  149.300    0.307    0.620   96.961    2.235
  149.600    0.302    0.615   92.134    2.313
  149.900    0.296    0.613   89.122    2.396
  150.200    0.306    0.559   89.733    2.437
  150.500    0.314    0.562   91.555    2.429
  150.800    0.294    0.576   93.376    2.426
  151.100    0.287    0.557   93.384    2.466
  151.400    0.297    0.532   92.184    2.650
  151.700    0.295    0.539   86.753    3.687
  152.000    0.261    0.482   80.717    4.264
  152.300    0.258    0.456   75.286    4.334
  152.600    0.289    0.446   77.711    4.169
  152.900    0.259    0.474   94.643    3.723
  153.200    0.248    0.538   94.048    3.452
  153.500    0.227    0.527   95.870    3.445
  153.800    0.231    0.516   98.295    3.503
  154.100    0.254    0.522   98.302    3.833
  154.400    0.266    0.522   92.267    3.826
  154.700    0.274    0.493   92.276    3.749
  155.000    0.274    0.492   96.514    3.673
  155.300    0.260    0.512   99.546    3.665
  155.600    0.269    0.537   98.948    3.794
  155.900    0.265    0.512   93.518    4.152
  156.200    0.245    0.502   92.317    4.221
  156.500    0.244    0.483   94.139    4.213
  156.800    0.256    0.484   95.356    4.206
  157.100    0.267    0.489   85.695    3.970
  157.400    0.275    0.500   85.098    3.888
  157.700    0.258    0.519   86.919    4.028
  158.000    0.255    0.534   87.532    5.016
  158.300    0.239    0.524   91.167    6.978
  158.600    0.215    0.519   91.779    9.018
  158.900    0.146    0.488   86.952    9.864
  159.200    0.188    0.427   88.169    9.668
  159.500    0.241    0.449  101.474    8.796
  159.800    0.221    0.436  100.273    7.716
  160.100    0.208    0.419   96.656    7.151
  160.400    0.206    0.444   99.084    7.540
  160.700    0.236    0.462  100.299    7.958
  161.000    0.263    0.468   89.428    9.549
  161.300    0.282    0.471   79.766   10.647
  161.600    0.298    0.454   74.939   11.864
  161.900    0.290    0.404   75.552   12.750
  162.200    0.281    0.390   76.165   13.201
  162.500    0.281    0.386   80.403   13.173
  162.800    0.279    0.401   79.808   12.439
  163.100    0.288    0.425   71.355   11.320
  163.400    0.314    0.417   71.363   11.096
  163.700    0.256    0.422   83.458   11.276
  164.000    0.260    0.435   89.511   13.286
  164.300    0.275    0.454   87.707   15.952
  164.600    0.340    0.485   78.648   20.610
  164.900    0.362    0.487   64.151   22.980
  165.200    0.317    0.409   55.094   23.788
  165.500    0.325    0.405   56.916   23.294
  165.800    0.321    0.391   61.154   21.995
  166.100    0.282    0.380   66.603   21.172
  166.400    0.287    0.388   68.424   18.561
  166.700    0.288    0.406   68.431   16.896
  167.000    0.282    0.410   70.857   15.655
  167.300    0.271    0.391   84.767   15.924
  167.600    0.271    0.405   85.984   17.737
  167.900    0.300    0.403   79.948   19.421
  168.200    0.298    0.398   63.034   20.867
  168.500    0.302    0.400   54.580   22.009
  168.800    0.304    0.405   52.776   24.088
  169.100    0.293    0.389   53.390   26.859
  169.400    0.307    0.393   53.398   27.809
  169.700    0.319    0.429   52.196   28.259
  170.000    0.326    0.450   49.183   28.192
  170.300    0.314    0.419   43.751   27.641
  170.600    0.319    0.412   47.990   26.582
  170.900    0.312    0.407   47.395   26.041
  171.200    0.313    0.414   49.216   25.041
  171.500    0.320    0.430   51.038   25.006
  171.800    0.325    0.418   43.794   25.409
  172.100    0.327    0.406   43.801   25.353
  172.400    0.329    0.414   43.206   24.839
  172.700    0.329    0.407   41.401   23.031
  173.000    0.325    0.406   41.408   21.358
  173.300    0.314    0.407   45.043   18.728
  173.600    0.294    0.407   51.095   17.354
  173.900    0.288    0.406   60.170   16.691
  174.200    0.274    0.444   63.200   15.765
  174.500    0.295    0.454   53.538   14.611
  174.800    0.308    0.394   58.382   12.812
  175.100    0.295    0.429   91.027   11.667
  175.400    0.264    0.462  106.751   10.046
  175.700    0.273    0.474  105.550    9.657
  176.000    0.279    0.478  105.557   10.771
  176.300    0.279    0.471  106.170   13.415
  176.600    0.284    0.453   94.696   15.225
  176.900    0.299    0.404   82.011   15.482
  177.200    0.298    0.407   80.206   14.346
  177.500    0.282    0.407   82.634   12.588
  177.800    0.264    0.408   85.662   11.671
  178.100    0.256    0.412   88.693   12.302
  178.400    0.252    0.426   88.702   13.723
  178.700    0.258    0.420   77.226   16.776
  179.000    0.281    0.424   70.586   20.124
  179.300    0.312    0.438   55.484   22.436
  179.600    0.338    0.465   50.658   24.119
  179.900    0.376    0.478   50.667   25.889
  180.200    0.334    0.452   47.653   26.320
  180.500    0.344    0.414   51.288   25.772
  180.800    0.349    0.428   58.548   25.268
  181.100    0.330    0.458   66.414   24.320
  181.400    0.330    0.442   67.026   22.944
  181.700    0.345    0.416   66.430   22.894
  182.000    0.352    0.429   67.648   22.870
  182.300    0.340    0.432   70.075   22.816
  182.600    0.312    0.432   72.500   22.337
  182.900    0.329    0.423   73.717   21.901
  183.200    0.332    0.426   70.702   21.455
  183.500    0.325    0.445   63.459   21.018
  183.800    0.319    0.459   63.468   19.845
  184.100    0.315    0.445   64.684   18.743
  184.400    0.310    0.429   70.132   16.437
  184.700    0.304    0.429   74.974   15.242
  185.000    0.296    0.429   78.005   13.613
  185.300    0.288    0.421   84.057   11.507
  185.600    0.275    0.420   87.692   10.281
  185.900    0.258    0.426   92.535   10.843
  186.200    0.246    0.440   91.939   12.309
  186.500    0.238    0.452   88.927   13.232
  186.800    0.252    0.440   82.890   13.952
  187.100    0.289    0.422   68.998   13.668
  187.400    0.312    0.418   69.609   13.152
  187.700    0.296    0.430   76.266   11.537
  188.000    0.264    0.450   89.571    9.395
  188.300    0.241    0.471   96.228    8.090
  188.600    0.200    0.472  111.346    7.497
  188.900    0.227    0.476  107.124    7.345
  189.201    0.192    0.477  101.694    6.937
  189.501    0.146    0.489  100.492    6.553
  189.801    0.181    0.496  108.358    5.639
  190.101    0.219    0.515  109.576    4.947
  190.401    0.213    0.517  107.165    4.503
  190.701    0.214    0.531  102.943    4.491
  191.001    0.230    0.529   98.116    4.916
  191.301    0.239    0.513   92.684    5.483
  191.601    0.253    0.499   88.463    6.460
  191.901    0.278    0.492   89.075    7.612
