~VERSION INFORMATION
 VERS.                 2.0:   CWLS LOG ASCII STANDARD -VERSION 2.0
 WRAP.                  NO:   ONE LINE PER DEPTH STEP
~WELL INFORMATION BLOCK
#MNEM.UNIT           DATA                    DESCRIPTION OF MNEMONIC
#---------    -------------------            -------------------------------
# Generated from Intellog Unique Number	CN_91_93/WELL/3943
WELL.         16-23-092-08W4                 : Well_name    - WELL
LOC .         AA/16-23-092-08W4/0            : Location     - LOCATION
UWI .         AA/16-23-092-08W400            : Uwi          - UNIQUE WELL ID
ENTR.         JOETTE                         : Entered      - ENTERED BY
SRVC.         SCHLUMBERGER                   : Scn          - SERVICE COMPANY
DATE.         03/16/92                       : Date         - LOG DATE
STRT.F        30                             : top_depth    - START DEPTH
STOP.F        609.888                        : bot_depth    - STOP DEPTH
STEP.F        0.8202                         : increment    - STEP LENGTH
 NULL. -999.2500:NULL Value
~CURVE INFORMATION BLOCK
#MNEM UNIT       ERCB CURVE CODE    CURVE DESCRIPTION
#-----------   ------------------   ----------------------------------
DEPT.F        00 001 00 00         : DEPTH        - DEPTH
GR  .API      00 310 00 00         : GR           - GAMMA RAY
NPHI.V/V      00 330 00 00         : PHIN         - NEUTRON POROSITY (SANDSTONE)
ILD .OHMM     00 120 00 00         : RESD         - DEEP RESISTIVITY (DIL)
~PARAMETER INFORMATION
#MNEM.UNIT           DATA             DESCRIPTION OF MNEMONIC
#---------         -----------     ------------------------------
GL  .M        456.286              : gl           - GROUND LEVEL ELEVATION
EREF.M        457.505              : kb           - ELEVATION OF DEPTH REFERENCE
DATM.M        457.505              : datum        - DATUM ELEVATION
TDD .M        192.024              : tdd          - TOTAL DEPTH DRILLER
RUN .         ONE                  : Run          - RUN NUMBER
ENG .         BILL                 : Engineer     - RECORDING ENGINEER
WIT .         JIM                  : Witness      - WITNESSED BY
MUD .         GEL                  : Mud_type     - MUD TYPE
MATR.         SANDSTONE            : Logunit      - NEUTRON MATRIX
TMAX.F        50                   : BHT          - MAXIMUM RECORDED TEMPERATURE
BHTD.F        630                  : BHTDEP       - MAXIMUM RECORDED TEMPERATURE
RMT .F        50                   : MDTP         - TEMPERATURE OF MUD
MUDD.LB/G     9.5                  : MWT          - MUD DENSITY
NEUT.         1                    : NEUTRON      - NEUTRON TYPE
RESI.         0                    : RESIST       - RESISTIVITY TYPE
RM  .OHMM     2.45                 : RM           - RESISTIVITY OF MUD
RMC .OHMM     1.4                  : RMC          - RESISTIVITY OF MUD CAKE
RMF .OHMM     1.4                  : RMF          - RESISTIVITY OF MUD FILTRATE
SUFT.F        39.2                 : SUFT         - SURFACE TEMPERATURE
~A  DEPTH       GR     PHIN     RESD
# ...
  207.986   68.296    0.442    9.374
  208.806   67.712    0.434   10.909
  209.626   68.941    0.439   11.147
  210.446   70.156    0.444    9.812
  211.266   73.188    0.444    9.653
  212.087   74.403    0.441   10.050
  212.907   76.220    0.456   10.062
  213.727   79.243    0.473    8.215
  214.547   80.463    0.464    7.227
  215.367   75.075    0.457    9.406
  216.188   74.500    0.448   10.356
  217.008   76.312    0.428    7.990
  217.828   74.527    0.273    9.479
  218.648   67.932    0.278   20.048
  219.469   60.736    0.384   45.716
  220.289   52.339    0.437   29.270
  221.109   52.957    0.464   14.982
  221.929   62.597    0.491    9.246
  222.749   66.225    0.528    7.836
  223.570   68.647    0.547    6.518
  224.390   71.065    0.485    5.952
  225.210   75.295    0.468    6.930
  226.030   75.913    0.462    7.485
  226.850   75.330    0.463    7.934
  227.671   72.947    0.468    8.421
  228.491   70.565    0.471    8.751
  229.311   69.973    0.463   10.002
  230.131   69.398    0.451   11.220
  230.951   69.411    0.453   12.807
  231.772   68.828    0.458   14.913
  232.592   68.249    0.468   14.672
  233.412   68.262    0.499   12.668
  234.232   67.678    0.523   10.343
  235.052   68.297    0.538    7.406
  235.873   73.733    0.537    4.834
  236.693   76.151    0.481    4.759
  237.513   77.972    0.467    4.682
  238.333   79.801    0.456    4.693
  239.154   79.209    0.449    4.975
  239.974   76.827    0.445    5.789
  240.794   75.646    0.438    6.997
  241.614   75.063    0.430    7.700
  242.434   73.878    0.421    8.011
  243.255   73.295    0.410    8.341
  244.075   73.913    0.398    8.678
  244.895   74.528    0.386    8.857
  245.715   77.564    0.369    9.401
  246.535   78.775    0.357   10.147
  247.356   80.600    0.354   12.495
  248.176   81.219    0.366   14.008
  248.996   80.631    0.392   15.138
  249.816   78.253    0.397   16.350
  250.636   74.659    0.394   15.497
  251.457   71.680    0.392   10.691
  252.277   72.290    0.388    9.762
  253.097   73.510    0.388    8.587
  253.917   75.344    0.390    7.147
  254.738   75.958    0.388    8.312
  255.558   76.582    0.385   10.242
  256.378   76.590    0.385   10.663
  257.198   76.007    0.391   10.675
  258.018   74.822    0.399   11.108
  258.839   73.041    0.405   10.935
  259.659   70.658    0.404   10.961
  260.479   68.873    0.394   11.619
  261.299   66.486    0.372   12.549
  262.119   64.094    0.342   14.887
  262.940   61.107    0.320   26.130
  263.760   57.518    0.387   23.860
  264.580   53.928    0.397   15.866
  265.400   56.952    0.399   14.752
  266.220   64.187    0.400   13.229
  267.041   65.411    0.400   12.087
  267.861   64.828    0.402   11.456
  268.681   64.850    0.402   10.652
  269.501   65.464    0.400   11.511
  270.322   66.082    0.398   12.195
  271.142   66.104    0.393   11.559
  271.962   66.122    0.385   11.169
  272.782   65.543    0.382   12.063
  273.602   65.552    0.389   13.036
  274.423   64.367    0.397   14.336
  275.243   62.590    0.393   15.206
  276.063   60.804    0.383   12.887
  276.883   61.423    0.356   11.760
  277.703   63.841    0.302   10.546
  278.524   67.465    0.271   12.739
  279.344   71.094    0.243   15.973
  280.164   70.510    0.324   30.794
  280.984   67.522    0.348   30.868
  281.804   60.927    0.372   16.400
  282.625   57.944    0.393   13.398
  283.445   61.564    0.398   15.581
  284.265   65.188    0.399   14.504
  285.085   65.807    0.400   12.992
  285.906   67.031    0.408   11.217
  286.726   68.852    0.414    9.868
  287.546   71.282    0.414    8.691
  288.366   71.892    0.419    8.382
  289.186   73.112    0.428    7.950
  290.007   74.332    0.438    7.821
  290.827   75.556    0.440    7.840
  291.647   76.780    0.439    8.637
  292.467   77.399    0.437    9.323
  293.287   77.412    0.420   10.259
  294.108   77.434    0.401   11.938
  294.928   76.254    0.394   13.136
  295.748   74.468    0.384   13.934
  296.568   72.077    0.382   12.963
  297.388   69.093    0.381   11.844
  298.209   69.712    0.422   11.219
  299.029   70.927    0.444   10.055
  299.849   73.350    0.457    8.058
  300.669   75.780    0.466    7.084
  301.490   76.399    0.473    6.003
  302.310   76.416    0.484    5.091
  303.130   75.232    0.504    4.733
  303.950   75.851    0.526    4.245
  304.770   78.273    0.520    3.949
  305.591   80.695    0.493    3.887
  306.411   85.525    0.474    3.897
  307.231   85.539    0.467    4.054
  308.051   82.555    0.448    4.138
  308.871   80.769    0.433    4.308
  309.692   77.781    0.411    4.740
  310.512   74.793    0.392    5.314
  311.332   71.805    0.393    6.305
  312.152   70.621    0.420    7.616
  312.972   71.240    0.411    8.862
  313.793   72.464    0.389   10.319
  314.613   73.683    0.361    9.600
  315.433   77.909    0.341   10.564
  316.253   81.533    0.294   12.539
  317.073   85.157    0.250   12.562
  317.894   83.376    0.220   13.070
  318.714   82.187    0.274   14.938
  319.534   79.199    0.323   21.342
  320.354   76.215    0.354   34.766
  321.175   73.829    0.373   40.481
  321.995   66.637    0.388   18.173
  322.815   65.448    0.396   10.812
  323.635   67.269    0.401   11.461
  324.455   69.094    0.400   12.142
  325.276   70.314    0.393   13.629
  326.096   70.332    0.383   14.180
  326.916   70.349    0.384   13.694
  327.736   70.376    0.386   13.735
  328.556   70.385    0.391   13.497
  329.377   71.003    0.397   13.537
  330.197   71.631    0.404   13.080
  331.017   72.245    0.404   12.168
  331.837   73.465    0.407   11.751
  332.657   74.689    0.413   11.341
  333.478   77.115    0.416   10.951
  334.298   78.331    0.383   10.977
  335.118   79.551    0.362   10.800
  335.938   80.770    0.351   10.237
  336.759   81.389    0.356    9.703
  337.579   82.008    0.383   11.089
  338.399   82.025    0.421   13.395
  339.219   81.442    0.419   14.748
  340.039   77.857    0.434   12.034
  340.860   77.879    0.441    9.831
  341.680   78.498    0.436    9.151
  342.500   79.117    0.433    8.826
  343.320   80.341    0.436    7.625
  344.140   80.349    0.438    6.580
  344.961   80.371    0.440    6.008
  345.781   80.393    0.441    6.867
  346.601   80.407    0.441    7.698
  347.421   79.226    0.438    8.161
  348.241   78.037    0.424    7.046
  349.062   75.655    0.401    5.971
  349.882   74.470    0.417    6.953
  350.702   74.488    0.441    8.557
  351.522   82.921    0.441   10.736
  352.343   88.958    0.427    6.499
  353.163   90.770    0.417    5.112
  353.983   91.995    0.413    5.625
  354.803   87.809    0.408    7.061
  355.623   83.623    0.383    7.082
  356.444   80.030    0.357    7.091
  357.264   78.244    0.337    7.954
  358.084   80.065    0.320    8.917
  358.904   83.088    0.302    9.284
  359.724   84.308    0.337   10.216
  360.545   80.719    0.391   13.801
  361.365   74.124    0.385   19.742
  362.185   68.131    0.361   15.518
  363.005   63.940    0.353   12.428
  363.825   73.576    0.354   11.562
  364.646   76.002    0.356   12.271
  365.466   76.024    0.359   12.300
  366.286   76.638    0.365    9.485
  367.106   77.257    0.404    6.191
  367.927   76.674    0.497    4.604
  368.747   69.478    0.493    3.619
  369.567   64.094    0.481    3.010
  370.387   64.704    0.486    3.507
  371.207   66.529    0.493    3.718
  372.028   68.359    0.501    3.942
  372.848   68.969    0.491    4.257
  373.668   69.588    0.435    4.687
  374.488   69.605    0.402    5.154
  375.308   70.838    0.367    5.672
  376.129   72.054    0.369    6.984
  376.949   73.269    0.396    8.436
  377.769   74.493    0.385    9.642
  378.589   73.304    0.346    7.444
  379.409   70.922    0.307    7.192
  380.230   72.142    0.315    8.846
  381.050   70.957    0.332   11.958
  381.870   64.362    0.393   15.866
  382.690   58.970    0.418    9.786
  383.510   53.578    0.437    6.882
  384.331   65.617    0.447    5.829
  385.151   73.454    0.452    6.187
