~VERSION INFORMATION
 VERS.                 2.0:   CWLS LOG ASCII STANDARD -VERSION 2.0
 WRAP.                  NO:   ONE LINE PER DEPTH STEP
~WELL INFORMATION BLOCK
#MNEM.UNIT           DATA                    DESCRIPTION OF MNEMONIC
#---------    -------------------            -------------------------------
# Generated from Intellog Unique Number	CN_91_93/WELL/3722
WELL.         16-28-093-07W4                 : Well_name    - WELL
LOC .         AA/16-28-093-07W4/0            : Location     - LOCATION
UWI .         AA/16-28-093-07W400            : Uwi          - UNIQUE WELL ID
ENTR.         JOETTE                         : Entered      - ENTERED BY
SRVC.         WESTERN ATLAS                  : Scn          - SERVICE COMPANY
DATE.         03/22/92                       : Date         - LOG DATE
STRT.F        50                             : top_depth    - START DEPTH
STOP.F        734.055                        : bot_depth    - STOP DEPTH
STEP.F        0.8202                         : increment    - STEP LENGTH
 NULL. -999.2500:NULL Value
~CURVE INFORMATION BLOCK
#MNEM UNIT       ERCB CURVE CODE    CURVE DESCRIPTION
#-----------   ------------------   ----------------------------------
DEPT.F        00 001 00 00         : DEPTH        - DEPTH
CALI.IN       00 280 01 00         : CAL          - CALIPER
GR  .API      00 310 00 00         : GR           - GAMMA RAY
NPHI.V/V      00 330 00 00         : PHIN         - NEUTRON POROSITY (SANDSTONE)
ILD .OHMM     00 120 00 00         : RESD         - DEEP RESISTIVITY (DIL)
~PARAMETER INFORMATION
#MNEM.UNIT           DATA             DESCRIPTION OF MNEMONIC
#---------         -----------     ------------------------------
GL  .M        509.748              : gl           - GROUND LEVEL ELEVATION
EREF.M        511.272              : kb           - ELEVATION OF DEPTH REFERENCE
DATM.M        511.272              : datum        - DATUM ELEVATION
TDD .M        225.247              : tdd          - TOTAL DEPTH DRILLER
RUN .         ONE                  : Run          - RUN NUMBER
ENG .         BILL                 : Engineer     - RECORDING ENGINEER
WIT .         JIM                  : Witness      - WITNESSED BY
MUD .         GEL                  : Mud_type     - MUD TYPE
MATR.         SANDSTONE            : Logunit      - NEUTRON MATRIX
TMAX.F        45                   : BHT          - MAXIMUM RECORDED TEMPERATURE
BHTD.F        739                  : BHTDEP       - MAXIMUM RECORDED TEMPERATURE
RMT .F        40                   : MDTP         - TEMPERATURE OF MUD
MUDD.LB/G     0.00102              : MWT          - MUD DENSITY
NEUT.         1                    : NEUTRON      - NEUTRON TYPE
RESI.         0                    : RESIST       - RESISTIVITY TYPE
RM  .OHMM     8                    : RM           - RESISTIVITY OF MUD
RMC .OHMM     8                    : RMC          - RESISTIVITY OF MUD CAKE
RMF .OHMM     8                    : RMF          - RESISTIVITY OF MUD FILTRATE
SUFT.F        39.2                 : SUFT         - SURFACE TEMPERATURE
~A  DEPTH      CAL       GR     PHIN     RESD
# ...
  335.433    7.406   70.167    0.409    9.729
  336.253    7.485   76.736    0.416    8.846
  337.073    7.684   90.478    0.423    7.597
  337.894    7.843   95.851    0.438    6.906
  338.714    7.962  106.602    0.443    6.643
  339.534    8.041  111.975    0.446    6.762
  340.354    8.200  112.565    0.446    7.282
  341.175    8.279  110.760    0.446    7.696
  341.995    8.278  108.961    0.446    7.836
  342.815    8.238  108.357    0.446    7.536
  343.635    8.238  107.746    0.446    7.114
  344.455    8.277  107.740    0.446    6.843
  345.276    8.396  108.332    0.446    6.460
  346.096    8.276  109.519    0.446    6.216
  346.916    8.116  110.111    0.448    5.647
  347.736    8.075  110.699    0.448    5.434
  348.556    8.035  110.691    0.448    5.326
  349.377    7.995  110.086    0.448    5.221
  350.197    7.994  109.480    0.448    5.213
  351.017    7.954  108.875    0.449    5.210
  351.837    7.914  108.267    0.449    5.202
  352.657    7.873  107.064    0.449    5.198
  353.478    7.833  105.861    0.446    5.290
  354.298    7.832  104.656    0.445    5.386
  355.118    7.832  103.452    0.440    5.480
  355.938    7.831  102.249    0.436    5.580
  356.759    7.831  101.644    0.428    5.681
  357.579    7.830  100.440    0.425    5.890
  358.399    7.829   99.235    0.421    5.998
  359.219    7.829   98.034    0.417    6.220
  360.039    7.828   95.035    0.413    6.334
  360.860    7.828   93.832    0.412    6.570
  361.680    7.827   95.618    0.408    6.945
  362.500    7.867   98.001    0.407    7.769
  363.320    7.906   96.798    0.405    8.857
  364.140    7.905   92.008    0.402   10.283
  364.961    7.865   87.815    0.402   10.876
  365.781    7.825   85.412    0.401   11.065
  366.601    7.745   84.211    0.399   10.850
  367.421    7.704   84.205    0.396   10.437
  368.241    7.704   85.390    0.393    9.305
  369.062    7.703   87.177    0.393    8.956
  369.882    7.742   90.155    0.401    8.294
  370.702    7.782   91.345    0.407    8.130
  371.522    7.781   93.133    0.416    8.121
  372.343    7.781   94.321    0.417    8.113
  373.163    7.780   95.507    0.414    8.258
  373.983    7.780   96.097    0.411    8.730
  374.803    7.779   96.087    0.407    9.223
  375.623    7.778   96.677    0.404    9.394
  376.444    7.778   97.264    0.401    8.695
  377.264    7.778   97.860    0.400    8.366
  378.084    7.777   97.850    0.399    7.898
  378.904    7.776   97.843    0.401    7.597
  379.724    7.776   97.831    0.409    7.449
  380.545    7.775   97.229    0.415    7.439
  381.365    7.775   96.620    0.418    8.010
  382.185    7.774   96.019    0.419    8.469
  383.005    7.774   94.815    0.417    8.783
  383.825    7.694   92.416    0.412    8.612
  384.646    7.574   88.818    0.404    8.286
  385.466    7.533   89.408    0.409    7.529
  386.286    7.493   92.391    0.417    7.242
  387.106    7.532   96.567    0.412    7.374
  387.927    7.531   97.755    0.406    7.502
  388.747    7.571   95.951    0.403    7.498
  389.567    7.570   95.350    0.406    6.946
  390.387    7.570   94.743    0.424    5.855
  391.207    7.569   97.124    0.436    4.933
  392.028    7.569  100.702    0.440    4.929
  392.848    7.568  101.296    0.438    5.409
  393.668    7.567  101.884    0.436    6.053
  394.488    7.567   98.289    0.432    7.031
  395.308    7.566   94.695    0.430    7.866
  396.129    7.566   91.100    0.427    8.630
  396.949    7.566   88.101    0.426    8.789
  397.769    7.605   85.704    0.423    8.453
  398.589    7.604   83.305    0.420    7.540
  399.409    7.604   83.896    0.425    6.598
  400.230    7.484   88.669    0.437    5.668
  401.050    7.403   91.650    0.441    5.057
  401.870    7.403   95.229    0.443    4.426
  402.690    7.482   98.211    0.443    4.022
  403.510    7.522   99.995    0.443    3.944
  404.331    7.720   99.987    0.440    3.938
  405.151    7.680   99.384    0.437    4.086
  405.971    7.599   99.372    0.433    4.320
  406.791    7.559   99.366    0.426    5.016
  407.612    7.479   99.357    0.420    5.719
  408.432    7.439   99.349    0.392    6.644
  409.252    7.358   98.144    0.387    7.865
  410.072    7.318   96.943    0.379    8.963
  410.892    7.278   94.540    0.371    9.658
  411.713    7.277   93.938    0.361   10.599
  412.533    7.276   93.333    0.359   10.998
  413.353    7.276   92.725    0.354   11.196
  414.173    7.315   92.718    0.355   11.181
  414.993    7.275   92.710    0.356   11.169
  415.814    7.075   93.300    0.360   11.169
  416.634    7.035   94.486    0.362    9.221
  417.454    7.074   95.078    0.365    8.547
  418.274    7.113   95.071    0.367    8.224
  419.094    7.232   95.059    0.371    8.055
  419.915    7.271   95.053    0.372    8.051
  420.735    7.351   94.450    0.372    8.042
  421.555    7.390   93.843    0.369    8.186
  422.375    7.430   92.038    0.365    8.492
  423.196    7.429   90.836    0.363    9.146
  424.016    7.389   87.240    0.360   10.042
  424.836    7.308   85.442    0.359   11.666
  425.656    7.228   82.446    0.358   15.759
  426.476    7.068   77.056    0.355   16.659
  427.297    6.948   74.657    0.352   15.726
  428.117    6.908   74.645    0.346   13.762
  428.937    6.947   75.833    0.347   12.276
  429.757    7.026   77.025    0.353   10.746
  430.577    7.066   80.604    0.361    9.952
  431.398    7.184   84.180    0.363    9.218
  432.218    7.303   84.174    0.359    9.034
  433.038    7.343   84.166    0.357    9.366
  433.858    7.342   83.557    0.356    9.540
  434.678    7.342   83.551    0.354    9.899
  435.499    7.301   82.948    0.357   10.660
  436.319    7.261   81.743    0.357   11.928
  437.139    7.181   79.340    0.360   13.087
  437.959    7.100   78.140    0.362   13.080
  438.780    7.060   76.935    0.360   12.110
  439.600    7.020   76.926    0.359   11.008
  440.420    6.940   77.520    0.358   10.200
  441.240    6.859   81.697    0.351    9.628
  442.060    6.859   86.470    0.343    9.799
  442.881    6.858   84.071    0.334   10.556
  443.701    6.977   82.268    0.328   11.584
  444.521    7.096   81.660    0.315   12.246
  445.341    7.136   81.057    0.293   12.233
  446.161    7.135   81.051    0.285   11.764
  446.982    7.095   82.235    0.355   11.538
  447.802    7.174   83.425    0.381   10.889
  448.622    7.173   85.805    0.392   10.671
  449.442    7.133   86.397    0.397   10.662
  450.262    7.093   86.389    0.404   10.065
  451.083    7.092   86.382    0.415    8.978
  451.903    7.091   86.974    0.423    7.568
  452.723    7.091   88.756    0.436    6.025
  453.543    7.090   90.544    0.446    5.176
  454.364    7.130   92.927    0.452    4.446
  455.184    7.209   95.907    0.457    4.042
  456.004    7.288   97.093    0.463    3.604
  456.824    7.367   97.685    0.467    3.339
  457.644    7.407   98.275    0.468    3.093
  458.465    7.486   98.267    0.467    3.032
  459.285    7.525   98.260    0.465    3.029
  460.105    7.525   98.250    0.463    3.025
  460.925    7.524   98.243    0.456    3.197
  461.745    7.484   98.233    0.445    3.317
  462.566    7.443   98.227    0.437    3.573
  463.386    7.443   98.216    0.425    4.072
  464.206    7.442   97.614    0.417    4.472
  465.026    7.442   95.813    0.408    5.294
  465.846    7.521   91.621    0.401    6.886
  466.667    7.560   91.611    0.396    9.298
  467.487    7.560   93.397    0.392   10.019
  468.307    7.479   95.181    0.389   10.396
  469.127    7.439   96.371    0.383   10.384
  469.948    7.359   95.761    0.375   10.769
  470.768    7.279   95.160    0.366   12.047
  471.588    7.198   93.953    0.343   12.264
  472.408    7.158   92.753    0.332   11.573
  473.228    7.157   89.753    0.303   10.718
  474.049    7.117   88.551    0.275   10.313
  474.869    7.117   86.748    0.240    9.923
  475.689    7.156   87.936    0.231    9.724
  476.509    7.195   91.516    0.278    9.896
  477.329    7.234   93.899    0.335   10.266
