~VERSION INFORMATION
 VERS.                 2.0:   CWLS LOG ASCII STANDARD -VERSION 2.0
 WRAP.                  NO:   ONE LINE PER DEPTH STEP
~WELL INFORMATION BLOCK
#MNEM.UNIT           DATA                    DESCRIPTION OF MNEMONIC
#---------    -------------------            -------------------------------
# Generated from Intellog Unique Number	CN_91_93/WELL/3722
WELL.         16-28-093-07W4                 : Well_name    - WELL
LOC .         AA/16-28-093-07W4/0            : Location     - LOCATION
UWI .         AA/16-28-093-07W400            : Uwi          - UNIQUE WELL ID
ENTR.         JOETTE                         : Entered      - ENTERED BY
SRVC.         WESTERN ATLAS                  : Scn          - SERVICE COMPANY
DATE.         03/22/92                       : Date         - LOG DATE
STRT.F        50                             : top_depth    - START DEPTH
STOP.F        734.055                        : bot_depth    - STOP DEPTH
STEP.F        0.8202                         : increment    - STEP LENGTH
 NULL. -999.2500:NULL Value
~CURVE INFORMATION BLOCK
#MNEM UNIT       ERCB CURVE CODE    CURVE DESCRIPTION
#-----------   ------------------   ----------------------------------
DEPT.F        00 001 00 00         : DEPTH        - DEPTH
CALI.IN       00 280 01 00         : CAL          - CALIPER
GR  .API      00 310 00 00         : GR           - GAMMA RAY
NPHI.V/V      00 330 00 00         : PHIN         - NEUTRON POROSITY (SANDSTONE)
ILD .OHMM     00 120 00 00         : RESD         - DEEP RESISTIVITY (DIL)
~PARAMETER INFORMATION
#MNEM.UNIT           DATA             DESCRIPTION OF MNEMONIC
#---------         -----------     ------------------------------
GL  .M        509.748              : gl           - GROUND LEVEL ELEVATION
EREF.M        511.272              : kb           - ELEVATION OF DEPTH REFERENCE
DATM.M        511.272              : datum        - DATUM ELEVATION
TDD .M        225.247              : tdd          - TOTAL DEPTH DRILLER
RUN .         ONE                  : Run          - RUN NUMBER
ENG .         BILL                 : Engineer     - RECORDING ENGINEER
WIT .         JIM                  : Witness      - WITNESSED BY
MUD .         GEL                  : Mud_type     - MUD TYPE
MATR.         SANDSTONE            : Logunit      - NEUTRON MATRIX
TMAX.F        45                   : BHT          - MAXIMUM RECORDED TEMPERATURE
BHTD.F        739                  : BHTDEP       - MAXIMUM RECORDED TEMPERATURE
RMT .F        40                   : MDTP         - TEMPERATURE OF MUD
MUDD.LB/G     0.00102              : MWT          - MUD DENSITY
NEUT.         1                    : NEUTRON      - NEUTRON TYPE
RESI.         0                    : RESIST       - RESISTIVITY TYPE
RM  .OHMM     8                    : RM           - RESISTIVITY OF MUD
RMC .OHMM     8                    : RMC          - RESISTIVITY OF MUD CAKE
RMF .OHMM     8                    : RMF          - RESISTIVITY OF MUD FILTRATE
SUFT.F        39.2                 : SUFT         - SURFACE TEMPERATURE
~A  DEPTH      CAL       GR     PHIN     RESD
# ...
  192.717    6.781   66.170    0.411   17.529
  193.537    6.780   63.767    0.412   19.242
  194.357    6.780   62.567    0.417   20.728
  195.177    6.779   60.166    0.418   21.918
  195.997    6.858   59.563    0.420   24.978
  196.818    7.097   58.957    0.422   29.016
  197.638    7.216   60.142    0.421   32.451
  198.458    7.614   61.925    0.416   32.425
  199.278    7.653   63.115    0.406   32.381
  200.098    7.454   63.110    0.404   31.751
  200.919    7.413   63.696    0.404   29.972
  201.739    7.413   63.093    0.405   28.831
  202.559    7.412   61.288    0.406   27.727
  203.379    7.451   61.282    0.406   28.225
  204.199    7.411   61.872    0.406   28.195
  205.020    7.411   63.658    0.404   28.157
  205.840    7.370   66.041    0.400   28.670
  206.660    7.250   67.827    0.398   28.640
  207.480    7.210   68.417    0.389   28.609
  208.301    7.129   67.812    0.385   28.571
  209.121    7.089   66.607    0.382   28.525
  209.941    7.049   66.003    0.385   28.503
  210.761    7.048   65.396    0.388   28.480
  211.581    7.048   65.390    0.390   27.910
  212.402    7.087   66.574    0.391   27.367
  213.222    7.126   68.360    0.391   26.304
  214.042    7.206   70.148    0.391   25.310
  214.862    7.245   74.321    0.391   23.886
  215.682    7.284   74.913    0.391   23.427
  216.503    7.284   75.501    0.392   21.695
  217.323    7.283   75.496    0.394   20.097
  218.143    7.243   74.290    0.397   18.616
  218.963    7.202   73.085    0.399   16.918
  219.783    7.202   71.884    0.399   15.970
  220.604    7.201   68.885    0.398   16.562
  221.424    7.241   67.086    0.402   17.517
  222.244    7.240   65.285    0.410   19.968
  223.064    7.240   62.884    0.419   22.338
  223.885    7.199   61.681    0.423   24.515
  224.705    7.199   60.477    0.416   24.488
  225.525    7.158   59.872    0.411   22.248
  226.345    7.158   59.265    0.413   21.413
  227.165    7.197   59.259    0.418   20.598
  227.986    7.236   60.447    0.418   20.192
  228.806    7.236   63.428    0.419   19.788
  229.626    7.235   64.614    0.420   19.762
  230.446    7.115   64.609    0.421   20.117
  231.266    6.955   62.802    0.425   20.868
  232.087    6.835   62.198    0.422   22.059
  232.907    6.874   61.597    0.420   23.763
  233.727    7.033   61.585    0.416   24.657
  234.547    7.152   62.177    0.414   26.065
  235.367    7.192   63.363    0.410   27.546
  236.188    7.191   63.955    0.409   29.111
  237.008    7.151   63.946    0.407   30.198
  237.828    7.150   63.342    0.407   31.326
  238.648    7.190   61.539    0.405   32.495
  239.469    7.269   59.734    0.403   33.709
  240.289    7.587   58.531    0.401   35.634
  241.109    7.666   58.527    0.397   36.965
  241.929    7.586   57.918    0.395   38.345
  242.749    7.506   57.912    0.391   39.033
  243.570    7.465   59.698    0.389   38.263
  244.390    7.465   61.482    0.385   36.807
  245.210    7.464   62.070    0.383   35.406
  246.030    7.464   61.467    0.381   34.059
  246.850    7.383   60.265    0.375   31.541
  247.671    7.343   57.862    0.367   29.210
  248.491    7.263   57.261    0.360   27.573
  249.311    7.262   58.445    0.347   26.028
  250.131    7.222   59.037    0.321   25.521
  250.951    7.221   60.823    0.282   25.980
  251.772    7.221   60.215    0.283   26.446
  252.592    7.220   59.612    0.300   27.949
  253.412    7.220   59.602    0.310   30.091
  254.232    7.180   60.191    0.334   31.232
  255.052    7.179   61.379    0.359   34.928
  255.873    7.139   60.173    0.326   41.358
  256.693    7.098   59.570    0.242   60.251
  257.513    7.018   56.571    0.207   66.140
  258.333    7.017   54.770    0.161   62.401
  259.154    7.057   52.971    0.129   60.042
  259.974    7.216   51.768    0.140   54.594
  260.794    7.375   50.560    0.152   43.476
  261.614    7.334   51.154    0.183   37.336
  262.434    7.134   53.538    0.280   35.234
  263.255    6.935   55.922    0.428   34.548
  264.075    6.934   56.512    0.465   34.511
  264.895    7.292   55.307    0.463   35.131
  265.715    7.451   54.701    0.451   37.844
  266.535    7.690   54.694    0.440   41.532
  267.356    7.888   55.280    0.438   43.916
  268.176    7.848   55.872    0.436   46.386
  268.996    7.728   55.864    0.433   46.373
  269.816    7.568   55.857    0.428   46.324
  270.636    7.727   55.845    0.422   46.262
  271.457    8.045   55.244    0.405   45.337
  272.277    8.403   54.038    0.399   44.431
  273.097    8.403   53.435    0.403   43.566
  273.917    8.283   54.621    0.406   43.531
  274.738    8.043   56.405    0.409   41.852
  275.558    7.963   56.995    0.410   41.830
  276.378    7.882   56.989    0.410   40.993
  277.198    7.882   55.784    0.406   39.423
  278.018    7.762   55.181    0.405   39.380
  278.839    7.323   54.571    0.402   39.349
  279.659    7.402   54.566    0.402   39.307
  280.479    7.322   55.152    0.404   40.764
  281.299    7.321   55.146    0.409   42.286
  282.119    7.600   55.738    0.411   45.552
  282.940    7.599   55.730    0.417   48.153
  283.760    7.240   53.929    0.425   49.951
  284.580    7.120   51.531    0.427   50.835
  285.400    6.960   49.130    0.426   50.794
  286.220    6.880   48.524    0.419   49.765
  287.041    7.318   49.712    0.416   48.809
  287.861    7.397   52.694    0.422   47.833
  288.681    7.396   55.675    0.424   46.013
  289.501    7.595   55.070    0.422   44.262
  290.322    7.913   53.864    0.418   41.782
  291.142    8.072   53.259    0.408   39.441
  291.962    8.072   52.653    0.402   37.231
  292.782    8.031   52.644    0.391   33.825
  293.602    7.951   52.036    0.385   31.342
  294.423    7.871   52.033    0.380   28.490
  295.243    7.791   52.621    0.372   26.894
  296.063    7.750   55.001    0.368   24.906
  296.883    7.710   56.191    0.368   23.958
  297.703    7.670   58.574    0.370   23.926
  298.524    7.549   58.565    0.373   23.907
  299.344    7.429   58.559    0.376   25.747
  300.164    7.309   58.553    0.379   27.224
  300.984    7.269   57.346    0.383   30.438
  301.804    7.268   56.743    0.384   32.184
  302.625    7.268   55.539    0.382   33.395
  303.445    7.267   54.336    0.382   33.995
  304.265    7.267   51.933    0.383   33.315
  305.085    7.266   51.929    0.384   30.844
  305.906    7.306   54.907    0.387   29.124
  306.726    7.305   56.693    0.391   25.979
  307.546    7.344   55.488    0.395   24.065
  308.366    7.344   55.484    0.399   23.149
  309.186    7.383   56.074    0.402   23.559
  310.007    7.383   58.458    0.404   24.432
  310.827    7.382   62.037    0.404   24.419
  311.647    7.381   62.027    0.404   23.937
  312.467    7.381   60.226    0.402   23.465
  313.287    7.380   60.815    0.400   21.313
  314.108    7.340   62.002    0.399   20.507
  314.928    7.340   64.984    0.398   19.363
  315.748    7.339   66.768    0.396   17.937
  316.568    7.338   67.356    0.395   16.932
  317.388    7.338   67.350    0.395   15.979
  318.209    7.337   67.941    0.394   15.367
  319.029    7.337   71.522    0.393   15.067
  319.849    7.336   72.708    0.392   15.630
  320.669    7.336   69.713    0.392   17.153
  321.490    7.335   65.521    0.392   19.194
  322.310    7.335   61.922    0.392   21.880
  323.130    7.294   60.123    0.389   23.129
  323.950    7.294   58.322    0.387   22.661
  324.770    7.254   61.301    0.385   22.213
  325.591    7.213   62.487    0.381   22.190
  326.411    7.173   61.288    0.381   23.012
  327.231    7.172   60.081    0.385   23.438
  328.051    7.172   61.867    0.387   24.776
  328.871    7.171   62.459    0.389   25.702
  329.692    7.171   63.045    0.385   26.654
  330.512    7.170   63.039    0.382   25.633
  331.332    7.170   63.032    0.379   23.301
  332.152    7.209   63.024    0.382   20.397
  332.972    7.208   63.017    0.390   16.561
  333.793    7.248   64.204    0.394   12.700
  334.613    7.327   66.588    0.403   11.117
