~VERSION INFORMATION
 VERS.                 2.0:   CWLS LOG ASCII STANDARD -VERSION 2.0
 WRAP.                  NO:   ONE LINE PER DEPTH STEP
~WELL INFORMATION BLOCK
#MNEM.UNIT           DATA                    DESCRIPTION OF MNEMONIC
#---------    -------------------            -------------------------------
# Generated from Intellog Unique Number	CN_94_101/WELL/1075
WELL.         11-32-094-06W4                 : Well_name    - WELL
LOC .         AA/11-32-094-06W4/0            : Location     - LOCATION
UWI .         AA/11-32-094-06W400            : Uwi          - UNIQUE WELL ID
ENTR.         JOETTE                         : Entered      - ENTERED BY
SRVC.         SCHLUMBERGER                   : Scn          - SERVICE COMPANY
DATE.         04/10/92                       : Date         - LOG DATE
STRT.M        100                            : top_depth    - START DEPTH
STOP.M        310                            : bot_depth    - STOP DEPTH
STEP.M        0.25                           : increment    - STEP LENGTH
 NULL. -999.2500:NULL Value
~CURVE INFORMATION BLOCK
#MNEM UNIT       ERCB CURVE CODE    CURVE DESCRIPTION
#-----------   ------------------   ----------------------------------
DEPT.M        00 001 00 00         : DEPTH        - DEPTH
ILD .OHMM     00 120 00 00         : RESD         - DEEP RESISTIVITY (DIL)
DPHI.V/V      00 890 00 00         : PHID         - DENSITY POROSITY (SANDSTONE)
NPHI.V/V      00 330 00 00         : PHIN         - NEUTRON POROSITY (SANDSTONE)
GR  .API      00 310 00 00         : GR           - GAMMA RAY
CALI.MM       00 280 01 00         : CAL          - CALIPER
~PARAMETER INFORMATION
#MNEM.UNIT           DATA             DESCRIPTION OF MNEMONIC
#---------         -----------     ------------------------------
GL  .M        588.65               : gl           - GROUND LEVEL ELEVATION
EREF.M        591.35               : kb           - ELEVATION OF DEPTH REFERENCE
DATM.M        591.35               : datum        - DATUM ELEVATION
TDD .M        313                  : tdd          - TOTAL DEPTH DRILLER
RUN .         ONE                  : Run          - RUN NUMBER
ENG .         BILL                 : Engineer     - RECORDING ENGINEER
WIT .         JIM                  : Witness      - WITNESSED BY
MUD .         GEL                  : Mud_type     - MUD TYPE
MATR.         SANDSTONE            : Logunit      - NEUTRON MATRIX
TMAX.C        16                   : BHT          - MAXIMUM RECORDED TEMPERATURE
BHTD.M        313                  : BHTDEP       - MAXIMUM RECORDED TEMPERATURE
RMT .C        19                   : MDTP         - TEMPERATURE OF MUD
MUDD.KG/M     1050                 : MWT          - MUD DENSITY
NEUT.         1                    : NEUTRON      - NEUTRON TYPE
RESI.         0                    : RESIST       - RESISTIVITY TYPE
RM  .OHMM     8.17                 : RM           - RESISTIVITY OF MUD
RMC .OHMM     8.17                 : RMC          - RESISTIVITY OF MUD CAKE
RMF .OHMM     8.17                 : RMF          - RESISTIVITY OF MUD FILTRATE
SUFT.C        4                    : SUFT         - SURFACE TEMPERATURE
~A  DEPTH     RESD     PHID     PHIN       GR      CAL
# ...
  209.500    7.785    0.213    0.447   80.102  174.623
  209.750    8.573    0.219    0.467   80.790  174.773
  210.000    9.259    0.234    0.466   81.448  177.939
  210.250   10.196    0.228    0.466   81.538  179.061
  210.500   10.609    0.225    0.466   81.568  177.116
  210.750   10.629    0.237    0.456   81.015  178.238
  211.000    9.334    0.266    0.447   79.235  179.360
  211.250    7.886    0.263    0.435   77.455  178.438
  211.500    6.922    0.249    0.435   76.289  173.428
  211.750    6.809    0.234    0.445   78.801  171.484
  212.000    9.225    0.213    0.451   83.782  172.581
  212.250   10.967    0.225    0.454   85.666  176.768
  212.500   11.845    0.240    0.461   84.500  184.047
  212.750   12.559    0.245    0.461   82.107  185.169
  213.000   13.080    0.246    0.465   79.116  183.250
  213.250   13.349    0.254    0.468   78.548  180.309
  213.500   13.636    0.241    0.448   79.221  179.362
  213.750   13.393    0.228    0.463   79.326  179.437
  214.000   13.167    0.251    0.477   78.742  179.561
  214.250   12.009    0.268    0.478   78.802  180.683
  214.500    9.586    0.260    0.480   80.702  181.780
  214.750    7.099    0.238    0.496   86.894  182.902
  215.000    5.560    0.268    0.525   88.210  191.178
  215.250    5.364    0.279    0.535   88.240  195.416
  215.500    6.874    0.267    0.516   87.702  193.472
  215.750    7.156    0.255    0.518   86.535  190.506
  216.000    6.648    0.265    0.520   86.595  187.564
  216.250    5.944    0.273    0.504   86.655  186.592
  216.500    5.215    0.261    0.484   84.262  184.673
  216.750    4.244    0.238    0.494   80.643  180.660
  217.000    3.264    0.243    0.526   83.769  179.738
  217.250    2.978    0.255    0.556   90.574  188.014
  217.500    2.981    0.267    0.572   97.379  193.224
  217.750    2.988    0.266    0.572   95.615  193.324
  218.000    2.994    0.264    0.568   93.207  193.498
  218.250    3.174    0.265    0.558   93.880  193.523
  218.500    3.301    0.267    0.567   97.036  192.626
  218.750    3.637    0.266    0.565   97.111  192.726
  219.000    4.319    0.260    0.560   97.156  192.801
  219.250    5.429    0.244    0.554   96.587  191.879
  219.500    6.696    0.239    0.555   94.808  192.053
  219.750    8.581    0.234    0.545   90.575  192.128
  220.000    9.449    0.240    0.511   86.956  191.206
  220.250    9.836    0.235    0.497   83.950  188.215
  220.500    9.850    0.261    0.475   82.155  184.227
  220.750    9.684    0.255    0.471   87.135  182.283
  221.000    9.521    0.242    0.466   87.195  181.361
  221.250    9.014    0.247    0.480   86.029  183.529
  221.500    8.696    0.273    0.512   85.476  186.695
  221.750    8.549    0.276    0.499   86.149  186.820
  222.000    9.594    0.236    0.481   88.048  182.807
  222.250   11.181    0.208    0.453   89.963  179.841
  222.500   12.318    0.172    0.444   86.328  178.894
  222.750   12.589    0.118    0.430   80.256  176.974
  223.000   12.601    0.069    0.396   76.024  177.049
  223.250   12.168    0.114    0.292   79.150  177.174
  223.500   11.951    0.195    0.337   90.277  178.271
  223.750   10.910    0.225    0.390   89.111  181.487
  224.000   10.324    0.248    0.453   87.929  184.653
  224.250    9.950    0.250    0.465   86.763  186.772
  224.500    9.248    0.257    0.463   84.983  193.029
  224.750    8.913    0.259    0.464   84.445  197.217
  225.000    8.288    0.252    0.464   84.520  200.357
  225.250    7.992    0.237    0.460   85.193  206.639
  225.500    7.562    0.244    0.470   85.238  209.805
  225.750    6.897    0.250    0.483   85.313  212.946
  226.000    6.407    0.237    0.493   85.343  217.159
  226.250    6.299    0.230    0.498   86.016  219.328
  226.500    6.682    0.240    0.503   87.302  222.469
  226.750    6.946    0.232    0.515   89.202  224.588
  227.000    7.513    0.222    0.506   89.920  227.779
  227.250    7.390    0.216    0.479   87.512  232.016
  227.500    6.989    0.221    0.469   86.345  234.135
  227.750    6.020    0.229    0.474   87.018  236.254
  228.000    5.383    0.242    0.503   88.918  238.398
  228.250    4.725    0.260    0.517   87.138  240.542
  228.500    4.389    0.255    0.517   84.745  241.664
  228.750    4.234    0.247    0.538   82.966  242.786
  229.000    4.408    0.251    0.545   83.624  243.933
  229.250    4.589    0.261    0.539   87.976  244.033
  229.500    4.681    0.267    0.508   89.263  244.132
  229.750    4.779    0.261    0.494   88.111  244.257
  230.000    4.795    0.253    0.483   87.558  244.357
  230.250    4.806    0.254    0.517   87.618  244.457
  230.500    4.811    0.244    0.531   87.662  244.532
  230.750    4.727    0.241    0.523   84.686  245.654
  231.000    4.650    0.255    0.511   84.716  245.779
  231.250    4.748    0.255    0.506   86.646  245.903
  231.500    4.755    0.247    0.514   87.917  245.953
  231.750    4.857    0.245    0.522   89.817  246.078
  232.000    4.864    0.258    0.524   89.263  245.131
  232.250    4.966    0.263    0.499   85.046  245.256
  232.500    5.073    0.256    0.495   82.638  245.331
  232.750    5.281    0.245    0.495   80.858  245.431
  233.000    5.489    0.244    0.521   83.999  245.555
  233.250    6.047    0.239    0.515   86.497  244.658
  233.500    6.659    0.231    0.488   87.783  243.736
  233.750    7.333    0.234    0.486   86.632  241.792
  234.000    7.487    0.222    0.513   87.290  238.826
  234.250    7.505    0.209    0.502   91.059  236.882
  234.500    7.958    0.211    0.478   91.717  234.937
  234.750    8.595    0.212    0.468   91.164  230.924
  235.000    9.834    0.226    0.446   90.611  223.895
  235.250    9.487    0.237    0.450   88.831  218.835
  235.500    8.813    0.237    0.456   85.212  211.781
  235.750    8.187    0.234    0.455   85.885  205.773
  236.000    8.045    0.230    0.457   87.186  202.832
  236.250    8.371    0.225    0.468   87.859  201.885
  236.500    9.222    0.215    0.457   87.904  200.938
  236.750   10.349    0.207    0.443   86.752  201.063
  237.000   11.407    0.200    0.428   85.571  201.238
  237.250   11.641    0.193    0.410   85.018  201.262
  237.500   11.440    0.180    0.402   84.479  202.434
  237.750   11.036    0.173    0.395   84.524  202.484
  238.000   10.060    0.164    0.410   85.198  204.628
  238.250    9.171    0.158    0.432   88.338  205.750
  238.500    8.054    0.205    0.458   90.238  207.894
  238.750    7.335    0.229    0.491   88.473  211.110
  239.000    3.584    0.259    0.522   86.694  213.204
  239.250    3.458    0.306    0.579   86.140  219.461
  239.500    3.668    0.298    0.618   85.572  222.651
  239.750    3.815    0.291    0.586   84.406  223.748
  240.000    3.969    0.271    0.582   83.852  223.898
  240.250    4.209    0.276    0.591   82.088  224.995
  240.500    4.548    0.273    0.557   81.534  225.120
  240.750    4.822    0.253    0.514   81.579  225.195
  241.000    5.213    0.258    0.497   85.333  227.339
  241.250    5.424    0.256    0.491   85.991  229.507
  241.500    5.646    0.241    0.478   86.051  230.579
  241.750    5.765    0.217    0.472   85.498  231.751
  242.000    5.776    0.220    0.468   85.558  231.826
  242.250    5.679    0.217    0.509   86.261  230.904
  242.500    5.479    0.218    0.513   84.466  230.007
  242.750    5.285    0.214    0.491   79.621  229.085
  243.000    5.006    0.217    0.481   77.841  228.138
  243.250    4.827    0.219    0.471   77.901  227.240
  243.500    4.744    0.220    0.506   79.800  226.318
  243.750    4.491    0.228    0.527   82.926  224.399
  244.000    4.415    0.239    0.523   84.826  224.449
  244.250    4.261    0.246    0.523   85.514  223.552
  244.500    4.111    0.246    0.523   84.946  223.677
  244.750    4.040    0.243    0.519   84.392  223.726
  245.000    3.898    0.257    0.515   85.066  223.826
  245.250    3.834    0.261    0.488   86.367  223.951
  245.500    3.767    0.253    0.485   85.215  224.026
  245.750    3.636    0.247    0.500   85.275  223.104
