~VERSION INFORMATION
 VERS.                 2.0:   CWLS LOG ASCII STANDARD -VERSION 2.0
 WRAP.                  NO:   ONE LINE PER DEPTH STEP
~WELL INFORMATION BLOCK
#MNEM.UNIT           DATA                    DESCRIPTION OF MNEMONIC
#---------    -------------------            -------------------------------
# Generated from Intellog Unique Number	CC_84_87/WELL/2300
NULL.         -999.25                        : NULL_VALUE
WELL.         PEX PCEJ HANGST OV             : Well_name    - WELL              
LOC .         10-09-084-11W4                 : Location     - LOCATION          
UWI .         AA/10-09-084-11W400            : Uwi          - UNIQUE WELL ID    
ENTR.         JHS                            : Entered      - ENTERED BY        
SRVC.         DRESSER ATLAS                  : Scn          - SERVICE COMPANY   
DATE.         05 MAR 80                      : Date         - LOG DATE
STRT.M        125                            : top_depth    - START DEPTH       
STOP.M        366.797                        : bot_depth    - STOP DEPTH        
STEP.M        0.3                            : increment    - STEP LENGTH       
~CURVE INFORMATION BLOCK
#MNEM UNIT       ERCB CURVE CODE    CURVE DESCRIPTION
#-----------   ------------------   ----------------------------------
DEPT.M        00 001 00 00         : DEPTH        - DEPTH                       
DPHI.V/V      00 890 00 00         : PHID         - DENSITY POROSITY (LIMESTONE)
NPHI.V/V      00 330 00 00         : PHIN         - NEUTRON POROSITY (LIMESTONE)
GR  .API      00 310 00 00         : GR           - GAMMA RAY                   
ILD .OHMM     00 120 00 00         : RESD         - DEEP RESISTIVITY (DIL)      
~PARAMETER INFORMATION       
#MNEM.UNIT           DATA             DESCRIPTION OF MNEMONIC
#---------         -----------     ------------------------------
GL  .M        603.7                : gl           - GROUND LEVEL ELEVATION      
EREF.M        607.35               : kb           - ELEVATION OF DEPTH REFERENCE
DATM.M        607.35               : datum        - DATUM ELEVATION             
TDD .M        376                  : tdd          - TOTAL DEPTH DRILLER         
RUN .         ONE                  : Run          - RUN NUMBER                  
ENG .         BILL                 : Engineer     - RECORDING ENGINEER          
WIT .         JIM                  : Witness      - WITNESSED BY                
MUD .         GEL                  : Mud_type     - MUD TYPE                    
MATR.         LIMESTONE            : Logunit      - NEUTRON MATRIX              
TMAX.C        60                   : BHT          - MAXIMUM RECORDED TEMPERATURE
BHTD.M        376                  : BHTDEP       - MAXIMUM RECORDED TEMPERATURE
MATR.         1                    : LOGUNIT      - NEUTRON MATRIX              
RMT .C        25                   : MDTP         - TEMPERATURE OF MUD          
NEUT.         1                    : NEUTRON      - NEUTRON TYPE                
RESI.         0                    : RESIST       - RESISTIVITY TYPE            
RMC .OHMM     0.25                 : RMC          - RESISTIVITY OF MUD CAKE     
RMF .OHMM     0.25                 : RMF          - RESISTIVITY OF MUD FILTRATE 
SUFT.C        15                   : SUFT         - SURFACE TEMPERATURE         
~A  DEPTH     PHID     PHIN       GR     RESD
# ...
  229.401    0.216    0.393   80.653    7.943
  229.701    0.210    0.391   80.622    7.235
  230.001    0.207    0.391   90.993    6.469
  230.301    0.211    0.405   92.790    5.892
  230.601    0.219    0.388   87.859    5.170
  230.901    0.220    0.399   89.048    4.537
  231.201    0.219    0.424   98.195    3.981
  231.501    0.224    0.414  106.114    3.626
  231.801    0.232    0.431  100.573    3.559
  232.101    0.240    0.437  104.205    3.626
  232.401    0.243    0.439   93.768    3.626
  232.701    0.240    0.430   91.888    3.695
  233.001    0.242    0.417   88.800    3.764
  233.301    0.239    0.435   91.212    3.764
  233.601    0.233    0.439  104.644    3.626
  233.901    0.237    0.437  103.382    3.559
  234.201    0.247    0.438  101.513    3.493
  234.501    0.249    0.427   94.131    3.559
  234.801    0.255    0.387   84.301    3.907
  235.101    0.256    0.374   78.144    4.709
  235.401    0.247    0.340   81.779    5.892
  235.701    0.241    0.345   82.357    7.102
  236.001    0.236    0.359   88.440    7.511
  236.301    0.241    0.373   88.405    7.652
  236.601    0.250    0.341   86.533    7.235
  236.901    0.260    0.339   86.500    6.841
  237.201    0.272    0.334   87.687    7.511
  237.501    0.294    0.302   87.654    8.885
  237.801    0.301    0.274   78.436   10.910
  238.101    0.199    0.272   60.650   13.150
  238.401    0.067    0.242   52.656   16.148
  238.701    0.071    0.185   41.600   23.023
  239.001    0.097    0.148   45.236   27.235
  239.301    0.150    0.148   48.261   32.219
  239.601    0.290    0.169   58.022   32.219
  239.901    0.359    0.204   59.206   28.272
  240.201    0.359    0.230   61.626   24.349
  240.501    0.351    0.254   64.032   21.769
  240.801    0.338    0.263   62.167   18.402
  241.101    0.314    0.275   60.906   16.452
  241.401    0.294    0.314   56.581   13.907
  241.701    0.289    0.356   57.773   12.204
  242.001    0.289    0.366   57.735   11.325
  242.301    0.285    0.362   58.309   10.910
  242.601    0.282    0.367   60.117   10.709
  242.901    0.283    0.367   59.469   10.709
  243.201    0.281    0.355   55.148   10.709
  243.501    0.272    0.356   52.664   10.709
  243.801    0.271    0.353   59.973   10.910
  244.101    0.278    0.358   53.817   11.116
  244.401    0.281    0.359   56.843   11.116
  244.701    0.280    0.359   64.762   10.910
  245.001    0.280    0.322   58.601   10.511
  245.301    0.281    0.301   62.857   10.316
  245.601    0.280    0.276   62.205   10.316
  245.901    0.278    0.248   57.886   10.511
  246.201    0.270    0.224   57.239   11.116
  246.501    0.163    0.168   55.368   12.204
  246.801    0.019    0.116   47.375   15.268
  247.101    0.038    0.121   46.114   18.402
  247.401    0.070    0.154   43.627   19.462
  247.701    0.105    0.233   50.330   18.062
  248.001    0.266    0.261   61.924   15.556
  248.301    0.279    0.357   62.498   12.434
  248.601    0.278    0.359   62.462   11.325
  248.901    0.277    0.354   64.876   10.709
  249.201    0.282    0.339   62.394   10.316
  249.501    0.286    0.349   58.072   10.511
  249.801    0.283    0.354   53.753   10.511
  250.101    0.279    0.350   62.288   10.709
  250.401    0.280    0.343   64.085   10.709
  250.701    0.279    0.352   62.825   10.709
  251.001    0.275    0.345   65.849   10.511
  251.301    0.279    0.342   55.412   10.511
  251.601    0.277    0.345   62.107   10.511
  251.901    0.274    0.351   65.742   10.511
  252.201    0.283    0.341   65.098   10.316
  252.501    0.285    0.351   68.735   10.316
  252.801    0.283    0.354   64.414   10.316
  253.101    0.279    0.350   63.155   10.316
  253.401    0.270    0.357   62.507   10.316
  253.701    0.261    0.364   61.858   10.125
  254.001    0.221    0.361   64.886   10.125
  254.301    0.204    0.344   62.398   10.125
  254.601    0.234    0.359   64.815   10.125
  254.901    0.248    0.336   67.223   10.125
  255.201    0.136    0.312   70.864   10.125
  255.501    0.144    0.301   68.985    9.754
  255.801    0.203    0.330   74.465    8.720
  256.101    0.246    0.382   76.879    7.943
  256.401    0.238    0.388   79.901    7.511
  256.701    0.243    0.376   78.032    7.235
  257.001    0.243    0.347   79.221    7.102
  257.301    0.237    0.353   78.568    7.372
  257.601    0.222    0.351   79.761    7.796
  257.901    0.217    0.365   79.725    8.093
  258.201    0.209    0.361   77.854    8.401
  258.501    0.199    0.356   75.979    8.559
  258.801    0.198    0.357   82.064    8.401
  259.101    0.213    0.366   82.642    8.245
  259.401    0.226    0.358   85.669    8.093
  259.701    0.227    0.376   83.186    7.796
  260.001    0.234    0.393   78.861    7.652
  260.301    0.241    0.375   81.275    7.652
  260.601    0.247    0.362   88.582    7.235
  260.901    0.273    0.385   83.654    6.591
  261.201    0.267    0.403   83.005    6.116
  261.501    0.286    0.391   85.421    5.676
  261.801    0.295    0.387   81.708    5.571
  262.101    0.273    0.389   81.673    5.892
  262.401    0.243    0.388   79.804    6.349
  262.701    0.228    0.384   76.706    6.841
  263.001    0.215    0.366   76.058    7.372
  263.301    0.226    0.367   78.472    7.796
  263.601    0.225    0.350   77.825    8.401
  263.901    0.220    0.348   71.050    8.720
  264.201    0.225    0.344   72.242    9.052
  264.501    0.237    0.359   77.719    9.052
  264.801    0.237    0.376   80.129    9.223
  265.101    0.246    0.359   80.708    9.397
  265.401    0.245    0.349   73.322    9.223
  265.701    0.220    0.349   80.023    9.052
  266.001    0.201    0.354   83.048    8.885
  266.301    0.201    0.354   90.972    8.720
  266.601    0.187    0.347   91.543    8.559
  266.901    0.173    0.351   93.346    8.401
  267.201    0.172    0.342   89.639    8.245
  267.501    0.210    0.353   86.535    7.943
  267.801    0.254    0.362   87.116    7.511
  268.101    0.250    0.372   85.245    7.102
  268.401    0.245    0.387   85.210    6.469
  268.701    0.250    0.381   88.851    6.003
  269.001    0.253    0.387   86.977    5.676
  269.301    0.266    0.387   83.270    5.268
  269.601    0.263    0.387   82.621    4.709
  269.901    0.232    0.384   99.110    4.210
  270.201    0.215    0.404  100.912    3.981
  270.501    0.215    0.421   97.200    3.907
  270.801    0.227    0.408   97.170    4.133
  271.101    0.235    0.392   97.743    4.453
  271.401    0.229    0.382   93.427    5.468
  271.701    0.218    0.390   88.493    6.003
  272.001    0.202    0.385   90.901    6.349
  272.301    0.201    0.373   98.827    6.232
  272.601    0.194    0.374  103.689    5.783
  272.901    0.203    0.379   99.366    6.003
  273.201    0.203    0.377   95.663    6.469
  273.501    0.200    0.367   87.669    7.372
  273.801    0.205    0.365   87.626    8.245
  274.101    0.205    0.351   93.105    9.052
  274.401    0.210    0.347   93.682    9.938
  274.701    0.180    0.341   99.764   10.316
  275.001    0.179    0.324   99.120   10.511
  275.301    0.174    0.315   99.086   11.116
  275.601    0.124    0.309   90.479   11.756
  275.901    0.118    0.286   82.488   11.539
  276.201    0.130    0.268   94.695   11.116
  276.500    0.163    0.283  102.617   10.316
  276.800    0.174    0.322   95.844    9.574
  277.100    0.172    0.359   90.912    9.052
  277.400    0.184    0.361   94.552    8.559
  277.700    0.198    0.363   99.407    8.401
  278.000    0.205    0.367   97.542    8.093
  278.300    0.200    0.383   93.220    7.943
  278.600    0.205    0.373  102.977    8.093
  278.900    0.207    0.378   96.211    8.720
  279.200    0.201    0.379   90.663    9.223
  279.500    0.201    0.369   87.569   10.125
  279.800    0.198    0.314   85.083   11.116
  280.100    0.197    0.322   89.945   10.910
  280.400    0.201    0.343   85.621   10.709
  280.700    0.218    0.342   90.486   10.125
  281.000    0.223    0.331   93.511   10.125
  281.300    0.195    0.329   83.072   10.125
