~VERSION INFORMATION
 VERS.                 2.0:   CWLS LOG ASCII STANDARD -VERSION 2.0
 WRAP.                  NO:   ONE LINE PER DEPTH STEP
~WELL INFORMATION BLOCK
#MNEM.UNIT           DATA                    DESCRIPTION OF MNEMONIC
#---------    -------------------            -------------------------------
# Generated from Intellog Unique Number	CW_82_90/WELL/1029
WELL.         11-20-082-20W4                 : Well_name    - WELL
LOC .         AA/11-20-082-20W4/0            : Location     - LOCATION
UWI .         AA/11-20-082-20W4/0            : Uwi          - UNIQUE WELL ID
ENTR.         JAYE                           : Entered      - ENTERED BY
SRVC.         SCHLUMBERGER                   : Scn          - SERVICE COMPANY
DATE.         2 FEB 76                       : Date         - LOG DATE
STRT.M        182.88                         : top_depth    - START DEPTH
STOP.M        387.13                         : bot_depth    - STOP DEPTH
STEP.M        0.25                           : increment    - STEP LENGTH
 NULL. -999.2500:NULL Value
~CURVE INFORMATION BLOCK
#MNEM UNIT       ERCB CURVE CODE    CURVE DESCRIPTION
#-----------   ------------------   ----------------------------------
DEPT.M        00 001 00 00         : DEPTH        - DEPTH
CALI.MM       00 280 01 00         : CAL          - CALIPER
GR  .API      00 310 00 00         : GR           - GAMMA RAY
NPHI.V/V      00 330 00 00         : PHIN         - NEUTRON POROSITY (SANDSTONE)
DPHI.V/V      00 890 00 00         : PHID         - DENSITY POROSITY (SANDSTONE)
ILD .OHMM     00 120 00 00         : RESD         - DEEP RESISTIVITY (DLL)
~PARAMETER INFORMATION
#MNEM.UNIT           DATA             DESCRIPTION OF MNEMONIC
#---------         -----------     ------------------------------
GL  .M        603.504              : gl           - GROUND LEVEL ELEVATION
EREF.M        606.857              : kb           - ELEVATION OF DEPTH REFERENCE
DATM.M        603.504              : datum        - DATUM ELEVATION
TDD .M        396.24               : tdd          - TOTAL DEPTH DRILLER
BASE.         EDMONTON             : Branch       - HOME BASE OF LOGGING UNIT
MATR.         SANDSTONE            : Logunit      - NEUTRON MATRIX
TMAX.C        20                   : BHT          - MAXIMUM RECORDED TEMPERATURE
BHTD.M        396.24               : BHTDEP       - MAXIMUM RECORDED TEMPERATURE
RMT .C        14.4444              : MDTP         - TEMPERATURE OF MUD
MUDD.KG/M     0                    : MWT          - MUD DENSITY
NEUT.         0                    : NEUTRON      - NEUTRON TYPE
RESI.         1                    : RESIST       - RESISTIVITY TYPE
RM  .OHMM     2.78                 : RM           - RESISTIVITY OF MUD
RMC .OHMM     3.2                  : RMC          - RESISTIVITY OF MUD CAKE
RMF .OHMM     2.13                 : RMF          - RESISTIVITY OF MUD FILTRATE
SUFT.C        4                    : SUFT         - SURFACE TEMPERATURE
~A  DEPTH      CAL       GR     PHIN     PHID     RESD
# ...
  255.880  143.434   73.187    0.514    0.309   11.587
  256.130  143.483   68.967    0.510    0.329   10.748
  256.380  143.299   73.036    0.512    0.336   10.986
  256.630  143.121   74.169    0.507    0.329   11.057
  256.880  142.718   68.839    0.513    0.310   11.205
  257.130  142.324   64.097    0.519    0.325   11.583
  257.380  141.930   60.076    0.509    0.329   10.534
  257.630  141.742   61.535    0.489    0.321   11.300
  257.880  141.784   63.253    0.479    0.321   12.293
  258.130  141.826   58.971    0.483    0.326   12.873
  258.380  141.976   54.098    0.477    0.332   13.700
  258.630  141.913   51.311    0.469    0.347   14.179
  258.880  142.280   50.159    0.462    0.358   14.559
  259.130  142.649   51.292    0.456    0.357   14.537
  259.380  143.466   53.272    0.444    0.347   14.458
  259.630  143.941   52.324    0.442    0.345   14.152
  259.880  143.878   55.408    0.447    0.335   13.662
  260.130  143.803   60.783    0.455    0.322   12.649
  260.380  143.624   61.266    0.470    0.314   11.366
  260.630  143.560   60.245    0.470    0.333   11.215
  260.880  143.049   59.548    0.467    0.346   12.821
  261.130  142.655   62.245    0.491    0.347   13.863
  261.380  142.366   65.596    0.525    0.351   14.377
  261.630  142.296   65.619    0.498    0.354   14.791
  261.880  142.331   57.680    0.496    0.356   14.976
  262.130  142.161   49.738    0.484    0.356   14.926
  262.380  142.095   47.612    0.482    0.351   14.844
  262.630  142.236   47.242    0.477    0.341   14.619
  262.880  142.392   51.570    0.463    0.345   14.481
  263.130  142.428   59.228    0.458    0.341   14.517
  263.380  142.366   53.117    0.467    0.333   14.846
  263.630  142.186   49.746    0.477    0.332   15.335
  263.880  141.899   49.769    0.473    0.325   15.966
  264.130  141.932   48.289    0.455    0.314   17.574
  264.380  141.760   46.419    0.434    0.319   20.293
  264.630  141.760   42.790    0.395    0.321   26.141
  264.880  141.969   38.699    0.341    0.293   29.590
  265.130  142.098   35.849    0.282    0.201   30.992
  265.380  142.927   33.130    0.144    0.100   31.256
  265.630  143.075   31.586    0.134    0.044   29.460
  265.880  142.991   31.089    0.130    0.035   26.057
  266.130  143.031   31.704    0.131    0.030   24.268
  266.380  142.963   32.178    0.158    0.028   23.148
  266.630  143.116   33.376    0.193    0.070   21.818
  266.880  139.655   34.311    0.219    0.104   20.079
  267.130  141.112   38.251    0.268    0.156   17.759
  267.380  141.152   41.024    0.327    0.193   16.021
  267.630  141.191   42.541    0.403    0.268   13.808
  267.880  141.230   45.109    0.479    0.352   12.557
  268.130  141.382   42.914    0.497    0.352   12.390
  268.380  141.096   41.237    0.482    0.351   12.597
  268.630  141.355   41.522    0.479    0.357   13.116
  268.880  141.948   43.242    0.483    0.359   13.439
  269.130  142.760   44.312    0.491    0.359   13.852
  269.380  142.913   42.440    0.491    0.361   14.054
  269.630  143.171   41.286    0.493    0.362   14.091
  269.880  143.545   44.185    0.495    0.364   13.958
  270.130  143.702   55.040    0.486    0.364   13.911
  270.380  143.847   48.209    0.469    0.364   13.865
  270.630  144.213   44.773    0.464    0.363   13.843
  270.880  144.370   46.562    0.469    0.359   13.794
  271.130  144.628   47.233    0.481    0.345   13.885
  271.380  144.455   46.083    0.501    0.351   14.031
  271.630  144.157   44.668    0.508    0.356   14.265
  271.880  143.869   42.477    0.502    0.360   14.387
  272.130  143.698   41.515    0.493    0.357   14.537
  272.380  143.515   42.326    0.482    0.341   14.546
  272.630  142.894   44.374    0.491    0.339   14.611
  272.880  142.605   48.176    0.496    0.346   14.618
  273.130  142.651   48.199    0.483    0.349   14.568
  273.380  142.576   44.372    0.470    0.350   14.547
  273.630  143.067   42.372    0.481    0.355   14.497
  273.880  143.325   41.805    0.479    0.351   14.447
  274.130  143.153   42.349    0.485    0.346   14.340
  274.380  143.405   43.614    0.494    0.347   14.150
  274.630  143.665   44.163    0.492    0.350   13.961
  274.880  144.041   44.442    0.480    0.350   13.750
  275.130  144.302   45.772    0.474    0.346   13.647
  275.380  144.459   47.687    0.481    0.344   13.573
  275.630  144.488   48.828    0.490    0.353   13.499
  275.880  144.532   49.168    0.497    0.348   13.316
  276.130  144.792   47.037    0.500    0.352   13.354
  276.380  145.381   49.148    0.497    0.357   13.354
  276.630  145.539   48.261    0.484    0.358   13.290
  276.880  145.577   46.910    0.475    0.352   13.242
  277.130  145.296   48.389    0.478    0.344   13.146
  277.380  145.326   49.116    0.489    0.360   13.098
  277.630  145.039   55.855    0.480    0.368   13.133
  277.880  144.755   43.606    0.486    0.365   13.113
  278.130  144.575   45.850    0.497    0.363   13.121
  278.380  144.720   48.877    0.491    0.361   12.997
  278.630  144.765   49.095    0.482    0.360   13.004
  278.880  144.809   46.773    0.481    0.359   13.013
  279.130  144.738   46.800    0.482    0.352   13.018
  279.380  144.675   47.138    0.486    0.345   13.053
  279.630  144.385   48.403    0.499    0.366   13.061
  279.880  143.767   50.580    0.492    0.374   13.039
  280.130  143.802   50.736    0.480    0.370   13.046
  280.380  143.633   50.496    0.480    0.361   12.898
  280.630  143.442   51.951    0.502    0.350   12.728
  280.880  143.593   53.999    0.495    0.344   12.483
  281.130  143.970   54.544    0.498    0.349   11.559
  281.380  144.555   53.980    0.502    0.340   11.494
  281.630  144.927   53.088    0.493    0.348   11.456
  281.880  144.866   52.524    0.476    0.346   11.393
  282.130  144.898   52.158    0.487    0.339   11.308
  282.380  144.722   54.527    0.503    0.339   11.270
  282.630  145.440   56.379    0.500    0.345   11.321
  282.880  146.162   56.861    0.495    0.348   11.394
  283.130  146.396   57.013    0.484    0.344   11.469
  283.380  146.651   60.298    0.481    0.340   11.407
  283.630  146.357   61.103    0.488    0.336   11.254
  283.880  145.743   58.845    0.494    0.346   10.996
  284.130  145.230   58.409    0.495    0.339   10.914
  284.380  143.957   63.064    0.484    0.333   10.769
  284.630  142.451   66.024    0.482    0.337   10.625
  284.880  141.393   60.110    0.493    0.328   10.422
  285.130  141.110   61.897    0.506    0.318   10.262
  285.380  141.151   60.810    0.514    0.320   10.228
  285.630  141.295   61.090    0.504    0.338   10.232
  285.880  141.778   62.549    0.484    0.345   10.138
  286.130  142.496   64.338    0.482    0.331    9.982
  286.380  142.854   61.556    0.475    0.331    9.484
  286.630  143.339   61.313    0.462    0.341    9.718
  286.880  143.378   63.423    0.457    0.337    9.879
  287.130  142.979   65.475    0.471    0.312    9.671
  287.380  143.017   68.235    0.485    0.296    8.935
  287.630  142.614   69.693    0.487    0.275    6.889
  287.880  142.884   70.697    0.496    0.282    5.505
  288.130  143.578   71.239    0.504    0.280    4.811
  288.380  143.952   73.025    0.528    0.275    4.635
  288.630  144.218   76.182    0.557    0.245    4.750
  288.880  145.023   77.250    0.549    0.201    4.876
  289.130  147.263   73.554    0.496    0.208    5.336
  289.380  148.409   76.707    0.448    0.168    6.501
  289.630  149.548   85.149    0.505    0.241    7.889
  289.880  150.137   87.913    0.507    0.230    9.348
  290.130  147.867   79.909    0.498    0.255   11.121
  290.380  144.832   73.795    0.498    0.258   12.918
  290.630  142.676   68.664    0.488    0.276   14.191
  290.880  141.286   66.141    0.465    0.291   14.805
  291.130  140.886   65.901    0.459    0.284   14.873
  291.380  140.818   65.468    0.463    0.273   14.442
  291.630  141.411   66.209    0.482    0.269   13.505
  291.880  141.893   69.169    0.497    0.280   12.780
  292.130  142.257   70.430    0.483    0.287   11.785
