~VERSION INFORMATION
 VERS.                 2.0:   CWLS LOG ASCII STANDARD -VERSION 2.0
 WRAP.                  NO:   ONE LINE PER DEPTH STEP
~WELL INFORMATION BLOCK
#MNEM.UNIT           DATA                    DESCRIPTION OF MNEMONIC
#---------    -------------------            -------------------------------
# Generated from Intellog Unique Number	CN_94_101/WELL/3202
NULL.         -999.25                        : NULL_VALUE
WELL.         SHELL ELLS OV                  : Well_name    - WELL              
LOC .         13-11-095-15W4                 : Location     - LOCATION          
UWI .         AA/13-11-095-15W4/0            : Uwi          - UNIQUE WELL ID    
ENTR.         JOETTE                         : Entered      - ENTERED BY        
SRVC.         SCHLUMBERGER                   : Scn          - SERVICE COMPANY   
DATE.         15 MAR 71                      : Date         - LOG DATE          
STRT.F        300                            : top_depth    - START DEPTH       
STOP.F        906.955                        : bot_depth    - STOP DEPTH        
STEP.F        0.82                           : increment    - STEP LENGTH       
~CURVE INFORMATION BLOCK
#MNEM UNIT       ERCB CURVE CODE    CURVE DESCRIPTION
#-----------   ------------------   ----------------------------------
DEPT.F        00 001 00 00         : DEPTH        - DEPTH                       
GR  .API      00 310 00 00         : GR           - GAMMA RAY                   
DPHI.V/V      00 890 00 00         : PHID         - DENSITY POROSITY (SANDSTONE)
ILD .OHMM     00 120 00 00         : RESD         - DEEP RESISTIVITY (DIL)      
~PARAMETER INFORMATION       
#MNEM.UNIT           DATA             DESCRIPTION OF MNEMONIC
#---------         -----------     ------------------------------
GL  .M        535.534              : gl           - GROUND LEVEL ELEVATION      
EREF.M        539.496              : kb           - ELEVATION OF DEPTH REFERENCE
DATM.M        539.496              : datum        - DATUM ELEVATION             
TDD .M        281.94               : tdd          - TOTAL DEPTH DRILLER         
RUN .         ONE                  : Run          - RUN NUMBER                  
ENG .         BILL                 : Engineer     - RECORDING ENGINEER          
WIT .         JIM                  : Witness      - WITNESSED BY                
MUD .         GEL                  : Mud_type     - MUD TYPE                    
MATR.         SANDSTONE            : Logunit      - NEUTRON MATRIX              
TMAX.F        84                   : BHT          - MAXIMUM RECORDED TEMPERATURE
BHTD.F        925                  : BHTDEP       - MAXIMUM RECORDED TEMPERATURE
RMT .F        79                   : MDTP         - TEMPERATURE OF MUD          
MUDD.LB/G     9.8                  : MWT          - MUD DENSITY                 
NEUT.         1                    : NEUTRON      - NEUTRON TYPE                
RESI.         0                    : RESIST       - RESISTIVITY TYPE            
RM  .OHMM     4.97                 : RM           - RESISTIVITY OF MUD          
RMC .OHMM     4.97                 : RMC          - RESISTIVITY OF MUD CAKE     
RMF .OHMM     4.97                 : RMF          - RESISTIVITY OF MUD FILTRATE 
SUFT.F        39.2                 : SUFT         - SURFACE TEMPERATURE         
~A  DEPTH       GR     PHID     RESD
# ...
  655.971   86.822    0.236    5.376
  656.791   88.020    0.222    6.118
  657.612   80.211    0.198    6.711
  658.432   67.600    0.149    7.781
  659.252   45.982    0.046    7.634
  660.072   50.181    0.041    7.220
  660.892   62.186    0.107    6.702
  661.713   73.590    0.206    6.576
  662.533   77.789    0.248    6.697
  663.353   80.188    0.225    6.947
  664.173   87.389    0.214    7.207
  664.993   86.186    0.253    7.617
  665.814   81.979    0.252    7.614
  666.634   84.377    0.228    7.334
  667.454   78.971    0.222    7.065
  668.274   75.365    0.217    7.062
  669.094   75.962    0.222    7.192
  669.915   79.562    0.230    7.461
  670.735   80.759    0.238    7.740
  671.555   78.953    0.247    7.882
  672.375   79.550    0.250    7.878
  673.196   78.947    0.243    7.732
  674.016   78.945    0.236    7.586
  674.836   78.941    0.224    7.584
  675.656   78.337    0.225    7.582
  676.476   77.733    0.232    7.579
  677.297   77.129    0.227    7.576
  678.117   77.126    0.221    7.574
  678.937   77.123    0.227    7.572
  679.757   77.119    0.237    7.709
  680.577   77.116    0.242    7.707
  681.398   77.113    0.240    7.705
  682.218   77.709    0.242    7.422
  683.038   79.507    0.252    7.419
  683.858   79.504    0.268    7.417
  684.678   77.100    0.260    7.552
  685.499   75.296    0.242    7.690
  686.319   76.493    0.208    7.546
  687.139   79.491    0.196    7.269
  687.959   79.487    0.220    7.134
  688.780   76.483    0.255    7.131
  689.600   67.474    0.280    7.262
  690.420   63.267    0.299    7.532
  691.240   66.267    0.296    7.530
  692.060   70.465    0.292    7.528
  692.881   72.863    0.286    7.119
  693.701   74.060    0.277    6.731
  694.521   74.659    0.268    6.484
  695.341   75.256    0.269    6.481
  696.161   75.852    0.271    6.600
  696.982   75.249    0.219    6.722
  697.802   71.643    0.130    7.236
  698.622   63.235    0.090    7.791
  699.442   51.824    0.065   11.930
  700.262   56.024    0.039   12.608
  701.083   65.026    0.159   11.277
  701.903   74.029    0.193    8.074
  702.723   79.429    0.232    6.226
  703.543   83.627    0.237    5.075
  704.364   86.027    0.241    4.799
  705.184   88.424    0.247    4.798
  706.004   88.422    0.247    4.795
  706.824   87.217    0.247    4.975
  707.644   86.013    0.245    5.161
  708.465   85.409    0.241    5.354
  709.285   86.006    0.231    5.555
  710.105   86.603    0.221    5.870
  710.925   83.599    0.213    6.090
  711.745   79.993    0.207    6.201
  712.566   76.988    0.187    6.085
  713.386   76.383    0.160    5.972
  714.206   78.182    0.163    5.752
  715.026   80.580    0.179    5.645
  715.846   82.978    0.205    5.239
  716.667   83.576    0.227    4.599
  717.487   82.972    0.226    4.430
  718.307   82.968    0.224    4.112
  719.127   85.367    0.240    3.961
  719.948   86.564    0.237    3.960
  720.768   87.161    0.221    4.033
  721.588   87.158    0.242    4.184
  722.408   84.753    0.235    4.340
  723.228   82.948    0.217    4.587
  724.049   82.944    0.171    4.758
  724.869   87.145    0.218    4.845
  725.689   90.744    0.240    4.935
  726.509   91.341    0.240    5.025
  727.329   90.137    0.235    5.213
  728.150   87.732    0.207    5.408
  728.970   86.528    0.207    5.508
  729.790   87.724    0.226    5.506
  730.610   90.124    0.217    5.503
  731.430   93.721    0.197    5.501
  732.251   92.519    0.181    5.602
  733.071   89.514    0.162    5.601
  733.891   87.108    0.147    5.810
  734.711   83.502    0.141    6.140
  735.531   79.897    0.166    6.489
  736.352   84.097    0.191    6.732
  737.172   87.696    0.207    6.249
  737.992   88.292    0.214    5.800
  738.812   87.088    0.204    5.587
  739.633   88.287    0.201    5.585
  740.453   90.684    0.212    5.583
  741.273   87.079    0.209    5.581
  742.093   85.875    0.213    5.376
  742.913   87.071    0.218    5.276
  743.734   87.669    0.225    4.719
  744.554   88.266    0.226    3.776
  745.374   88.263    0.255    3.315
  746.194   86.457    0.259    3.253
  747.014   84.654    0.235    3.252
  747.835   82.248    0.241    3.373
  748.655   83.446    0.245    3.632
  749.475   83.443    0.234    4.058
  750.295   81.037    0.217    4.618
  751.115   79.233    0.198    5.065
  751.936   77.429    0.170    5.983
  752.756   70.221    0.154    7.610
  753.576   67.817    0.153    7.196
  754.396   62.409    0.184    6.933
  755.217   55.201    0.187    6.434
  756.037   48.593    0.204    6.197
  756.857   47.389    0.255    6.798
  757.677   41.983    0.315    7.594
  758.497   37.777    0.332    7.734
  759.318   36.573    0.338    7.589
  760.138   35.369    0.328    7.310
  760.958   34.163    0.316    7.173
  761.778   33.561    0.318    7.305
  762.598   31.756    0.324    7.440
  763.419   31.153    0.324    7.718
  764.239   32.349    0.318    8.006
  765.059   34.148    0.309    8.153
  765.879   37.146    0.294    8.150
  766.699   41.346    0.304    7.707
  767.520   44.944    0.306    6.893
  768.340   48.543    0.298    6.639
  769.160   50.341    0.290    7.016
  769.980   49.138    0.295    7.279
  770.801   46.132    0.295    7.694
  771.621   43.727    0.293    8.437
  772.441   43.124    0.299    8.752
  773.261   46.122    0.305    8.432
  774.081   48.521    0.298    7.266
  774.902   51.520    0.289    6.500
  775.722   55.719    0.285    5.706
  776.542   59.918    0.293    5.497
  777.362   64.718    0.290    4.916
  778.182   70.719    0.283    4.915
  779.003   71.917    0.277    4.913
  779.823   68.311    0.265    5.003
  780.643   61.704    0.240    5.190
  781.463   57.498    0.252    5.588
  782.283   61.096    0.271    6.360
  783.104   62.293    0.282    7.106
  783.924   59.288    0.283    7.938
  784.744   58.084    0.274    8.236
  785.564   60.482    0.276    8.867
  786.385   59.879    0.277    9.371
  787.205   55.071    0.273   10.666
  788.025   52.667    0.268   11.916
  788.845   50.263    0.273   12.134
  789.665   48.458    0.283   11.907
  790.486   46.053    0.292   11.685
  791.306   43.047    0.298   11.255
  792.126   39.440    0.306   10.255
  792.946   38.237    0.314    8.839
  793.766   37.032    0.310    8.514
  794.587   36.431    0.307    9.690
  795.407   35.226    0.309   16.279
  796.227   33.421    0.314   20.327
  797.047   34.619    0.310   19.948
  797.867   38.217    0.300   18.176
  798.688   35.812    0.289   19.933
  799.508   34.609    0.274   21.862
  800.328   36.407    0.259   23.538
  801.148   38.205    0.300   24.415
  801.969   37.601    0.312   23.956
  802.789   36.397    0.317   23.511
  803.609   37.595    0.314   22.645
  804.429   36.391    0.303   22.641
  805.249   33.386    0.279   21.810
  806.070   32.782    0.211   21.005
  806.890   33.378    0.264   21.389
  807.710   30.374    0.289   21.385
  808.530   26.768    0.290   17.434
  809.350   30.367    0.284   18.425
  810.171   35.767    0.298   16.788
  810.991   42.368    0.289   14.202
  811.811   48.969    0.277   12.015
  812.631   53.770    0.268   10.355
  813.451   47.161    0.265   10.543
  814.272   43.555    0.272   10.739
  815.092   41.751    0.281   11.560
  815.912   39.346    0.293   11.994
  816.732   36.942    0.300   12.674
  817.552   35.738    0.309   13.150
  818.373   36.934    0.306   14.156
  819.193   39.331    0.304   15.816
  820.013   42.331    0.306   17.348
  820.833   42.328    0.305   21.265
  821.654   39.923    0.309   25.118
  822.474   39.320    0.309   28.064
  823.294   38.717    0.308   30.774
  824.114   36.911    0.306   31.342
  824.934   33.306    0.311   32.510
  825.755   32.102    0.314   32.504
  826.575   29.697    0.319   31.308
  827.395   28.493    0.314   29.062
  828.215   28.490    0.310   23.253
  829.035   28.485    0.304   22.399
  829.856   28.482    0.297   22.811
  830.676   30.880    0.295   23.232
  831.496   32.679    0.299   26.442
  832.316   30.875    0.309   36.904
  833.136   27.269    0.315   42.790
