~VERSION INFORMATION
 VERS.                 2.0:   CWLS LOG ASCII STANDARD -VERSION 2.0
 WRAP.                  NO:   ONE LINE PER DEPTH STEP
~WELL INFORMATION BLOCK
#MNEM.UNIT           DATA                    DESCRIPTION OF MNEMONIC
#---------    -------------------            -------------------------------
# Generated from Intellog Unique Number	CC_80_83/WELL/2385
NULL.         -999.25                        : NULL_VALUE
COMP.         PETRO CANADA                   : COMPANY
WELL.         PEX PCEJU HOUSE OV             : Well_name    - WELL              
LOC .         10-29-081-13W4                 : Location     - LOCATION          
UWI .         AA/10-29-081-13W400            : Uwi          - UNIQUE WELL ID    
ENTR.         RJA                            : Entered      - ENTERED BY        
SRVC.         SCHLUMBERGER                   : Scn          - SERVICE COMPANY   
DATE.         04 FEB 81                      : Date         - LOG DATE
STRT.M        175                            : top_depth    - START DEPTH       
STOP.M        454.893                        : bot_depth    - STOP DEPTH        
STEP.M        0.3                            : increment    - STEP LENGTH       
~CURVE INFORMATION BLOCK
#MNEM UNIT       ERCB CURVE CODE    CURVE DESCRIPTION
#-----------   ------------------   ----------------------------------
DEPT.M        00 001 00 00         : DEPTH        - DEPTH                       
DPHI.V/V      00 890 00 00         : PHID         - DENSITY POROSITY (LIMESTONE)
NPHI.V/V      00 330 00 00         : PHIN         - NEUTRON POROSITY (LIMESTONE)
GR  .API      00 310 00 00         : GR           - GAMMA RAY                   
ILD .OHMM     00 120 00 00         : RESD         - DEEP RESISTIVITY (DIL)      
~PARAMETER INFORMATION       
#MNEM.UNIT           DATA             DESCRIPTION OF MNEMONIC
#---------         -----------     ------------------------------
GL  .M        656.2                : gl           - GROUND LEVEL ELEVATION      
EREF.M        659.1                : kb           - ELEVATION OF DEPTH REFERENCE
DATM.M        659.1                : datum        - DATUM ELEVATION             
TDD .M        460.2                : tdd          - TOTAL DEPTH DRILLER         
RUN .         ONE                  : Run          - RUN NUMBER                  
ENG .         BILL                 : Engineer     - RECORDING ENGINEER          
WIT .         JIM                  : Witness      - WITNESSED BY                
MUD .         GEL                  : Mud_type     - MUD TYPE                    
MATR.         LIMESTONE            : Logunit      - NEUTRON MATRIX              
TMAX.C        23                   : BHT          - MAXIMUM RECORDED TEMPERATURE
BHTD.M        460.2                : BHTDEP       - MAXIMUM RECORDED TEMPERATURE
MATR.         1                    : LOGUNIT      - NEUTRON MATRIX              
RMT .C        25                   : MDTP         - TEMPERATURE OF MUD          
NEUT.         1                    : NEUTRON      - NEUTRON TYPE                
RESI.         0                    : RESIST       - RESISTIVITY TYPE            
RMC .OHMM     0.25                 : RMC          - RESISTIVITY OF MUD CAKE     
RMF .OHMM     0.25                 : RMF          - RESISTIVITY OF MUD FILTRATE 
SUFT.C        4                    : SUFT         - SURFACE TEMPERATURE         
~A  DEPTH     PHID     PHIN       GR     RESD
# ...
  331.598    0.317    0.502   47.898    2.611
  331.898    0.311    0.502   49.116    1.582
  332.198    0.319    0.505   58.443    1.330
  332.498    0.312    0.529   59.009    1.118
  332.798    0.312    0.558   57.734    1.034
  333.098    0.315    0.548   57.692    1.053
  333.398    0.329    0.530   53.908    1.181
  333.698    0.341    0.518   47.610    1.430
  333.998    0.360    0.541   49.452    2.223
  334.298    0.369    0.556   50.649    2.963
  334.598    0.329    0.551   51.237    4.266
  334.898    0.283    0.511   55.577    6.260
  335.198    0.306    0.505   47.398    6.376
  335.498    0.310    0.501   46.121    6.015
  335.798    0.299    0.479   49.826    5.354
  336.098    0.285    0.468   46.663    4.676
  336.398    0.294    0.467   42.876    4.497
  336.698    0.319    0.476   52.203    4.323
  336.998    0.335    0.491   52.791    4.077
  337.298    0.287    0.518   49.002    3.996
  337.598    0.293    0.495   51.449    3.993
  337.897    0.302    0.505   53.906    3.989
  338.197    0.307    0.508   52.002    3.985
  338.497    0.368    0.515   42.586    3.982
  338.797    0.383    0.528   46.894    4.056
  339.097    0.365    0.553   49.370    4.291
  339.397    0.308    0.531   52.463    4.372
  339.697    0.289    0.517   53.040    4.538
  339.997    0.298    0.511   54.251    4.624
  340.297    0.305    0.507   48.590    4.710
  340.597    0.310    0.512   51.656    4.797
  340.897    0.346    0.502   48.503    5.588
  341.197    0.358    0.489   40.328    6.149
  341.497    0.326    0.475   37.793    7.447
  341.797    0.121    0.453   39.012    7.160
  342.097    0.172    0.388   46.468    5.679
  342.397    0.242    0.496   49.549    5.056
  342.697    0.275    0.519   50.127    4.861
  342.997    0.283    0.508   49.466    4.951
  343.297    0.290    0.517   51.303    4.947
  343.597    0.295    0.514   51.884    5.036
  343.897    0.265    0.513   49.972    5.131
  344.197    0.286    0.527   57.426    5.125
  344.497    0.296    0.528   60.507    5.221
  344.797    0.284    0.521   56.722    5.119
  345.097    0.288    0.525   54.808    5.017
  345.397    0.269    0.517   54.762    5.013
  345.697    0.273    0.516   50.968    4.726
  345.997    0.314    0.515   52.804    4.374
  346.297    0.406    0.526   48.394    3.893
  346.597    0.342    0.528   62.099    3.743
  346.897    0.326    0.530   51.438    3.670
  347.197    0.367    0.535   44.520    3.204
  347.497    0.406    0.556   48.219    3.141
  347.797    0.366    0.565   58.185    3.389
  348.097    0.363    0.561   56.269    3.657
  348.397    0.461    0.580   53.105    4.100
  348.697    0.495    0.547   49.933    4.965
  348.997    0.483    0.541   50.516    5.568
  349.297    0.302    0.513   52.358    6.124
  349.597    0.289    0.486   49.190    6.482
  349.897    0.297    0.488   46.644    6.231
  350.197    0.306    0.481   50.337    5.879
  350.497    0.306    0.491   52.188    5.651
  350.797    0.281    0.486   54.016    5.647
  351.097    0.264    0.494   53.354    5.642
  351.397    0.258    0.490   48.937    5.424
  351.697    0.272    0.480   48.277    5.317
  351.997    0.305    0.490   51.988    5.209
  352.297    0.368    0.504   49.441    5.305
  352.597    0.384    0.553   50.626    5.302
  352.897    0.300    0.573   51.848    5.296
  353.197    0.293    0.540   53.066    5.293
  353.497    0.308    0.521   49.908    5.088
  353.797    0.302    0.518   52.350    4.892
  354.097    0.289    0.529   56.068    4.705
  354.397    0.288    0.505   52.907    4.269
  354.697    0.305    0.511   53.476    3.951
  354.997    0.366    0.511   55.324    3.517
  355.297    0.419    0.526   57.781    3.382
  355.597    0.374    0.577   55.869    3.315
  355.897    0.400    0.587   52.070    3.508
  356.197    0.411    0.577   50.779    4.086
  356.497    0.444    0.557   53.232    4.495
  356.797    0.467    0.549   53.204    4.945
  357.097    0.294    0.539   50.659    5.336
  357.397    0.289    0.521   53.735    5.230
  357.697    0.308    0.518   56.199    4.838
  357.997    0.324    0.525   55.530    4.477
  358.297    0.332    0.517   58.586    4.142
  358.597    0.350    0.527   59.811    3.687
  358.897    0.361    0.539   61.651    3.614
  359.197    0.336    0.530   59.108    3.680
  359.497    0.301    0.517   56.580    3.895
  359.797    0.332    0.490   54.663    4.124
  360.097    0.342    0.479   58.982    4.450
  360.397    0.316    0.450   59.572    5.491
  360.697    0.283    0.425   58.917    5.927
  360.997    0.270    0.395   51.372    7.041
  361.297    0.228    0.337   39.466   10.737
  361.597    0.034    0.280   31.926   21.851
  361.897    0.040    0.257   34.389   20.607
  362.197    0.059    0.260   39.343   15.431
  362.496    0.101    0.262   47.420    9.909
  362.796    0.158    0.284   57.365    6.006
  363.096    0.231    0.419   62.965    4.764
  363.396    0.282    0.464   64.786    4.494
  363.696    0.302    0.495   58.497    4.490
  363.996    0.318    0.506   55.960    4.485
  364.296    0.362    0.521   57.169    4.658
  364.596    0.360    0.531   57.748    5.123
  364.896    0.375    0.521   58.339    5.423
  365.196    0.380    0.520   59.552    6.080
  365.496    0.202    0.514   52.011    6.436
  365.796    0.209    0.463   47.596    6.683
  366.096    0.260    0.446   55.048    6.677
  366.396    0.304    0.450   54.999    6.420
  366.696    0.299    0.507   53.100    6.055
  366.996    0.254    0.489   53.671    5.933
  367.296    0.289    0.484   54.881    5.928
  367.596    0.348    0.493   54.836    5.811
  367.896    0.310    0.502   57.292    5.585
  368.196    0.329    0.524   56.624    5.582
  368.496    0.332    0.509   55.344    5.686
  368.796    0.307    0.500   51.559    5.792
  369.096    0.318    0.496   47.144    6.011
  369.396    0.264    0.503   53.347    6.125
  369.696    0.261    0.500   56.423    6.238
  369.996    0.273    0.507   55.143    6.475
  370.296    0.278    0.508   51.340    6.598
  370.596    0.281    0.495   49.440    6.849
  370.896    0.291    0.490   48.770    6.976
  371.196    0.280    0.485   51.214    6.970
  371.496    0.290    0.487   48.061    6.831
  371.796    0.306    0.493   48.008    6.568
  372.096    0.303    0.482   49.859    6.438
  372.396    0.304    0.491   52.316    6.311
  372.696    0.319    0.472   50.399    6.680
  372.996    0.328    0.471   43.477    7.781
  373.296    0.255    0.456   39.699    8.081
  373.596    0.234    0.440   38.397    8.074
  373.896    0.281    0.393   38.993    6.915
  374.196    0.306    0.474   44.559    6.157
  374.496    0.305    0.528   46.409    5.697
  374.796    0.291    0.523   46.982    5.478
  375.096    0.287    0.527   48.125    5.045
  375.396    0.304    0.528   48.125    4.944
  375.696    0.299    0.517   48.125    4.661
  375.996    0.301    0.501   53.750    4.068
  376.296    0.314    0.512   51.875    3.690
  376.596    0.339    0.518   53.750    3.220
  376.896    0.373    0.527   58.750    2.978
  377.196    0.391    0.537   58.125    2.974
  377.496    0.356    0.525   59.375    3.397
  377.796    0.341    0.542   63.125    4.272
  378.096    0.357    0.561   60.625    5.071
  378.396    0.380    0.541   59.375    6.017
  378.696    0.349    0.536   57.500    6.009
  378.996    0.304    0.517   52.500    5.887
  379.296    0.303    0.514   48.750    5.547
  379.596    0.277    0.498   48.125    5.430
  379.896    0.267    0.484   55.625    5.321
  380.196    0.299    0.497   53.125    5.316
  380.496    0.291    0.493   55.000    5.512
  380.796    0.303    0.487   51.875    5.506
  381.096    0.326    0.498   58.125    5.395
  381.396    0.377    0.525   46.875    5.387
  381.696    0.346    0.527   51.875    5.274
  381.996    0.358    0.542   55.625    5.268
  382.296    0.347    0.538   54.375    5.361
  382.596    0.324    0.517   58.125    5.356
  382.896    0.336    0.507   60.000    5.555
  383.196    0.365    0.541   58.125    5.653
  383.496    0.359    0.552   59.375    5.646
