~Version : LASO    vs 4.00
VERS.                2.00:   CWLS Log ASCII Standard -VERSION 2.0
WRAP.                  NO:
~Well Information Block
#MNEM.UNIT       Data                        Description of Mnemonic
#----.----      -------------------------- : -----------------------------
STRT.M            15.0000:
STOP.M           203.4000:
STEP.M             0.1000:
NULL.           -999.2500:
COMP.  MOBIL OIL CANADA LTD.     :COMPANY
WELL.  MOBIL CLARKE OV 12-34     :WELL
FLD.   CLARKE                    :FIELD
LOC.   12-34-089-08W4            :LOCATION
CTRY.  CANADA                    :COUNTRY
PROV.  ALBERTA                   :PROVINCE
SRVC.  SCHLUMBERGER              :SERVICE COMPANY
DATE.  20-FEB-81                 :LOG DATE
UWI.   AA/12-34-089-08W400       :UNIQUE WELL ID
~Parameter Information Block
#MNEM.UNIT       Data                        Description of Mnemonic
#----.----      -------------------------- : -----------------------------
RUN .                   1                 : Run Number
GL  .M           415.1000                 : Ground Level Elevation
DREF.                  KB                 : Depth Reference
EREF.M           418.1000                 : Elevation of Depth Reference
TDL .M           203.0000                 : Total Depth Logger
TDD .M           200.0000                 : Total Depth Driller
CSGL.M            18.0000                 : Casing Bottom Logger
CSGD.M            15.0000                 : Casing Bottom Driller
CSGS.MM          219.0000                 : Casing Size
CSGW.KG/M          0.0000                 : Casing Weight
BHT .DEGC         12.0000                 : Bottom Hole Temperature
BS  .MM          159.0000                 : Bit Size
DFD .           1110.0000                 : Mud Weight (Density)
DFV .             90.0000                 : Mud Viscosity
DFPH.             10.0000                 : Mud pH
RM  .OHMM          1.9600                 : Mud Resistivity
RMT .DEGC         20.0000                 : Mud Resistivity Temperature
~Curve Information Block
#MNEM.UNIT        API CODE    Curve Description
#---------    ------------    -------------------------------------------
DEPT.M                    :   DEPTH
CALI.MM       42 280  1  1:   3 DENSITY CALIPER
DPHI.V/V                  :   DPHI
DT  .US/M     60 520  0  1:   2 SONIC INTERVAL TRANSIT TIME (COMPENSATED)
GR  .GAPI     42 310  1  1:   4 GAMMA RAY
ILD .OHMM      7 120 46  1:   7 DEEP INDUCTION
ILM .OHMM      7 120 44  1:   8 MEDIUM INDUCTION
NPHI.V/V      42 890  3  1:   5 NEUTRON POROSITY (SANDSTONE)
RHOB.K/M3     42 350  1  1:   6 BULK DENSITY
SFLU.OHMM      7 220  1  1:   9 FOCUSSED RESISTIVITY
SP  .MV        7  10  1  1:   10 SPONTANEOUS POTENTIAL
~A  Depth           CALI        DPHI          DT          GR         ILD         ILM        NPHI        RHOB        SFLU          SP
# ...
63.8000         167.6750      0.2543    555.1600     89.3550     11.5939     13.7730      0.4847   2170.5000     20.9812    -44.5900
63.9000         167.6750      0.2604    556.1200     90.1800     11.5939     13.7730      0.4847   2170.5000     20.9812    -44.5900
64.0000         174.8750      0.2709    556.9200     90.7500      9.5374      9.6168      0.5091   2139.1001     12.6657    -42.3200
64.1000         174.8750      0.2728    556.3600     91.0950      9.5374      9.6168      0.5091   2139.1001     12.6657    -42.3200
64.2000         176.3250      0.2723    556.0400     86.9550      8.5789      8.3836      0.5158   2156.7000      7.8746    -40.3500
64.3000         176.3250      0.2698    561.2400     84.1200      8.5789      8.3836      0.5158   2156.7000      7.8746    -40.3500
64.4000         176.9750      0.2668    554.1600     82.3350      7.8240      7.2482      0.5184   2167.3000      5.3930    -37.4300
64.5000         176.9750      0.2629    548.9600     81.5850      7.8240      7.2482      0.5184   2167.3000      5.3930    -37.4300
64.6000         176.8750      0.2600    544.6400     80.8350      6.7520      6.3948      0.5123   2134.3000      5.0238    -36.5000
64.7000         176.8750      0.2570    540.3200     80.6700      6.7520      6.3948      0.5123   2134.3000      5.0238    -36.5000
64.8000         175.1250      0.2585    538.2800     80.5800      6.6165      6.5017      0.5077   2145.5000      5.1836    -36.4700
64.9000         175.1250      0.2650    537.0800     80.5050      6.6165      6.5017      0.5077   2145.5000      5.1836    -36.4700
65.0000         173.1000      0.2801    542.3600     80.9700      6.6165      6.6716      0.4995   2158.8000      5.7416    -36.8300
65.1000         173.1000      0.2893    546.7600     82.7400      6.6165      6.6716      0.4995   2158.8000      5.7416    -36.8300
65.2000         170.5000      0.3008    550.2000     86.5200      6.9284      7.3694      0.5017   2180.6001      8.7545    -38.3700
65.3000         170.5000      0.3083    553.5600     89.6550      6.9284      7.3694      0.5017   2180.6001      8.7545    -38.3700
65.4000         170.7000      0.3067    555.7200     91.6350      7.2817      7.5064      0.5207   2193.3000     11.4454    -39.8500
65.5000         170.7000      0.3038    557.1600     92.5350      7.2817      7.5064      0.5207   2193.3000     11.4454    -39.8500
65.6000         174.8250      0.2989    555.5600     93.3900      7.3220      7.3898      0.5394   2187.3999     13.0927    -40.6700
65.7000         174.8250      0.2938    552.6000     94.4400      7.3220      7.3898      0.5394   2187.3999     13.0927    -40.6700
65.8000         179.2750      0.2903    549.2000     93.9300      6.8585      6.5438      0.5522   2195.8999      7.2749    -37.5000
65.9000         179.2750      0.2890    544.9600     93.0000      6.8585      6.5438      0.5522   2195.8999      7.2749    -37.5000
66.0000         178.7250      0.2897    540.2000     93.2250      6.4362      6.2378      0.5467   2201.8999      5.1931    -36.8500
66.1000         178.7250      0.2943    536.4400     93.6000      6.4362      6.2378      0.5467   2201.8999      5.1931    -36.8500
66.2000         183.2750      0.2968    533.2400     93.2700      6.1749      6.0734      0.5318   2189.8999      4.4282    -36.4900
66.3000         183.2750      0.2999    531.8000     92.8650      6.1749      6.0734      0.5318   2189.8999      4.4282    -36.4900
66.4000         178.5750      0.2969    534.1600     92.3700      5.9956      6.2955      0.5428   2182.7000      5.3043    -36.2900
66.5000         178.5750      0.2944    536.3600     91.8600      5.9956      6.2955      0.5428   2182.7000      5.3043    -36.2900
66.6000         177.2750      0.2934    535.4000     91.5000      6.1070      6.4838      0.5315   2172.3000      5.3436    -36.5000
66.7000         177.2750      0.2955    534.4400     93.3000      6.1070      6.4838      0.5315   2172.3000      5.3436    -36.5000
66.8000         177.1750      0.2955    533.5200     94.6800      6.2263      6.5801      0.5230   2166.8999      5.8214    -36.8000
66.9000         177.1750      0.2980    532.5600     96.5850      6.2263      6.5801      0.5230   2166.8999      5.8214    -36.8000
67.0000         177.6750      0.2954    531.4000     96.0000      6.3246      6.6471      0.5325   2163.1001      6.6226    -37.3700
67.1000         177.6750      0.2963    531.4800     94.8300      6.3246      6.6471      0.5325   2163.1001      6.6226    -37.3700
67.2000         184.0000      0.2956    531.5600     94.1400      6.3948      6.8270      0.5489   2162.7000      8.2609    -36.6400
67.3000         184.0000      0.2964    532.8400     95.0400      6.3948      6.8270      0.5489   2162.7000      8.2609    -36.6400
67.4000         185.6250      0.2970    534.1200     95.6850      6.3362      6.5801      0.5560   2157.8999      7.7096    -35.5100
67.5000         185.6250      0.2934    535.4000     96.5700      6.3362      6.5801      0.5560   2157.8999      7.7096    -35.5100
67.6000         183.7250      0.2863    537.7200     97.9650      6.0846      6.2723      0.5632   2167.7000      6.7769    -35.0100
67.7000         183.7250      0.2809    540.6000     97.6800      6.0846      6.2723      0.5632   2167.7000      6.7769    -35.0100
67.8000         182.2500      0.2813    543.4800     97.2000      5.4933      5.6368      0.5683   2161.6001      5.3930    -34.9600
67.9000         182.2500      0.2804    546.3600     95.7000      5.4933      5.6368      0.5683   2161.6001      5.3930    -34.9600
68.0000         184.5750      0.2803    548.8800     93.9600      5.2219      5.2994      0.5591   2159.8000      4.6369    -35.0500
68.1000         184.5750      0.2801    551.2800     94.3500      5.2219      5.2994      0.5591   2159.8000      4.6369    -35.0500
68.2000         186.0750      0.2782    553.5600     94.6200      4.9823      5.0516      0.5647   2155.7000      4.1365    -35.3800
68.3000         186.0750      0.2770    555.5200     94.1100      4.9823      5.0516      0.5647   2155.7000      4.1365    -35.3800
68.4000         185.0500      0.2732    556.6000     93.7200      4.6540      4.6540      0.5809   2144.8000      4.0835    -36.0900
68.5000         185.0500      0.2736    555.2000     92.5350      4.6540      4.6540      0.5809   2144.8000      4.0835    -36.0900
68.6000         184.8500      0.2750    552.4400     91.0050      4.6626      4.5775      0.5860   2162.3999      4.3836    -36.3300
68.7000         184.8500      0.2778    545.2400     89.6700      4.6626      4.5775      0.5860   2162.3999      4.3836    -36.3300
68.8000         184.8500      0.2787    537.4800     88.4100      4.7712      4.7144      0.5894   2173.7000      4.5902    -36.4100
68.9000         184.8500      0.2796    529.5600     87.1500      4.7712      4.7144      0.5894   2173.7000      4.5902    -36.4100
69.0000         184.6500      0.2831    522.8800     86.5950      5.1172      5.2219      0.5620   2172.0000      4.0498    -36.0600
69.1000         184.6500      0.2834    517.1200     86.1300      5.1172      5.2219      0.5620   2172.0000      4.0498    -36.0600
69.2000         183.8500      0.2879    514.7200     86.8350      5.4229      5.5135      0.5199   2168.3000      3.4660    -36.1400
69.3000         183.8500      0.2881    514.2800     88.3200      5.4229      5.5135      0.5199   2168.3000      3.4660    -36.1400
69.4000         182.8000      0.2891    516.1600     89.8950      5.6420      5.8645      0.4890   2182.3000      5.8107    -36.6900
69.5000         182.8000      0.2886    518.2400     90.5550      5.6420      5.8645      0.4890   2182.3000      5.8107    -36.6900
69.6000         181.2000      0.2881    518.7200     90.4200      6.1579      6.8522      0.4921   2203.3999      9.5726    -39.0900
69.7000         181.2000      0.2871    518.8800     90.2700      6.1579      6.8522      0.4921   2203.3999      9.5726    -39.0900
69.8000         189.6500      0.2868    518.2000     88.8000      6.4481      6.9475      0.4989   2196.3000     11.5088    -39.4800
