~VERSION INFORMATION
 VERS.                 2.0:   CWLS LOG ASCII STANDARD -VERSION 2.0
 WRAP.                  NO:   ONE LINE PER DEPTH STEP
~WELL INFORMATION BLOCK
#MNEM.UNIT           DATA                    DESCRIPTION OF MNEMONIC
#---------    -------------------            -------------------------------
# Generated from Intellog Unique Number	CN_94_101/WELL/1070
WELL.         CHEVRON CANADA RESOURCES       : Well_name    - WELL
LOC .         AA/10-29-094-07W4/0            : Location     - LOCATION
UWI .         AA/10-29-094-07W400            : Uwi          - UNIQUE WELL ID
ENTR.         JOETTE                         : Entered      - ENTERED BY
SRVC.         SCHLUMBERGER                   : Scn          - SERVICE COMPANY
DATE.         04/12/92                       : Date         - LOG DATE
STRT.M        100                            : top_depth    - START DEPTH
STOP.M        250                            : bot_depth    - STOP DEPTH
STEP.M        0.25                           : increment    - STEP LENGTH
 NULL. -999.2500:NULL Value
~CURVE INFORMATION BLOCK
#MNEM UNIT       ERCB CURVE CODE    CURVE DESCRIPTION
#-----------   ------------------   ----------------------------------
DEPT.M        00 001 00 00         : DEPTH        - DEPTH
GR  .API      00 310 00 00         : GR           - GAMMA RAY
ILD .OHMM     00 120 00 00         : RESD         - DEEP RESISTIVITY (DIL)
DPHI.V/V      00 890 00 00         : PHID         - DENSITY POROSITY (SANDSTONE)
NPHI.V/V      00 330 00 00         : PHIN         - NEUTRON POROSITY (SANDSTONE)
CALI.MM       00 280 01 00         : CAL          - CALIPER
~PARAMETER INFORMATION
#MNEM.UNIT           DATA             DESCRIPTION OF MNEMONIC
#---------         -----------     ------------------------------
GL  .M        496.1                : gl           - GROUND LEVEL ELEVATION
EREF.M        496.1                : kb           - ELEVATION OF DEPTH REFERENCE
DATM.M        496.1                : datum        - DATUM ELEVATION
TDD .M        253.4                : tdd          - TOTAL DEPTH DRILLER
RUN .         ONE                  : Run          - RUN NUMBER
ENG .         BILL                 : Engineer     - RECORDING ENGINEER
WIT .         JIM                  : Witness      - WITNESSED BY
MUD .         GEL                  : Mud_type     - MUD TYPE
MATR.         SANDSTONE            : Logunit      - NEUTRON MATRIX
TMAX.C        10                   : BHT          - MAXIMUM RECORDED TEMPERATURE
BHTD.M        253.4                : BHTDEP       - MAXIMUM RECORDED TEMPERATURE
RMT .C        17.3                 : MDTP         - TEMPERATURE OF MUD
MUDD.KG/M     1130                 : MWT          - MUD DENSITY
NEUT.         1                    : NEUTRON      - NEUTRON TYPE
RESI.         0                    : RESIST       - RESISTIVITY TYPE
RM  .OHMM     8.25                 : RM           - RESISTIVITY OF MUD
RMC .OHMM     7.89                 : RMC          - RESISTIVITY OF MUD CAKE
RMF .OHMM     6.89                 : RMF          - RESISTIVITY OF MUD FILTRATE
SUFT.C        4                    : SUFT         - SURFACE TEMPERATURE
~A  DEPTH       GR     RESD     PHID     PHIN      CAL
# ...
  173.000   49.450  136.113    0.306    0.394  140.080
  173.250   53.188   74.082    0.309    0.399  140.129
  173.500   78.065   35.283    0.316    0.411  139.790
  173.750  102.942   32.105    0.318    0.414  139.820
  174.000   79.945   74.255    0.299    0.367  139.452
  174.250   51.974  100.769    0.288    0.355  139.114
  174.500   55.712   91.692    0.281    0.349  139.133
  174.750   64.424   65.144    0.270    0.403  138.776
  175.000   74.379   48.078    0.260    0.410  138.418
  175.250   78.739   42.923    0.248    0.386  138.457
  175.500   69.420   53.979    0.259    0.361  138.109
  175.750   63.210   65.347    0.285    0.352  138.138
  176.000   57.622   62.967    0.296    0.349  137.780
  176.250   50.168   65.462    0.297    0.359  137.423
  176.500   40.850   70.682    0.290    0.360  137.075
  176.750   40.235   77.800    0.288    0.361  137.114
  177.000   35.892   72.166    0.286    0.367  136.766
  177.250   31.548   90.755    0.287    0.367  136.785
  177.500   30.312  127.940    0.287    0.339  136.447
  177.750   29.076  128.039    0.289    0.341  136.089
  178.000   27.840   89.269    0.290    0.343  136.118
  178.250   22.873  121.121    0.295    0.343  136.157
  178.500   21.013  167.529    0.304    0.347  135.800
  178.750   24.130  240.708    0.313    0.360  135.839
  179.000   30.354  119.115    0.322    0.369  135.084
  179.250   34.716   91.340    0.323    0.374  133.943
  179.500   35.347   81.529    0.321    0.370  133.585
  179.750   38.461  139.032    0.328    0.370  133.614
  180.000   47.795  246.387    0.330    0.398  134.447
  180.250   51.533  303.950    0.324    0.394  136.073
  180.500   46.568  281.887    0.319    0.384  137.311
  180.750   42.221  165.558    0.313    0.370  137.341
  181.000   36.633  134.387    0.308    0.355  136.993
  181.250   31.667  153.660    0.307    0.344  136.625
  181.500   28.567  204.596    0.306    0.342  136.664
  181.750   28.573  267.280    0.306    0.349  136.732
  182.000   29.204  234.120    0.306    0.359  136.762
  182.250   29.209  288.874    0.309    0.369  136.810
  182.500   31.082  257.948    0.310    0.369  136.840
  182.750   32.333  312.213    0.308    0.370  136.888
  183.000   30.475  385.305    0.311    0.379  137.305
  183.250   26.752  385.605    0.313    0.362  137.750
  183.500   22.409  543.598    0.314    0.342  138.582
  183.750   25.526 1000.330    0.319    0.336  139.425
  184.000   28.018 1039.960    0.321    0.345  139.841
  184.250   26.784  319.764    0.308    0.346  139.890
  184.500   26.793  123.526    0.299    0.353  138.342
  184.750   28.662   87.778    0.304    0.353  136.387
  185.000   32.402  116.852    0.306    0.356  134.839
  185.250   26.192  275.455    0.306    0.357  134.482
  185.500   23.092  297.478    0.307    0.360  135.711
  185.750   22.478  435.635    0.314    0.365  136.563
  186.000   24.349  360.480    0.319    0.356  136.205
  186.250   28.710  404.328    0.323    0.357  135.064
  186.500   29.338  453.597    0.326    0.368  134.696
  186.750   28.102  453.951    0.327    0.381  133.564
  187.000   30.596  445.912    0.327    0.376  132.790
  187.250   34.334  413.463    0.328    0.354  132.423
  187.500   40.559  355.339    0.328    0.351  132.065
  187.750   45.542  247.647    0.328    0.351  132.501
  188.000   48.036  166.178    0.326    0.344  133.333
  188.250   48.042  176.081    0.319    0.332  134.175
  188.500   46.186  109.536    0.315    0.344  134.611
  188.750   43.705  109.600    0.307    0.380  135.047
  189.000   39.360  103.577    0.309    0.390  134.679
  189.250   34.394   96.077    0.314    0.380  133.935
  189.500   32.536  111.945    0.320    0.364  131.990
  189.750   32.545  301.500    0.317    0.338  130.829
  190.000   32.552  130.561    0.313    0.323  130.075
  190.250   35.045   81.188    0.313    0.317  130.510
  190.500   37.541   91.081    0.314    0.324  131.759
  190.750   28.844   96.527    0.318    0.324  132.582
  191.000   32.582  114.653    0.324    0.335  133.811
  191.250   53.107  121.485    0.331    0.375  134.256
  191.500   54.980   71.337    0.335    0.407  134.286
  191.750   45.661  119.381    0.334    0.405  134.334
  192.000   40.073  144.523    0.329    0.380  134.364
  192.250   31.378  124.206    0.325    0.375  134.799
  192.500   28.275  153.254    0.326    0.369  134.054
  192.750   30.769  178.635    0.331    0.360  134.480
  193.000   38.237  139.558    0.330    0.394  135.313
  193.250   48.814  101.056    0.326    0.423  133.765
  193.500   41.361   83.606    0.351    0.455  131.027
  193.750   33.286   90.290    0.432    0.507  132.653
  194.000   31.428   95.671    0.456    0.547  133.901
  194.250   35.788   67.970    0.451    0.536  132.750
  194.500   39.525   72.021    0.437    0.492  131.986
  194.750   40.155  157.328    0.405    0.464  131.232
  195.000   37.053  243.935    0.382    0.437  131.280
  195.250   35.819  268.501    0.360    0.398  132.113
  195.500   40.799  289.967    0.355    0.418  134.135
  195.750   45.160  284.722    0.352    0.441  134.571
  196.000   47.033  386.388    0.349    0.446  133.817
  196.250   50.771  226.934    0.346    0.446  133.459
  196.500   39.589  524.866    0.343    0.407  133.488
  196.750   43.325   86.096    0.344    0.403  132.337
  197.000   50.171   78.341    0.344    0.429  131.989
  197.250   52.666  188.186    0.346    0.423  133.615
  197.500   42.725  353.024    0.363    0.418  134.050
  197.750   33.407  526.913    0.357    0.411  133.286
  198.000   33.414  715.058    0.342    0.392  132.542
  198.250   39.019  970.572    0.330    0.364  132.203
  198.500   37.783 1152.600    0.327    0.380  132.223
  198.750   40.897 1625.170    0.322    0.375  132.658
  199.000   40.907 1967.450    0.320    0.373  134.284
  199.250   37.182 2293.280    0.329    0.390  137.904
  199.500   38.432 2572.740    0.341    0.402  140.710
  199.750   39.684 2674.120    0.346    0.403  141.146
  200.000   35.960 2943.420    0.339    0.394  141.611
  200.250   29.131 3178.750    0.329    0.384  141.630
  200.500   29.758 3566.800    0.321    0.372  141.669
  200.750   31.631 3852.720    0.320    0.374  141.718
  201.000   33.505 4160.750    0.315    0.372  141.757
  201.250   33.513 4244.010    0.313    0.363  141.796
  201.500   32.276 4247.310    0.309    0.355  141.825
  201.750   33.527 4014.690    0.308    0.341  140.693
  202.000   40.374 3196.750    0.303    0.333  137.945
  202.250   48.464  285.177    0.295    0.374  134.007
  202.500   60.285   67.174    0.285    0.426  133.253
  202.750   70.240   67.226    0.307    0.511  136.466
  203.000   82.682   41.007    0.369    0.622  139.679
  203.250   93.259   34.578    0.394    0.621  146.075
  203.500  108.189   39.537    0.378    0.596  146.114
  203.750  126.848   46.961    0.346    0.572  140.995
  204.000  106.338   54.728    0.331    0.532  137.454
  204.250   59.715   80.145    0.345    0.479  133.932
  204.500   42.314 1655.180    0.371    0.467  133.971
  204.750   49.782  287.406    0.366    0.454  133.614
  205.000   69.685   61.541    0.328    0.432  133.256
  205.250   82.749   39.004    0.307    0.470  134.079
  205.500   90.218   36.867    0.300    0.482  132.937
  205.750   78.412   51.973    0.309    0.469  132.183
  206.000   75.311  666.933    0.307    0.441  131.418
  206.250   83.404  654.996    0.292    0.417  131.467
  206.500   69.732  642.896    0.280    0.381  131.506
  206.750   59.789  643.522    0.299    0.368  131.545
  207.000   41.145  643.898    0.316    0.394  133.568
  207.250   33.691  794.488    0.337    0.400  135.590
  207.500   23.750  980.486    0.347    0.403  138.019
  207.750   24.382 1256.740    0.347    0.401  138.058
  208.000   28.741 2543.570    0.347    0.392  137.701
  208.250   31.859 3796.450    0.348    0.418  136.549
  208.500   22.539 4685.240    0.355    0.437  135.002
  208.750   27.522 2912.880    0.356    0.453  134.644
  209.000   32.501  699.179    0.358    0.465  136.666
  209.250   33.752 1679.850    0.375    0.489  138.292
