~VERSION INFORMATION
 VERS.                 2.0:   CWLS LOG ASCII STANDARD -VERSION 2.0
 WRAP.                  NO:   ONE LINE PER DEPTH STEP
~WELL INFORMATION BLOCK
#MNEM.UNIT           DATA                    DESCRIPTION OF MNEMONIC
#---------    -------------------            -------------------------------
# Generated from Intellog Unique Number	CC_88_90/WELL/2305
WELL.         11-24-090-09W4                 : Well_name    - WELL
LOC .         AA/11-24-090-09W4/0            : Location     - LOCATION
UWI .         AA/11-24-090-09W400            : Uwi          - UNIQUE WELL ID
ENTR.         DW                             : Entered      - ENTERED BY
SRVC.         SCHLUMBERGER                   : Scn          - SERVICE COMPANY
STRT.M        9.144                          : top_depth    - START DEPTH
STOP.M        166.894                        : bot_depth    - STOP DEPTH
STEP.M        0.25                           : increment    - STEP LENGTH
 NULL. -999.2500:NULL Value
~CURVE INFORMATION BLOCK
#MNEM UNIT       ERCB CURVE CODE    CURVE DESCRIPTION
#-----------   ------------------   ----------------------------------
DEPT.M        00 001 00 00         : DEPTH        - DEPTH
GR  .API      00 310 00 00         : GR           - GAMMA RAY
DPHI.V/V      00 890 00 00         : PHID         - DENSITY POROSITY (SANDSTONE)
SNP.V/V       00 330 00 00          : SNP          - SIDEWALL NEUTRON POROSITY (SANDSTONE)
ILD .OHMM     00 120 00 00         : RESD         - DEEP RESISTIVITY (DIL)
~PARAMETER INFORMATION
#MNEM.UNIT           DATA             DESCRIPTION OF MNEMONIC
#---------         -----------     ------------------------------
GL  .M        403.311              : gl           - GROUND LEVEL ELEVATION
EREF.M        404.531              : kb           - ELEVATION OF DEPTH REFERENCE
DATM.M        404.531              : datum        - DATUM ELEVATION
TDD .M        170.078              : tdd          - TOTAL DEPTH DRILLER
RUN .         ONE                  : Run          - RUN NUMBER
ENG .         BILL                 : Engineer     - RECORDING ENGINEER
WIT .         JIM                  : Witness      - WITNESSED BY
MUD .         GEL                  : Mud_type     - MUD TYPE
MATR.         SANDSTONE            : Logunit      - NEUTRON MATRIX
TMAX.C        25                   : BHT          - MAXIMUM RECORDED TEMPERATURE
BHTD.M        170.078              : BHTDEP       - MAXIMUM RECORDED TEMPERATURE
MATR.         1                    : LOGUNIT      - NEUTRON MATRIX
RMT .C        25                   : MDTP         - TEMPERATURE OF MUD
NEUT.         0                    : NEUTRON      - NEUTRON TYPE
RESI.         0                    : RESIST       - RESISTIVITY TYPE
RMC .OHMM     0.25                 : RMC          - RESISTIVITY OF MUD CAKE
RMF .OHMM     0.25                 : RMF          - RESISTIVITY OF MUD FILTRATE
SUFT.C        15                   : SUFT         - SURFACE TEMPERATURE
~A  DEPTH       GR     PHID     SNP     RESD
# ...
  139.644   69.475    0.245    0.312   21.413
  139.894   87.888    0.253    0.317   23.395
  140.144  103.234    0.233    0.325   16.020
  140.394  107.388    0.215    0.337   11.533
  140.644   98.231    0.195    0.352   14.931
  140.894   82.959    0.185    0.348   20.114
  141.144   70.693    0.206    0.323   20.629
  141.394   59.003    0.238    0.326   17.622
  141.644   44.664    0.252    0.349   16.959
  141.894   38.863    0.255    0.364   25.211
  142.144   36.656    0.282    0.355   23.705
  142.394   32.591    0.325    0.338  106.996
  142.644   33.024    0.339    0.338  298.775
  142.894   34.166    0.321    0.340  275.160
  143.144   37.110    0.318    0.338  241.890
  143.394   40.076    0.322    0.334  355.632
  143.644   41.264    0.316    0.331  568.132
  143.894   41.481    0.301    0.331  712.524
  144.144   41.215    0.293    0.341  676.025
  144.394   38.389    0.306    0.341  584.296
  144.644   35.985    0.321    0.346  437.871
  144.894   32.826    0.331    0.350  338.953
  145.144   31.976    0.341    0.333  324.639
  145.394   37.067    0.346    0.308  303.985
  145.644   38.278    0.342    0.320  291.445
  145.894   37.997    0.347    0.345  266.732
  146.144   39.178    0.346    0.348  265.428
  146.394   46.024    0.337    0.352  180.394
  146.644   54.439    0.334    0.365   25.750
  146.894   51.642    0.336    0.345   27.788
  147.144   41.567    0.321    0.327   44.362
  147.394   33.254    0.306    0.315  152.061
  147.644   31.132    0.312    0.330  219.240
  147.894   36.166    0.337    0.350  130.230
  148.144   46.672    0.349    0.347   14.967
  148.394   56.633    0.331    0.367    9.678
  148.644   61.542    0.343    0.368   17.637
  148.894   67.976    0.330    0.336   17.694
  149.144   73.687    0.267    0.298   17.819
  149.394   71.882    0.216    0.283   13.663
  149.644   61.841    0.219    0.292    9.879
  149.894   43.860    0.227    0.324   10.825
  150.144   35.721    0.259    0.336   25.088
  150.394   34.733    0.309    0.344   61.642
  150.644   34.028    0.346    0.358   75.201
  150.894   34.463    0.353    0.364   37.738
  151.144   34.140    0.336    0.371   17.821
  151.394   33.419    0.332    0.357   15.388
  151.644   33.392    0.337    0.351   15.782
  151.894   37.951    0.336    0.356   13.385
  152.144   42.591    0.335    0.356   10.503
  152.394   38.558    0.342    0.356   10.088
  152.644   34.534    0.332    0.348   10.920
  152.894   33.647    0.344    0.352   11.142
  153.144   35.940    0.351    0.372   10.392
  153.394   36.050    0.343    0.379   10.255
  153.644   31.059    0.335    0.355   10.601
  153.894   27.095    0.318    0.344    9.014
  154.144   24.439    0.317    0.351    8.351
  154.394   22.518    0.348    0.364    7.635
  154.644   35.768    0.353    0.359    7.139
  154.894   64.497    0.311    0.338    7.608
  155.144   87.908    0.273    0.320    7.900
  155.394  100.475    0.239    0.300    7.151
  155.644  104.475    0.201    0.294    6.208
  155.894  106.039    0.171    0.298    5.459
  156.144  105.634    0.159    0.303    5.271
  156.394   99.525    0.163    0.312    5.696
  156.644   88.128    0.182    0.321    5.874
  156.894   76.805    0.191    0.309    5.409
  157.144   70.437    0.199    0.300    5.511
  157.394   70.182    0.220    0.302    5.792
  157.644   67.463    0.226    0.302    4.979
  157.894   50.375    0.197    0.289    4.034
  158.144   25.030    0.193    0.266    5.480
  158.394   22.023    0.191    0.259    6.526
  158.644   29.662    0.184    0.236   11.293
  158.894   36.842    0.178    0.218   16.996
  159.144   44.478    0.183    0.239   16.305
  159.394   48.894    0.197    0.269   10.066
  159.644   52.328    0.205    0.293    5.454
  159.894   54.217    0.197    0.291    5.092
  160.144   49.976    0.179    0.294    6.125
  160.394   41.765    0.181    0.303    6.022
  160.644   36.392    0.205    0.287    5.384
  160.894   32.881    0.201    0.279    5.443
  161.144   28.217    0.204    0.298    6.026
  161.394   28.465    0.235    0.316    7.143
  161.644   31.361    0.261    0.310    7.816
  161.894   28.658    0.256    0.296    7.907
  162.144   21.485    0.242    0.297    8.156
  162.394   20.198    0.234    0.298    7.121
  162.644   21.203    0.246    0.293    6.859
  162.894   21.306    0.240    0.292    8.452
  163.144   28.073    0.207    0.293   10.126
  163.394   40.391    0.202    0.292    9.896
  163.644   38.767    0.248    0.295    8.470
  163.894   30.433    0.252    0.292    7.309
  164.144   28.127    0.234    0.300    6.460
  164.394   29.272    0.228    0.303    5.725
  164.644   48.748    0.228    0.291    5.042
  164.894   93.784    0.209    0.283    4.469
  165.144  105.144    0.159    0.279    4.284
  165.394  105.154    0.139    0.295    3.805
  165.644  106.089    0.142    0.319    3.179
  165.894  106.803    0.144    0.314    3.080
  166.144  107.750    0.117    0.257    4.107
  166.394  107.723    0.047    0.180    6.067
  166.644  107.279    0.014    0.132    7.285
  166.894  107.564    0.005    0.127    8.686
