~VERSION INFORMATION
 VERS.                 2.0:   CWLS LOG ASCII STANDARD -VERSION 2.0
 WRAP.                  NO:   ONE LINE PER DEPTH STEP
~WELL INFORMATION BLOCK
#MNEM.UNIT           DATA                    DESCRIPTION OF MNEMONIC
#---------    -------------------            -------------------------------
# Generated from Intellog Unique Number	CW_82_90/WELL/694
WELL.         10-09-083-19W4                 : Well_name    - WELL
LOC .         AA/10-09-083-19W4/0            : Location     - LOCATION
UWI .         AA/10-09-083-19W400            : Uwi          - UNIQUE WELL ID
ENTR.         JAYE                           : Entered      - ENTERED BY
SRVC.         WESTERN ATLAS                  : Scn          - SERVICE COMPANY
DATE.         30 FEB 81                      : Date         - LOG DATE
STRT.M        192                            : top_depth    - START DEPTH
STOP.M        365                            : bot_depth    - STOP DEPTH
STEP.M        0.25                           : increment    - STEP LENGTH
 NULL. -999.2500:NULL Value
~CURVE INFORMATION BLOCK
#MNEM UNIT       ERCB CURVE CODE    CURVE DESCRIPTION
#-----------   ------------------   ----------------------------------
DEPT.M        00 001 00 00         : DEPTH        - DEPTH
CALI.MM       00 280 01 00         : CAL          - CALIPER
GR  .API      00 310 00 00         : GR           - GAMMA RAY
NPHI.V/V      00 330 00 00         : PHIN         - NEUTRON POROSITY (SANDSTONE)
DPHI.V/V      00 890 00 00         : PHID         - DENSITY POROSITY (SANDSTONE)
ILD .OHMM     00 120 00 00         : RESD         - DEEP RESISTIVITY (DIL)
~PARAMETER INFORMATION
#MNEM.UNIT           DATA             DESCRIPTION OF MNEMONIC
#---------         -----------     ------------------------------
GL  .M        577.5                : gl           - GROUND LEVEL ELEVATION
EREF.M        580.32               : kb           - ELEVATION OF DEPTH REFERENCE
DATM.M        577.5                : datum        - DATUM ELEVATION
TDD .M        371                  : tdd          - TOTAL DEPTH DRILLER
RUN .         ONE                  : Run          - RUN NUMBER
ENG .         STEVENS & GAMBER     : Engineer     - RECORDING ENGINEER
WIT .         HAYES & CLARKE       : Witness      - WITNESSED BY
MUD .         GEL CHEM             : Mud_type     - MUD TYPE
MATR.         SANDSTONE            : Logunit      - NEUTRON MATRIX
TMAX.C        17                   : BHT          - MAXIMUM RECORDED TEMPERATURE
BHTD.M        371                  : BHTDEP       - MAXIMUM RECORDED TEMPERATURE
RMT .C        11                   : MDTP         - TEMPERATURE OF MUD
MUDD.KG/M     1100                 : MWT          - MUD DENSITY
NEUT.         1                    : NEUTRON      - NEUTRON TYPE
RESI.         0                    : RESIST       - RESISTIVITY TYPE
RM  .OHMM     3.8                  : RM           - RESISTIVITY OF MUD
RMC .OHMM     0                    : RMC          - RESISTIVITY OF MUD CAKE
RMF .OHMM     3.6                  : RMF          - RESISTIVITY OF MUD FILTRATE
SUFT.C        0                    : SUFT         - SURFACE TEMPERATURE
~A  DEPTH      CAL       GR     PHIN     PHID     RESD
# ...
  265.000  236.562   74.841    0.399    0.244    7.642
  265.250  235.858   74.124    0.394    0.232    9.131
  265.500  235.677   72.272    0.394    0.235    9.966
  265.750  235.927   71.974    0.397    0.244   10.208
  266.000  237.117   69.444    0.403    0.262   10.026
  266.250  238.216   71.386    0.408    0.275    9.488
  266.500  240.792   72.722    0.404    0.265    8.644
  266.750  244.323   73.799    0.400    0.252    8.348
  267.000  246.998   74.497    0.401    0.233    8.280
  267.250  248.612   73.590    0.410    0.212    8.198
  267.500  248.975   71.494    0.423    0.201    8.146
  267.750  249.859   76.183    0.428    0.207    7.987
  268.000  252.327   76.952    0.434    0.216    7.818
  268.250  254.797   80.713    0.432    0.236    7.784
  268.500  256.831   84.098    0.429    0.224    7.836
  268.750  257.930   80.505    0.428    0.215    7.800
  269.000  258.182   79.963    0.430    0.210    7.780
  269.250  257.768   74.679    0.440    0.201    7.644
  269.500  257.816   78.192    0.456    0.201    7.084
  269.750  258.798   77.526    0.450    0.219    6.855
  270.000  259.791   82.408    0.442    0.250    6.799
  270.250  260.890   83.799    0.440    0.266    6.794
  270.500  261.663   82.820    0.435    0.289    6.801
  270.750  262.434   78.978    0.426    0.323    6.874
  271.000  263.213   79.928    0.420    0.323    7.227
  271.250  263.974   79.763    0.413    0.322    7.742
  271.500  264.651   78.349    0.404    0.333    8.372
  271.750  264.578   76.311    0.399    0.328    8.935
  272.000  262.702   75.272    0.398    0.305    9.919
  272.250  259.247   76.288    0.400    0.258   10.313
  272.500  251.754   79.732    0.402    0.221   11.236
  272.750  241.926   83.494    0.401    0.210   11.970
  273.000  237.413   85.944    0.393    0.226   12.373
  273.250  234.908   84.967    0.395    0.235   12.576
  273.500  233.242   74.515    0.399    0.243   12.148
  273.750  232.210   72.728    0.408    0.235   11.427
  274.000  232.125   73.930    0.412    0.226   11.227
  274.250  231.962   73.450    0.410    0.218   11.177
  274.500  231.991   78.208    0.403    0.206   11.148
  274.750  231.905   77.917    0.398    0.213   11.544
  275.000  231.634   81.176    0.390    0.221   12.390
  275.250  231.340   80.570    0.381    0.238   13.274
  275.500  231.703   77.538    0.369    0.239   13.905
  275.750  232.057   76.496    0.346    0.173   14.672
  276.000  232.931   74.275    0.326    0.127   14.966
  276.250  233.393   75.971    0.319    0.079   14.678
  276.500  234.380   78.856    0.332    0.093   14.125
  276.750  235.149   79.631    0.356    0.141   13.314
  277.000  236.123   81.888    0.402    0.188   12.690
  277.250  236.598   83.715    0.400    0.216   12.423
  277.500  237.560   83.801    0.396    0.213   12.022
  277.750  238.144   83.447    0.395    0.209   11.614
  278.000  239.431   81.906    0.396    0.209   11.047
  278.250  240.002   81.919    0.397    0.207   10.916
  278.500  240.038   80.951    0.401    0.212   10.909
  278.750  239.125   80.220    0.413    0.219   10.961
  279.000  240.114   79.057    0.405    0.233   11.226
  279.250  240.786   75.027    0.395    0.235   11.539
  279.500  239.863   74.043    0.387    0.226   11.834
  279.750  238.835   74.996    0.379    0.215   11.827
  280.000  238.445   77.200    0.375    0.192   11.599
  280.250  240.382   81.329    0.375    0.186   11.351
  280.500  242.223   82.164    0.371    0.180   11.153
  280.750  243.836   83.480    0.372    0.170   11.041
  281.000  244.406   82.640    0.387    0.194   10.989
  281.250  243.690   82.028    0.394    0.209   10.941
  281.500  243.620   82.617    0.400    0.213   11.310
  281.750  243.860   88.184    0.401    0.223   12.070
  282.000  244.415   88.570    0.395    0.225   12.738
  282.250  244.552   86.657    0.383    0.212   13.342
  282.500  245.116   84.873    0.377    0.178   13.636
  282.750  245.773   79.911    0.378    0.146   13.421
  283.000  246.561   75.374    0.384    0.129   12.698
  283.250  246.824   76.580    0.396    0.138   11.592
  283.500  247.588   78.972    0.397    0.162   10.947
  283.750  247.833   82.043    0.401    0.186   10.437
  284.000  248.722   82.936    0.410    0.187   10.005
  284.250  249.390   81.958    0.417    0.189    9.737
  284.500  249.946   80.787    0.417    0.194    9.495
  284.750  250.085   77.941    0.412    0.199    9.347
  285.000  250.429   77.028    0.406    0.207    9.270
  285.250  250.999   74.931    0.399    0.194    9.279
  285.500  251.782   72.581    0.391    0.188    9.307
  285.750  252.656   73.970    0.385    0.173    9.300
  286.000  252.886   75.920    0.384    0.170    9.172
  286.250  252.823   77.872    0.388    0.181    8.777
  286.500  252.124   79.573    0.393    0.183    8.558
  286.750  251.519   80.469    0.398    0.194    8.519
  287.000  250.596   81.048    0.397    0.207    8.498
  287.250  249.672   81.130    0.393    0.216    8.866
  287.500  248.961   78.784    0.386    0.205    9.463
  287.750  248.577   73.192    0.380    0.191   10.645
  288.000  247.653   70.596    0.373    0.199   11.863
  288.250  246.310   70.367    0.364    0.201   12.928
  288.500  244.020   71.007    0.358    0.221   14.191
  288.750  241.083   69.532    0.351    0.229   15.091
  289.000  237.831   67.370    0.344    0.227   16.505
  289.250  235.741   63.839    0.337    0.240   19.426
  289.500  234.830   59.429    0.326    0.239   22.396
  289.750  234.652   56.085    0.304    0.223   27.730
  290.000  234.258   54.109    0.286    0.192   30.218
  290.250  234.184   53.697    0.268    0.173   32.074
  290.500  234.739   54.773    0.258    0.121   36.153
  290.750  235.620   58.529    0.261    0.096   36.125
  291.000  236.402   62.283    0.291    0.093   23.546
  291.250  236.332   64.676    0.318    0.155   19.748
  291.500  236.246   66.999    0.335    0.264   17.299
  291.750  236.389   68.333    0.352    0.280   15.792
  292.000  237.068   70.284    0.376    0.275   14.662
  292.250  238.374   73.034    0.380    0.259   13.615
  292.500  240.515   74.182    0.380    0.247   12.690
  292.750  241.928   75.703    0.376    0.242   11.498
  293.000  244.506   78.960    0.378    0.237   10.185
  293.250  248.350   82.095    0.389    0.232    9.402
  293.500  251.454   84.853    0.403    0.227    9.274
  293.750  254.026   85.928    0.407    0.213    9.213
  294.000  255.874   84.522    0.407    0.204    9.417
  294.250  258.019   78.561    0.405    0.212    9.717
  294.500  259.730   73.592    0.401    0.223   10.138
  294.750  260.514   72.242    0.398    0.226   10.579
  295.000  262.455   73.312    0.392    0.226   10.996
  295.250  264.407   72.279    0.386    0.226   11.325
  295.500  266.556   70.433    0.387    0.228   11.508
  295.750  268.276   66.959    0.386    0.230   11.586
  296.000  269.581   64.298    0.386    0.201   11.577
  296.250  270.683   63.880    0.386    0.186   11.547
  296.500  271.667   64.715    0.386    0.183   11.409
  296.750  272.649   70.713    0.385    0.178   11.252
  297.000  273.529   76.781    0.386    0.184   10.827
  297.250  273.772   80.416    0.389    0.199   10.617
  297.500  273.702   78.814    0.390    0.218   10.275
  297.750  273.318   78.958    0.396    0.223   10.058
  298.000  272.704   79.284    0.393    0.225    9.807
  298.250  272.220   81.856    0.387    0.214    9.507
  298.500  271.502   77.637    0.383    0.199    9.323
  298.750  270.694   77.408    0.390    0.177    9.073
  299.000  269.554   80.979    0.412    0.163    8.899
  299.250  268.530   84.678    0.428    0.159    8.710
  299.500  267.505   87.567    0.432    0.168    8.525
  299.750  266.155   88.829    0.426    0.182    8.391
  300.000  264.719   85.676    0.418    0.167    8.337
  300.250  263.044   85.382    0.411    0.160    8.618
  300.500  261.709   86.962    0.402    0.168    8.976
  300.750  260.677   85.791    0.393    0.179    9.399
  301.000  259.440   84.686    0.387    0.185    9.662
  301.250  258.843   84.147    0.384    0.171    9.691
