~VERSION INFORMATION
 VERS.                 2.0:   CWLS LOG ASCII STANDARD -VERSION 2.0
 WRAP.                  NO:   ONE LINE PER DEPTH STEP
~WELL INFORMATION BLOCK
#MNEM.UNIT           DATA                    DESCRIPTION OF MNEMONIC
#---------    -------------------            -------------------------------
# Generated from Intellog Unique Number	CN_94_101/WELL/3318
WELL.         10-35-095-08W4                 : Well_name    - WELL
LOC .         AA/10-35-095-08W4/0            : Location     - LOCATION
UWI .         AA/10-35-095-08W400            : Uwi          - UNIQUE WELL ID
ENTR.         JOETTE                         : Entered      - ENTERED BY
SRVC.         SCHLUMBERGER                   : Scn          - SERVICE COMPANY
DATE.         07/22/92                       : Date         - LOG DATE
STRT.M        10                             : top_depth    - START DEPTH
STOP.M        136                            : bot_depth    - STOP DEPTH
STEP.M        0.25                           : increment    - STEP LENGTH
 NULL. -999.2500:NULL Value
~CURVE INFORMATION BLOCK
#MNEM UNIT       ERCB CURVE CODE    CURVE DESCRIPTION
#-----------   ------------------   ----------------------------------
DEPT.M        00 001 00 00         : DEPTH        - DEPTH
GR  .API      00 310 00 00         : GR           - GAMMA RAY
NPHI.V/V      00 330 00 00         : PHIN         - NEUTRON POROSITY (SANDSTONE)
RHOB.KG/M3    00 350 00 00         : DENS         - BULK DENSITY
ILD .OHMM     00 120 00 00         : RESD         - DEEP RESISTIVITY (DIL)
~PARAMETER INFORMATION
#MNEM.UNIT           DATA             DESCRIPTION OF MNEMONIC
#---------         -----------     ------------------------------
GL  .M        334.32               : gl           - GROUND LEVEL ELEVATION
EREF.M        334.32               : kb           - ELEVATION OF DEPTH REFERENCE
DATM.M        334.32               : datum        - DATUM ELEVATION
TDD .M        140.21               : tdd          - TOTAL DEPTH DRILLER
RUN .         ONE                  : Run          - RUN NUMBER
ENG .         BILL                 : Engineer     - RECORDING ENGINEER
WIT .         JIM                  : Witness      - WITNESSED BY
MUD .         GEL                  : Mud_type     - MUD TYPE
MATR.         SANDSTONE            : Logunit      - NEUTRON MATRIX
TMAX.C        4.5                  : BHT          - MAXIMUM RECORDED TEMPERATURE
BHTD.M        140.21               : BHTDEP       - MAXIMUM RECORDED TEMPERATURE
RMT .C        7.5                  : MDTP         - TEMPERATURE OF MUD
MUDD.KG/M     1000                 : MWT          - MUD DENSITY
NEUT.         1                    : NEUTRON      - NEUTRON TYPE
RESI.         0                    : RESIST       - RESISTIVITY TYPE
RM  .OHMM     28.2                 : RM           - RESISTIVITY OF MUD
RMC .OHMM     28.2                 : RMC          - RESISTIVITY OF MUD CAKE
RMF .OHMM     28.2                 : RMF          - RESISTIVITY OF MUD FILTRATE
SUFT.C        4                    : SUFT         - SURFACE TEMPERATURE
~A  DEPTH       GR     PHIN     DENS     RESD
# ...
   53.500   26.956    0.373 2176.350 4625.010
   53.750   24.663    0.373 2195.310 6538.800
   54.000   25.924    0.374 2212.240 3286.600
   54.250   30.737    0.396 2204.140 1338.260
   54.500   43.268    0.405 2168.910  301.025
   54.750   62.904    0.445 2129.640  898.290
   55.000   35.722    0.457 2140.270 2785.210
   55.250   27.489    0.468 2130.030 3070.160
   55.500   30.526    0.398 2115.620 1905.670
   55.750   30.602    0.419 2130.470 1326.830
   56.000   30.087    0.438 2141.160 1805.400
   56.250   49.723    0.431 2153.870 1915.360
   56.500   39.733    0.420 2170.690 2981.180
   56.750   32.111    0.409 2218.850 1713.300
   57.000   26.858    0.331 2267.060 3049.090
   57.250   31.079    0.310 2269.310 2774.290
   57.500   27.583    0.332 2282.020 3240.270
   57.750   46.627    0.356 2253.040 1826.890
   58.000   52.663    0.359 2249.100  591.208
   58.250   50.944    0.380 2243.080  333.328
   58.500   61.679    0.433 2243.300   52.094
   58.750  109.776    0.480 2243.520   51.192
   59.000   86.740    0.416 2227.090   71.003
   59.250   80.283    0.426 2243.970  126.361
   59.500   75.030    0.387 2287.960   96.817
   59.750   89.337    0.412 2298.590  106.768
   60.000   91.781    0.384 2228.040   63.728
   60.250   78.830    0.427 2211.550   46.994
   60.500   74.150    0.420 2195.180   58.107
   60.750   67.121    0.440 2241.140   95.787
   61.000   64.828    0.403 2268.480  149.027
   61.250   79.708    0.429 2237.480   94.290
   61.500   88.686    0.410 2168.950   87.487
   61.750   83.414    0.391 2137.890  108.176
   62.000   62.153    0.358 2140.190  299.011
   62.250   42.670    0.387 2161.230  632.192
   62.500   36.232    0.418 2240.670  126.720
   62.750   58.829    0.407 2192.960  153.715
   63.000   64.827    0.447 2153.570  148.192
   63.250   56.613    0.360 2174.670 3433.850
   63.500   45.438    0.371 2220.690  833.519
   63.750   30.099    0.424 2277.170   50.964
   64.000   73.441    0.352 2310.700   61.821
   64.250   82.399    0.332 2277.610  628.650
   64.500   63.527    0.388 2313.280  629.714
   64.750   73.669    0.419 2248.920   72.449
   65.000   85.608    0.402 2222.020   87.883
   65.250   70.861    0.423 2197.260  112.907
   65.500   64.424    0.399 2164.180  193.389
   65.750   61.520    0.425 2166.540  485.756
   66.000   43.221    0.462 2177.110  319.334
   66.250   34.414    0.412 2162.760  516.213
   66.500   37.471    0.385 2192.130  388.020
   66.750   38.139    0.411 2225.770  615.611
   67.000   42.933    0.448 2215.530  593.238
   67.250   45.397    0.386 2199.040 3145.180
   67.500   20.584    0.357 2195.150 4040.730
   67.750   12.943    0.365 2191.160 2368.120
   68.000   17.164    0.355 2185.130 1814.440
   68.250   21.386    0.359 2222.940 2200.980
   68.500   27.422    0.407 2206.450 3295.670
   68.750   23.353    0.411 2200.370 3923.620
   69.000   25.205    0.378 2231.880 3570.000
   69.250   26.466    0.369 2227.940 3312.430
   69.500   24.747    0.379 2209.420 2442.630
   69.750   21.862    0.398 2199.240 5469.670
   70.000   23.715    0.377 2191.130 6264.600
   70.250   16.093    0.365 2197.600 3465.060
   70.500   17.334    0.341 2210.310  196.246
   70.750   18.595    0.337 2245.920  512.173
   71.000   25.796    0.371 2250.310 1336.690
   71.250   32.386    0.377 2227.630 5021.070
   71.500   28.928    0.372 2198.710 3176.840
   71.750   29.004    0.371 2184.360 1971.050
   72.000   24.916    0.399 2169.960  729.327
   72.250   22.662    0.403 2155.610 4017.590
   72.500   25.699    0.355 2149.640 6250.590
   72.750   26.348    0.326 2176.870 5170.300
   73.000   25.240    0.319 2216.750 2752.360
   73.250   30.627    0.346 2262.720  541.236
   73.500   53.816    0.421 2254.610  447.694
   73.750   60.425    0.401 2256.920 2766.360
   74.000   47.455    0.363 2257.140 1445.330
   74.250   44.589    0.386 2209.480 1563.000
   74.500   41.093    0.382 2234.690  205.524
   74.750   34.637    0.383 2249.480 3311.600
   75.000   38.877    0.488 2199.740 2685.040
   75.250   53.165    0.436 2177.010 2444.080
   75.500   35.458    0.416 2146.010 3661.230
   75.750   21.933    0.390 2129.630 3885.850
   76.000   23.194    0.393 2119.390 4200.420
   76.250   22.086    0.376 2134.180 4127.750
   76.500   20.978    0.399 2146.890 3757.310
   76.750   22.811    0.380 2132.600 4143.480
   77.000   27.033    0.402 2132.770 2996.250
   77.250   27.109    0.394 2180.920 1823.750
   77.500   21.875    0.385 2235.270  198.113
   77.750   23.116    0.464 2287.590   32.157
   78.000   29.114    0.434 2360.730   95.999
   78.250   26.822    0.406 2388.010  138.346
   78.500   26.306    0.392 2304.910  128.419
   78.750   32.303    0.352 2269.740  114.630
   79.000   41.281    0.324 2292.870   93.020
   79.250   44.929    0.329 2311.820   68.594
   79.500   58.033    0.404 2359.980   52.534
   79.750   86.551    0.534 2393.570   20.986
   80.000  119.845    0.525 2366.670   12.061
   80.250  114.573    0.446 2368.970   22.302
   80.500   96.292    0.443 2277.550   11.872
   80.750   98.718    0.485 2217.340   13.351
   81.000   98.221    0.561 2259.260   14.432
   81.250   93.541    0.524 2317.880   13.649
   81.500   90.656    0.565 2320.120   11.963
   81.750   94.286    0.550 2339.140   11.528
   82.000   94.954    0.563 2326.810   11.118
   82.250  103.912    0.527 2310.440   10.917
   82.500  115.851    0.540 2325.180   10.129
   82.750  105.879    0.527 2327.540    9.765
   83.000  117.780    0.542 2329.790   11.405
   83.250  103.052    0.442 2369.560   12.334
   83.500   93.635    0.443 2415.640   11.891
   83.750   94.303    0.505 2365.840   10.623
   84.000  100.301    0.532 2320.270    9.661
   84.250   95.640    0.575 2303.890    8.964
   84.500   90.998    0.573 2324.870    9.890
   84.750   94.016    0.570 2385.520   10.098
   85.000   99.421    0.572 2379.500    9.731
   85.250  100.682    0.557 2358.900    8.686
   85.500   93.652    0.620 2329.930    7.185
   85.750   93.136    0.553 2282.270    7.197
   86.000  105.667    0.545 2274.110    7.639
   86.250  112.849    0.527 2280.630    7.796
   86.500  117.662    0.541 2291.260    8.271
   86.750   99.974    0.566 2306.060    8.778
   87.000  100.050    0.580 2337.510   10.451
   87.250   98.923    0.557 2396.070   12.432
   87.500  108.493    0.401 2460.940   15.669
   87.750  116.859    0.355 2463.190   17.279
   88.000  105.703    0.349 2457.220   17.643
   88.250  109.313    0.339 2434.490   19.071
   88.500  101.692    0.337 2422.160   24.985
   88.750   91.682    0.312 2441.180   26.005
   89.000   85.245    0.301 2376.810   27.065
   89.250   78.215    0.326 2343.720   36.129
   89.500   72.351    0.344 2318.910   46.436
   89.750   61.768    0.331 2302.480   47.414
   90.000   56.496    0.357 2319.410   42.340
   90.250   70.211    0.408 2280.030   39.269
   90.500   74.432    0.431 2259.430   37.874
   90.750   59.685    0.425 2247.110   54.581
   91.000   45.550    0.428 2220.270   68.792
   91.250   37.317    0.381 2185.100   81.865
   91.500   27.346    0.349 2199.890  103.269
   91.750   29.772    0.350 2198.090  111.676
   92.000   33.401    0.387 2189.930  118.477
   92.250   33.477    0.400 2219.350  133.066
   92.500   39.494    0.360 2265.370  130.764
   92.750   43.715    0.342 2348.920   89.281
   93.000   69.273    0.391 2384.530   63.364
   93.250  100.179    0.444 2413.950    6.134
   93.500  148.257    0.469 2437.070   12.245
   93.750  122.260    0.459 2395.660   12.502
   94.000  114.046    0.482 2368.760   12.286
   94.250  120.636    0.524 2321.110   10.163
   94.500  136.719    0.563 2225.460   10.180
   94.750  124.933    0.565 2309.010   12.831
   95.000  110.187    0.426 2344.670   14.149
   95.250  103.749    0.442 2332.410   18.529
   95.500  107.378    0.472 2380.510   36.990
   95.750   73.664    0.325 2353.720   48.441
   96.000   50.627    0.306 2358.110   37.115
   96.250   41.821    0.423 2347.870   17.614
   96.500   66.787    0.490 2264.770   62.444
   96.750   84.054    0.473 2171.260   77.277
