~VERSION INFORMATION
 VERS.                 2.0:   CWLS LOG ASCII STANDARD -VERSION 2.0
 WRAP.                  NO:   ONE LINE PER DEPTH STEP
~WELL INFORMATION BLOCK
#MNEM.UNIT           DATA                    DESCRIPTION OF MNEMONIC
#---------    -------------------            -------------------------------
# Generated from Intellog Unique Number	CC_80_83/WELL/2429
NULL.         -999.25                        : NULL_VALUE
WELL.         ARCO ACI McMURRAY              : Well_name    - WELL              
LOC .         12-11-083-12W4                 : Location     - LOCATION          
UWI .         AA/12-11-083-12W400            : Uwi          - UNIQUE WELL ID    
ENTR.         DW                             : Entered      - ENTERED BY        
SRVC.         SCHLUMBERGER                   : Scn          - SERVICE COMPANY   
DATE.         17 MAR 74                      : Date         - LOG DATE
STRT.M        137.16                         : top_depth    - START DEPTH       
STOP.M        399.29                         : bot_depth    - STOP DEPTH        
STEP.M        0.305                          : increment    - STEP LENGTH       
~CURVE INFORMATION BLOCK
#MNEM UNIT       ERCB CURVE CODE    CURVE DESCRIPTION
#-----------   ------------------   ----------------------------------
DEPT.M        00 001 00 00         : DEPTH        - DEPTH                       
DPHI.V/V      00 890 00 00         : PHID         - DENSITY POROSITY (LIMESTONE)
GR  .API      00 310 00 00         : GR           - GAMMA RAY                   
NPHI.V/V      00 330 00 00         : PHIN         - NEUTRON POROSITY (LIMESTONE)
ILD .OHMM     00 120 00 00         : RESD         - DEEP RESISTIVITY (DLL)      
~PARAMETER INFORMATION       
#MNEM.UNIT           DATA             DESCRIPTION OF MNEMONIC
#---------         -----------     ------------------------------
GL  .M        630.631              : gl           - GROUND LEVEL ELEVATION      
EREF.M        632.308              : kb           - ELEVATION OF DEPTH REFERENCE
DATM.M        632.308              : datum        - DATUM ELEVATION             
TDD .M        399.288              : tdd          - TOTAL DEPTH DRILLER         
RUN .         ONE                  : Run          - RUN NUMBER                  
ENG .         BILL                 : Engineer     - RECORDING ENGINEER          
WIT .         JIM                  : Witness      - WITNESSED BY                
MUD .         GEL                  : Mud_type     - MUD TYPE                    
MATR.         LIMESTONE            : Logunit      - NEUTRON MATRIX              
TMAX.C        21.1111              : BHT          - MAXIMUM RECORDED TEMPERATURE
BHTD.M        399.288              : BHTDEP       - MAXIMUM RECORDED TEMPERATURE
MATR.         1                    : LOGUNIT      - NEUTRON MATRIX              
RMT .C        25                   : MDTP         - TEMPERATURE OF MUD          
NEUT.         0                    : NEUTRON      - NEUTRON TYPE                
RESI.         1                    : RESIST       - RESISTIVITY TYPE            
RMC .OHMM     0.25                 : RMC          - RESISTIVITY OF MUD CAKE     
RMF .OHMM     0.25                 : RMF          - RESISTIVITY OF MUD FILTRATE 
SUFT.C        4                    : SUFT         - SURFACE TEMPERATURE         
~A  DEPTH     PHID       GR     PHIN     RESD
# ...
  296.265    0.361   53.093    0.358    9.413
  296.569    0.360   51.872    0.358    9.218
  296.874    0.357   51.056    0.350    9.027
  297.179    0.356   56.720    0.374    8.847
  297.484    0.361   51.854    0.371    8.509
  297.789    0.349   52.657    0.360    8.333
  298.094    0.361   58.727    0.372    7.862
  298.398    0.357   66.012    0.397    7.152
  298.703    0.326   72.081    0.412    6.037
  299.008    0.312   72.480    0.430    5.803
  299.313    0.335   68.018    0.439    5.786
  299.618    0.331   67.203    0.402    5.889
  299.922    0.317   65.171    0.394    6.333
  300.227    0.314   68.001    0.403    6.936
  300.532    0.290   72.854    0.408    7.314
  300.837    0.289   72.848    0.405    7.303
  301.142    0.272   71.627    0.401    7.019
  301.446    0.280   69.594    0.378    7.009
  301.751    0.286   69.185    0.395    6.738
  302.056    0.280   70.799    0.402    6.476
  302.361    0.313   72.818    0.406    6.347
  302.666    0.301   73.216    0.415    6.103
  302.970    0.342   75.235    0.410    5.759
  303.275    0.365   74.824    0.438    5.238
  303.580    0.340   75.627    0.478    4.759
  303.885    0.346   74.003    0.490    4.574
  304.190    0.329   70.756    0.434    4.485
  304.495    0.320   68.725    0.418    4.645
  304.799    0.314   70.338    0.384    4.994
  305.104    0.300   69.522    0.374    5.782
  305.409    0.278   62.630    0.371    6.334
  305.714    0.236   52.497    0.338    7.333
  306.019    0.200   56.542    0.282    8.492
  306.323    0.178   71.118    0.200    9.134
  306.628    0.270   74.352    0.246    9.460
  306.933    0.310   75.966    0.330    9.098
  307.238    0.306   73.935    0.375    8.427
  307.543    0.300   74.739    0.363    7.516
  307.847    0.313   73.923    0.363    7.365
  308.152    0.324   72.297    0.366    7.487
  308.457    0.302   71.480    0.367    7.615
  308.762    0.276   67.829    0.372    7.737
  309.067    0.240   70.253    0.360    7.870
  309.371    0.257   79.968    0.346    7.851
  309.676    0.264   84.417    0.335    7.696
  309.981    0.278   83.601    0.342    7.393
  310.286    0.291   80.354    0.363    6.982
  310.591    0.284   80.348    0.397    6.588
  310.896    0.303   79.127    0.411    6.221
  311.200    0.283   73.044    0.389    6.090
  311.505    0.291   74.659    0.385    6.196
  311.810    0.289   75.058    0.407    6.065
  312.115    0.291   77.078    0.428    5.728
  312.420    0.293   82.742    0.408    4.486
  312.724    0.302   83.545    0.402    4.080
  313.029    0.292   81.920    0.381    3.780
  313.334    0.265   71.381    0.377    3.702
  313.639    0.271   68.134    0.369    3.765
  313.944    0.300   77.040    0.386    4.966
  314.248    0.262   87.161    0.398    5.970
  314.553    0.253   89.180    0.409    6.181
  314.858    0.286   83.908    0.408    6.402
  315.163    0.281   80.256    0.372    6.270
  315.468    0.267   82.681    0.390    5.808
  315.772    0.269   81.053    0.392    5.589
  316.077    0.267   80.643    0.388    5.174
  316.382    0.267   84.282    0.395    5.069
  316.687    0.253   84.681    0.389    5.451
  316.992    0.245   87.510    0.356    6.675
  317.297    0.246   88.719    0.340    8.020
  317.601    0.240   86.282    0.317    8.626
  317.906    0.231   84.251    0.302    9.448
  318.211    0.216   84.246    0.314   10.151
  318.516    0.245   76.543    0.332   10.322
  318.821    0.261   83.018    0.328   10.300
  319.125    0.256   85.847    0.328   10.083
  319.430    0.264   85.031    0.342    9.885
  319.735    0.262   79.354    0.360    9.324
  320.040    0.269   85.734    0.420    9.140
  320.345    0.263   80.925    0.420    8.626
  320.649    0.265   78.524    0.417    7.993
  320.954    0.288   80.957    0.331    6.874
  321.259    0.283   78.559    0.327    6.485
  321.564    0.277   78.578    0.347    7.104
  321.869    0.288   80.203    0.344    8.228
  322.173    0.281   83.442    0.321    9.353
  322.478    0.291   83.461    0.325   10.242
  322.783    0.283   83.078    0.357   10.409
  323.088    0.241   83.092    0.390   10.382
  323.393    0.282   78.683    0.376   10.177
  323.698    0.294   73.468    0.366    9.787
  324.002    0.291   70.267    0.356    9.239
  324.307    0.267   69.077    0.337    8.884
  324.612    0.274   73.922    0.313    8.538
  324.917    0.272   75.552    0.318    8.843
  325.222    0.276   74.363    0.332    8.992
  325.526    0.287   80.016    0.339    9.141
  325.831    0.279   78.824    0.330    9.294
  326.136    0.267   75.221    0.328    9.448
  326.441    0.274   75.642    0.351    9.428
  326.746    0.256   76.462    0.353    9.584
  327.050    0.252   84.530    0.325    9.740
  327.355    0.268   84.546    0.324    9.731
  327.660    0.277   81.749    0.330    9.528
  327.965    0.274   74.120    0.346    9.334
  328.270    0.262   76.550    0.347    8.813
  328.574    0.252   70.531    0.345    8.318
  328.879    0.283   71.354    0.350    8.297
  329.184    0.263   72.178    0.366    8.436
  329.489    0.270   72.194    0.381    8.573
  329.794    0.284   72.618    0.390    8.561
  330.099    0.276   73.034    0.390    8.704
  330.403    0.280   72.246    0.395    9.013
  330.708    0.280   71.461    0.430    8.998
  331.013    0.283   75.102    0.440    8.651
  331.318    0.311   74.716    0.421    8.161
  331.623    0.294   77.951    0.394    7.563
  331.927    0.313   79.177    0.445    6.874
  332.232    0.302   79.602    0.414    6.492
  332.537    0.293   80.420    0.408    5.687
  332.842    0.289   82.852    0.390    4.457
  333.147    0.273   88.908    0.365    3.978
  333.451    0.267   81.680    0.343    3.754
  333.756    0.294   74.053    0.335    3.678
  334.061    0.280   73.666    0.355    4.673
  334.366    0.264   73.285    0.361    5.830
  334.671    0.251   70.481    0.338    6.879
  334.975    0.229   69.295    0.334    7.676
  335.280    0.225   70.519    0.353    8.869
  335.585    0.282   73.757    0.344    8.701
  335.890    0.260   74.173    0.356    8.698
  336.195    0.252   72.586    0.353    8.694
  336.500    0.236   73.411    0.351    8.529
  336.804    0.238   73.426    0.353    8.213
  337.109    0.260   73.439    0.334    8.211
  337.414    0.249   74.665    0.359    7.907
  337.719    0.261   75.488    0.366    7.903
  338.024    0.241   76.719    0.370    7.900
  338.328    0.230   77.536    0.383    8.045
  338.633    0.260   79.972    0.348    8.043
  338.938    0.256   81.192    0.337    8.039
  339.243    0.255   87.650    0.341    7.458
  339.548    0.257   91.291    0.364    6.072
  339.852    0.262   85.270    0.378    4.258
  340.157    0.290   72.813    0.403    3.340
  340.462    0.309   66.389    0.424    2.985
  340.767    0.309   57.955    0.417    3.464
  341.072    0.295   57.169    0.382    4.580
  341.376    0.272   60.806    0.347    5.621
  341.681    0.273   64.849    0.337    6.646
  341.986    0.268   65.272    0.351    6.896
  342.291    0.254   61.264    0.357    6.640
  342.596    0.254   62.489    0.358    5.825
  342.901    0.257   66.933    0.368    5.016
  343.205    0.260   68.965    0.404    4.008
  343.510    0.270   68.582    0.423    3.718
  343.815    0.274   69.810    0.420    3.648
  344.120    0.266   70.227    0.356    4.312
  344.425    0.234   71.854    0.356    4.733
  344.729    0.220   72.271    0.385    5.391
  345.034    0.258   71.083    0.390    5.593
  345.339    0.266   68.685    0.387    5.386
  345.644    0.282   79.569    0.412    4.385
  345.949    0.297   87.639    0.428    3.504
  346.253    0.282   86.044    0.423    3.438
  346.558    0.276   82.040    0.376    3.436
  346.863    0.268   82.861    0.383    3.632
  347.168    0.265   83.280    0.377    3.840
  347.473    0.266   84.908    0.398    3.910
  347.777    0.269   89.754    0.381    3.909
  348.082    0.255   90.177    0.333    3.835
  348.387    0.240   85.362    0.335    3.763
  348.692    0.250   88.600    0.350    3.556
  348.997    0.256   89.828    0.361    3.489
