~VERSION INFORMATION
 VERS.                 2.0:   CWLS LOG ASCII STANDARD -VERSION 2.0
 WRAP.                  NO:   ONE LINE PER DEPTH STEP
~WELL INFORMATION BLOCK
#MNEM.UNIT           DATA                    DESCRIPTION OF MNEMONIC
#---------    -------------------            -------------------------------
# Generated from Intellog Unique Number	CN_94_101/WELL/5008
WELL.         10-29-100-14W4                 : Well_name    - WELL
LOC .         AA/10-29-100-14W4/0            : Location     - LOCATION
UWI .         AA/10-29-100-14W400            : Uwi          - UNIQUE WELL ID
ENTR.         TIM                            : Entered      - ENTERED BY
SRVC.         SCHLUMBERGER                   : Scn          - SERVICE COMPANY
DATE.         08/11/92                       : Date         - LOG DATE
STRT.M        275                            : top_depth    - START DEPTH
STOP.M        480                            : bot_depth    - STOP DEPTH
STEP.M        0.25                           : increment    - STEP LENGTH
 NULL. -999.2500:NULL Value
~CURVE INFORMATION BLOCK
#MNEM UNIT       ERCB CURVE CODE    CURVE DESCRIPTION
#-----------   ------------------   ----------------------------------
DEPT.M        00 001 00 00         : DEPTH        - DEPTH
GR  .API      00 310 00 00         : GR           - GAMMA RAY
ILD .OHMM     00 120 00 00         : RESD         - DEEP RESISTIVITY (DIL)
NPHI.V/V      00 330 00 00         : PHIN         - NEUTRON POROSITY (SANDSTONE)
DPHI.V/V      00 890 00 00         : PHID         - DENSITY POROSITY (SANDSTONE)
~PARAMETER INFORMATION
#MNEM.UNIT           DATA             DESCRIPTION OF MNEMONIC
#---------         -----------     ------------------------------
GL  .M        713.6                : gl           - GROUND LEVEL ELEVATION
EREF.M        716.96               : kb           - ELEVATION OF DEPTH REFERENCE
DATM.M        716.96               : datum        - DATUM ELEVATION
TDD .M        480                  : tdd          - TOTAL DEPTH DRILLER
RUN .         ONE                  : Run          - RUN NUMBER
ENG .         BILL                 : Engineer     - RECORDING ENGINEER
WIT .         JIM                  : Witness      - WITNESSED BY
MUD .         GEL                  : Mud_type     - MUD TYPE
MATR.         SANDSTONE            : Logunit      - NEUTRON MATRIX
TMAX.C        28                   : BHT          - MAXIMUM RECORDED TEMPERATURE
BHTD.M        480                  : BHTDEP       - MAXIMUM RECORDED TEMPERATURE
RMT .C        17.3                 : MDTP         - TEMPERATURE OF MUD
MUDD.KG/M     1130                 : MWT          - MUD DENSITY
NEUT.         1                    : NEUTRON      - NEUTRON TYPE
RESI.         0                    : RESIST       - RESISTIVITY TYPE
RM  .OHMM     8.25                 : RM           - RESISTIVITY OF MUD
RMC .OHMM     7.89                 : RMC          - RESISTIVITY OF MUD CAKE
RMF .OHMM     6.89                 : RMF          - RESISTIVITY OF MUD FILTRATE
SUFT.C        4                    : SUFT         - SURFACE TEMPERATURE
~A  DEPTH       GR     RESD     PHIN     PHID
  275.000  138.334    5.616    0.495    0.232
  275.250  136.476    5.609    0.502    0.226
  275.500  136.466    5.602    0.532    0.213
  275.750  141.371    5.597    0.587    0.168
  276.000  145.658    5.589    0.599    0.178
  276.250  147.492    4.955    0.578    0.224
  276.500  145.631    4.533    0.554    0.231
  276.750  143.159    4.112    0.538    0.233
  277.000  143.145    3.481    0.538    0.235
  277.250  144.361    3.475    0.538    0.232
  277.500  144.959    3.674    0.539    0.228
  277.750  145.561    4.084    0.544    0.221
  278.000  145.551    4.285    0.550    0.214
  278.250  144.916    4.486    0.559    0.218
  278.500  144.288    4.478    0.564    0.223
  278.750  143.048    4.473    0.569    0.232
  279.000  142.420    4.258    0.572    0.232
  279.250  141.177    4.253    0.576    0.231
  279.500  140.552    4.038    0.575    0.228
  279.750  139.920    4.032    0.561    0.225
  280.000  140.522    3.813    0.542    0.222
  280.250  142.971    3.810    0.532    0.211
  280.500  144.187    3.800    0.528    0.199
  280.750  146.015    3.795    0.521    0.205
  281.000  146.619    3.998    0.516    0.216
  281.250  146.606    3.988    0.517    0.220
  281.500  146.593    4.191    0.519    0.220
  281.750  144.735    4.186    0.521    0.220
  282.000  142.874    4.387    0.527    0.218
  282.250  140.401    4.379    0.536    0.213
  282.500  141.002    4.580    0.541    0.208
  282.750  144.063    4.572    0.521    0.193
  283.000  146.512    4.776    0.504    0.193
  283.250  147.114    4.770    0.514    0.208
  283.500  146.485    4.761    0.525    0.221
  283.750  144.628    4.754    0.521    0.226
  284.000  142.770    4.746    0.516    0.224
  284.250  142.141    4.743    0.523    0.217
  284.500  142.121    4.733    0.535    0.218
  284.750  142.723    4.728    0.564    0.219
  285.000  143.939    4.722    0.575    0.220
  285.250  142.081    4.712    0.578    0.220
  285.500  140.838    4.709    0.563    0.219
  285.750  142.669    4.701    0.548    0.217
  286.000  144.497    4.902    0.536    0.222
  286.250  145.102    4.685    0.541    0.224
  286.500  145.088    4.677    0.552    0.228
  286.750  145.690    4.466    0.575    0.230
  287.000  145.676    4.457    0.579    0.236
  287.250  146.278    4.241    0.588    0.239
  287.500  146.882    4.237    0.584    0.244
  287.750  146.247    4.231    0.585    0.250
  288.000  146.241    4.224    0.588    0.259
  288.250  144.379    4.217    0.589    0.265
  288.500  141.910    4.209    0.583    0.261
  288.750  138.208    4.204    0.536    0.259
  289.000  133.276    4.402    0.518    0.256
  289.250  128.959    4.190    0.521    0.255
  289.500  130.168    4.184    0.513    0.254
  289.750  130.773    4.383    0.492    0.253
  290.000  130.760    4.791    0.483    0.250
  290.250  128.287    4.994    0.511    0.253
  290.500  123.973    5.195    0.533    0.256
  290.750  120.879    5.397    0.512    0.259
  291.000  125.169    5.388    0.473    0.260
  291.250  128.848    5.177    0.436    0.258
  291.500  131.909    5.170    0.436    0.256
  291.750  134.351    4.954    0.430    0.253
  292.000  131.264    4.739    0.439    0.248
  292.250  128.180    4.732    0.452    0.245
  292.500  125.707    4.727    0.467    0.250
  292.750  128.153    4.512    0.474    0.263
  293.000  131.822    4.506    0.481    0.288
  293.250  133.041    4.499    0.485    0.292
  293.500  134.876    4.284    0.490    0.279
  293.750  137.318    4.277    0.499    0.251
  294.000  138.534    4.059    0.509    0.248
  294.250  138.524    3.846    0.519    0.248
  294.500  136.663    3.633    0.543    0.249
  294.750  135.420    3.417    0.521    0.248
  295.000  136.021    3.618    0.481    0.246
  295.250  136.011    4.653    0.505    0.248
  295.500  134.154    5.687    0.537    0.251
  295.750  129.222    6.304    0.547    0.254
  296.000  121.830    6.294    0.547    0.256
  296.250  116.284    5.873    0.553    0.253
  296.500  113.193    5.239    0.568    0.242
  296.750  114.409    5.025    0.465    0.225
  297.000  126.080    4.812    0.432    0.214
  297.250  128.526    4.596    0.456    0.241
  297.500  128.506    4.591    0.465    0.264
  297.750  124.811    4.584    0.474    0.275
  298.000  113.109    4.368    0.464    0.269
  298.250  113.710    4.361    0.449    0.275
  298.500  115.545    4.352    0.441    0.278
  298.750  119.220    4.141    0.469    0.278
  299.000  123.511    4.133    0.488    0.274
  299.250  125.342    3.918    0.504    0.271
  299.500  126.558    3.701    0.524    0.266
  299.750  127.774    3.696    0.518    0.258
  300.000  127.761    3.483    0.512    0.257
  300.250  123.440    3.477    0.509    0.257
  300.500  122.201    3.676    0.500    0.259
  300.750  121.569    3.878    0.492    0.261
  301.000  121.556    3.872    0.485    0.262
  301.250  122.775    4.074    0.487    0.263
  301.500  121.532    4.275    0.501    0.265
  301.750  117.830    4.268    0.521    0.264
  302.000  113.513    4.465    0.527    0.261
  302.250  112.878    4.460    0.522    0.254
  302.500  115.945    4.247    0.491    0.244
  302.750  127.613    4.033    0.462    0.217
  303.000  134.363    3.607    0.480    0.187
  303.250  134.964    3.396    0.485    0.185
  303.500  132.488    3.181    0.490    0.233
  303.750  131.245    2.963    0.500    0.278
  304.000  132.465    2.960    0.526    0.286
  304.250  132.451    2.743    0.539    0.278
  304.500  127.519    2.736    0.565    0.270
  304.750  122.587    2.730    0.532    0.269
  305.000  116.426    2.723    0.509    0.271
  305.250  116.409    2.716    0.512    0.274
  305.500  118.852    2.708    0.537    0.271
  305.750  120.683    2.701    0.545    0.270
  306.000  121.281    2.693    0.575    0.271
  306.250  121.274    2.689    0.569    0.271
  306.500  121.875    2.683    0.564    0.268
  306.750  121.859    2.676    0.559    0.268
  307.000  122.457    2.877    0.559    0.270
  307.250  122.450    3.078    0.558    0.275
  307.500  122.437    3.486    0.541    0.281
  307.750  118.731    3.687    0.525    0.289
  308.000  115.647    3.889    0.525    0.292
  308.250  112.559    3.882    0.535    0.296
  308.500  111.931    3.875    0.521    0.300
  308.750  113.762    3.869    0.511    0.303
  309.000  115.593    3.864    0.535    0.302
  309.250  113.735    3.855    0.543    0.297
  309.500  113.107    3.850    0.530    0.292
  309.750  114.938    4.051    0.504    0.286
  310.000  116.766    4.459    0.467    0.267
  310.250  117.367    4.660    0.463    0.252
  310.500  118.587    4.655    0.463    0.252
  310.750  120.418    4.645    0.463    0.256
  311.000  122.864    4.640    0.464    0.263
  311.250  124.073    4.424    0.468    0.263
  311.500  124.063    4.211    0.472    0.262
  311.750  124.053    4.204    0.486    0.261
  312.000  124.036    4.197    0.502    0.263
  312.250  124.026    4.191    0.530    0.268
  312.500  124.006    4.184    0.508    0.268
  312.750  123.996    4.385    0.493    0.265
  313.000  123.986    4.378    0.482    0.262
  313.250  125.196    4.373    0.471    0.260
  313.500  125.794    4.363    0.479    0.265
  313.750  125.784    4.152    0.490    0.271
  314.000  126.385    3.934    0.491    0.285
  314.250  126.372    3.719    0.489    0.299
  314.500  126.976    3.714    0.489    0.292
  314.750  126.963    3.499    0.494    0.284
  315.000  126.946    3.492    0.496    0.278
  315.250  126.318    3.486    0.500    0.272
  315.500  124.463    3.271    0.505    0.267
  315.750  127.521    3.264    0.510    0.270
  316.000  129.355    3.256    0.521    0.277
  316.250  128.109    3.249    0.541    0.281
  316.500  126.866    3.452    0.554    0.278
  316.750  125.619    3.445    0.567    0.276
  317.000  125.613    3.439    0.539    0.276
  317.250  123.755    3.430    0.521    0.285
  317.500  120.052    3.630    0.505    0.308
  317.750  117.580    3.626    0.507    0.321
  318.000  118.796    3.620    0.510    0.312
  318.250  121.242    3.613    0.518    0.288
