~VERSION INFORMATION
 VERS.                 2.0:   CWLS LOG ASCII STANDARD -VERSION 2.0
 WRAP.                  NO:   ONE LINE PER DEPTH STEP
~WELL INFORMATION BLOCK
#MNEM.UNIT           DATA                    DESCRIPTION OF MNEMONIC
#---------    -------------------            -------------------------------
# Generated from Intellog Unique Number	CW_79_81/WELL/2485
WELL.         GAO JOLI FOU OV                : Well_name    - WELL
LOC .         AA/11-14-081-20W4/0            : Location     - LOCATION
UWI .         AA/11-14-081-20W4/0            : Uwi          - UNIQUE WELL ID
ENTR.         MAX                            : Entered      - ENTERED BY
SRVC.         SCHLUMBERGER                   : Scn          - SERVICE COMPANY
STRT.M        175                            : top_depth    - START DEPTH
STOP.M        374.75                         : bot_depth    - STOP DEPTH
STEP.M        0.25                           : increment    - STEP LENGTH
 NULL. -999.2500:NULL Value
~CURVE INFORMATION BLOCK
#MNEM UNIT       ERCB CURVE CODE    CURVE DESCRIPTION
#-----------   ------------------   ----------------------------------
DEPT.M        00 001 00 00         : DEPTH        - DEPTH
ILD .OHMM     00 120 00 00         : RESD         - DEEP RESISTIVITY (DIL)
NPHI.V/V      00 330 00 00         : PHIN         - NEUTRON POROSITY (SANDSTONE)
DPHI.V/V      00 890 00 00         : PHID         - DENSITY POROSITY (SANDSTONE)
GR  .API      00 310 00 00         : GR           - GAMMA RAY
CALI.MM       00 280 01 00         : CAL          - CALIPER
~PARAMETER INFORMATION
#MNEM.UNIT           DATA             DESCRIPTION OF MNEMONIC
#---------         -----------     ------------------------------
GL  .M        580.1                : gl           - GROUND LEVEL ELEVATION
EREF.M        583.6                : kb           - ELEVATION OF DEPTH REFERENCE
DATM.M        580.1                : datum        - DATUM ELEVATION
TDD .M        381                  : tdd          - TOTAL DEPTH DRILLER
RUN .         ONE                  : Run          - RUN NUMBER
ENG .         BILL                 : Engineer     - RECORDING ENGINEER
WIT .         JIM                  : Witness      - WITNESSED BY
MUD .         GEL                  : Mud_type     - MUD TYPE
MATR.         SANDSTONE            : Logunit      - NEUTRON MATRIX
TMAX.C        22.2                 : BHT          - MAXIMUM RECORDED TEMPERATURE
BHTD.M        381                  : BHTDEP       - MAXIMUM RECORDED TEMPERATURE
MATR.         1                    : LOGUNIT      - NEUTRON MATRIX
RMT .C        13.3                 : MDTP         - TEMPERATURE OF MUD
NEUT.         1                    : NEUTRON      - NEUTRON TYPE
RESI.         0                    : RESIST       - RESISTIVITY TYPE
RMC .OHMM     3.98                 : RMC          - RESISTIVITY OF MUD CAKE
RMF .OHMM     2.14                 : RMF          - RESISTIVITY OF MUD FILTRATE
SUFT.C        -20                  : SUFT         - SURFACE TEMPERATURE
~A  DEPTH     RESD     PHIN     PHID       GR      CAL
# ...
  211.500    7.158    0.422    0.187   92.755  268.414
  211.750    7.130    0.400    0.179   90.724  268.024
  212.000    7.221    0.388    0.182   89.771  268.034
  212.250    7.472    0.390    0.194   88.520  268.044
  212.500    7.646    0.400    0.200   87.028  268.053
  212.750    7.991    0.411    0.206   85.837  267.661
  213.000    8.126    0.420    0.205   84.824  266.374
  213.250    8.185    0.419    0.199   83.871  265.385
  213.500    8.228    0.413    0.193   84.056  265.094
  213.750    8.187    0.415    0.193   87.655  264.938
  214.000    7.997    0.430    0.200   87.660  264.117
  214.250    7.819    0.414    0.207   89.102  263.326
  214.500    7.730    0.407    0.210   89.287  263.135
  214.750    7.700    0.400    0.207   89.891  263.143
  215.000    7.625    0.398    0.203   91.633  263.052
  215.250    7.192    0.422    0.214   94.722  262.663
  215.500    6.508    0.475    0.224   96.972  262.673
  215.750    5.380    0.499    0.223  100.810  262.284
  216.000    4.815    0.510    0.211  102.491  262.193
  216.250    4.576    0.508    0.193  102.496  262.401
  216.500    4.516    0.500    0.179  102.382  262.309
  216.750    4.515    0.495    0.185  104.584  260.223
  217.000    4.693    0.487    0.213  103.590  257.739
  217.250    4.762    0.486    0.203  102.399  257.747
  217.500    4.619    0.477    0.194  103.362  258.055
  217.750    4.331    0.479    0.199  106.600  258.463
  218.000    3.984    0.498    0.217  109.899  258.872
  218.250    3.588    0.531    0.240  108.359  259.447
  218.500    3.322    0.550    0.259  106.617  260.286
  218.750    3.575    0.548    0.259  103.749  261.493
  219.000    4.436    0.528    0.262   98.545  261.802
  219.250    5.619    0.502    0.261   92.444  261.411
  219.500    6.679    0.471    0.256   87.959  260.321
  219.750    7.950    0.432    0.245   89.182  259.251
  220.000    7.948    0.447    0.246   91.683  263.833
  220.250    7.712    0.452    0.263   93.843  267.036
  220.500    7.231    0.456    0.256   95.824  266.946
  220.750    6.816    0.462    0.243   97.146  265.158
  221.000    6.592    0.470    0.237   96.852  262.671
  221.250    6.641    0.487    0.249   91.359  259.724
  221.500    6.902    0.500    0.271   80.638  258.900
  221.750    7.703    0.443    0.316   67.473  258.509
  222.000    9.288    0.413    0.343   58.976  258.417
  222.250   11.281    0.398    0.348   55.508  258.626
  222.500   13.099    0.405    0.339   55.754  258.535
  222.750   15.040    0.457    0.332   56.769  257.281
  223.000   16.515    0.456    0.336   57.023  258.954
  223.250   17.903    0.453    0.349   56.309  257.367
  223.500   19.625    0.467    0.347   55.776  257.274
  223.750   21.312    0.477    0.340   55.661  258.280
  224.000   22.464    0.476    0.336   55.906  259.587
  224.250   22.590    0.461    0.346   56.401  260.080
  224.500   22.410    0.451    0.357   57.654  260.505
  224.750   23.077    0.457    0.360   58.617  260.912
  225.000   24.819    0.458    0.357   59.401  261.619
  225.250   27.877    0.457    0.353   59.885  262.026
  225.500   31.908    0.457    0.354   59.950  262.136
  225.750   34.858    0.453    0.361   59.378  262.631
  226.000   35.948    0.438    0.359   58.885  263.055
  226.250   37.019    0.422    0.350   60.566  263.063
  226.500   38.336    0.455    0.347   60.990  263.071
  226.750   40.210    0.484    0.345   61.474  262.680
  227.000   42.448    0.488    0.341   62.018  261.991
  227.250   44.387    0.477    0.341   61.057  261.603
  227.500   46.134    0.473    0.344   59.816  261.611
  227.750   47.862    0.459    0.350   58.862  261.221
  228.000   48.846    0.447    0.351   57.910  261.131
  228.250   48.834    0.446    0.346   57.436  261.139
  228.500   47.827    0.460    0.337   57.441  261.147
  228.750   46.003    0.490    0.333   57.497  261.159
  229.000   45.635    0.494    0.342   57.751  261.167
  229.250   46.995    0.479    0.356   56.559  261.175
  229.500   49.201    0.467    0.359   55.367  261.483
  229.750   52.924    0.460    0.362   54.774  262.091
  230.000   58.991    0.460    0.367   54.719  263.097
  230.250   70.517    0.468    0.365   54.536  265.037
  230.500   81.849    0.457    0.369   54.790  266.709
  230.750   84.290    0.442    0.369   57.430  265.519
  231.000   79.753    0.430    0.363   57.914  264.331
  231.250   72.597    0.428    0.358   57.082  263.143
  231.500   65.173    0.437    0.355   55.950  262.254
  231.750   58.215    0.454    0.351   55.717  262.265
  232.000   59.575    0.450    0.351   55.721  262.274
  232.250   64.582    0.474    0.354   54.050  263.079
  232.500   70.417    0.492    0.364   53.637  263.587
  232.750   73.448    0.496    0.373   54.121  262.000
  233.000   70.899    0.487    0.377   54.666  259.615
  233.250   61.844    0.471    0.373   53.903  260.905
  233.500   54.707    0.463    0.367   53.659  261.330
  233.750   58.020    0.477    0.347   53.664  259.742
  234.000   60.220    0.492    0.338   54.747  258.752
  234.250   59.285    0.496    0.342   56.190  258.163
  234.500   56.401    0.487    0.356   57.213  257.872
  234.750   55.400    0.472    0.373   56.529  257.965
  235.000   56.691    0.465    0.376   54.290  258.389
  235.250   58.378    0.461    0.361   54.295  259.597
  235.500   60.122    0.471    0.345   53.762  259.906
  235.750   62.821    0.473    0.340   52.809  259.914
  236.000   67.476    0.460    0.344   52.276  259.822
  236.250   75.763    0.450    0.340   53.719  259.350
  236.500   76.927    0.454    0.340   53.724  258.944
  236.750   65.593    0.467    0.342   53.968  258.553
  237.000   59.409    0.461    0.344   54.931  258.462
  237.250   57.086    0.448    0.346   56.134  258.272
  237.500   57.285    0.438    0.347   56.978  257.880
  237.750   56.612    0.445    0.345   56.346  257.076
  238.000   50.078    0.457    0.340   54.355  255.007
  238.250   44.713    0.464    0.333   55.080  253.818
  238.500   39.715    0.473    0.326   55.444  253.528
  238.750   35.961    0.481    0.329   55.927  253.537
  239.000   33.142    0.487    0.337   56.771  253.645
  239.250   30.117    0.493    0.338   57.626  254.220
  239.500   28.096    0.493    0.344   55.884  255.062
  239.750   26.057    0.515    0.539   48.705  255.869
  240.000   23.896    0.567    0.576   40.808  256.077
  240.250   21.501    0.585    0.473   36.502  256.085
  240.500   19.061    0.540    0.325   36.447  256.193
  240.750   16.613    0.429    0.301   38.050  256.852
  241.000   15.616    0.412    0.301   40.052  258.109
  241.250   15.266    0.423    0.312   39.818  258.118
  241.500   15.094    0.414    0.314   39.763  258.126
  241.750   15.034    0.409    0.314   39.888  258.334
  242.000   15.058    0.414    0.316   40.013  258.642
  242.250   15.190    0.420    0.319   39.580  258.652
  242.500   15.305    0.418    0.323   38.588  258.663
  242.750   15.415    0.417    0.326   38.593  259.070
  243.000   15.785    0.423    0.330   38.419  259.478
  243.250   16.139    0.433    0.335   38.424  259.885
  243.500   16.378    0.441    0.341   39.028  260.293
  243.750   16.618    0.440    0.346   41.010  260.704
  244.000   16.614    0.436    0.340   42.511  260.712
  244.250   16.610    0.425    0.333   42.995  262.317
  244.500   16.606    0.427    0.329   43.659  262.126
  244.750   16.601    0.440    0.332   44.024  261.936
  245.000   16.628    0.453    0.341   44.149  262.344
  245.250   16.922    0.446    0.355   44.684  262.588
  245.500   17.864    0.441    0.353   44.939  261.764
  245.750   18.131    0.428    0.351   45.183  258.580
  246.000   18.398    0.420    0.347   44.889  257.491
  246.250   18.600    0.417    0.348   44.296  257.300
  246.500   18.735    0.421    0.352   44.062  257.309
  246.750   18.899    0.441    0.351   45.615  257.236
  247.000   19.040    0.461    0.349   47.367  256.829
  247.250   19.177    0.457    0.354   46.893  256.439
  247.500   19.209    0.447    0.357   46.778  255.749
  247.750   19.276    0.439    0.357   47.023  255.359
