~VERSION INFORMATION
 VERS.                 2.0:   CWLS LOG ASCII STANDARD -VERSION 2.0
 WRAP.                  NO:   ONE LINE PER DEPTH STEP
~WELL INFORMATION BLOCK
#MNEM.UNIT           DATA                    DESCRIPTION OF MNEMONIC
#---------    -------------------            -------------------------------
# Generated from Intellog Unique Number	CW_82_90/WELL/694
WELL.         10-09-083-19W4                 : Well_name    - WELL
LOC .         AA/10-09-083-19W4/0            : Location     - LOCATION
UWI .         AA/10-09-083-19W400            : Uwi          - UNIQUE WELL ID
ENTR.         JAYE                           : Entered      - ENTERED BY
SRVC.         WESTERN ATLAS                  : Scn          - SERVICE COMPANY
DATE.         30 FEB 81                      : Date         - LOG DATE
STRT.M        192                            : top_depth    - START DEPTH
STOP.M        365                            : bot_depth    - STOP DEPTH
STEP.M        0.25                           : increment    - STEP LENGTH
 NULL. -999.2500:NULL Value
~CURVE INFORMATION BLOCK
#MNEM UNIT       ERCB CURVE CODE    CURVE DESCRIPTION
#-----------   ------------------   ----------------------------------
DEPT.M        00 001 00 00         : DEPTH        - DEPTH
CALI.MM       00 280 01 00         : CAL          - CALIPER
GR  .API      00 310 00 00         : GR           - GAMMA RAY
NPHI.V/V      00 330 00 00         : PHIN         - NEUTRON POROSITY (SANDSTONE)
DPHI.V/V      00 890 00 00         : PHID         - DENSITY POROSITY (SANDSTONE)
ILD .OHMM     00 120 00 00         : RESD         - DEEP RESISTIVITY (DIL)
~PARAMETER INFORMATION
#MNEM.UNIT           DATA             DESCRIPTION OF MNEMONIC
#---------         -----------     ------------------------------
GL  .M        577.5                : gl           - GROUND LEVEL ELEVATION
EREF.M        580.32               : kb           - ELEVATION OF DEPTH REFERENCE
DATM.M        577.5                : datum        - DATUM ELEVATION
TDD .M        371                  : tdd          - TOTAL DEPTH DRILLER
RUN .         ONE                  : Run          - RUN NUMBER
ENG .         STEVENS & GAMBER     : Engineer     - RECORDING ENGINEER
WIT .         HAYES & CLARKE       : Witness      - WITNESSED BY
MUD .         GEL CHEM             : Mud_type     - MUD TYPE
MATR.         SANDSTONE            : Logunit      - NEUTRON MATRIX
TMAX.C        17                   : BHT          - MAXIMUM RECORDED TEMPERATURE
BHTD.M        371                  : BHTDEP       - MAXIMUM RECORDED TEMPERATURE
RMT .C        11                   : MDTP         - TEMPERATURE OF MUD
MUDD.KG/M     1100                 : MWT          - MUD DENSITY
NEUT.         1                    : NEUTRON      - NEUTRON TYPE
RESI.         0                    : RESIST       - RESISTIVITY TYPE
RM  .OHMM     3.8                  : RM           - RESISTIVITY OF MUD
RMC .OHMM     0                    : RMC          - RESISTIVITY OF MUD CAKE
RMF .OHMM     3.6                  : RMF          - RESISTIVITY OF MUD FILTRATE
SUFT.C        0                    : SUFT         - SURFACE TEMPERATURE
~A  DEPTH      CAL       GR     PHIN     PHID     RESD
  192.000  238.782   80.640    0.424    0.264    6.653
  192.250  241.358   80.656    0.443    0.257    7.073
  192.500  244.458   81.487    0.451    0.249    7.635
  192.750  246.403   79.074    0.439    0.249    8.350
  193.000  238.808   73.860    0.427    0.264    9.520
  193.250  235.661   68.710    0.417    0.306   12.426
  193.500  233.252   64.180    0.412    0.318   15.949
  193.750  232.441   58.777    0.413    0.322   25.656
  194.000  232.256   55.177    0.417    0.322   33.681
  194.250  232.192   54.948    0.431    0.315   35.410
  194.500  232.644   55.967    0.432    0.328   34.987
  194.750  232.896   57.540    0.430    0.331   34.111
  195.000  233.032   58.557    0.423    0.339   33.707
  195.250  234.761   59.516    0.422    0.352   33.045
  195.500  234.370   60.410    0.425    0.345   33.331
  195.750  233.334   61.791    0.425    0.340   35.113
  196.000  232.631   63.428    0.419    0.322   37.059
  196.250  230.973   63.952    0.410    0.319   38.667
  196.500  229.205   63.665    0.408    0.327   39.514
  196.750  227.754   60.129    0.407    0.353   38.893
  197.000  227.363   56.844    0.409    0.354   38.434
  197.250  229.094   55.119    0.415    0.348   37.479
  197.500  228.485   55.204    0.416    0.351   35.997
  197.750  228.520   57.332    0.412    0.347   34.966
  198.000  228.654   58.476    0.408    0.347   34.222
  198.250  228.793   59.181    0.405    0.356   33.879
  198.500  229.780   59.206    0.404    0.358   33.537
  198.750  230.240   57.479    0.404    0.355   33.072
  199.000  230.912   57.314    0.406    0.347   32.800
  199.250  231.463   59.828    0.412    0.346   32.468
  199.500  231.508   59.845    0.419    0.347   31.475
  199.750  231.650   56.993    0.426    0.346   31.221
  200.000  231.677   53.965    0.428    0.348   30.788
  200.250  231.175   50.925    0.424    0.350   29.962
  200.500  230.685   50.443    0.415    0.349   29.159
  200.750  230.082   52.154    0.408    0.349   28.008
  201.000  229.899   55.728    0.403    0.347   26.701
  201.250  229.517   57.181    0.404    0.337   25.407
  201.500  229.332   56.690    0.416    0.332   24.177
  201.750  229.259   55.968    0.431    0.332   22.875
  202.000  229.087   55.987    0.435    0.333   20.803
  202.250  228.905   57.377    0.427    0.336   18.992
  202.500  228.618   57.402    0.422    0.342   17.836
  202.750  228.549   56.675    0.423    0.351   16.715
  203.000  228.901   56.756    0.429    0.352   16.239
  203.250  229.247   56.834    0.447    0.345   15.924
  203.500  229.278   56.727    0.448    0.339   15.881
  203.750  229.520   56.001    0.441    0.333   15.837
  204.000  230.185   55.453    0.432    0.324   15.827
  204.250  230.549   54.235    0.431    0.326   15.846
  204.500  231.951   51.322    0.438    0.356   15.924
  204.750  233.368   52.654    0.455    0.357   15.973
  205.000  235.944   53.919    0.454    0.364   16.080
  205.250  241.700   53.057    0.438    0.374   15.976
  205.500  243.323   54.075    0.437    0.350   15.872
  205.750  238.478   54.228    0.436    0.351   15.802
  206.000  235.645   55.738    0.430    0.358   15.731
  206.250  234.520   57.690    0.430    0.349   15.632
  206.500  234.012   58.767    0.431    0.331   15.473
  206.750  234.377   59.407    0.448    0.331   15.315
  207.000  235.043   59.864    0.462    0.334   15.105
  207.250  235.815   60.443    0.466    0.340   14.868
  207.500  237.330   60.712    0.464    0.330   14.389
  207.750  238.745   61.050    0.460    0.312   13.037
  208.000  241.109   61.685    0.465    0.321   11.101
  208.250  244.527   62.453    0.467    0.307    9.834
  208.500  247.425   62.479    0.463    0.297    8.712
  208.750  250.843   62.622    0.459    0.304    8.367
  209.000  250.140   63.576    0.446    0.293    8.067
  209.250  240.001   65.030    0.449    0.301    7.646
  209.500  236.213   66.542    0.451    0.275    7.101
  209.750  240.699   68.120    0.448    0.251    6.656
  210.000  246.347   70.008    0.442    0.231    6.250
  210.250  247.446   70.407    0.433    0.217    6.083
  210.500  247.265   70.735    0.426    0.262    6.112
  210.750  245.385   69.509    0.425    0.286    6.647
  211.000  241.928   66.663    0.427    0.318    7.176
  211.250  236.662   63.689    0.424    0.335    7.967
  211.500  233.088   62.338    0.418    0.315    8.599
  211.750  231.858   63.542    0.415    0.330    9.405
  212.000  231.254   67.174    0.415    0.348   10.268
  212.250  231.071   69.503    0.417    0.339   11.146
  212.500  231.103   69.142    0.416    0.314   12.008
  212.750  230.820   65.983    0.412    0.302   13.586
  213.000  230.428   63.702    0.388    0.328   15.516
  213.250  230.570   61.664    0.360    0.329   17.229
  213.500  230.497   61.374    0.342    0.280   19.128
  213.750  231.276   63.385    0.341    0.228   19.150
  214.000  233.000   64.654    0.351    0.220   17.481
  214.250  234.413   63.988    0.365    0.271   16.449
  214.500  234.339   63.196    0.381    0.273   15.680
  214.750  232.571   61.159    0.391    0.259   15.318
  215.000  230.588   59.369    0.390    0.242   15.133
  215.250  229.563   58.643    0.376    0.239   14.808
  215.500  229.172   58.476    0.370    0.256   14.633
  215.750  229.409   58.370    0.371    0.286   14.269
  216.000  229.662   57.949    0.375    0.298   13.889
  216.250  230.228   58.156    0.382    0.307   13.338
  216.500  230.571   57.361    0.387    0.322   13.081
  216.750  230.286   56.447    0.393    0.335   12.828
  217.000  230.114   56.031    0.392    0.345   12.674
  217.250  229.810   57.238    0.387    0.348   12.713
  217.500  229.755   58.255    0.384    0.337   13.091
  217.750  229.579   57.777    0.377    0.329   13.481
  218.000  229.608   56.979    0.375    0.326   13.650
  218.250  229.858   57.255    0.371    0.324   13.716
  218.500  230.101   56.517    0.361    0.322   13.704
  218.750  230.560   57.416    0.360    0.324   13.619
  219.000  231.542   57.064    0.361    0.332   13.330
  219.250  232.630   57.770    0.363    0.343   13.094
  219.500  234.034   60.899    0.365    0.351   12.793
  219.750  234.927   62.854    0.370    0.355   12.592
  220.000  235.704   64.244    0.378    0.354   12.347
  220.250  236.679   62.519    0.381    0.347   12.201
  220.500  237.042   59.862    0.380    0.346   12.168
  220.750  237.699   58.506    0.379    0.333   12.134
  221.000  237.954   60.085    0.378    0.318   12.149
  221.250  238.403   63.466    0.379    0.312   12.048
  221.500  239.171   66.543    0.377    0.307   11.972
  221.750  239.956   66.560    0.372    0.299   11.917
  222.000  240.511   64.837    0.372    0.296   11.931
  222.250  241.088   62.239    0.380    0.307   11.921
  222.500  241.854   59.639    0.388    0.299   12.002
  222.750  242.736   58.603    0.392    0.295   12.108
  223.000  243.729   58.930    0.397    0.294   12.801
  223.250  245.556   59.822    0.401    0.293   13.948
  223.500  247.609   58.657    0.405    0.295   15.370
  223.750  250.397   57.245    0.406    0.310   16.404
  224.000  254.560   56.827    0.402    0.313   16.861
  224.250  254.382   57.474    0.387    0.305   16.224
  224.500  250.383   59.361    0.370    0.291   15.704
  224.750  246.292   59.569    0.343    0.266   15.633
  225.000  240.815   57.468    0.320    0.180   16.311
  225.250  238.408   53.498    0.255    0.131   18.558
  225.500  237.597   46.786    0.211    0.089   21.276
  225.750  237.096   42.438    0.170    0.044   24.902
  226.000  236.499   40.037    0.107    0.019   29.532
  226.250  235.788   37.620    0.071    0.020   32.116
  226.500  235.380   36.834    0.067    0.022   30.158
  226.750  235.519   38.037    0.071    0.015   25.874
  227.000  236.727   41.173    0.089    0.022   23.050
  227.250  237.295   44.305    0.131    0.052   20.808
  227.500  236.473   46.066    0.194    0.118   17.518
  227.750  235.132   47.708    0.241    0.240   15.287
  228.000  233.787   48.659    0.277    0.279   13.389
  228.250  232.556   48.933    0.330    0.294   12.622
