~VERSION INFORMATION
 VERS.                 2.0:   CWLS LOG ASCII STANDARD -VERSION 2.0
 WRAP.                  NO:   ONE LINE PER DEPTH STEP
~WELL INFORMATION BLOCK
#MNEM.UNIT           DATA                    DESCRIPTION OF MNEMONIC
#---------    -------------------            -------------------------------
# Generated from Intellog Unique Number	CC_80_83/WELL/2349
NULL.         -999.25                        : NULL_VALUE
WELL.         PEX PCEJ HANGST OV             : Well_name    - WELL
LOC .         10-11-082-08W4                 : Location     - LOCATION          
UWI .         AA/10-11-082-08W4/0            : Uwi          - UNIQUE WELL ID    
ENTR.         DW                             : Entered      - ENTERED BY        
SRVC.         DRESSER ATLAS                  : Scn          - SERVICE COMPANY   
DATE.         03 MAR 80                      : Date         - LOG DATE
STRT.M        265                            : top_depth    - START DEPTH       
STOP.M        495.091                        : bot_depth    - STOP DEPTH        
STEP.M        0.3                            : increment    - STEP LENGTH       
~CURVE INFORMATION BLOCK
#MNEM UNIT       ERCB CURVE CODE    CURVE DESCRIPTION
#-----------   ------------------   ----------------------------------
DEPT.M        00 001 00 00         : DEPTH        - DEPTH                       
DPHI.V/V      00 890 00 00         : PHID         - DENSITY POROSITY (LIMESTONE)
NPHI.V/V      00 330 00 00         : PHIN         - NEUTRON POROSITY (LIMESTONE)
GR  .API      00 310 00 00         : GR           - GAMMA RAY                   
ILD .OHMM     00 120 00 00         : RESD         - DEEP RESISTIVITY (DIL)      
~PARAMETER INFORMATION       
#MNEM.UNIT           DATA             DESCRIPTION OF MNEMONIC
#---------         -----------     ------------------------------
GL  .M        723                  : gl           - GROUND LEVEL ELEVATION      
EREF.M        726.6                : kb           - ELEVATION OF DEPTH REFERENCE
DATM.M        726.6                : datum        - DATUM ELEVATION             
TDD .M        498                  : tdd          - TOTAL DEPTH DRILLER         
RUN .         ONE                  : Run          - RUN NUMBER                  
ENG .         BILL                 : Engineer     - RECORDING ENGINEER          
WIT .         JIM                  : Witness      - WITNESSED BY                
MUD .         GEL                  : Mud_type     - MUD TYPE                    
MATR.         LIMESTONE            : Logunit      - NEUTRON MATRIX              
TMAX.C        16                   : BHT          - MAXIMUM RECORDED TEMPERATURE
BHTD.M        498                  : BHTDEP       - MAXIMUM RECORDED TEMPERATURE
MATR.         1                    : LOGUNIT      - NEUTRON MATRIX              
RMT .C        25                   : MDTP         - TEMPERATURE OF MUD          
NEUT.         1                    : NEUTRON      - NEUTRON TYPE                
RESI.         0                    : RESIST       - RESISTIVITY TYPE            
RMC .OHMM     0.25                 : RMC          - RESISTIVITY OF MUD CAKE     
RMF .OHMM     0.25                 : RMF          - RESISTIVITY OF MUD FILTRATE 
SUFT.C        15                   : SUFT         - SURFACE TEMPERATURE         
~A  DEPTH     PHID     PHIN       GR     RESD
# ...
  421.594    0.205    0.369   63.180   12.384
  421.894    0.238    0.373   64.447   10.436
  422.194    0.267    0.362   68.235    9.490
  422.494    0.308    0.398   72.027    8.629
  422.794    0.466    0.422   73.924    7.846
  423.094    0.456    0.455   77.715    7.135
  423.394    0.338    0.449   78.354    7.001
  423.694    0.327    0.429   77.734    6.870
  423.994    0.317    0.421   76.486    7.002
  424.294    0.360    0.431   80.904    7.274
  424.594    0.338    0.430   84.692    7.850
  424.893    0.320    0.423   83.444    9.142
  425.193    0.312    0.430   84.713    9.680
  425.493    0.310    0.400   87.243    9.681
  425.793    0.313    0.386   87.252    9.320
  426.093    0.400    0.381   82.853    8.803
  426.393    0.435    0.408   82.864    7.706
  426.693    0.418    0.424   79.724    4.975
  426.993    0.386    0.444   80.364    3.740
  427.293    0.373    0.464   81.633    2.921
  427.593    0.374    0.454   81.013    2.606
  427.893    0.369    0.474   77.245    2.557
  428.193    0.364    0.510   74.734    2.606
  428.493    0.375    0.495   70.337    3.275
  428.793    0.371    0.446   67.827    3.671
  429.093    0.366    0.430   70.356    4.702
  429.393    0.256    0.410   77.296    6.499
  429.693    0.219    0.397   81.713    7.568
  429.993    0.256    0.386   78.574    8.647
  430.293    0.286    0.396   81.734    8.983
  430.593    0.331    0.394   77.965    8.325
  430.893    0.410    0.396   69.787    7.015
  431.193    0.365    0.391   75.466    5.274
  431.493    0.390    0.418   76.735    4.360
  431.793    0.342    0.477   79.894    3.890
  432.093    0.292    0.466   79.275    3.745
  432.393    0.294    0.451   78.024    3.675
  432.693    0.296    0.438   81.815    3.675
  432.993    0.307    0.436   83.713    3.675
  433.293    0.320    0.431   79.315    3.818
  433.593    0.321    0.433   77.436    3.892
  433.893    0.284    0.447   78.075    3.893
  434.193    0.277    0.459   81.865    3.893
  434.493    0.280    0.468   83.765    3.968
  434.793    0.274    0.473   83.774    4.044
  435.093    0.260    0.419   84.417    4.202
  435.393    0.269    0.417   84.423    4.534
  435.693    0.301    0.409   83.804    4.893
  435.993    0.317    0.396   84.444    5.281
  436.293    0.322    0.391   83.194    5.808
  436.593    0.342    0.413   79.427    6.150
  436.893    0.348    0.423   77.545    6.269
  437.193    0.337    0.436   78.186    6.269
  437.493    0.343    0.442   78.825    6.390
  437.793    0.361    0.433   76.946    6.766
  438.093    0.288    0.403   73.806    7.164
  438.393    0.242    0.388   72.556    7.731
  438.693    0.250    0.379   73.197    8.186
  438.993    0.253    0.367   72.577    8.504
  439.293    0.293    0.383   69.437    9.717
  439.593    0.277    0.390   63.778   10.289
  439.893    0.279    0.388   40.483   10.689
  440.193    0.293    0.332   32.935   10.690
  440.493    0.304    0.360   43.652    9.357
  440.793    0.287    0.397   54.370    9.009
  441.093    0.291    0.388   44.933    9.009
  441.393    0.286    0.392   53.132    9.183
  441.693    0.274    0.395   65.109    9.184
  441.993    0.273    0.379   88.422    9.541
  442.293    0.277    0.363   87.172   10.297
  442.593    0.280    0.369   77.737   10.902
  442.893    0.283    0.355   76.486   12.222
  443.193    0.258    0.344   64.529   14.232
  443.493    0.245    0.337   56.982   17.217
  443.793    0.295    0.366   61.399   17.887
  444.093    0.292    0.364   80.936   15.958
  444.393    0.307    0.359   84.094   13.706
  444.693    0.335    0.344   85.995   10.908
  444.993    0.308    0.353   92.933    9.192
  445.293    0.200    0.358  101.129    8.519
  445.593    0.192    0.354  106.809    8.520
  445.893    0.184    0.339  105.559    8.851
  446.193    0.183    0.338  101.791    9.552
  446.493    0.189    0.338  103.061   10.308
  446.793    0.202    0.333  103.700   11.338
  447.093    0.220    0.309   89.222   13.203
  447.393    0.243    0.275   39.474   15.086
  447.693    0.261    0.254   36.965   17.905
  447.993    0.211    0.271   49.572   19.323
  448.293    0.180    0.290   72.886   18.603
  448.593    0.177    0.288   77.935   17.241
  448.893    0.193    0.290   75.430   15.092
  449.193    0.206    0.307   72.287   14.809
  449.492    0.208    0.307   72.297   16.288
  449.792    0.230    0.305   72.937   17.578
  450.092    0.245    0.307   69.797   18.261
  450.392    0.247    0.305   59.100   17.919
  450.692    0.255    0.307   74.857   17.251
  450.992    0.269    0.322   89.353   16.928
  451.292    0.270    0.330   78.656   17.254
  451.592    0.261    0.312   67.960   17.924
  451.892    0.269    0.335   66.080   18.270
  452.192    0.277    0.341   66.092   16.613
  452.492    0.286    0.333   66.728   12.729
  452.792    0.282    0.343   76.186   12.024
  453.092    0.270    0.343   86.276   11.576
  453.392    0.226    0.326   84.398   11.799
  453.692    0.221    0.302   83.146   12.258
  453.992    0.232    0.303  100.790   12.495
  454.292    0.252    0.313   89.463   12.495
  454.592    0.250    0.321   74.358   11.803
  454.892    0.247    0.331   74.368   11.363
  455.192    0.252    0.341   75.639   11.150
  455.492    0.278    0.353   75.022   10.735
  455.792    0.296    0.363   75.658   10.140
  456.092    0.278    0.356   75.039   10.140
  456.392    0.262    0.356   75.677    9.762
  456.692    0.251    0.346   79.467    9.763
  456.992    0.230    0.326   83.256    9.951
  457.292    0.237    0.328   85.155   10.739
  457.592    0.230    0.328   82.016   11.590
  457.892    0.229    0.319   76.359   13.242
  458.192    0.243    0.311   76.998   15.131
  458.492    0.238    0.306   73.227   15.718
  458.792    0.243    0.304   60.640   17.621
  459.092    0.274    0.315   82.065   19.017
  459.392    0.282    0.339   78.926   20.916
  459.692    0.248    0.339   67.599   23.006
  459.992    0.254    0.324   61.941   25.790
  460.292    0.251    0.337   60.060   29.467
  460.592    0.247    0.322   58.182   34.975
  460.892    0.244    0.312   55.671   40.730
  461.192    0.238    0.315   58.832   43.126
  461.492    0.234    0.319   63.883   44.803
  461.792    0.232    0.320   65.779   43.134
  462.092    0.232    0.318   62.011   39.975
  462.392    0.238    0.321   75.248   36.349
  462.692    0.253    0.336   64.552   28.931
  462.992    0.257    0.340   56.374   19.402
  463.292    0.260    0.335   55.121   16.041
  463.592    0.259    0.336   71.507   12.059
  463.892    0.223    0.351   80.336    9.970
  464.192    0.223    0.356   81.608    8.895
  464.492    0.232    0.352   79.100    8.728
  464.792    0.236    0.352   80.997    8.897
  465.092    0.263    0.351   84.785    9.243
  465.392    0.269    0.349   78.497    9.787
  465.692    0.264    0.364   76.618    9.787
  465.992    0.249    0.359   75.999    9.976
  466.292    0.263    0.320   77.268    9.789
  466.592    0.274    0.320   77.906    9.247
  466.892    0.243    0.332   82.956    8.902
  467.192    0.236    0.342   81.077    8.570
  467.492    0.239    0.335   81.088    8.735
  467.792    0.231    0.334   82.357    9.075
  468.092    0.223    0.352   81.109   10.174
  468.392    0.220    0.351   80.487   11.624
  468.692    0.220    0.335   81.758   13.031
  468.992    0.220    0.328   78.618   14.063
  469.292    0.232    0.318   72.328   14.064
  469.592    0.235    0.311   58.481   14.335
  469.892    0.230    0.301   69.829   14.892
  470.192    0.247    0.302   78.658   15.768
  470.492    0.260    0.297   58.511   16.696
  470.792    0.272    0.273   46.556   18.018
  471.092    0.278    0.252   42.785   18.719
  471.392    0.281    0.220   39.018   18.721
  471.692    0.282    0.215   35.247   18.722
  471.992    0.287    0.227   42.185   19.450
  472.292    0.287    0.233   44.086   20.594
  472.592    0.282    0.242   38.427   22.225
  472.892    0.276    0.258   35.287   25.881
  473.192    0.277    0.252   32.151   28.467
  473.492    0.292    0.242   30.903   30.721
