~VERSION INFORMATION
 VERS.                 2.0:   CWLS LOG ASCII STANDARD -VERSION 2.0
 WRAP.                  NO:   ONE LINE PER DEPTH STEP
~WELL INFORMATION BLOCK
#MNEM.UNIT           DATA                    DESCRIPTION OF MNEMONIC
#---------    -------------------            -------------------------------
# Generated from Intellog Unique Number	CC_84_87/WELL/2298
NULL.         -999.25                        : NULL_VALUE
WELL.         PEX PECJ HANGST OV             : Well_name    - WELL              
LOC .         10-08-087-09W4                 : Location     - LOCATION          
UWI .         AA/10-08-087-09W400            : Uwi          - UNIQUE WELL ID    
ENTR.         JHS                            : Entered      - ENTERED BY        
SRVC.         DRESSER ATLAS                  : Scn          - SERVICE COMPANY   
DATE.         18 JAN 81                      : Date         - LOG DATE
STRT.M        68                             : top_depth    - START DEPTH       
STOP.M        175.101                        : bot_depth    - STOP DEPTH        
STEP.M        0.3                            : increment    - STEP LENGTH       
~CURVE INFORMATION BLOCK
#MNEM UNIT       ERCB CURVE CODE    CURVE DESCRIPTION
#-----------   ------------------   ----------------------------------
DEPT.M        00 001 00 00         : DEPTH        - DEPTH                       
DPHI.V/V      00 890 00 00         : PHID         - DENSITY POROSITY (LIMESTONE)
NPHI.V/V      00 330 00 00         : PHIN         - NEUTRON POROSITY (LIMESTONE)
GR  .API      00 310 00 00         : GR           - GAMMA RAY                   
ILD .OHMM     00 120 00 00         : RESD         - DEEP RESISTIVITY (DIL)      
~PARAMETER INFORMATION       
#MNEM.UNIT           DATA             DESCRIPTION OF MNEMONIC
#---------         -----------     ------------------------------
GL  .M        432.1                : gl           - GROUND LEVEL ELEVATION      
EREF.M        437.2                : kb           - ELEVATION OF DEPTH REFERENCE
DATM.M        437.2                : datum        - DATUM ELEVATION             
TDD .M        185                  : tdd          - TOTAL DEPTH DRILLER         
RUN .         ONE                  : Run          - RUN NUMBER                  
ENG .         BILL                 : Engineer     - RECORDING ENGINEER          
WIT .         JIM                  : Witness      - WITNESSED BY                
MUD .         GEL                  : Mud_type     - MUD TYPE                    
MATR.         LIMESTONE            : Logunit      - NEUTRON MATRIX              
TMAX.C        60                   : BHT          - MAXIMUM RECORDED TEMPERATURE
BHTD.M        185                  : BHTDEP       - MAXIMUM RECORDED TEMPERATURE
MATR.         1                    : LOGUNIT      - NEUTRON MATRIX              
RMT .C        25                   : MDTP         - TEMPERATURE OF MUD          
NEUT.         1                    : NEUTRON      - NEUTRON TYPE                
RESI.         0                    : RESIST       - RESISTIVITY TYPE            
RMC .OHMM     0.25                 : RMC          - RESISTIVITY OF MUD CAKE     
RMF .OHMM     0.25                 : RMF          - RESISTIVITY OF MUD FILTRATE 
SUFT.C        15                   : SUFT         - SURFACE TEMPERATURE         
~A  DEPTH     PHID     PHIN       GR     RESD
# ...
  120.201    0.285    0.400   77.466   10.220
  120.501    0.269    0.385   78.097   12.860
  120.801    0.239    0.405   79.980   13.117
  121.101    0.190    0.393   74.986   12.164
  121.401    0.296    0.401   73.118   11.717
  121.701    0.301    0.418   81.251   11.726
  122.001    0.326    0.427   84.382   12.191
  122.301    0.357    0.417   80.015   12.918
  122.601    0.345    0.387   75.646   13.953
  122.901    0.376    0.408   70.028   15.363
  123.201    0.356    0.346   70.661   16.592
  123.501    0.301    0.331   66.292   18.620
  123.801    0.311    0.338   68.799   20.496
  124.101    0.312    0.343   74.431   20.909
  124.401    0.306    0.356   79.438   19.388
  124.701    0.291    0.367   81.320   17.977
  125.001    0.294    0.363   86.952   17.648
  125.301    0.300    0.357   85.710   18.004
  125.601    0.305    0.348   78.841   19.080
  125.901    0.304    0.348   76.974   19.833
  126.201    0.299    0.355   75.730   21.422
  126.501    0.307    0.348   75.112   23.586
  126.801    0.313    0.357   70.119   26.976
  127.101    0.301    0.355   55.126   29.135
  127.401    0.300    0.352   60.759   28.606
  127.701    0.305    0.363   63.890   28.085
  128.001    0.300    0.372   61.397   31.517
  128.301    0.303    0.359   60.780   36.051
  128.601    0.301    0.354   55.786   39.690
  128.901    0.312    0.352   52.043   39.714
  129.201    0.327    0.320   45.800   34.783
  129.501    0.316    0.334   52.682   31.634
  129.801    0.295    0.349   63.940   26.160
  130.101    0.281    0.356   67.071   23.348
  130.401    0.278    0.358   70.204   21.647
  130.701    0.277    0.366   70.835   20.852
  131.001    0.271    0.367   72.092   19.706
  131.301    0.282    0.375   78.975   18.627
  131.601    0.286    0.364   80.231   18.289
  131.901    0.292    0.368   82.112   18.299
  132.201    0.304    0.377   77.745   19.028
  132.501    0.299    0.379   71.501   20.551
  132.801    0.308    0.358   74.634   20.565
  133.101    0.294    0.367   75.891   19.811
  133.401    0.258    0.375   84.022   18.369
  133.701    0.219    0.385   74.654   17.359
  134.001    0.160    0.369   74.662   16.095
  134.301    0.253    0.382   86.544   14.644
  134.601    0.263    0.411   87.800   13.579
  134.901    0.263    0.396   84.683   13.079
  135.201    0.269    0.389   85.940   12.360
  135.501    0.272    0.390   91.571   11.245
  135.801    0.268    0.399   92.204   10.626
  136.101    0.248    0.414  104.711   10.633
  136.401    0.243    0.399   95.343   11.056
  136.701    0.236    0.384   89.724   11.941
  137.001    0.261    0.373   73.481   13.921
  137.301    0.294    0.395   69.113   15.621
  137.601    0.294    0.371   66.621   17.528
  137.901    0.317    0.371   61.627   20.049
  138.201    0.318    0.386   53.510   23.373
  138.501    0.337    0.390   50.392   28.852
  138.801    0.347    0.386   49.148   40.706
  139.101    0.350    0.391   44.155   51.221
  139.401    0.354    0.393   43.538   53.251
  139.701    0.356    0.411   44.170   50.328
  140.001    0.353    0.390   43.551   45.780
  140.301    0.349    0.370   48.559   35.751
  140.601    0.338    0.354   58.565   29.563
  140.901    0.279    0.356   72.947   20.984
  141.201    0.254    0.348   84.205   14.895
  141.501    0.262    0.349   94.836   12.084
  141.801    0.268    0.368  102.968   11.421
  142.101    0.263    0.396   99.225   11.650
  142.401    0.196    0.355   96.732   12.113
  142.701    0.222    0.353   88.614   11.893
  143.001    0.269    0.375   87.372   11.239
  143.301    0.268    0.351   95.503   10.421
  143.601    0.262    0.356   99.885   10.630
  143.901    0.274    0.372   95.517   11.265
  144.201    0.273    0.380   81.149   12.403
  144.501    0.255    0.362   78.031   13.396
  144.801    0.265    0.352   83.038   13.663
  145.101    0.280    0.370   84.920   13.937
  145.401    0.275    0.374   89.303   13.682
  145.701    0.281    0.364   91.809   13.436
  146.001    0.325    0.350   97.441   13.190
  146.301    0.359    0.360  101.824   13.977
  146.601    0.344    0.379   93.080   13.990
  146.901    0.213    0.378   95.587   13.735
  147.201    0.254    0.386  103.094   13.229
  147.501    0.271    0.380  104.976   12.743
  147.801    0.273    0.361  105.608   12.999
  148.101    0.273    0.386  103.115   13.259
  148.401    0.275    0.365  104.997   13.018
  148.701    0.248    0.357  109.379   12.541
  149.001    0.233    0.371  126.885   12.082
  149.301    0.248    0.393  136.268   11.861
  149.601    0.279    0.387  132.525   12.098
  149.901    0.284    0.373  100.658   12.578
  150.201    0.274    0.362  105.664   13.585
  150.501    0.269    0.371  101.296   14.675
  150.801    0.294    0.361   88.803   16.467
  151.101    0.324    0.370   79.435   18.129
  151.401    0.329    0.389   83.191   20.735
  151.701    0.307    0.381   84.449   21.556
  152.001    0.285    0.401   77.580   22.413
  152.301    0.335    0.401   58.213   23.302
  152.601    0.355    0.378   59.471   25.171
  152.901    0.350    0.389   70.727   24.711
  153.201    0.325    0.378   91.984   23.356
  153.501    0.326    0.366  103.240   22.495
  153.801    0.341    0.366   93.248   21.262
  154.101    0.337    0.362   69.504   20.482
  154.401    0.330    0.351   73.887   20.108
  154.701    0.307    0.363   85.144   19.002
  155.001    0.313    0.361   80.150   19.384
  155.301    0.323    0.373   68.908   21.340
  155.601    0.322    0.374   61.414   23.945
  155.901    0.335    0.381   53.297   27.915
  156.201    0.332    0.398   51.429   33.171
  156.501    0.322    0.405   53.937   37.221
  156.801    0.323    0.390   55.818   40.206
  157.101    0.337    0.399   60.825   39.473
  157.401    0.348    0.384   56.457   35.911
  157.701    0.339    0.407   49.589   32.670
  158.001    0.328    0.387   53.971   30.288
  158.301    0.311    0.372   60.227   28.085
  158.601    0.312    0.379   56.484   27.573
  158.901    0.324    0.374   63.367   27.593
  159.201    0.333    0.353   65.874   25.587
  159.501    0.346    0.367   55.880   23.276
  159.801    0.334    0.387   65.887   20.772
  160.101    0.312    0.404   71.520   17.508
  160.401    0.322    0.372   75.276   15.041
  160.701    0.301    0.360   84.034   13.170
  161.001    0.256    0.349   90.915   11.754
  161.301    0.235    0.354   92.172   11.107
  161.601    0.235    0.352   90.931   10.498
  161.901    0.248    0.347   85.936   10.114
  162.201    0.236    0.347   85.944   10.121
  162.501    0.260    0.354   82.200   10.322
  162.801    0.263    0.350   81.583   10.733
  163.101    0.185    0.328   87.214   10.742
  163.401    0.217    0.350   95.346   10.748
  163.701    0.284    0.375   92.854   10.355
  164.001    0.274    0.381   99.735   10.166
  164.301    0.271    0.360   95.993    9.983
  164.601    0.276    0.358   89.749    9.988
  164.901    0.288    0.355   84.131   10.189
  165.201    0.287    0.349   81.013   10.799
  165.501    0.288    0.356   83.520   11.012
  165.801    0.293    0.368   81.652   11.672
  166.101    0.298    0.371   84.784   11.903
  166.401    0.300    0.390   79.791   12.143
  166.701    0.294    0.375   77.297   11.922
  167.001    0.283    0.375   84.805   11.931
  167.301    0.282    0.364   82.312   11.713
  167.601    0.292    0.361   83.569   11.724
  167.901    0.292    0.356   87.951   11.294
  168.201    0.299    0.350   79.832   11.301
  168.501    0.307    0.354   67.965   11.749
  168.801    0.304    0.349   67.972   11.984
  169.101    0.300    0.340   62.979   11.993
  169.401    0.299    0.336   67.361   11.553
  169.701    0.294    0.325   79.242   10.918
  170.001    0.265    0.315   91.750   10.720
  170.301    0.255    0.252   86.132   11.360
  170.601    0.219    0.207   42.388   14.569
  170.901    0.048    0.116   20.520   22.184
  171.201    0.043    0.110   24.278   49.479
  171.501    0.052    0.123   46.785   46.761
  171.801    0.049    0.173   66.167   40.950
  172.101    0.051    0.189   61.799   40.207
