~VERSION INFORMATION
 VERS.                 2.0:   CWLS LOG ASCII STANDARD -VERSION 2.0
 WRAP.                  NO:   ONE LINE PER DEPTH STEP
~WELL INFORMATION BLOCK
#MNEM.UNIT           DATA                    DESCRIPTION OF MNEMONIC
#---------    -------------------            -------------------------------
# Generated from Intellog Unique Number	CW_82_90/WELL/1029
WELL.         11-20-082-20W4                 : Well_name    - WELL
LOC .         AA/11-20-082-20W4/0            : Location     - LOCATION
UWI .         AA/11-20-082-20W4/0            : Uwi          - UNIQUE WELL ID
ENTR.         JAYE                           : Entered      - ENTERED BY
SRVC.         SCHLUMBERGER                   : Scn          - SERVICE COMPANY
DATE.         2 FEB 76                       : Date         - LOG DATE
STRT.M        182.88                         : top_depth    - START DEPTH
STOP.M        387.13                         : bot_depth    - STOP DEPTH
STEP.M        0.25                           : increment    - STEP LENGTH
 NULL. -999.2500:NULL Value
~CURVE INFORMATION BLOCK
#MNEM UNIT       ERCB CURVE CODE    CURVE DESCRIPTION
#-----------   ------------------   ----------------------------------
DEPT.M        00 001 00 00         : DEPTH        - DEPTH
CALI.MM       00 280 01 00         : CAL          - CALIPER
GR  .API      00 310 00 00         : GR           - GAMMA RAY
NPHI.V/V      00 330 00 00         : PHIN         - NEUTRON POROSITY (SANDSTONE)
DPHI.V/V      00 890 00 00         : PHID         - DENSITY POROSITY (SANDSTONE)
ILD .OHMM     00 120 00 00         : RESD         - DEEP RESISTIVITY (DLL)
~PARAMETER INFORMATION
#MNEM.UNIT           DATA             DESCRIPTION OF MNEMONIC
#---------         -----------     ------------------------------
GL  .M        603.504              : gl           - GROUND LEVEL ELEVATION
EREF.M        606.857              : kb           - ELEVATION OF DEPTH REFERENCE
DATM.M        603.504              : datum        - DATUM ELEVATION
TDD .M        396.24               : tdd          - TOTAL DEPTH DRILLER
BASE.         EDMONTON             : Branch       - HOME BASE OF LOGGING UNIT
MATR.         SANDSTONE            : Logunit      - NEUTRON MATRIX
TMAX.C        20                   : BHT          - MAXIMUM RECORDED TEMPERATURE
BHTD.M        396.24               : BHTDEP       - MAXIMUM RECORDED TEMPERATURE
RMT .C        14.4444              : MDTP         - TEMPERATURE OF MUD
MUDD.KG/M     0                    : MWT          - MUD DENSITY
NEUT.         0                    : NEUTRON      - NEUTRON TYPE
RESI.         1                    : RESIST       - RESISTIVITY TYPE
RM  .OHMM     2.78                 : RM           - RESISTIVITY OF MUD
RMC .OHMM     3.2                  : RMC          - RESISTIVITY OF MUD CAKE
RMF .OHMM     2.13                 : RMF          - RESISTIVITY OF MUD FILTRATE
SUFT.C        4                    : SUFT         - SURFACE TEMPERATURE
~A  DEPTH      CAL       GR     PHIN     PHID     RESD
# ...
  328.880  144.689   88.937    0.468    0.237    8.584
  329.130  147.148   90.068    0.483    0.235    8.518
  329.380  149.495   90.878    0.492    0.217    8.405
  329.630  152.400   91.094    0.495    0.211    8.410
  329.880  153.212   88.633    0.494    0.234    8.448
  330.130  151.932   85.133    0.492    0.259    8.954
  330.380  147.022   84.960    0.481    0.238   10.257
  330.630  143.325   87.593    0.465    0.217   11.773
  330.880  143.142   89.640    0.423    0.199   13.485
  331.130  143.632   88.946    0.396    0.159   14.154
  331.380  143.779   86.226    0.451    0.146   14.418
  331.630  144.260   76.719    0.477    0.155   14.425
  331.880  144.854   74.065    0.497    0.243   14.403
  332.130  145.228   73.306    0.482    0.228   14.670
  332.380  145.260   72.483    0.461    0.214   15.244
  332.630  145.192   71.328    0.438    0.192   16.515
  332.880  145.679   68.154    0.413    0.179   17.682
  333.130  146.044   63.475    0.352    0.166   17.942
  333.380  146.313   61.934    0.352    0.159   17.844
  333.630  146.136   64.699    0.366    0.194   16.886
  333.880  145.854   68.439    0.382    0.208   15.788
  334.130  145.880   68.206    0.405    0.212   14.559
  334.380  145.377   69.659    0.423    0.212   14.538
  334.630  145.303   70.270    0.433    0.238   15.440
  334.880  145.453   65.727    0.441    0.250   17.304
  335.130  145.390   59.351    0.409    0.195   19.354
  335.380  145.870   51.084    0.380    0.146   21.011
  335.630  147.780   51.565    0.252    0.052   20.201
  335.880  148.261   56.481    0.240    0.055   19.346
  336.130  148.089   66.164    0.263    0.078   14.739
  336.380  147.569   78.327    0.425    0.243   10.790
  336.630  146.843   86.640    0.457    0.242    9.931
  336.880  146.669   82.812    0.472    0.243    9.761
  337.130  146.704   80.749    0.482    0.249    9.745
  337.380  146.417   80.181    0.475    0.245    9.654
  337.630  146.136   80.273    0.466    0.237    9.641
  337.880  146.280   81.272    0.458    0.238    9.587
  338.130  146.110   83.388    0.465    0.231    9.669
  338.380  145.919   86.280    0.467    0.233    9.732
  338.630  145.854   90.086    0.471    0.238    9.995
  338.880  145.677   92.655    0.474    0.226   10.099
  339.130  145.829   93.593    0.467    0.223   10.390
  339.380  145.765   94.801    0.452    0.226   10.774
  339.630  145.472   95.204    0.441    0.224   11.105
  339.880  145.839   94.639    0.434    0.236   11.427
  340.130  146.209   95.254    0.431    0.238   11.640
  340.380  146.259   93.841    0.444    0.221   11.761
  340.630  146.409   92.096    0.458    0.225   11.981
  340.880  146.999   87.616    0.460    0.224   12.082
  341.130  147.149   81.242    0.447    0.208   12.042
  341.380  147.300   89.881    0.436    0.191   12.119
  341.630  147.335   96.105    0.433    0.187   12.249
  341.880  147.266   87.838    0.444    0.208   12.253
  342.130  146.989   90.603    0.466    0.228   12.285
  342.380  146.478   95.784    0.470    0.210   12.266
  342.630  145.967   98.483    0.457    0.196   12.322
  342.880  145.682  100.657    0.472    0.199   12.502
  343.130  145.609   97.547    0.484    0.210   12.534
  343.380  145.647   95.159    0.469    0.211   12.441
  343.630  145.907   91.400    0.455    0.202   12.349
  343.880  146.172   89.004    0.441    0.194   12.331
  344.130  146.650   86.869    0.430    0.201   12.313
  344.380  147.348   90.286    0.429    0.209   12.295
  344.630  148.057   90.637    0.451    0.221   12.252
  344.880  148.538   94.118    0.447    0.215   12.212
  345.130  149.238   96.228    0.444    0.209   12.145
  345.380  149.276  101.278    0.445    0.213   12.103
  345.630  148.983  100.519    0.453    0.200   12.086
  345.880  148.695   97.733    0.459    0.203   12.095
  346.130  147.968   98.800    0.457    0.208   12.098
  346.380  147.567  100.000    0.468    0.209   12.081
  346.630  147.390  100.282    0.463    0.197   12.014
  346.880  147.326  100.762    0.462    0.181   11.761
  347.130  147.368  101.832    0.470    0.176   11.560
  347.380  147.082  105.509    0.472    0.199   11.451
  347.630  146.682  102.984    0.461    0.197   11.451
  347.880  148.038  105.423    0.455    0.189   11.061
  348.130  149.624  108.846    0.467    0.186   10.697
  348.380  151.099  109.516    0.471    0.189    9.884
  348.630  151.128  109.410    0.462    0.196    8.899
  348.880  148.533  102.055    0.464    0.215    8.290
  349.130  146.374   95.487    0.471    0.217    8.528
  349.380  145.219   97.596    0.472    0.197    9.984
  349.630  145.465   93.376    0.430    0.180   12.261
  349.880  146.389   95.422    0.411    0.160   12.640
  350.130  147.418  102.105    0.421    0.166   12.726
  350.380  148.227  107.480    0.427    0.203   12.731
  350.630  150.473  111.287    0.419    0.205   12.560
  350.880  151.943  110.136    0.428    0.208   12.617
  351.130  150.554  105.067    0.440    0.225   12.650
  351.380  148.063   95.429    0.432    0.236   13.013
  351.630  145.464   89.122    0.420    0.238   13.603
  351.880  142.648   89.013    0.422    0.246   15.005
  352.130  141.922   85.969    0.433    0.244   16.516
  352.380  141.736   79.010    0.439    0.234   19.034
  352.630  141.560   71.525    0.414    0.240   20.173
  352.880  141.492   67.372    0.393    0.219   20.797
  353.130  141.313   67.788    0.372    0.211   20.806
  353.380  142.237   68.721    0.385    0.251   19.769
  353.630  143.376   70.963    0.394    0.253   18.414
  353.880  144.083   72.356    0.404    0.260   18.024
  354.130  144.563   73.099    0.405    0.256   17.925
  354.380  145.151   72.011    0.417    0.234   18.775
  354.630  145.738   68.183    0.408    0.210   21.125
  354.880  146.219   62.593    0.379    0.150   24.881
  355.130  146.702   60.591    0.338    0.097   27.335
  355.380  146.305   63.818    0.306    0.094   26.813
  355.630  145.026   65.535    0.287    0.131   25.832
  355.880  144.294   71.302    0.308    0.182   22.573
  356.130  144.894   73.541    0.423    0.221   18.585
  356.380  145.264   77.547    0.441    0.249   16.801
  356.630  145.188   79.073    0.433    0.238   15.744
  356.880  144.023   77.983    0.447    0.228   15.319
  357.130  143.949   80.226    0.451    0.236   14.963
  357.380  144.654   80.379    0.450    0.218   14.707
  357.630  145.143   79.422    0.441    0.205   14.656
  357.880  144.849   76.442    0.426    0.209   15.600
  358.130  145.667   72.549    0.409    0.207   16.369
  358.380  146.032   68.596    0.393    0.194   18.417
  358.630  146.305   66.264    0.382    0.184   20.515
  358.880  146.441   62.371    0.368    0.180   23.408
  359.130  146.812   58.868    0.352    0.130   25.562
  359.380  147.520   55.891    0.297    0.105   25.125
  359.630  148.226   59.110    0.261    0.095   24.350
  359.880  148.583   72.318    0.268    0.078   22.144
  360.130  148.192   77.627    0.367    0.157   18.596
  360.380  148.338   82.741    0.398    0.150   16.744
  360.630  148.708   85.186    0.412    0.191   15.751
  360.880  148.428   83.966    0.427    0.221   14.906
  361.130  148.686   82.162    0.428    0.224   14.021
  361.380  148.393   80.223    0.415    0.222   13.589
  361.630  147.778   76.852    0.413    0.207   13.516
  361.880  147.707   75.374    0.422    0.189   13.443
  362.130  147.197   76.245    0.423    0.175   13.504
  362.380  147.127   80.447    0.424    0.184   13.727
  362.630  148.380   78.512    0.424    0.173   13.957
  362.880  149.738   76.448    0.422    0.150   14.131
  363.130  151.102   76.335    0.420    0.121   14.137
  363.380  150.272   78.384    0.425    0.176   13.953
  363.630  150.743   80.362    0.424    0.179   13.849
  363.880  151.447   86.586    0.423    0.194   13.772
  364.130  151.925   91.833    0.426    0.191   13.508
  364.380  151.745   95.447    0.426    0.199   13.382
  364.630  151.789   97.100    0.428    0.206   13.229
  364.880  151.609   95.361    0.429    0.204   13.131
  365.130  151.868   92.249    0.426    0.203   12.828
