~VERSION INFORMATION
 VERS.                 2.0:   CWLS LOG ASCII STANDARD -VERSION 2.0
 WRAP.                  NO:   ONE LINE PER DEPTH STEP
~WELL INFORMATION BLOCK
#MNEM.UNIT           DATA                    DESCRIPTION OF MNEMONIC
#---------    -------------------            -------------------------------
# Generated from Intellog Unique Number	CW_79_81/WELL/2481
WELL.         GAD JOLI FOU OV                : Well_name    - WELL
LOC .         AA/11-08-081-19W4/0            : Location     - LOCATION
UWI .         AA/11-08-081-19W400            : Uwi          - UNIQUE WELL ID
ENTR.         MAX                            : Entered      - ENTERED BY
SRVC.         SCHLUMBERGER                   : Scn          - SERVICE COMPANY
STRT.M        175                            : top_depth    - START DEPTH
STOP.M        370                            : bot_depth    - STOP DEPTH
STEP.M        0.25                           : increment    - STEP LENGTH
 NULL. -999.2500:NULL Value
~CURVE INFORMATION BLOCK
#MNEM UNIT       ERCB CURVE CODE    CURVE DESCRIPTION
#-----------   ------------------   ----------------------------------
DEPT.M        00 001 00 00         : DEPTH        - DEPTH
ILD .OHMM     00 120 00 00         : RESD         - DEEP RESISTIVITY (DIL)
NPHI.V/V      00 330 00 00         : PHIN         - NEUTRON POROSITY (SANDSTONE)
DPHI.V/V      00 890 00 00         : PHID         - DENSITY POROSITY (SANDSTONE)
GR  .API      00 310 00 00         : GR           - GAMMA RAY
CALI.MM       00 280 01 00         : CAL          - CALIPER
~PARAMETER INFORMATION
#MNEM.UNIT           DATA             DESCRIPTION OF MNEMONIC
#---------         -----------     ------------------------------
GL  .M        580.5                : gl           - GROUND LEVEL ELEVATION
EREF.M        584                  : kb           - ELEVATION OF DEPTH REFERENCE
DATM.M        580.5                : datum        - DATUM ELEVATION
TDD .M        374                  : tdd          - TOTAL DEPTH DRILLER
RUN .         ONE                  : Run          - RUN NUMBER
ENG .         BILL                 : Engineer     - RECORDING ENGINEER
WIT .         JIM                  : Witness      - WITNESSED BY
MUD .         GEL                  : Mud_type     - MUD TYPE
MATR.         SANDSTONE            : Logunit      - NEUTRON MATRIX
TMAX.C        25.5                 : BHT          - MAXIMUM RECORDED TEMPERATURE
BHTD.M        374                  : BHTDEP       - MAXIMUM RECORDED TEMPERATURE
MATR.         1                    : LOGUNIT      - NEUTRON MATRIX
RMT .C        18.8                 : MDTP         - TEMPERATURE OF MUD
NEUT.         1                    : NEUTRON      - NEUTRON TYPE
RESI.         0                    : RESIST       - RESISTIVITY TYPE
RMC .OHMM     3.74                 : RMC          - RESISTIVITY OF MUD CAKE
RMF .OHMM     3.212                : RMF          - RESISTIVITY OF MUD FILTRATE
SUFT.C        -20                  : SUFT         - SURFACE TEMPERATURE
~A  DEPTH     RESD     PHIN     PHID       GR      CAL
# ...
  211.500   10.260    0.418    0.251   65.337  257.617
  211.750   10.299    0.395    0.246   67.497  250.807
  212.000   10.435    0.376    0.238   70.137  246.399
  212.250   10.448    0.383    0.236   72.557  246.179
  212.500   10.133    0.408    0.236   75.057  249.095
  212.750    9.911    0.419    0.231   77.217  251.894
  213.000    9.586    0.418    0.220   80.278  256.195
  213.250    9.097    0.415    0.210   83.879  259.795
  213.500    8.359    0.420    0.203   87.361  261.693
  213.750    7.118    0.453    0.196   90.211  262.173
  214.000    6.208    0.478    0.191   92.461  262.586
  214.250    4.867    0.481    0.179   93.659  263.384
  214.500    4.140    0.488    0.183   94.679  264.481
  214.750    3.873    0.479    0.203   96.118  266.480
  215.000    3.909    0.456    0.226   97.858  269.479
  215.250    4.101    0.451    0.221   98.156  273.079
  215.500    4.330    0.458    0.198   93.650  273.075
  215.750    4.299    0.488    0.153   92.206  271.470
  216.000    4.173    0.522    0.177   93.825  270.166
  216.250    3.929    0.542    0.210   96.105  270.162
  216.500    3.579    0.541    0.232   97.485  271.060
  216.750    3.133    0.510    0.258   96.492  270.972
  217.000    2.992    0.485    0.254   92.736  270.552
  217.250    3.174    0.449    0.246   90.812  268.146
  217.500    3.940    0.424    0.236   89.429  266.041
  217.750    5.122    0.409    0.228   88.226  265.037
  218.000    6.290    0.402    0.224   87.143  265.634
  218.250    7.277    0.407    0.231   86.220  268.283
  218.500    7.991    0.424    0.260   85.217  269.530
  218.750    8.051    0.469    0.279   84.975  267.125
  219.000    7.755    0.483    0.257   87.975  262.317
  219.250    7.279    0.476    0.236   91.336  258.911
  219.500    6.763    0.459    0.239   92.475  257.806
  219.750    6.370    0.452    0.277   86.308  256.418
  220.000    6.832    0.452    0.307   72.293  253.495
  220.250    8.656    0.454    0.314   69.888  253.092
  220.500    9.848    0.451    0.291   68.025  253.589
  220.750   10.119    0.445    0.265   66.221  254.586
  221.000    9.692    0.439    0.249   65.078  255.584
  221.250    8.741    0.446    0.241   66.878  255.897
  221.500    7.856    0.460    0.244   69.878  255.476
  221.750    6.655    0.469    0.264   71.797  255.473
  222.000    5.278    0.482    0.273   72.276  255.769
  222.250    4.368    0.485    0.278   71.794  256.367
  222.500    3.961    0.472    0.282   70.531  257.265
  222.750    4.290    0.445    0.302   67.065  258.545
  223.000    5.480    0.436    0.324   60.557  258.959
  223.250    9.029    0.425    0.343   51.907  258.955
  223.500   15.031    0.423    0.351   52.266  259.252
  223.750   23.498    0.431    0.354   55.146  260.050
  224.000   31.755    0.443    0.356   56.706  261.448
  224.250   39.530    0.441    0.352   55.142  263.779
  224.500   44.444    0.435    0.347   52.137  265.444
  224.750   48.885    0.433    0.348   51.895  268.643
  225.000   52.951    0.430    0.357   53.815  270.041
  225.250   55.824    0.437    0.363   54.293  270.638
  225.500   56.774    0.451    0.363   52.489  271.436
  225.750   55.192    0.453    0.370   50.225  273.350
  226.000   53.527    0.450    0.367   49.723  272.930
  226.250   51.579    0.462    0.330   49.240  268.923
  226.500   48.587    0.480    0.309   48.758  264.916
  226.750   45.635    0.497    0.306   48.756  261.310
  227.000   41.337    0.509    0.316   49.655  258.604
  227.250   32.490    0.511    0.325   52.314  257.315
  227.500   26.505    0.498    0.317   54.815  256.894
  227.750   22.974    0.484    0.321   55.774  258.092
  228.000   20.053    0.474    0.331   54.390  258.389
  228.250   17.551    0.465    0.338   54.268  258.786
  228.500   15.665    0.459    0.337   55.287  259.384
  228.750   14.597    0.469    0.333   53.102  258.879
  229.000   14.265    0.489    0.332   50.599  256.373
  229.250   15.352    0.484    0.329   51.557  254.768
  229.500   17.598    0.485    0.335   53.056  253.464
  229.750   21.053    0.480    0.347   54.256  252.861
  230.000   25.627    0.469    0.362   54.734  252.857
  230.250   30.730    0.463    0.370   54.642  252.853
  230.500   31.947    0.465    0.368   55.390  252.850
  230.750   31.951    0.451    0.364   55.148  252.446
  231.000   31.424    0.435    0.363   53.825  252.343
  231.250   30.390    0.440    0.362   53.342  252.339
  231.500   28.963    0.467    0.361   54.362  252.435
  231.750   26.833    0.487    0.350   55.630  252.832
  232.000   24.671    0.480    0.313   52.375  252.828
  232.250   22.897    0.488    0.304   51.893  253.225
  232.500   21.626    0.497    0.317   53.572  253.923
  232.750   20.773    0.498    0.334   54.892  254.520
  233.000   20.093    0.487    0.341   54.109  255.017
  233.250   19.137    0.462    0.335   49.913  255.981
  233.500   18.702    0.456    0.327   48.159  256.812
  233.750   18.022    0.464    0.332   49.118  257.609
  234.000   17.466    0.465    0.337   51.518  258.106
  234.250   16.700    0.453    0.331   54.038  258.303
  234.500   15.362    0.437    0.316   56.379  257.799
  234.750   12.515    0.464    0.329   57.157  256.043
  235.000    9.700    0.575    0.460   46.645  257.291
  235.250    9.487    0.596    0.573   35.834  258.889
  235.500   10.340    0.601    0.585   32.769  260.187
  235.750   11.964    0.563    0.516   33.727  260.785
  236.000   13.892    0.498    0.403   36.068  260.681
  236.250   14.995    0.456    0.303   38.728  259.859
  236.500   15.710    0.442    0.303   41.228  257.770
  236.750   16.183    0.444    0.307   40.745  257.367
  237.000   16.671    0.445    0.311   40.263  257.864
  237.250   17.237    0.454    0.317   40.141  259.062
  237.500   17.891    0.466    0.323   40.619  260.461
  237.750   18.657    0.458    0.328   41.868  261.257
  238.000   19.098    0.451    0.328   42.116  261.253
  238.250   19.527    0.455    0.327   43.075  260.449
  238.500   19.968    0.439    0.328   41.151  259.946
  238.750   20.345    0.422    0.332   38.027  259.742
  239.000   20.613    0.415    0.336   35.502  259.739
  239.250   20.834    0.428    0.334   35.800  259.734
  239.500   21.161    0.448    0.329   37.299  259.731
  239.750   21.321    0.441    0.329   37.537  260.128
  240.000   21.602    0.429    0.333   36.875  260.225
  240.250   21.846    0.414    0.336   37.593  260.022
  240.500   22.011    0.406    0.336   39.634  259.518
  240.750   22.178    0.419    0.338   40.592  258.547
  241.000   22.182    0.439    0.341   40.590  257.709
  241.250   21.535    0.454    0.337   41.069  257.306
  241.500   21.380    0.468    0.337   40.106  256.902
  241.750   21.462    0.471    0.335   39.023  256.698
  242.000   21.585    0.464    0.333   38.600  256.694
  242.250   21.687    0.454    0.343   38.978  256.690
  242.500   22.199    0.444    0.351   38.475  256.687
  242.750   22.533    0.438    0.347   37.993  256.684
  243.000   22.620    0.444    0.341   38.772  256.380
  243.250   22.370    0.467    0.342   39.370  255.777
  243.500   21.280    0.493    0.356   39.068  255.173
  243.750   18.055    0.489    0.384   38.165  255.169
  244.000   15.059    0.480    0.382   39.664  255.165
  244.250   15.172    0.480    0.373   42.785  254.361
  244.500   15.542    0.468    0.367   46.627  254.158
  244.750   15.779    0.470    0.349   46.865  254.554
  245.000   15.722    0.486    0.325   43.740  255.452
  245.250   15.469    0.495    0.327   42.556  256.649
  245.500   15.352    0.503    0.362   45.057  256.646
  245.750   15.698    0.490    0.370   46.496  256.643
  246.000   16.318    0.479    0.371   45.954  257.240
  246.250   17.000    0.466    0.369   45.111  256.836
  246.500   17.582    0.450    0.367   44.989  255.432
  246.750   18.009    0.439    0.366   45.847  254.627
  247.000   18.151    0.440    0.364   45.344  254.624
  247.250   18.154    0.458    0.363   41.980  258.624
  247.500   18.156    0.469    0.361   40.236  261.122
  247.750   18.158    0.477    0.359   40.234  261.719
