~VERSION INFORMATION
 VERS.                 2.0:   CWLS LOG ASCII STANDARD -VERSION 2.0
 WRAP.                  NO:   ONE LINE PER DEPTH STEP
~WELL INFORMATION BLOCK
#MNEM.UNIT           DATA                    DESCRIPTION OF MNEMONIC
#---------    -------------------            -------------------------------
# Generated from Intellog Unique Number	CS_77_79/WELL/943
WELL.         PEX PCEJ THORNBURY OV          : Well_name    - WELL
LOC .         AA/10-10-079-14W4/0            : Location     - LOCATION
UWI .         AA/10-10-079-14W4/0            : Uwi          - UNIQUE WELL ID
ENTR.         JHS                            : Entered      - ENTERED BY
SRVC.         SCHLUMBERGER                   : Scn          - SERVICE COMPANY
STRT.M        265                            : top_depth    - START DEPTH
STOP.M        505                            : bot_depth    - STOP DEPTH
STEP.M        0.25                           : increment    - STEP LENGTH
 NULL. -999.2500:NULL Value
~CURVE INFORMATION BLOCK
#MNEM UNIT       ERCB CURVE CODE    CURVE DESCRIPTION
#-----------   ------------------   ----------------------------------
DEPT.M        00 001 00 00         : DEPTH        - DEPTH
DPHI.V/V      00 890 00 00         : PHID         - DENSITY POROSITY (LIMESTONE)
NPHI.V/V      00 330 00 00         : PHIN         - NEUTRON POROSITY (LIMESTONE)
GR  .API      00 310 00 00         : GR           - GAMMA RAY
ILD .OHMM     00 120 00 00         : RESD         - DEEP RESISTIVITY (DIL)
~PARAMETER INFORMATION
#MNEM.UNIT           DATA             DESCRIPTION OF MNEMONIC
#---------         -----------     ------------------------------
GL  .M        690.52               : gl           - GROUND LEVEL ELEVATION
EREF.M        693.42               : kb           - ELEVATION OF DEPTH REFERENCE
DATM.M        693.42               : datum        - DATUM ELEVATION
TDD .M        504.5                : tdd          - TOTAL DEPTH DRILLER
RUN .         ONE                  : Run          - RUN NUMBER
ENG .         BILL                 : Engineer     - RECORDING ENGINEER
WIT .         JIM                  : Witness      - WITNESSED BY
MUD .         GEL                  : Mud_type     - MUD TYPE
MATR.         LIMESTONE            : Logunit      - NEUTRON MATRIX
TMAX.C        19                   : BHT          - MAXIMUM RECORDED TEMPERATURE
BHTD.M        504.5                : BHTDEP       - MAXIMUM RECORDED TEMPERATURE
MATR.         1                    : LOGUNIT      - NEUTRON MATRIX
RMT .C        25                   : MDTP         - TEMPERATURE OF MUD
NEUT.         1                    : NEUTRON      - NEUTRON TYPE
RESI.         0                    : RESIST       - RESISTIVITY TYPE
RMC .OHMM     0.25                 : RMC          - RESISTIVITY OF MUD CAKE
RMF .OHMM     0.25                 : RMF          - RESISTIVITY OF MUD FILTRATE
SUFT.C        15                   : SUFT         - SURFACE TEMPERATURE
~A  DEPTH     PHID     PHIN       GR     RESD
# ...
  352.000    0.258    0.301   41.695   21.320
  352.250    0.201    0.200   32.921   23.462
  352.500    0.064    0.199   39.209   23.944
  352.750    0.196    0.370   49.264   22.235
  353.000    0.309    0.403   46.762   20.261
  353.250    0.317    0.431   52.422   16.485
  353.500    0.307    0.429   46.788   15.025
  353.750    0.318    0.419   47.426   14.492
  354.000    0.309    0.405   44.927   14.246
  354.250    0.303    0.397   45.565   14.535
  354.500    0.313    0.397   51.228   14.547
  354.750    0.319    0.384   52.493   14.855
  355.000    0.313    0.386   51.249   14.873
  355.250    0.294    0.384   47.494   14.884
  355.500    0.284    0.383   49.392   14.904
  355.750    0.299    0.382   51.914   14.658
  356.000    0.314    0.378   48.785   14.671
  356.250    0.320    0.389   41.264   14.684
  356.500    0.321    0.376   43.163   14.987
  356.750    0.311    0.362   45.682   15.583
  357.000    0.309    0.348   43.182   16.510
  357.250    0.262    0.319   46.332   18.877
  357.500    0.185    0.268   43.833   20.375
  357.750    0.131    0.215   38.197   22.019
  358.000    0.082    0.248   40.092   22.030
  358.250    0.247    0.348   46.378   20.463
  358.500    0.309    0.431   48.902   18.639
  358.750    0.299    0.446   45.775   16.360
  359.000    0.326    0.448   48.299   15.478
  359.250    0.310    0.433   51.447   14.928
  359.500    0.299    0.418   52.090   14.393
  359.750    0.300    0.407   54.608   14.142
  360.000    0.308    0.402   50.854   14.166
  360.250    0.301    0.400   48.356   14.451
  360.500    0.303    0.421   54.643   14.481
  360.750    0.294    0.433   53.399   14.770
  361.000    0.284    0.436   55.921   14.797
  361.250    0.274    0.435   55.932   14.809
  361.500    0.302    0.442   52.179   14.834
  361.750    0.313    0.429   50.307   14.858
  362.000    0.313    0.419   51.574   14.874
  362.250    0.303    0.416   55.352   14.887
  362.500    0.293    0.450   54.109   14.915
  362.750    0.295    0.432   50.354   14.652
  363.000    0.296    0.423   45.972   14.399
  363.250    0.301    0.446   54.142   14.151
  363.500    0.311    0.435   59.175   14.174
  363.750    0.323    0.428   57.933   13.928
  364.000    0.293    0.422   49.156   13.942
  364.250    0.288    0.412   51.050   13.961
  364.500    0.287    0.397   58.594   14.246
  364.750    0.289    0.389   60.487   14.817
  365.000    0.300    0.436   56.734   15.121
  365.250    0.307    0.436   49.213   15.140
  365.500    0.304    0.426   50.483   14.875
  365.750    0.294    0.423   56.768   14.618
  366.000    0.289    0.447   62.429   14.639
  366.250    0.274    0.439   60.558   14.385
  366.500    0.279    0.450   56.179   14.134
  366.750    0.277    0.439   54.304   14.154
  367.000    0.282    0.430   58.714   13.909
  367.250    0.289    0.419   58.722   13.160
  367.500    0.294    0.443   58.736   12.453
  367.750    0.314    0.436   60.000   11.780
  368.000    0.326    0.424   53.107   10.340
  368.250    0.326    0.421   56.885    9.420
  368.500    0.290    0.441   65.055    8.424
  368.750    0.277    0.441   70.088    8.276
  369.000    0.288    0.422   64.450    9.282
  369.250    0.293    0.411   46.891   11.227
  369.500    0.288    0.405   44.390   13.323
  369.750    0.296    0.402   47.541   15.222
  370.000    0.302    0.405   49.434   16.138
  370.250    0.302    0.399   47.564   16.153
  370.500    0.307    0.416   45.063   15.572
  370.750    0.315    0.408   39.427   15.024
  371.000    0.321    0.413   45.088   14.757
  371.250    0.312    0.418   45.728   14.784
  371.500    0.296    0.419   49.505   14.798
  371.750    0.291    0.422   48.264   14.824
  372.000    0.308    0.419   50.783   14.839
  372.250    0.316    0.408   53.934   14.866
  372.500    0.303    0.412   52.062   14.877
  372.750    0.288    0.400   54.583   14.625
  373.000    0.291    0.404   52.085   14.649
  373.250    0.307    0.406   53.978   14.386
  373.500    0.287    0.392   51.481   14.138
  373.750    0.277    0.392   53.374   13.897
  374.000    0.276    0.415   57.152   13.909
  374.250    0.275    0.419   51.518   14.200
  374.500    0.291    0.413   50.901   14.490
  374.750    0.304    0.412   49.031   14.518
  375.000    0.319    0.407   46.529   14.530
  375.250    0.305    0.419   48.424   14.543
  375.500    0.288    0.407   54.085   13.769
  375.750    0.282    0.408   56.606   12.786
  376.000    0.279    0.404   55.361   11.874
  376.250    0.287    0.398   58.514   11.660
  376.500    0.265    0.408   62.289   10.831
  376.750    0.232    0.397   66.693   10.054
  377.000    0.232    0.397   69.845    8.182
  377.250    0.262    0.422   74.248    6.290
  377.500    0.277    0.418   78.654    4.929
  377.750    0.237    0.425   87.453    4.011
  378.000    0.219    0.467   98.132    3.519
  378.250    0.219    0.488  105.675    3.031
  378.500    0.226    0.505  104.434    2.924
  378.750    0.221    0.507   98.168    2.872
  379.000    0.224    0.526   92.529    2.823
  379.250    0.238    0.526   99.445    2.827
  379.500    0.239    0.515  100.712    2.884
  379.750    0.235    0.535  102.607    2.998
  380.000    0.244    0.527  103.247    3.428
  380.250    0.265    0.523  105.139    3.700
  380.500    0.263    0.511  100.130    4.392
  380.750    0.247    0.483  101.398    5.112
  381.000    0.238    0.459  100.153    6.795
  381.250    0.236    0.443   88.868    8.372
  381.500    0.250    0.454   86.371    9.936
  381.750    0.240    0.438   85.125   10.532
  382.000    0.242    0.431   87.021   10.543
  382.250    0.229    0.427   85.777    9.793
  382.500    0.210    0.426   86.418    9.095
  382.750    0.214    0.440   87.684    8.768
  383.000    0.232    0.466   85.184    8.615
  383.250    0.221    0.442   81.431    8.631
  383.500    0.218    0.430   83.951    8.476
  383.750    0.225    0.448   89.612    8.177
  384.000    0.208    0.444   95.274    8.031
  384.250    0.217    0.457   97.166    7.458
  384.500    0.222    0.440   99.690    6.800
  384.750    0.225    0.441  101.583    6.431
  385.000    0.235    0.464   97.830    6.085
  385.250    0.241    0.449   90.310    5.763
  385.500    0.267    0.457   90.948    5.766
  385.750    0.283    0.447   93.470    6.113
  386.000    0.282    0.450   92.227    6.476
  386.250    0.265    0.435   91.611    6.862
  386.500    0.234    0.421   90.996    7.001
  386.750    0.229    0.413   86.615    7.560
  387.000    0.255    0.432   86.624    7.863
  387.250    0.240    0.413   80.987    8.024
  387.500    0.220    0.416   84.766    8.033
  387.750    0.220    0.424   72.852    8.357
  388.000    0.226    0.427   79.139    8.368
  388.250    0.258    0.440   77.896    7.770
  388.500    0.256    0.452   78.536    7.080
  388.750    0.270    0.456   71.016    6.452
  389.000    0.275    0.464   80.442    5.989
  389.250    0.282    0.442   78.570    5.459
  389.500    0.263    0.457   86.115    4.974
  389.750    0.256    0.478   91.773    4.617
  390.000    0.254    0.464   98.689    3.902
  390.250    0.255    0.488  100.587    3.115
  390.500    0.276    0.512   98.714    2.535
  390.750    0.262    0.539   96.841    2.224
  391.000    0.248    0.555   99.992    2.027
  391.250    0.249    0.562  102.514    1.813
  391.500    0.227    0.549  106.916    1.748
  391.750    0.222    0.526  105.046    1.853
  392.000    0.227    0.540  100.665    2.039
  392.250    0.252    0.533   99.422    2.285
  392.500    0.260    0.516   95.666    2.764
  392.750    0.258    0.497  100.074    3.099
  393.000    0.260    0.497   98.200    3.411
  393.250    0.264    0.518  103.861    3.549
  393.500    0.246    0.527  106.384    3.554
  393.750    0.248    0.507  103.256    3.556
  394.000    0.237    0.482  107.035    3.561
  394.250    0.254    0.464  103.911    3.920
  394.500    0.259    0.476   99.526    4.565
  394.750    0.259    0.462   88.868    5.022
  395.000    0.267    0.459   88.881    5.635
  395.250    0.270    0.459   88.262    5.857
