~VERSION INFORMATION
 VERS.                 2.0:   CWLS LOG ASCII STANDARD -VERSION 2.0
 WRAP.                  NO:   ONE LINE PER DEPTH STEP
~WELL INFORMATION BLOCK
#MNEM.UNIT           DATA                    DESCRIPTION OF MNEMONIC
#---------    -------------------            -------------------------------
# Generated from Intellog Unique Number	CC_80_83/WELL/2427
NULL.         -999.25                        : NULL_VALUE
WELL.         ARCO ACI McMURRAY              : Well_name    - WELL              
LOC .         12-08-083-12W4                 : Location     - LOCATION          
UWI .         AA/12-08-083-12W400            : Uwi          - UNIQUE WELL ID    
ENTR.         DW                             : Entered      - ENTERED BY        
SRVC.         SCHLUMBERGER                   : Scn          - SERVICE COMPANY   
DATE.         06 MAR 74                      : Date         - LOG DATE
STRT.M        121.92                         : top_depth    - START DEPTH       
STOP.M        384.05                         : bot_depth    - STOP DEPTH        
STEP.M        0.305                          : increment    - STEP LENGTH       
~CURVE INFORMATION BLOCK
#MNEM UNIT       ERCB CURVE CODE    CURVE DESCRIPTION
#-----------   ------------------   ----------------------------------
DEPT.M        00 001 00 00         : DEPTH        - DEPTH                       
DPHI.V/V      00 890 00 00         : PHID         - DENSITY POROSITY (LIMESTONE)
GR  .API      00 310 00 00         : GR           - GAMMA RAY                   
NPHI.V/V      00 330 00 00         : PHIN         - NEUTRON POROSITY (LIMESTONE)
ILD .OHMM     00 120 00 00         : RESD         - DEEP RESISTIVITY (DIL)      
~PARAMETER INFORMATION       
#MNEM.UNIT           DATA             DESCRIPTION OF MNEMONIC
#---------         -----------     ------------------------------
GL  .M        611.734              : gl           - GROUND LEVEL ELEVATION      
EREF.M        613.41               : kb           - ELEVATION OF DEPTH REFERENCE
DATM.M        613.41               : datum        - DATUM ELEVATION             
TDD .M        384.658              : tdd          - TOTAL DEPTH DRILLER         
RUN .         ONE                  : Run          - RUN NUMBER                  
ENG .         BILL                 : Engineer     - RECORDING ENGINEER          
WIT .         JIM                  : Witness      - WITNESSED BY                
MUD .         GEL                  : Mud_type     - MUD TYPE                    
MATR.         LIMESTONE            : Logunit      - NEUTRON MATRIX              
TMAX.C        21.1111              : BHT          - MAXIMUM RECORDED TEMPERATURE
BHTD.M        384.658              : BHTDEP       - MAXIMUM RECORDED TEMPERATURE
MATR.         1                    : LOGUNIT      - NEUTRON MATRIX              
RMT .C        25                   : MDTP         - TEMPERATURE OF MUD          
NEUT.         0                    : NEUTRON      - NEUTRON TYPE                
RESI.         0                    : RESIST       - RESISTIVITY TYPE            
RMC .OHMM     0.25                 : RMC          - RESISTIVITY OF MUD CAKE     
RMF .OHMM     0.25                 : RMF          - RESISTIVITY OF MUD FILTRATE 
SUFT.C        4                    : SUFT         - SURFACE TEMPERATURE         
~A  DEPTH     PHID       GR     PHIN     RESD
  121.920    0.302   95.140    0.377    3.282
  122.225    0.309   91.894    0.385    3.283
  122.530    0.290   99.580    0.397    3.345
  122.834    0.283   93.501    0.411    3.345
  123.139    0.295   94.303    0.393    3.408
  123.444    0.307  100.773    0.416    3.409
  123.749    0.311   95.098    0.414    3.409
  124.054    0.348   94.283    0.431    3.346
  124.358    0.315   89.013    0.426    3.285
  124.663    0.310   91.031    0.426    3.286
  124.968    0.325   99.120    0.436    3.286
  125.273    0.316   98.710    0.430    3.287
  125.578    0.281   93.845    0.436    3.349
  125.882    0.305   89.789    0.428    3.412
  126.187    0.291   77.637    0.446    3.541
  126.492    0.185   69.129    0.452    3.676
  126.797    0.264   90.984    0.384    3.609
  127.102    0.303   93.405    0.419    3.289
  127.406    0.297   77.610    0.406    3.111
  127.711    0.308   58.980    0.342    3.170
  128.016    0.256   60.187    0.302    3.962
  128.321    0.243   84.068    0.278    6.421
  128.626    0.219   84.466    0.266    8.644
  128.930    0.231   74.337    0.255    9.664
  129.235    0.265   64.615    0.263    9.846
  129.540    0.287   50.438    0.275    9.666
  129.845    0.261   49.620    0.280    9.489
  130.150    0.244   52.044    0.274    9.145
  130.454    0.275   55.680    0.297    9.146
  130.759    0.310   56.888    0.306   10.037
  131.064    0.323   47.165    0.306   11.221
  131.369    0.327   32.989    0.285   13.264
  131.674    0.329   31.360    0.267   15.391
  131.978    0.319   33.379    0.288   17.858
  132.283    0.280   38.637    0.304   18.535
  132.588    0.228   63.731    0.287   15.113
  132.893    0.273   68.579    0.331    8.986
  133.198    0.304   67.766    0.370    6.434
  133.502    0.296   77.475    0.397    5.054
  133.807    0.302   78.278    0.376    4.439
  134.112    0.320   81.104    0.391    4.122
  134.417    0.318   80.289    0.373    4.047
  134.722    0.297   81.900    0.381    3.972
  135.026    0.300   79.871    0.362    3.900
  135.331    0.285   73.791    0.350    3.900
  135.636    0.280   81.882    0.357    3.901
  135.941    0.285   80.660    0.376    3.901
  136.245    0.295   82.677    0.355    3.830
  136.550    0.268   85.505    0.372    3.831
  136.855    0.265   83.069    0.342    3.831
  137.160    0.276   83.466    0.381    3.831
  137.465    0.291   81.841    0.393    3.761
  137.769    0.271   83.859    0.340    3.693
  138.074    0.265   84.661    0.372    3.625
  138.379    0.294   80.607    0.376    3.626
  138.684    0.296   79.789    0.357    3.763
  138.989    0.304   82.616    0.374    3.834
  139.293    0.289   86.252    0.395    3.835
  139.598    0.310   86.652    0.405    3.765
  139.903    0.282   85.836    0.410    3.696
  140.208    0.298   88.258    0.406    3.562
  140.513    0.299   90.681    0.406    3.496
  140.817    0.286   85.411    0.414    3.307
  141.122    0.284   83.784    0.444    3.128
  141.427    0.305   82.968    0.443    3.071
  141.732    0.293   85.795    0.420    3.072
  142.037    0.286   86.597    0.411    3.072
  142.341    0.303   88.616    0.402    3.130
  142.646    0.300   88.609    0.401    3.189
  142.951    0.293   83.340    0.400    3.189
  143.256    0.300   91.429    0.392    3.131
  143.561    0.300   93.042    0.431    3.074
  143.865    0.288   92.225    0.388    3.074
  144.170    0.283   87.361    0.403    3.018
  144.475    0.270   85.330    0.374    2.963
  144.780    0.269   89.777    0.372    2.963
  145.085    0.277   86.126    0.400    2.964
  145.389    0.279   80.451    0.391    2.964
  145.694    0.298   76.801    0.418    2.964
  145.999    0.291   80.843    0.416    3.020
  146.304    0.299   79.621    0.392    3.021
  146.608    0.282   84.878    0.411    3.021
  146.913    0.288   84.062    0.391    3.078
  147.218    0.289   80.816    0.406    3.079
  147.523    0.296   79.999    0.414    3.255
  147.828    0.290   76.349    0.426    3.317
  148.132    0.303   78.771    0.395    3.443
  148.437    0.319   79.573    0.392    3.443
  148.742    0.306   77.947    0.395    3.444
  149.047    0.298   76.726    0.385    3.444
  149.352    0.289   76.316    0.402    3.444
  149.656    0.291   75.903    0.395    3.445
  149.961    0.280   74.276    0.403    3.445
  150.266    0.312   73.459    0.420    3.320
  150.571    0.294   75.479    0.425    3.083
  150.876    0.319   85.593    0.402    2.707
  151.180    0.331   82.752    0.421    2.609
  151.485    0.341   80.721    0.431    2.561
  151.790    0.348   80.715    0.426    2.561
  152.095    0.352   68.563    0.415    2.659
  152.400    0.350   59.649    0.386    3.323
  152.704    0.277   42.234    0.365    4.231
  153.009    0.198   50.729    0.257    4.310
  153.314    0.331   78.251    0.337    3.786
  153.619    0.338   84.723    0.426    3.263
  153.924    0.332   88.765    0.411    2.761
  154.228    0.319   85.520    0.419    2.612
  154.533    0.294   78.225    0.402    2.612
  154.838    0.291   79.838    0.401    2.762
  155.143    0.298   79.021    0.402    2.867
  155.448    0.282   76.585    0.402    3.032
  155.752    0.276   76.578    0.386    3.089
  156.057    0.266   81.025    0.376    3.206
  156.362    0.261   81.018    0.404    3.267
  156.667    0.276   83.846    0.383    3.329
  156.971    0.275   90.317    0.360    3.329
  157.276    0.270   86.262    0.376    3.329
  157.581    0.270   78.563    0.388    3.392
  157.886    0.265   76.127    0.381    3.521
  158.191    0.264   89.075    0.378    3.588
  158.495    0.267   83.401    0.389    3.655
  158.800    0.281   78.536    0.389    3.588
  159.105    0.300   85.817    0.397    3.458
  159.410    0.294   81.356    0.384    3.211
  159.715    0.287   76.491    0.398    3.211
  160.019    0.271   81.343    0.378    3.333
  160.324    0.281   82.145    0.375    3.460
  160.629    0.260   81.329    0.400    3.797
  160.934    0.241   81.322    0.376    3.941
  161.239    0.256   82.935    0.374    4.015
  161.543    0.263   83.738    0.395    4.016
  161.848    0.275   72.396    0.380    4.016
  162.153    0.271   71.174    0.365    4.092
  162.458    0.252   76.836    0.352    4.247
  162.763    0.259   61.849    0.368    4.491
  163.067    0.256   51.316    0.364    4.749
  163.372    0.250   56.167    0.302    5.719
  163.677    0.269   62.639    0.303    7.016
  163.982    0.265   65.466    0.309    8.768
  164.287    0.273   67.079    0.320   10.174
  164.591    0.264   71.120    0.312   10.175
  164.896    0.264   70.303    0.318    9.990
  165.201    0.278   65.034    0.326    9.990
  165.506    0.315   59.359    0.323   10.564
  165.811    0.319   52.875    0.323   12.258
  166.115    0.328   43.962    0.346   13.704
  166.420    0.364   39.502    0.355   14.762
  166.725    0.360   43.543    0.347   16.504
  167.030    0.348   49.609    0.324   17.131
  167.335    0.356   58.914    0.336   15.906
  167.639    0.309   67.005    0.325   13.460
  167.944    0.278   79.548    0.323   10.574
  168.249    0.279   77.923    0.345    8.622
  168.554    0.416   55.649    0.366    7.296
  168.858    0.453   35.400    0.275    7.573
  169.163    0.398   29.725    0.284   10.194
  169.468    0.374   33.361    0.328   13.722
  169.773    0.373   39.832    0.354   18.132
  170.078    0.370   41.444    0.358   19.533
  170.382    0.359   42.248    0.350   19.176
  170.687    0.357   43.456    0.347   18.479
  170.992    0.338   38.590    0.340   18.142
  171.297    0.340   38.179    0.335   18.484
  171.602    0.341   39.792    0.328   19.186
  171.906    0.353   44.239    0.336   21.450
  172.211    0.369   55.163    0.335   23.107
  172.516    0.368   65.682    0.338   23.543
  172.821    0.346   83.894    0.356   21.062
  173.126    0.326   79.839    0.367   17.173
  173.430    0.275   69.306    0.333   14.002
  173.735    0.303   57.963    0.285   13.001
  174.040    0.294   56.337    0.298   12.764
  174.345    0.307   60.783    0.308   13.497
  174.650    0.275   73.328    0.314   13.751
