~Version : LASO    vs 4.00 
VERS.                2.00:   CWLS Log ASCII Standard -VERSION 2.0
WRAP.                  NO:
~Well Information Block
#MNEM.UNIT       Data                        Description of Mnemonic
#----.----      -------------------------- : -----------------------------
STRT.M             1.0000:
STOP.M           202.5000:
STEP.M             0.1000:
NULL.           -999.2500:
COMP.  MOBIL OIL CANADA                    :COMPANY
WELL.  MOBIL 90 CLARKE CREEK 16-31         :WELL
FLD.   CLARKE CREEK                        :FIELD
LOC.   16-31-089-07W4                      :LOCATION
CTRY.  CANADA                              :COUNTRY
PROV.  ALBERTA                             :PROVINCE
SRVC.  BRITISH PLASTERBOARD                :SERVICE COMPANY
DATE.  22-JAN-90                           :LOG DATE
UWI.   AA/16-31-089-07W400                 :UNIQUE WELL ID
~Parameter Information Block
#MNEM.UNIT       Data                        Description of Mnemonic
#----.----      -------------------------- : -----------------------------
RUN .                   1                 : Run Number
GL  .M           453.6000                 : Ground Level Elevation
DREF.                  GD                 : Depth Reference
EREF.M           453.6000                 : Elevation of Depth Reference
TDL .M           204.5000                 : Total Depth Logger
TDD .M           204.5000                 : Total Depth Driller
~Curve Information Block
#MNEM.UNIT        API CODE    Curve Description
#---------    ------------    -------------------------------------------
DEPT.M                    :   DEPTH
CALI.mm                   :   CALI
DPHI.V/V                  :   DPHI
DT  .US/M     60 520  0  1:   2 SONIC INTERVAL TRANSIT TIME (COMPENSATED)
GR  .API                  :   GR
ILD .Ohmm                 :   ILD
NPHI.V/V                  :   NPHI
RHOB.K/M3     45 350  1  1:   3 BULK DENSITY
~A  Depth           CALI        DPHI          DT          GR         ILD        NPHI        RHOB
# ...
17.6000         163.4214      0.1300   -999.2500     33.7836   -999.2500      0.3540   2295.8000
17.7000         163.4051      0.1271   -999.2500     34.3179   -999.2500      0.3539   2033.5000
17.8000         163.1148      0.1205   -999.2500     33.2685   -999.2500      0.3749   2113.6001
17.9000         163.0783      0.1081   -999.2500     31.1193   -999.2500      0.3852   2200.8999
18.0000         163.0900      0.1830   -999.2500     30.3951   -999.2500      0.3885   2157.8000
18.1000         163.1205      0.2793   -999.2500     30.3401   -999.2500      0.3831   2147.3999
18.2000         163.1522      0.3601   -999.2500     30.9133   -999.2500      0.3749   1966.2000
18.3000         162.8745      0.4890   -999.2500     32.6299   -999.2500      0.4050   1786.1000
18.4000         162.8377      0.5687   -999.2500     31.7892   -999.2500      0.4396   1785.2000
18.5000         162.8525      0.6000   -999.2500     31.3315   -999.2500      0.4910   1754.9000
18.6000         162.8800      0.6000   -999.2500     31.7369   -999.2500      0.5586   1765.5000
18.7000         162.9106      0.6000   -999.2500     32.3574   -999.2500      0.5749   1760.1000
18.8000         162.9425      0.6000   -999.2500     32.4402   -999.2500      0.5822   1726.6000
18.9000         162.9749      0.6000   -999.2500     33.5212   -999.2500      0.5924   1795.0000
19.0000         162.7252      0.6000   -999.2500     34.2102   -999.2500      0.5946   1718.5000
19.1000         162.3282      0.6000   -999.2500     33.2241   -999.2500      0.5682   1649.0000
19.2000         161.9700      0.6000   -999.2500     33.2471   -999.2500      0.5449   1664.8000
19.3000         161.3166      0.5875   -999.2500     33.2939   -999.2500      0.5044   1693.7000
19.4000         160.4298      0.5310   -999.2500     34.3575   -999.2500      0.4619   1662.0000
19.5000         160.1007      0.4631   -999.2500     36.0202   -999.2500      0.4637   1708.8000
19.6000         160.0017      0.4183   -999.2500     38.2050   -999.2500      0.4734   1706.6000
19.7000         160.0031      0.3897   -999.2500     39.9925   -999.2500      0.4660   1696.5000
19.8000         160.0345      0.3569   -999.2500     41.7666   -999.2500      0.4421   1691.7000
19.9000         160.7711      0.3208   -999.2500     43.5396   -999.2500      0.4068   1866.2000
20.0000         160.8743      0.2879   -999.2500     42.4220   -999.2500      0.3975   1844.7000
20.1000         160.9284      0.2786   -999.2500     38.1648   -999.2500      0.4510   1853.2000
20.2000         160.9716      0.2770   -999.2500     34.7369   -999.2500      0.4620   1858.9000
20.3000         160.6399      0.2835   -999.2500     31.3483   -999.2500      0.4486   1860.4000
20.4000         160.6448      0.2981   -999.2500     28.4535   -999.2500      0.4379   1876.9000
20.5000         160.6675      0.3141   -999.2500     24.8861   -999.2500      0.4373   1885.5000
20.6000         160.6978      0.3313   -999.2500     25.4021   -999.2500      0.4339   1888.7000
20.7000         160.7302      0.3362   -999.2500     27.0832   -999.2500      0.4356   1818.7000
20.8000         160.7626      0.3340   -999.2500     28.3365   -999.2500      0.4358   1864.6000
20.9000         160.5155      0.3283   -999.2500     30.0292   -999.2500      0.4437   1854.6000
21.0000         160.4473      0.3224   -999.2500     31.6368   -999.2500      0.4559   1871.2000
21.1000         160.0642      0.3224   -999.2500     32.8486   -999.2500      0.4641   1891.9000
21.2000         160.0852      0.3223   -999.2500     32.9914   -999.2500      0.4386   1875.0000
21.3000         160.1170      0.3222   -999.2500     31.5450   -999.2500      0.4179   1858.1000
21.4000         160.4866      0.3243   -999.2500     30.3901   -999.2500      0.4192   1808.4000
21.5000         160.8946      0.3336   -999.2500     29.7392   -999.2500      0.4214   1799.4000
21.6000         161.0179      0.3391   -999.2500     27.8668   -999.2500      0.4139   1853.4000
21.7000         161.3010      0.3506   -999.2500     26.7770   -999.2500      0.4099   1835.9000
21.8000         161.4696      0.3643   -999.2500     25.6801   -999.2500      0.4091   1852.0000
21.9000         161.5164      0.3751   -999.2500     25.9970   -999.2500      0.4231   1856.0000
22.0000         161.5543      0.3914   -999.2500     27.2442   -999.2500      0.4699   1813.5000
22.1000         161.8929      0.4083   -999.2500     28.4451   -999.2500      0.5114   1823.7000
22.2000         161.9973      0.4233   -999.2500     27.5986   -999.2500      0.5578   1807.5000
22.3000         162.0530      0.4394   -999.2500     26.0520   -999.2500      0.5515   1780.5000
22.4000         162.0887      0.4751   -999.2500     25.1400   -999.2500      0.5298   1753.5000
22.5000         162.5180      0.4870   -999.2500     25.1559   -999.2500      0.4625   1727.7000
22.6000         162.5563      0.4940   -999.2500     24.6748   -999.2500      0.4163   1713.1000
22.7000         162.5905      0.4920   -999.2500     24.1553   -999.2500      0.4428   1699.9000
22.8000         162.9634      0.4885   -999.2500     24.1110   -999.2500      0.4668   1709.6000
22.9000         163.0471      0.4880   -999.2500     24.7115   -999.2500      0.4855   1695.3000
23.0000         163.4002      0.4878   -999.2500     25.3332   -999.2500      0.5008   1701.7000
23.1000         163.8017      0.4934   -999.2500     26.9978   -999.2500      0.5201   1688.8000
23.2000         164.3008      0.5100   -999.2500     27.7607   -999.2500      0.5459   1668.1000
23.3000         164.7262      0.5283   -999.2500     28.8834   -999.2500      0.5527   1697.7000
23.4000         164.8217      0.5468   -999.2500     30.3463   -999.2500      0.5354   1705.2000
23.5000         164.4848      0.5594   -999.2500     31.0182   -999.2500      0.5147   1689.5000
23.6000         164.5005      0.5687   -999.2500     32.6778   -999.2500      0.5113   1666.1000
23.7000         164.1839      0.5640   -999.2500     35.4223   -999.2500      0.5374   1662.9000
23.8000         164.1697      0.5470   -999.2500     37.2645   -999.2500      0.5771   1661.9000
23.9000         164.1920      0.5315   -999.2500     39.6039   -999.2500      0.5441   1661.8000
24.0000         164.2244      0.5113   -999.2500     39.8022   -999.2500      0.4769   1676.3000
24.1000         164.2568      0.4792   -999.2500     38.8461   -999.2500      0.4348   1709.5000
24.2000         164.2892      0.4540   -999.2500     37.2830   -999.2500      0.4002   1730.1000
24.3000         164.3216      0.4103   -999.2500     36.3672   -999.2500      0.3947   1683.3000
24.4000         164.3540      0.3547   -999.2500     36.3829   -999.2500      0.4028   1816.7000
24.5000         164.3865      0.3113   -999.2500     33.2739   -999.2500      0.4068   1899.3000
24.6000         164.4189      0.3397   -999.2500     30.9224   -999.2500      0.4005   1803.4000
24.7000         164.4513      0.4202   -999.2500     30.4666   -999.2500      0.3789   1889.5000
24.8000         164.1610      0.4640   -999.2500     32.8079   -999.2500      0.3646   1686.7000
24.9000         164.1155      0.4543   -999.2500     35.7034   -999.2500      0.3652   1679.3000
25.0000         163.7778      0.3968   -999.2500     38.6259   -999.2500      0.4275   1868.1000
25.1000         163.7780      0.3736   -999.2500     40.5531   -999.2500      0.4454   2145.3999
25.2000         163.8070      0.3838   -999.2500     42.2090   -999.2500      0.4451   2020.5000
25.3000         163.5198      0.4238   -999.2500     41.7024   -999.2500      0.4328   1842.1000
25.4000         163.4711      0.4574   -999.2500     39.0234   -999.2500      0.4012   1770.5000
25.5000         163.4999      0.4757   -999.2500     36.2240   -999.2500      0.3728   1779.6000
25.6000         163.5315      0.4796   -999.2500     33.8995   -999.2500      0.3685   1794.9000
25.7000         163.5636      0.4800   -999.2500     31.6381   -999.2500      0.4128   1808.6000
25.8000         163.5958      0.4837   -999.2500     30.7334   -999.2500      0.4419   1804.8000
