~VERSION INFORMATION
 VERS.                 2.0:   CWLS LOG ASCII STANDARD -VERSION 2.0
 WRAP.                  NO:   ONE LINE PER DEPTH STEP
~WELL INFORMATION BLOCK
#MNEM.UNIT           DATA                    DESCRIPTION OF MNEMONIC
#---------    -------------------            -------------------------------
# Generated from Intellog Unique Number	CC_84_87/WELL/2334
WELL.         ARCO ACT MCMURRAY              : Well_name    - WELL
LOC .         AA/11-29-084-09W4/0            : Location     - LOCATION
UWI .         AA/11-29-084-09W400            : Uwi          - UNIQUE WELL ID
ENTR.         JHS                            : Entered      - ENTERED BY
SRVC.         SCHLUMBERGER                   : Scn          - SERVICE COMPANY
STRT.M        210.312                        : top_depth    - START DEPTH
STOP.M        441.812                        : bot_depth    - STOP DEPTH
STEP.M        0.25                           : increment    - STEP LENGTH
 NULL. -999.2500:NULL Value
~CURVE INFORMATION BLOCK
#MNEM UNIT       ERCB CURVE CODE    CURVE DESCRIPTION
#-----------   ------------------   ----------------------------------
DEPT.M        00 001 00 00         : DEPTH        - DEPTH
GR  .API      00 310 00 00         : GR           - GAMMA RAY
DPHI.V/V      00 890 00 00         : PHID         - DENSITY POROSITY (SANDSTONE)
NPHI.V/V      00 330 00 00         : PHIN         - NEUTRON POROSITY (SANDSTONE)
ILD .OHMM     00 120 00 00         : RESD         - DEEP RESISTIVITY (DIL)
~PARAMETER INFORMATION
#MNEM.UNIT           DATA             DESCRIPTION OF MNEMONIC
#---------         -----------     ------------------------------
GL  .M        687.629              : gl           - GROUND LEVEL ELEVATION
EREF.M        690.677              : kb           - ELEVATION OF DEPTH REFERENCE
DATM.M        690.677              : datum        - DATUM ELEVATION
TDD .M        441.96               : tdd          - TOTAL DEPTH DRILLER
RUN .         ONE                  : Run          - RUN NUMBER
ENG .         BILL                 : Engineer     - RECORDING ENGINEER
WIT .         JIM                  : Witness      - WITNESSED BY
MUD .         GEL                  : Mud_type     - MUD TYPE
MATR.         SANDSTONE            : Logunit      - NEUTRON MATRIX
TMAX.C        20.5556              : BHT          - MAXIMUM RECORDED TEMPERATURE
BHTD.M        441.96               : BHTDEP       - MAXIMUM RECORDED TEMPERATURE
MATR.         1                    : LOGUNIT      - NEUTRON MATRIX
RMT .C        25                   : MDTP         - TEMPERATURE OF MUD
NEUT.         1                    : NEUTRON      - NEUTRON TYPE
RESI.         0                    : RESIST       - RESISTIVITY TYPE
RMC .OHMM     0.25                 : RMC          - RESISTIVITY OF MUD CAKE
RMF .OHMM     0.25                 : RMF          - RESISTIVITY OF MUD FILTRATE
SUFT.C        15                   : SUFT         - SURFACE TEMPERATURE
~A  DEPTH       GR     PHID     PHIN     RESD
# ...
  253.812   75.556    0.317    0.377   24.498
  254.062   74.881    0.318    0.370   23.556
  254.312   76.467    0.319    0.387   21.221
  254.562   75.069    0.325    0.386   19.953
  254.812   66.835    0.333    0.365   20.154
  255.062   60.385    0.341    0.365   21.076
  255.312   64.861    0.349    0.379   23.154
  255.562   70.651    0.354    0.365   25.023
  255.812   73.044    0.348    0.369   26.584
  256.062   75.810    0.326    0.370   28.353
  256.312   80.590    0.303    0.376   29.648
  256.562   87.338    0.286    0.389   28.907
  256.812   92.856    0.266    0.368   25.773
  257.062   87.080    0.252    0.355   22.110
  257.312   82.531    0.252    0.356   19.470
  257.562   77.671    0.260    0.360   17.118
  257.812   81.004    0.275    0.364   15.028
  258.062   94.658    0.300    0.370   13.608
  258.312  100.613    0.325    0.375   12.661
  258.562   97.819    0.351    0.369   12.789
  258.812   89.788    0.353    0.357   13.413
  259.062   84.683    0.344    0.353   14.844
  259.312   85.297    0.345    0.354   16.792
  259.562   88.047    0.346    0.364   19.041
  259.812   91.109    0.336    0.379   22.202
  260.062   93.196    0.336    0.366   25.320
  260.312   77.777    0.344    0.382   25.687
  260.562   63.615    0.338    0.389   24.288
  260.812   59.648    0.323    0.375   22.960
  261.062   59.240    0.312    0.370   22.616
  261.312   63.747    0.298    0.366   22.979
  261.562   73.112    0.279    0.349   22.086
  261.812   81.249    0.282    0.340   20.196
  262.062   83.046    0.298    0.349   18.755
  262.312   84.969    0.303    0.343   17.610
  262.562   86.241    0.296    0.323   16.319
  262.812   77.457    0.303    0.334   15.375
  263.062   68.910    0.322    0.342   14.418
  263.312   56.270    0.331    0.348   14.171
  263.562   51.310    0.329    0.367   14.636
  263.812   54.161    0.291    0.376   16.130
  264.062   54.658    0.230    0.365   18.588
  264.312   53.071    0.209    0.354   21.287
  264.562   54.185    0.224    0.325   24.468
  264.812   58.873    0.263    0.308   26.762
  265.062   65.517    0.264    0.308   26.085
  265.312   72.501    0.254    0.322   22.466
  265.562   77.591    0.262    0.345   18.348
  265.812   78.091    0.253    0.359   15.599
  266.062   74.987    0.270    0.358   13.351
  266.312   74.632    0.279    0.371   12.019
  266.562   78.024    0.278    0.378   11.104
  266.812   78.730    0.273    0.380   10.417
  267.062   77.935    0.275    0.389    9.967
  267.312   82.872    0.284    0.388    9.530
  267.562   85.545    0.267    0.384    9.533
  267.812   87.448    0.245    0.375    9.322
  268.062   91.919    0.237    0.381    9.015
  268.312   97.437    0.246    0.397    8.716
  268.562  102.405    0.255    0.400    8.285
  268.812  107.296    0.247    0.395    7.788
  269.062  109.387    0.251    0.392    7.316
  269.312  111.197    0.248    0.393    6.987
  269.562  113.041    0.237    0.395    6.603
  269.812  109.632    0.240    0.389    6.272
  270.062  101.812    0.256    0.373    6.287
  270.312   98.386    0.268    0.364    6.600
  270.562   98.142    0.288    0.379    6.994
  270.812   94.583    0.291    0.370    7.613
  271.062   92.106    0.284    0.367    8.387
  271.312   91.456    0.277    0.380    9.480
  271.562   91.624    0.264    0.379   10.828
  271.812   94.834    0.249    0.369   11.786
  272.062   96.515    0.261    0.371   12.027
  272.312   96.855    0.283    0.366   11.657
  272.562   98.335    0.289    0.357   10.773
  272.812   98.602    0.306    0.367    9.860
  273.062   95.180    0.332    0.393    9.413
  273.312   90.687    0.317    0.402    9.458
  273.562   87.149    0.294    0.388    9.877
  273.812   84.096    0.302    0.371   10.452
  274.062   81.606    0.304    0.351   11.232
  274.312   83.223    0.304    0.345   12.065
  274.562   88.781    0.311    0.357   12.766
  274.812   90.110    0.304    0.363   13.335
  275.062   82.715    0.292    0.358   13.572
  275.312   77.829    0.283    0.351   13.447
  275.562   78.437    0.281    0.352   13.095
  275.812   77.854    0.288    0.360   12.679
  276.062   71.069    0.298    0.362   12.315
  276.312   61.558    0.301    0.351   12.153
  276.562   55.778    0.299    0.355   12.464
  276.812   52.340    0.312    0.355   13.418
  277.062   48.035    0.334    0.355   15.217
  277.312   42.947    0.351    0.370   16.613
  277.562   40.777    0.359    0.382   17.349
  277.812   43.124    0.363    0.373   18.764
  278.062   44.460    0.366    0.375   19.955
  278.312   42.477    0.361    0.369   20.986
  278.562   40.131    0.350    0.356   21.541
  278.812   39.530    0.351    0.365   21.778
  279.062   40.448    0.362    0.383   22.153
  279.312   42.550    0.352    0.374   22.460
  279.562   46.207    0.326    0.371   22.167
  279.812   52.562    0.322    0.377   21.502
  280.062   54.785    0.337    0.371   20.936
  280.312   47.243    0.354    0.365   20.003
  280.562   37.890    0.363    0.371   18.892
  280.812   37.813    0.358    0.371   18.693
  281.062   41.133    0.342    0.371   18.901
  281.312   51.049    0.327    0.370   19.805
  281.562   56.111    0.327    0.365   20.080
  281.812   54.090    0.329    0.364   19.386
  282.062   53.574    0.318    0.373   18.477
  282.312   57.489    0.301    0.378   17.342
  282.562   62.719    0.294    0.361   15.759
  282.812   64.019    0.328    0.367   15.210
  283.062   59.369    0.350    0.373   14.277
  283.312   53.939    0.350    0.358   14.339
  283.562   49.905    0.349    0.355   16.117
  283.812   45.578    0.340    0.377   17.007
  284.062   47.387    0.328    0.368   17.822
  284.312   49.560    0.309    0.362   18.236
  284.562   52.037    0.283    0.352   18.266
  284.812   53.453    0.257    0.335   18.300
  285.062   51.600    0.280    0.329   18.183
  285.312   48.566    0.366    0.348   17.596
  285.562   46.370    0.380    0.389   17.280
  285.812   46.455    0.375    0.397   17.439
  286.062   47.089    0.372    0.404   17.859
  286.312   46.183    0.367    0.405   18.564
  286.562   43.972    0.366    0.392   19.388
  286.812   42.042    0.374    0.400   19.951
  287.062   40.893    0.383    0.387   20.558
  287.312   41.509    0.382    0.380   21.179
  287.562   42.829    0.382    0.398   21.855
  287.812   43.232    0.384    0.407   22.406
  288.062   42.453    0.378    0.404   22.654
  288.312   41.470    0.369    0.416   22.613
  288.562   40.947    0.369    0.395   22.248
  288.812   40.751    0.368    0.380   22.162
  289.062   41.436    0.366    0.383   22.195
  289.312   42.392    0.370    0.393   22.172
  289.562   42.699    0.373    0.399   22.175
  289.812   42.683    0.369    0.398   22.164
  290.062   42.355    0.374    0.394   22.127
  290.312   40.349    0.374    0.399   22.435
  290.562   39.723    0.372    0.400   22.590
  290.812   40.633    0.374    0.396   22.529
  291.062   39.937    0.374    0.400   22.536
  291.312   37.937    0.370    0.404   22.526
  291.562   38.823    0.371    0.398   22.521
  291.812   40.040    0.372    0.403   22.514
  292.062   40.600    0.371    0.417   22.507
  292.312   39.709    0.364    0.426   22.500
  292.562   38.510    0.359    0.422   22.493
  292.812   39.151    0.368    0.408   22.485
  293.062   39.080    0.361    0.410   22.478
  293.312   40.241    0.358    0.406   22.474
  293.562   41.784    0.365    0.412   22.453
  293.812   42.050    0.370    0.421   22.487
  294.062   41.446    0.369    0.410   22.394
  294.312   41.553    0.369    0.401   22.036
  294.562   42.579    0.366    0.419   22.017
  294.812   42.920    0.361    0.426   22.033
  295.062   42.316    0.354    0.420   22.013
  295.312   42.429    0.351    0.414   22.011
  295.562   43.534    0.355    0.409   21.999
  295.812   43.349    0.363    0.408   21.997
  296.062   41.314    0.362    0.415   22.021
  296.312   40.429    0.364    0.409   21.693
  296.562   40.295    0.362    0.401   21.581
  296.812   40.693    0.354    0.389   21.455
  297.062   41.805    0.338    0.379   21.160
