~VERSION INFORMATION
 VERS.                 2.0:   CWLS LOG ASCII STANDARD -VERSION 2.0
 WRAP.                  NO:   ONE LINE PER DEPTH STEP
~WELL INFORMATION BLOCK
#MNEM.UNIT           DATA                    DESCRIPTION OF MNEMONIC
#---------    -------------------            -------------------------------
# Generated from Intellog Unique Number	CN_91_93/WELL/2865
WELL.         16-22-092-09W4                 : Well_name    - WELL
LOC .         AA/16-22-092-09W4/0            : Location     - LOCATION
UWI .         AA/16-22-092-09W400            : Uwi          - UNIQUE WELL ID
ENTR.         JOETTE                         : Entered      - ENTERED BY
SRVC.         SCHLUMBERGER                   : Scn          - SERVICE COMPANY
DATE.         03/31/92                       : Date         - LOG DATE
STRT.F        30                             : top_depth    - START DEPTH
STOP.F        380.23                         : bot_depth    - STOP DEPTH
STEP.F        0.8202                         : increment    - STEP LENGTH
 NULL. -999.2500:NULL Value
~CURVE INFORMATION BLOCK
#MNEM UNIT       ERCB CURVE CODE    CURVE DESCRIPTION
#-----------   ------------------   ----------------------------------
DEPT.F        00 001 00 00         : DEPTH        - DEPTH
CALI.IN       00 280 01 00         : CAL          - CALIPER
GR  .API      00 310 00 00         : GR           - GAMMA RAY
NPHI.V/V      00 330 00 00         : PHIN         - NEUTRON POROSITY (SANDSTONE)
DPHI.V/V      00 890 00 00         : PHID         - DENSITY POROSITY (SANDSTONE)
ILD .OHMM     00 120 00 00         : RESD         - DEEP RESISTIVITY (DIL)
~PARAMETER INFORMATION
#MNEM.UNIT           DATA             DESCRIPTION OF MNEMONIC
#---------         -----------     ------------------------------
GL  .M        357.165              : gl           - GROUND LEVEL ELEVATION
EREF.M        357.165              : kb           - ELEVATION OF DEPTH REFERENCE
DATM.M        357.165              : datum        - DATUM ELEVATION
TDD .M        117.653              : tdd          - TOTAL DEPTH DRILLER
RUN .         ONE                  : Run          - RUN NUMBER
ENG .         BILL                 : Engineer     - RECORDING ENGINEER
WIT .         JIM                  : Witness      - WITNESSED BY
MUD .         GEL                  : Mud_type     - MUD TYPE
MATR.         SANDSTONE            : Logunit      - NEUTRON MATRIX
TMAX.F        54                   : BHT          - MAXIMUM RECORDED TEMPERATURE
BHTD.F        386                  : BHTDEP       - MAXIMUM RECORDED TEMPERATURE
RMT .F        62                   : MDTP         - TEMPERATURE OF MUD
MUDD.LB/G     8.8                  : MWT          - MUD DENSITY
NEUT.         1                    : NEUTRON      - NEUTRON TYPE
RESI.         0                    : RESIST       - RESISTIVITY TYPE
RM  .OHMM     6.2                  : RM           - RESISTIVITY OF MUD
RMC .OHMM     6.2                  : RMC          - RESISTIVITY OF MUD CAKE
RMF .OHMM     6.2                  : RMF          - RESISTIVITY OF MUD FILTRATE
SUFT.F        39.2                 : SUFT         - SURFACE TEMPERATURE
~A  DEPTH      CAL       GR     PHIN     PHID     RESD
# ...
  269.501    5.465   45.237    0.400    0.323   49.379
  270.322    5.482   50.572    0.342    0.293   67.545
  271.142    5.530   46.804    0.362    0.269  103.174
  271.962    5.508   38.060    0.398    0.281  156.176
  272.782    5.486   41.045    0.398    0.285  115.454
  273.602    5.495   37.271    0.368    0.273   72.333
  274.423    5.496   36.147    0.387    0.317   50.605
  275.243    5.466   34.436    0.477    0.345   50.651
  276.063    5.459   32.726    0.507    0.396  120.278
  276.883    5.453   26.918    0.479    0.357  231.187
  277.703    5.462   31.368    0.423    0.329  237.895
  278.524    5.471   36.392    0.402    0.317  310.842
  279.344    5.473   50.806    0.391    0.313  384.477
  280.164    5.497   61.703    0.362    0.305  367.552
  280.984    5.522   50.608    0.387    0.332  392.375
  281.804    5.547   31.894    0.385    0.338  434.552
  282.625    5.525   24.915    0.362    0.301  532.507
  283.445    5.471   21.733    0.371    0.308  702.213
  284.265    5.465   19.143    0.398    0.340  917.536
  285.085    5.466   18.013    0.413    0.334  736.760
  285.906    5.467   24.221    0.405    0.341  660.635
  286.726    5.469   22.223    0.391    0.339  649.372
  287.546    5.478   27.247    0.373    0.343  561.048
  288.366    5.510   32.289    0.376    0.338  264.356
  289.186    5.511   33.503    0.399    0.325  262.248
  290.007    5.458   23.581    0.409    0.337  188.574
  290.827    5.452   25.686    0.424    0.337  134.375
  291.647    5.484   27.499    0.427    0.316  109.887
  292.467    5.517   33.707    0.433    0.314  133.425
  293.287    5.510   35.507    0.406    0.339  159.036
  294.108    5.566   34.676    0.375    0.305  141.281
  294.928    5.521   32.379    0.336    0.306  102.556
  295.748    5.459   38.294    0.396    0.295  104.539
  296.568    5.477   36.578    0.420    0.285   64.311
  297.388    5.493   36.626    0.391    0.280   66.177
  298.209    5.526   33.450    0.389    0.304   61.552
  299.029    5.480   27.050    0.396    0.317   67.554
  299.849    5.481   25.926    0.401    0.310   69.514
  300.669    5.499   29.784    0.379    0.300   63.471
  301.490    5.499   26.901    0.358    0.295   55.359
  302.310    5.485   25.495    0.385    0.311   46.541
  303.130    5.487   26.709    0.377    0.292   64.258
  303.950    5.488   23.241    0.366    0.312   84.737
  304.770    5.505   28.270    0.357    0.300   94.711
  305.591    5.506   43.270    0.341    0.275   45.460
  306.411    5.461   32.469    0.368    0.285   18.837
  307.231    5.454   43.073    0.343    0.290   19.743
  308.051    5.502   37.846    0.310    0.246   24.194
  308.871    5.519   19.718    0.320    0.223   24.893
  309.692    5.528   19.766    0.316    0.225   23.585
  310.512    5.553   22.158    0.325    0.225   21.934
  311.332    5.523   23.964    0.323    0.230   19.666
  312.152    5.470   24.012    0.338    0.235   17.961
  312.972    5.455   24.646    0.318    0.259   16.708
  313.793    5.480   31.147    0.325    0.249   15.824
  314.613    5.505   24.748    0.335    0.280   14.856
  315.433    5.459   28.019    0.329    0.244   14.467
  316.253    5.460   23.970    0.321    0.264   14.887
  317.073    5.462   24.604    0.330    0.261   15.177
  317.894    5.455   22.021    0.341    0.265   15.197
  318.714    5.448   23.821    0.331    0.262   15.072
  319.534    5.442   20.059    0.330    0.270   14.811
  320.354    5.467   23.325    0.332    0.263   14.691
  321.175    5.500   27.487    0.355    0.242   16.272
  321.995    5.516   25.484    0.363    0.247   17.531
  322.815    5.502   24.353    0.349    0.245   19.241
  323.635    5.550   18.241    0.317    0.229   18.737
  324.455    5.567   17.996    0.302    0.242   17.749
  325.276    5.553   16.285    0.342    0.232   17.602
  326.096    5.539   28.648    0.335    0.232   19.319
  326.916    5.524   49.808    0.350    0.235   17.642
  327.736    5.533   56.596    0.356    0.245   14.694
  328.556    5.511   50.490    0.362    0.258   14.577
  329.377    5.489   49.365    0.327    0.249   14.064
  330.197    5.490   39.742    0.351    0.239   13.202
  331.017    5.539   30.992    0.354    0.264   14.223
  331.837    5.563   27.523    0.345    0.278   15.328
  332.657    5.572   29.916    0.293    0.232   15.484
  333.478    5.511   43.450    0.324    0.224   14.400
  334.298    5.551   32.661    0.323    0.246   13.768
  335.118    5.537   28.008    0.322    0.269   14.565
  335.938    5.429   21.608    0.298    0.256   16.133
  336.759    5.461   16.088    0.292    0.260   16.601
  337.579    5.400   24.928    0.296    0.239   16.770
  338.399    5.402   23.510    0.299    0.235   16.942
  339.219    5.426   27.667    0.291    0.253   17.757
  340.039    5.467   28.014    0.304    0.226   19.486
  340.860    5.515   30.107    0.315    0.251   20.805
  341.680    5.555   60.364    0.319    0.238   19.174
  342.500    5.564   72.428    0.313    0.244   13.914
  343.320    5.566  138.438    0.342    0.231   10.005
  344.140    5.614  139.365    0.418    0.223    7.397
  344.961    5.662  133.845    0.504    0.252    6.161
  345.781    5.710  162.039    0.491    0.222    6.700
  346.601    5.688  159.156    0.531    0.211    6.708
  347.421    5.611  146.889    0.483    0.245    6.715
  348.241    5.652  155.735    0.474    0.307    6.972
  349.062    5.747  161.058    0.386    0.245    6.729
  349.882    5.607  166.680    0.409    0.215    6.315
  350.702    5.491  173.474    0.448    0.217    5.984
  351.522    5.664  167.075    0.437    0.221    6.101
  352.343    5.713  164.479    0.443    0.183    6.164
  353.163    5.675  168.923    0.427    0.200    6.226
  353.983    5.684  158.714    0.412    0.191    6.290
  354.803    5.576  146.740    0.446    0.171    6.297
  355.623    5.648  125.388    0.457    0.201    6.189
  356.444    5.704  117.225    0.412    0.212    6.607
  357.264    5.627  110.831    0.331    0.187    8.633
  358.084    5.573  131.100    0.332    0.192    9.217
  358.904    5.598  158.122    0.338    0.176    7.332
  359.724    5.607  155.239    0.363    0.206    6.109
  360.545    5.593  159.689    0.443    0.190    5.579
  361.365    5.586  165.018    0.425    0.181    5.533
  362.185    5.634  165.059    0.423    0.199    5.591
  363.005    5.722  153.385    0.447    0.240    5.968
  363.825    5.778   80.724    0.531    0.235    6.312
  364.646    5.584   84.874    0.504    0.268    5.817
  365.466    5.593   98.409    0.464    0.302    4.586
  366.286    5.625   84.677    0.425    0.287    9.487
  367.106    5.564   29.318    0.378    0.230   14.097
  367.927    5.557   24.671    0.222    0.157   23.178
  368.747    5.566   21.501    0.175    0.093   31.422
  369.567    5.552   29.462    0.163    0.066   37.454
  370.387    5.538   24.534    0.167    0.061   39.623
  371.207    5.492   26.340    0.172    0.085   36.512
  372.028    5.533   32.243    0.167    0.098   32.739
  372.848    5.557   33.176    0.167    0.091   30.169
  373.668    5.582   32.057    0.167    0.076   29.111
  374.488    5.623   30.628    0.178    0.053   29.956
  375.308    5.624   33.906    0.185    0.042   31.983
  376.129    5.664   41.866    0.182    0.062   31.430
  376.949    5.595   39.569    0.192    0.040   29.503
  377.769    5.589   35.514    0.200    0.072   26.455
  378.589    5.621   47.291    0.213    0.053   25.290
  379.409    5.583   46.166    0.205    0.040   27.251
  380.230    5.546   41.232    0.206    0.057   29.360
