~Version : LASO    vs 4.00
VERS.                2.00:   CWLS Log ASCII Standard -VERSION 2.0
WRAP.                  NO:
~Well Information Block
#MNEM.UNIT       Data                        Description of Mnemonic
#----.----      -------------------------- : -----------------------------
STRT.M            21.0000:
STOP.M           215.4000:
STEP.M             0.2000:
NULL.           -999.2500:
COMP.  MOBIL OIL CANADA                 :COMPANY
WELL.  MOBIL CLARKE OV PROG. 2-81       :WELL
FLD.                                    :FIELD
LOC.   13-28-089-07W4                   :LOCATION
CTRY.  CANADA                           :COUNTRY
PROV.  ALBERTA                          :PROVINCE
SRVC.  SCHLUMBERGER                     :SERVICE COMPANY
DATE.  31-JAN-81                        :LOG DATE
UWI.   AA/13-28-089-07W400              :UNIQUE WELL ID
~Parameter Information Block
#MNEM.UNIT       Data                        Description of Mnemonic
#----.----      -------------------------- : -----------------------------
RUN .                   1                 : Run Number
GL  .M           458.5000                 : Ground Level Elevation
DREF.                  GD                 : Depth Reference
EREF.M           458.5000                 : Elevation of Depth Reference
TDL .M           216.0000                 : Total Depth Logger
TDD .M           216.0000                 : Total Depth Driller
CSGL.M            22.0000                 : Casing Bottom Logger
CSGD.M            22.0000                 : Casing Bottom Driller
CSGS.MM          219.0000                 : Casing Size
CSGW.KG/M          0.0000                 : Casing Weight
BHT .DEGC         12.0000                 : Bottom Hole Temperature
BS  .MM          171.0000                 : Bit Size
DFD .           9999.0000                 : Mud Weight (Density)
DFV .             45.0000                 : Mud Viscosity
DFPH.             11.0000                 : Mud pH
RM  .OHMM          5.7400                 : Mud Resistivity
RMT .DEGC         12.0000                 : Mud Resistivity Temperature
~Curve Information Block
#MNEM.UNIT        API CODE    Curve Description
#---------    ------------    -------------------------------------------
DEPT.M                    :   DEPTH
CALI.MM       42 280  1  1:   3 DENSITY CALIPER
DPHI.V/V                  :   DPHI
DT  .US/M     60 520  0  1:   2 SONIC INTERVAL TRANSIT TIME (COMPENSATED)
GR  .GAPI     42 310  1  1:   4 GAMMA RAY
ILD .OHMM      5 120 46  1:   7 DEEP INDUCTION
ILM .OHMM      5 120 44  1:   8 MEDIUM INDUCTION
NPHI.V/V      42 890  3  1:   5 NEUTRON POROSITY (SANDSTONE)
RHOB.K/M3     42 350  1  1:   6 BULK DENSITY
SFLU.OHMM      5 220  1  1:   9 FOCUSSED RESISTIVITY
SP  .MV        5  10  1  1:   10 SPONTANEOUS POTENTIAL
~A  Depth           CALI        DPHI          DT          GR         ILD         ILM        NPHI        RHOB        SFLU          SP
# ...
167.4000        169.6500      0.2214    417.9200     67.0500     14.4487     14.9634      0.3938   2273.7000     19.8715    -96.2850
167.6000        169.6500      0.2316    425.5600     68.7300     14.1850     13.9005      0.4014   2248.8000     22.8155    -96.7800
167.8000        169.6750      0.2444    429.8400     70.7850     13.9261     13.2749      0.3982   2244.7000     21.0005    -94.0500
168.0000        169.7500      0.2560    428.3600     72.8400     13.9261     13.1532      0.3962   2300.3000     15.3402    -90.5550
168.2000        170.0500      0.2615    423.2400     77.1450     13.4224     13.6468      0.4040   2319.8999     14.2505    -87.3300
168.4000        170.2000      0.2479    420.4800     78.4650     13.1774     13.3977      0.4111   2331.7000     18.9771    -88.5750
168.6000        170.2500      0.2192    420.2400     76.3950     13.2993     12.9131      0.4130   2336.6001     21.0005    -88.0800
168.8000        170.3500      0.1935    424.0800     76.5150     13.6719     13.0326      0.4102   2331.2000     16.2118    -85.0950
169.0000        171.2500      0.1916    436.4400     76.1400     14.3163     14.1589      0.4022   2345.6001     13.6091    -83.5950
169.2000        172.2500      0.2001    435.6000     74.1750     14.3163     14.5556      0.4092   2317.7000     16.5132    -86.3250
169.4000        173.2750      0.1996    433.0400     71.9400     14.4487     14.9634      0.4186   2300.2000     20.4282    -89.0700
169.6000        169.6500      0.1930    426.6400     70.9050     14.9910     15.2416      0.4116   2286.0000     23.8908    -93.5400
169.8000        169.3250      0.2116    426.6400     69.4350     15.2697     15.2416      0.4066   2274.3000     24.7873    -94.0500
170.0000        168.9750      0.2226    423.8800     67.7700     15.8427     15.2416      0.4060   2311.1001     22.6063    -93.7950
170.2000        169.2000      0.2203    418.7600     69.2100     16.5894     16.8667      0.4122   2334.8000     17.3073    -95.0400
170.4000        169.4500      0.2164    416.2000     67.8150     16.5894     17.8250      0.4120   2336.3999     21.9902    -96.5250
170.6000        169.7250      0.2153    414.4800     66.4350     16.5894     17.8250      0.4090   2323.1001     32.1092    -97.0350
170.8000        169.7250      0.2160    418.1200     63.6600     16.7429     17.1803      0.4016   2294.5000     30.1044    -95.5350
171.0000        169.6500      0.2140    420.0400     63.8550     16.8978     17.0228      0.4012   2279.6001     24.1118    -95.5350
171.2000        169.5750      0.2208    422.8000     66.1350     16.5894     16.5588      0.4013   2272.6001     21.1948    -95.2950
171.4000        169.4250      0.2313    423.2400     69.7500     15.8427     16.1076      0.3961   2327.5000     18.4599    -94.2900
171.6000        169.3500      0.2296    419.6000     70.8900     15.4110     15.8136      0.3916   2323.2000     18.8031    -94.2900
171.8000        169.3000      0.2247    419.8400     70.8000     14.8535     15.3826      0.3926   2311.1001     19.8715    -94.5450
172.0000        169.2500      0.2194    416.0000     69.7500     14.5824     14.9634      0.3941   2297.3000     21.0005    -94.7850
172.2000        169.1250      0.2135    421.7600     70.2900     14.3163     14.1589      0.3972   2325.7000     19.3299    -93.3000
172.4000        169.2750      0.2081    422.1600     70.9800     14.3163     13.9005      0.3993   2328.1001     16.5132    -91.5600
172.6000        169.4500      0.2151    423.2400     71.6700     14.1850     13.7730      0.4032   2326.0000     14.5154    -90.8100
172.8000        169.7750      0.2110    413.4400     71.8950     13.9261     14.6903      0.4154   2331.5000     19.3299    -94.2900
173.0000        169.9250      0.2047    414.2800     71.5500     13.9261     14.4221      0.4210   2327.8000     21.3909    -95.2950
173.2000        169.9750      0.1994    414.0800     71.5800     13.9261     14.1589      0.4166   2325.7000     20.8080    -95.5350
173.4000        169.8000      0.1953    418.3200     72.6900     13.6719     13.6468      0.4099   2324.8999     21.1948    -94.0500
173.6000        169.6500      0.1933    413.0000     73.5900     13.6719     13.1532      0.4121   2329.7000     18.4599    -92.2950
173.8000        169.4500      0.1958    411.7200     74.4000     13.4224     13.1532      0.4163   2347.1001     15.3402    -89.8200
174.0000        169.1000      0.2032    413.6400     74.3400     13.0566     13.0326      0.4160   2317.7000     14.5154    -89.3100
174.2000        169.1250      0.2127    422.1600     72.9900     12.8183     12.7947      0.4123   2294.7000     15.9159    -91.3050
174.4000        169.1250      0.2247    435.1600     71.5800     12.8183     12.6774      0.4078   2273.7000     15.6254    -92.8050
174.6000        168.6250      0.2380    439.8400     73.2900     12.8183     12.7947      0.3931   2268.5000     15.3402    -90.5550
174.8000        168.2000      0.2505    430.4800     74.2950     12.7008     12.7947      0.3851   2347.3999     16.2118    -90.0600
175.0000        167.7750      0.2467    418.5600     74.4900     12.7008     12.7947      0.3803   2354.2000     17.1487    -89.3100
175.2000        167.5500      0.2306    412.1600     73.9950     12.5843     12.6774      0.3843   2346.3999     17.6291    -88.8150
175.4000        167.2250      0.2116    418.1200     75.4650     12.3546     12.4460      0.3923   2331.7000     15.3402    -88.3200
175.6000        167.0500      0.1960    420.4800     76.8300     12.2414     12.2188      0.3958   2327.3999     15.6254    -89.5650
175.8000        166.9500      0.1945    422.6000     78.1950     12.0179     11.9958      0.3971   2323.6001     15.6254    -89.3100
176.0000        166.8250      0.2040    422.4000     78.4650     11.7986     11.5619      0.3937   2332.7000     14.5154    -87.8250
176.2000        166.7500      0.2106    424.5200     77.2350     11.9078     11.4559      0.3941   2370.3000     13.9904    -86.8350
176.4000        166.7750      0.2065    428.3600     76.5000     11.9078     11.5619      0.3971   2353.3000     13.2382    -85.3350
176.6000        167.0250      0.1929    427.9200     80.1750     12.0179     12.1068      0.4087   2345.8999     13.4843    -83.5950
176.8000        167.1250      0.1837    427.9200     78.3750     11.9078     12.2188      0.4154   2328.3000     14.9221    -83.3400
177.0000        167.5250      0.1807    428.3600     76.7400     11.7986     12.1068      0.4208   2316.2000     15.9159    -83.1000
177.2000        167.9250      0.1906    430.9200     75.7800     11.9078     11.4559      0.4202   2353.3999     14.7853    -81.1050
177.4000        167.6500      0.1921    429.2000     76.4850     12.0179     11.5619      0.4183   2349.3999     11.8530    -79.8600
177.6000        167.5500      0.1877    430.4800     77.5050     11.9078     11.6689      0.4170   2344.5000     10.9101    -80.3550
177.8000        168.4250      0.1848    429.6400     77.5650     11.6904     11.5619      0.4252   2356.5000     14.2505    -85.3350
178.0000        169.4250      0.1847    426.6400     75.6900     11.5832     11.5619      0.4216   2359.3000     14.7853    -86.3250
178.2000        170.1250      0.1826    422.1600     74.6700     11.6904     11.5619      0.4103   2373.3000     13.8621    -87.0750
178.4000        168.6500      0.1811    417.0400     73.6500     11.6904     11.5619      0.4022   2352.5000     13.8621    -88.8150
178.6000        168.0500      0.1948    416.0000     74.0100     11.5832     11.3509      0.3830   2362.3999     16.9758    -89.0700
178.8000        167.7500      0.2075    414.7200     75.4200     11.4770     11.0415      0.3754   2363.5000     15.9159    -86.3250
179.0000        167.4500      0.2044    412.8000     77.3700     11.3718     10.9403      0.3818   2353.2000     12.8775    -82.3500
179.2000        166.9250      0.1948    416.8400     80.1000     11.1643     10.8400      0.3985   2354.7000     11.3196    -80.8650
179.4000        166.8250      0.1843    418.5600     79.4850     10.9605     10.7406      0.4047   2346.3999     12.5265    -82.3500
