~VERSION INFORMATION
 VERS.                 2.0:   CWLS LOG ASCII STANDARD -VERSION 2.0
 WRAP.                  NO:   ONE LINE PER DEPTH STEP
~WELL INFORMATION BLOCK
#MNEM.UNIT           DATA                    DESCRIPTION OF MNEMONIC
#---------    -------------------            -------------------------------
# Generated from Intellog Unique Number	CC_80_83/WELL/2417
NULL.         -999.25                        : NULL_VALUE
WELL.         ARCO ACI MCMURRAY              : Well_name    - WELL
LOC .         11-29-082-10W4                 : Location     - LOCATION          
UWI .         AA/11-29-082-10W400            : Uwi          - UNIQUE WELL ID    
ENTR.         DW                             : Entered      - ENTERED BY        
SRVC.         DRESSER ATLAS                  : Scn          - SERVICE COMPANY   
DATE.         27 FEB 76                      : Date         - LOG DATE
STRT.M        252.984                        : top_depth    - START DEPTH       
STOP.M        481.591                        : bot_depth    - STOP DEPTH        
STEP.M        0.305                          : increment    - STEP LENGTH       
~CURVE INFORMATION BLOCK
#MNEM UNIT       ERCB CURVE CODE    CURVE DESCRIPTION
#-----------   ------------------   ----------------------------------
DEPT.M        00 001 00 00         : DEPTH        - DEPTH                       
NPHI.V/V      00 330 00 00         : PHIN         - NEUTRON POROSITY (LIMESTONE)
GR  .API      00 310 00 00         : GR           - GAMMA RAY                   
RHOB.KG/M3    00 350 00 00         : DENS         - BULK DENSITY                
ILD .OHMM     00 120 00 00         : RESD         - DEEP RESISTIVITY (DIL)      
~PARAMETER INFORMATION       
#MNEM.UNIT           DATA             DESCRIPTION OF MNEMONIC
#---------         -----------     ------------------------------
GL  .M        710.794              : gl           - GROUND LEVEL ELEVATION      
EREF.M        713.842              : kb           - ELEVATION OF DEPTH REFERENCE
DATM.M        713.842              : datum        - DATUM ELEVATION             
TDD .M        484.022              : tdd          - TOTAL DEPTH DRILLER         
RUN .         ONE                  : Run          - RUN NUMBER                  
ENG .         BILL                 : Engineer     - RECORDING ENGINEER          
WIT .         JIM                  : Witness      - WITNESSED BY                
MUD .         GEL                  : Mud_type     - MUD TYPE                    
MATR.         LIMESTONE            : Logunit      - NEUTRON MATRIX              
TMAX.C        23.3333              : BHT          - MAXIMUM RECORDED TEMPERATURE
BHTD.M        484.022              : BHTDEP       - MAXIMUM RECORDED TEMPERATURE
MATR.         1                    : LOGUNIT      - NEUTRON MATRIX              
RMT .C        25                   : MDTP         - TEMPERATURE OF MUD          
NEUT.         0                    : NEUTRON      - NEUTRON TYPE                
RESI.         0                    : RESIST       - RESISTIVITY TYPE            
RMC .OHMM     0.25                 : RMC          - RESISTIVITY OF MUD CAKE     
RMF .OHMM     0.25                 : RMF          - RESISTIVITY OF MUD FILTRATE 
SUFT.C        15                   : SUFT         - SURFACE TEMPERATURE         
~A  DEPTH     PHIN       GR     DENS     RESD
# ...
  359.058    0.356  124.209 2250.620    4.713
  359.362    0.354  122.993 2218.200    5.897
  359.667    0.346  122.385 2169.570    7.659
  359.972    0.327  119.355 2147.270    9.405
  360.277    0.310  115.721 2129.020   10.521
  360.582    0.306  112.088 2120.900   10.326
  360.886    0.320  106.639 2116.820    9.949
  361.191    0.326  104.819 2124.900    9.765
  361.496    0.325  106.021 2149.180    9.234
  361.801    0.321  107.225 2177.500    8.411
  362.106    0.319  107.822 2211.900    8.103
  362.410    0.320  109.025 2608.770    8.412
  362.715    0.320  109.020 2495.350    9.410
  363.020    0.322  107.801 2252.330    9.588
  363.325    0.325  107.191 2157.120    9.588
  363.630    0.330  107.187 2153.050    9.589
  363.935    0.330  106.578 2148.980    9.589
  364.239    0.328  107.172 2161.110    9.770
  364.544    0.324  107.167 2152.970    9.590
  364.849    0.321  106.558 2152.950    9.591
  365.154    0.321  105.947 2158.990    9.240
  365.459    0.322  105.334 2161.000    9.240
  365.763    0.325  104.726 2165.030    9.241
  366.068    0.326  105.323 2173.100    9.241
  366.373    0.325  105.922 2177.130    9.242
  366.678    0.322  106.521 2183.180    9.242
  366.983    0.318  107.120 2175.060    9.243
  367.287    0.316  105.902 2158.830    9.595
  367.592    0.315  105.897 2164.880    9.777
  367.897    0.318  104.679 2179.030    9.777
  368.202    0.320  104.070 2172.930    9.777
  368.507    0.321  103.459 2164.810    9.778
  368.811    0.318  102.847 2178.960    9.779
  369.116    0.310  101.633 2233.610    9.779
  369.421    0.308  101.628 2184.990   10.152
  369.726    0.310  101.618 2150.530   10.344
  370.031    0.318  102.217 2142.410   10.539
  370.336    0.326  102.212 2132.250   10.739
  370.640    0.324  102.813 2128.190   10.739
  370.945    0.321  104.014 2152.460   10.346
  371.250    0.320  104.610 2176.730   10.155
  371.555    0.321  104.002 2180.760    9.603
  371.860    0.323  103.388 2166.560    9.603
  372.164    0.318  102.173 2158.430    9.604
  372.469    0.315  101.564 2158.420    9.785
  372.774    0.315  101.559 2162.440    9.970
  373.079    0.317  101.550 2152.280   10.159
  373.384    0.319  101.547 2148.220   10.351
  373.688    0.324  101.539 2144.140   10.546
  373.993    0.326  100.930 2154.230   10.547
  374.298    0.326  100.921 2166.360   10.547
  374.603    0.323  101.521 2186.580   10.353
  374.908    0.320  104.537 2196.690   10.353
  375.212    0.319  105.137 2190.590   10.950
  375.517    0.322  104.522 2162.210   12.249
  375.822    0.322  103.913 2164.220   14.223
  376.127    0.319  102.091 2186.470   19.175
  376.432    0.312  100.879 2160.120   23.113
  376.737    0.293   99.059 2200.600   24.906
  377.041    0.266   97.239 2658.210   23.995
  377.346    0.221   94.814 2658.180   17.800
  377.651    0.076   94.201 2621.710   13.204
  377.956    0.065   94.195 2510.310   10.956
  378.261    0.094   96.004 2352.340   10.168
  378.565    0.159   99.627 2226.770    9.615
  378.870    0.265  103.247 2198.400    9.438
  379.175    0.316  104.450 2220.640    9.438
  379.480    0.324  104.443 2230.750    9.617
  379.785    0.322  103.229 2220.600    9.798
  380.089    0.315  103.824 2204.370   10.172
  380.394    0.306  105.027 2200.300   10.172
  380.699    0.305  106.231 2192.170   10.173
  381.004    0.305  106.831 2177.970   10.173
  381.309    0.315  106.215 2169.850   10.174
  381.613    0.321  105.607 2206.270   10.174
  381.918    0.322  104.998 2183.970    9.987
  382.223    0.317  104.386 2190.030    9.803
  382.528    0.315  104.381 2202.150    9.803
  382.833    0.312  103.766 2206.180    9.623
  383.138    0.311  103.762 2196.030    9.623
  383.442    0.312  101.942 2177.780    9.624
  383.747    0.315  101.333 2200.020    9.624
  384.052    0.315  101.927 2220.250    9.625
  384.357    0.312  103.131 2204.030    9.447
  384.662    0.311  103.732 2169.580    9.101
  384.966    0.311  104.935 2171.580    8.447
  385.271    0.316  104.929 2205.970    6.879
  385.576    0.322  104.924 2218.100    5.499
  385.881    0.328  106.731 2240.350    5.009
  386.186    0.333  110.957 2305.130    4.079
  386.490    0.349  118.810 2290.930    3.261
  386.795    0.368  126.661 2272.680    3.141
  387.100    0.364  128.469 2290.880    3.261
  387.405    0.359  128.464 2292.860    4.005
  387.710    0.359  127.852 2294.880    4.650
  388.014    0.359  127.243 2296.880    5.605
  388.319    0.354  125.421 2302.930    6.154
  388.624    0.347  124.207 2323.150    6.509
  388.929    0.332  122.990 2333.250    6.632
  389.234    0.325  122.380 2333.230    6.757
  389.539    0.320  122.979 2337.250    6.885
  389.843    0.321  124.180 2337.230    7.015
  390.148    0.325  124.780 2306.840    6.885
  390.453    0.329  125.982 2203.540    6.511
  390.758    0.329  127.187 2233.890    6.042
  391.063    0.330  127.782 2266.260    5.402
  391.367    0.331  128.382 2292.560    5.109
  391.672    0.333  128.376 2292.530    5.014
  391.977    0.347  128.372 2298.590    4.831
  392.282    0.359  129.573 2312.730    4.568
  392.587    0.367  131.983 2314.730    3.145
  392.891    0.375  132.585 2308.620    2.659
  393.196    0.378  134.390 2304.560    2.609
  393.501    0.380  134.990 2294.410    2.610
  393.806    0.381  135.588 2280.210    2.812
  394.111    0.381  134.978 2268.030    3.146
  394.415    0.378  133.759 2272.060    3.585
  394.720    0.375  132.547 2286.210    4.163
  395.025    0.365  130.725 2296.310    4.656
  395.330    0.357  130.115 2298.320    5.112
  395.635    0.352  130.107 2296.270    5.307
  395.940    0.347  131.312 2292.190    5.509
  396.244    0.342  131.303 2282.040    5.613
  396.549    0.337  131.297 2247.590    6.641
  396.854    0.326  130.688 2233.390    7.856
  397.159    0.316  129.474 2249.570    8.954
  397.464    0.314  128.255 2308.260    9.830
  397.768    0.310  127.646 2304.190   10.205
  398.073    0.296  127.642 2356.820   10.594
  398.378    0.282  129.447 2640.290    9.832
  398.683    0.228  129.443 2597.740    9.472
  398.988    0.164  117.947 2478.240    8.158
  399.292    0.142  118.547 2358.740    6.769
  399.597    0.191  125.191 2362.760    6.052
  399.902    0.234  131.835 2332.370    5.723
  400.207    0.283  130.015 2299.940    5.513
  400.512    0.302  130.010 2289.800    5.618
  400.816    0.312  131.213 2305.970    6.168
  401.121    0.333  132.415 2293.800    6.646
  401.426    0.338  131.803 2214.800    8.162
  401.731    0.339  130.587 2309.950    8.795
  402.036    0.334  128.769 2346.360    8.961
  402.341    0.313  126.345 2340.270    8.796
  402.645    0.282  122.710 2336.200    8.164
  402.950    0.286  121.496 2368.570    7.577
  403.255    0.288  123.905 2400.940    7.032
  403.560    0.295  125.110 2392.820    6.649
  403.865    0.301  126.917 2313.820    6.527
  404.169    0.306  125.700 2283.430    6.527
  404.474    0.309  126.301 2244.920    7.034
  404.779    0.324  129.317 2299.580    7.301
  405.084    0.335  129.916 2360.300    7.723
  405.389    0.338  129.303 2366.350    8.017
  405.693    0.320  127.482 2362.280    8.168
  405.998    0.315  126.873 2366.300    8.323
  406.303    0.315  128.074 2362.210    8.323
  406.608    0.309  129.280 2360.170    8.324
  406.913    0.299  128.667 2350.030    8.170
  407.217    0.292  128.663 2380.370    8.019
  407.522    0.297  127.447 2370.230    7.726
  407.827    0.303  127.440 2289.210    7.170
  408.132    0.306  126.224 2147.440    7.038
  408.437    0.314  123.194 2121.090    7.306
  408.742    0.311  121.376 2262.810    7.585
  409.046    0.297  118.947 2362.010    7.585
  409.351    0.294  118.942 2289.080    7.308
  409.656    0.297  118.938 2293.110    6.910
  409.961    0.304  119.537 2264.730    6.657
  410.266    0.316  121.343 2293.060    6.064
  410.570    0.324  121.942 2274.810    5.032
  410.875    0.336  123.750 2260.610    4.098
  411.180    0.368  126.160 2295.010    3.875
  411.485    0.374  127.970 2309.160    3.948
  411.790    0.375  130.380 2286.860    4.499
