~VERSION INFORMATION
 VERS.                 2.0:   CWLS LOG ASCII STANDARD -VERSION 2.0
 WRAP.                  NO:   ONE LINE PER DEPTH STEP
~WELL INFORMATION BLOCK
#MNEM.UNIT           DATA                    DESCRIPTION OF MNEMONIC
#---------    -------------------            -------------------------------
# Generated from Intellog Unique Number	CN_94_101/WELL/4999
WELL.         10-01-098-08W4                 : Well_name    - WELL
LOC .         AA/10-01-098-08W4/0            : Location     - LOCATION
UWI .         AA/10-01-098-08W400            : Uwi          - UNIQUE WELL ID
ENTR.         TIM                            : Entered      - ENTERED BY
SRVC.         SCHLUMBERGER                   : Scn          - SERVICE COMPANY
DATE.         08/11/92                       : Date         - LOG DATE
STRT.M        0                              : top_depth    - START DEPTH
STOP.M        65                             : bot_depth    - STOP DEPTH
STEP.M        0.25                           : increment    - STEP LENGTH
 NULL. -999.2500:NULL Value
~CURVE INFORMATION BLOCK
#MNEM UNIT       ERCB CURVE CODE    CURVE DESCRIPTION
#-----------   ------------------   ----------------------------------
DEPT.M        00 001 00 00         : DEPTH        - DEPTH
GR  .API      00 310 00 00         : GR           - GAMMA RAY
ILD .OHMM     00 120 00 00         : RESD         - DEEP RESISTIVITY (DIL)
NPHI.V/V      00 330 00 00         : PHIN         - NEUTRON POROSITY (SANDSTONE)
DPHI.V/V      00 890 00 00         : PHID         - DENSITY POROSITY (SANDSTONE)
~PARAMETER INFORMATION
#MNEM.UNIT           DATA             DESCRIPTION OF MNEMONIC
#---------         -----------     ------------------------------
GL  .M        290.6                : gl           - GROUND LEVEL ELEVATION
EREF.M        290.6                : kb           - ELEVATION OF DEPTH REFERENCE
DATM.M        290.6                : datum        - DATUM ELEVATION
TDD .M        71                   : tdd          - TOTAL DEPTH DRILLER
RUN .         ONE                  : Run          - RUN NUMBER
ENG .         BILL                 : Engineer     - RECORDING ENGINEER
WIT .         JIM                  : Witness      - WITNESSED BY
MUD .         GEL                  : Mud_type     - MUD TYPE
MATR.         SANDSTONE            : Logunit      - NEUTRON MATRIX
TMAX.C        10                   : BHT          - MAXIMUM RECORDED TEMPERATURE
BHTD.M        71                   : BHTDEP       - MAXIMUM RECORDED TEMPERATURE
RMT .C        10                   : MDTP         - TEMPERATURE OF MUD
MUDD.KG/M     1090                 : MWT          - MUD DENSITY
NEUT.         1                    : NEUTRON      - NEUTRON TYPE
RESI.         0                    : RESIST       - RESISTIVITY TYPE
RM  .OHMM     13.1                 : RM           - RESISTIVITY OF MUD
RMC .OHMM     13.1                 : RMC          - RESISTIVITY OF MUD CAKE
RMF .OHMM     13.1                 : RMF          - RESISTIVITY OF MUD FILTRATE
SUFT.C        4                    : SUFT         - SURFACE TEMPERATURE
~A  DEPTH       GR     RESD     PHIN     PHID
# ...
   43.500   18.986  391.062    0.576    0.303
   43.750   20.864  385.586    0.575    0.295
   44.000   22.746  380.294    0.575    0.300
   44.250   22.124  375.004    0.576    0.328
   44.500   21.504  375.146    0.578    0.349
   44.750   21.509  380.691    0.579    0.359
   45.000   20.889  391.879    0.579    0.364
   45.250   16.520  403.395    0.580    0.343
   45.500   15.900  452.518    0.585    0.325
   45.750   23.403  500.277    0.596    0.307
   46.000   29.032  553.181    0.603    0.328
   46.250   24.038  530.113    0.607    0.339
   46.500   20.294  553.548    0.610    0.328
   46.750   16.550  629.775    0.613    0.336
   47.000   14.683  791.892    0.612    0.346
   47.250   15.935 1054.330    0.619    0.221
   47.500   20.314 1199.520    0.634    0.237
   47.750   37.189  888.829    0.635    0.262
   48.000   34.694  502.082    0.597    0.299
   48.250   27.201  509.406    0.569    0.332
   48.500   21.583  563.276    0.546    0.357
   48.750   16.589  650.006    0.536    0.336
   49.000   15.971  805.733    0.514    0.335
   49.250   17.851  956.847    0.505    0.312
   49.500   18.479 1311.020    0.655    0.222
   49.750   17.859 1408.670    0.633    0.242
   50.000   16.614 1796.790    0.628    0.260
   50.250   16.620 2759.810    0.616    0.268
   50.500   15.999 3890.620    0.608    0.286
   50.750   14.756 1015.550    0.605    0.297
   51.000   12.886  680.868    0.601    0.309
   51.250   14.766  565.577    0.580    0.318
   51.500   14.772  557.815    0.574    0.319
   51.750   14.151  599.365    0.552    0.314
   52.000   14.154  681.901    0.534    0.320
   52.250   13.536  857.437    0.536    0.315
   52.500   13.541 1158.030    0.560    0.300
   52.750   13.544 2435.910    0.572    0.161
   53.000   12.925 5348.930    0.580    0.133
   53.250   12.930 5053.620    0.575    0.157
   53.500   19.183 4913.070    0.575    0.175
   53.750   22.313 3966.510    0.529    0.197
   54.000   22.317 2240.180    0.480    0.238
   54.250   21.075 2306.010    0.480    0.257
   54.500   21.079 2738.510    0.539    0.266
   54.750   20.458 3594.320    0.547    0.232
   55.000   19.838 3348.000    0.558    0.189
   55.250   19.843 2702.720    0.561    0.196
   55.500   21.724 1812.020    0.555    0.215
   55.750   23.602 1527.000    0.519    0.223
   56.000   26.733 1442.830    0.511    0.248
   56.250   27.986 1422.900    0.500    0.251
   56.500   29.241 1363.690    0.523    0.240
   56.750   31.121 1216.700    0.540    0.205
   57.000   33.001  968.347    0.561    0.226
   57.250   35.505  738.272    0.569    0.251
   57.500   36.758  587.577    0.580    0.264
   57.750   34.264  613.552    0.580    0.275
   58.000   28.645  596.601    0.581    0.287
   58.250   28.652  571.777    0.586    0.287
   58.500   31.155  563.931    0.593    0.278
   58.750   29.285  572.211    0.590    0.270
   59.000   26.166  606.051    0.583    0.268
   59.250   23.047  679.723    0.587    0.261
   59.500   50.544  784.457    0.590    0.247
   59.750   91.787  373.213    0.586    0.244
   60.000  118.660  276.521    0.585    0.238
   60.250  105.543  236.403    0.577    0.214
   60.500   67.434  328.538    0.561    0.161
   60.750   41.196  785.945    0.532    0.064
   61.000   32.454 1002.490    0.507    0.042
   61.250   30.585 1828.060    0.503    0.034
   61.500   30.589 1777.220    0.501    0.031
   61.750   31.220 1727.790    0.499    0.030
   62.000   31.849 1679.740    0.499    0.032
   62.250   35.604 1633.020    0.500    0.036
   62.500   38.107 1521.110    0.501    0.040
   62.750   41.236 1376.680    0.501    0.042
   63.000   45.615 1064.700    0.501    0.046
   63.250   47.495  847.375    0.501    0.047
   63.500   44.375 1020.880    0.501    0.048
   63.750   37.507 1481.050    0.501    0.048
   64.000   28.764 1399.290    0.502    0.041
   64.250   27.521 1266.420    0.502    0.033
   64.500   28.151 1037.150    0.502    0.025
   64.750   29.405  965.985    0.502    0.021
   65.000   29.410 1214.650    0.503    0.018
