~VERSION INFORMATION
 VERS.                 2.0:   CWLS LOG ASCII STANDARD -VERSION 2.0
 WRAP.                  NO:   ONE LINE PER DEPTH STEP
~WELL INFORMATION BLOCK
#MNEM.UNIT           DATA                    DESCRIPTION OF MNEMONIC
#---------    -------------------            -------------------------------
# Generated from Intellog Unique Number	CC_88_90/WELL/3148
WELL.         UNION OIL COMPANY OF CALIFORNI : Well_name    - WELL
LOC .         AA/10-24-090-11W4/0            : Location     - LOCATION
UWI .         AA/10-24-090-11W400            : Uwi          - UNIQUE WELL ID
ENTR.         JOETTE                         : Entered      - ENTERED BY
SRVC.         COMPUTALOG                     : Scn          - SERVICE COMPANY
DATE.         03/11/92                       : Date         - LOG DATE
STRT.M        30.480                         : top_depth    - START DEPTH
STOP.M        131.480                        : bot_depth    - STOP DEPTH
STEP.M        0.25                           : increment    - STEP LENGTH
 NULL. -999.2500:NULL Value
~CURVE INFORMATION BLOCK
#MNEM UNIT       ERCB CURVE CODE    CURVE DESCRIPTION
#-----------   ------------------   ----------------------------------
DEPT.M        00 001 00 00         : DEPTH        - DEPTH
GR  .API      00 310 00 00         : GR           - GAMMA RAY
NPHI.V/V      00 330 00 00         : PHIN         - NEUTRON POROSITY (SANDSTONE)
ILD .OHMM     00 120 00 00         : RESD         - DEEP RESISTIVITY (DIL)
~PARAMETER INFORMATION
#MNEM.UNIT           DATA             DESCRIPTION OF MNEMONIC
#---------         -----------     ------------------------------
GL  .M        412.242              : gl           - GROUND LEVEL ELEVATION
EREF.M        412.242              : kb           - ELEVATION OF DEPTH REFERENCE
DATM.M        412.242              : datum        - DATUM ELEVATION
TDD .M        155.448              : tdd          - TOTAL DEPTH DRILLER
RUN .         ONE                  : Run          - RUN NUMBER
ENG .         BILL                 : Engineer     - RECORDING ENGINEER
WIT .         JIM                  : Witness      - WITNESSED BY
MUD .         GEL                  : Mud_type     - MUD TYPE
MATR.         SANDSTONE            : Logunit      - NEUTRON MATRIX
TMAX.C        60                   : BHT          - MAXIMUM RECORDED TEMPERATURE
BHTD.M        155.448              : BHTDEP       - MAXIMUM RECORDED TEMPERATURE
RMT .C        4.44444              : MDTP         - TEMPERATURE OF MUD
MUDD.KG/M     9041.66              : MWT          - MUD DENSITY
NEUT.         1                    : NEUTRON      - NEUTRON TYPE
RESI.         0                    : RESIST       - RESISTIVITY TYPE
RM  .OHMM     6.8                  : RM           - RESISTIVITY OF MUD
RMC .OHMM     6.8                  : RMC          - RESISTIVITY OF MUD CAKE
RMF .OHMM     4.2                  : RMF          - RESISTIVITY OF MUD FILTRATE
SUFT.C        4                    : SUFT         - SURFACE TEMPERATURE
~A  DEPTH       GR     PHIN     RESD
# ...
   84.730   84.881    0.495    6.207
   84.980   82.425    0.503    6.007
   85.230   80.585    0.518    6.813
   85.480   91.650    0.513    8.223
   85.730  115.622    0.507    9.565
   85.980  122.385    0.491   11.713
   86.230  116.857    0.480    8.428
   86.480  121.162    0.486    9.301
   86.730  121.780    0.491    8.431
   86.980  121.783    0.496    7.695
   87.230  108.880    0.499    8.099
   87.480   92.905    0.497    7.630
   87.730   83.075    0.497    7.498
   87.980  100.286    0.496    7.969
   88.230  124.257    0.470    7.702
   88.480  124.875    0.476    7.301
   88.730  116.889    0.484    7.302
   88.980  111.361    0.490    7.371
   89.230   97.229    0.490    7.104
   89.480   84.940    0.490    7.910
   89.730   64.663    0.494    9.990
   89.980   41.313    0.502   14.217
   90.230   43.774    0.514    7.176
   90.480   40.705    0.527    4.763
   90.730   33.333    0.545    3.558
   90.980   35.179    0.557    3.157
   91.230   59.151    0.554    3.829
   91.480   99.101    0.561    5.507
   91.730  105.250    0.536    6.179
   91.980  108.326    0.516    7.186
   92.230   84.361    0.497    8.060
   92.480   68.385    0.470    8.329
   92.730   48.722    0.455    8.263
   92.980   46.267    0.462    7.997
   93.230   60.406    0.470    7.663
   93.480   65.940    0.479    7.798
   93.730   57.953    0.485   10.214
   93.980   45.050    0.470   24.702
   94.230   45.668    0.464   17.997
   94.480   51.203    0.474    2.237
   94.730   58.581    0.501    2.239
   94.980   58.584    0.617    2.307
   95.230   54.900    0.616    2.711
   95.480   57.975    0.617    3.182
   95.730   63.510    0.617    3.854
   95.980   61.669    0.592    5.331
   96.230   61.673    0.543    5.064
   96.480   55.530    0.522    4.596
   96.730   62.908    0.540    5.402
   96.980   75.817    0.501    7.348
   97.230   83.809    0.489    8.490
   97.480   83.198    0.435   12.515
   97.730   78.284    0.438    6.280
   97.980   67.840    0.489   10.037
   98.230   57.396    0.491   13.123
   98.480   47.566    0.506   19.831
   98.730   35.892    0.534    3.871
   98.980   32.823    0.530    4.074
   99.230   35.284    0.542    3.673
   99.480   38.360    0.557    3.405
   99.730   37.134    0.550    3.608
   99.980   40.210    0.535    3.744
  100.230   46.359    0.526    3.611
  100.480   38.987    0.526    3.546
  100.730   43.907    0.526    3.748
  100.980   48.826    0.519    3.682
  101.230   48.830    0.524    4.019
  101.480   46.989    0.523    4.356
  101.730   46.377    0.520    4.693
  101.980   46.381    0.520    4.425
  102.230   42.697    0.519    4.025
  102.480   48.231    0.517    4.227
  102.730   48.849    0.508    9.191
  102.980   36.560    0.494    3.760
  103.230   29.189    0.498    6.042
  103.480   25.505    0.482    7.787
  103.730   21.820    0.460    9.398
  103.980   31.042    0.443    7.924
  104.230   48.867    0.441   11.078
  104.480   44.568    0.451    8.933
  104.730   42.728    0.452    8.063
  104.980   45.190    0.433    7.796
  105.230   47.651    0.432    7.797
  105.480   71.622    0.436    7.396
  105.730   87.604    0.399    8.605
  105.980   92.523    0.374   12.496
  106.230   94.370    0.382   11.156
  106.480   77.780    0.383    9.682
  106.730   71.638    0.390    9.080
  106.980   86.391    0.387    9.081
  107.230   96.841    0.375    8.882
  107.480   96.230    0.388    8.682
  107.730   95.618    0.409    8.214
  107.980   82.716    0.430    7.678
  108.230   72.272    0.440    7.747
  108.480   64.285    0.396    8.754
  108.730   64.903    0.367   10.030
  108.980   82.728    0.362    8.958
  109.230   82.117    0.379    7.886
  109.480   75.360    0.425    6.815
  109.730   75.363    0.414    6.749
  109.980   77.210    0.402    7.153
  110.230   71.068    0.379    9.971
  110.480   69.227    0.394    9.637
  110.730   66.772    0.378   10.175
  110.980   63.702    0.361    9.707
  111.230   46.498    0.376    9.172
  111.480   45.886    0.379   10.649
  111.730   55.722    0.379   11.321
  111.980   73.548    0.389   10.048
  112.230   83.999    0.384   10.050
  112.480   79.700    0.380   25.544
  112.730   66.797    0.391   29.502
  112.980   48.978    0.400   28.698
  113.230   71.105    0.392   27.358
  113.480   95.691    0.384   24.945
  113.730  123.964    0.379   19.313
  113.980  115.978    0.377   23.674
  114.230  115.981    0.381   31.589
  114.480  124.588    0.395   37.493
  114.730  120.904    0.401   37.897
  114.980   92.637    0.394   37.898
  115.230   76.047    0.391   34.614
  115.480   47.780    0.394   33.072
  115.730   63.762    0.417   16.575
  115.980  106.785    0.403   18.052
  116.230  104.330    0.376   18.590
  116.480  106.176    0.360   20.066
  116.730   93.888    0.365   21.476
  116.980   61.934    0.395   20.941
  117.230   44.115    0.412   19.467
  117.480   65.014    0.409   17.859
  117.730   74.235    0.421   17.189
  117.980   83.457    0.414   16.856
  118.230  113.573    0.420   17.863
  118.480   96.984    0.420   18.066
  118.730   55.196    0.421   18.067
  118.980   39.221    0.417   17.868
  119.230   52.744    0.422   17.802
  119.480   66.882    0.429   19.145
  119.730   77.948    0.434   20.152
  119.980   87.169    0.413   20.154
  120.230   83.485    0.414   20.490
  120.480   75.499    0.429   21.833
  120.730   73.044    0.416   21.700
  120.980   77.349    0.426   21.366
  121.230   74.894    0.435   21.032
  121.480   76.126    0.427   20.900
  121.730   67.525    0.400   20.566
  121.980   63.841    0.391   19.494
  122.230   65.688    0.400   19.294
  122.480   59.545    0.413   17.686
  122.730   54.632    0.405   16.413
  122.980   60.781    0.412   16.146
  123.230   63.242    0.417   15.477
  123.480   58.944    0.417   15.009
  123.730   62.020    0.406   14.608
  123.980   70.627    0.407   14.207
  124.230   73.703    0.405   13.672
  124.480   74.935    0.399   13.740
  124.730   74.324    0.411   13.809
  124.980   71.869    0.408   13.676
  125.230   63.883    0.402   13.476
  125.480   63.885    0.412   13.343
  125.730   66.347    0.418   13.211
  125.980   67.579    0.431   13.145
  126.230   76.187    0.438   13.079
  126.480   71.887    0.428   12.946
  126.730   69.432    0.404   12.814
  126.980   66.362    0.412   12.681
  127.230   66.980    0.425   12.683
  127.480   68.213    0.431   12.684
  127.730   65.757    0.439   12.283
  127.980   67.605    0.438   12.217
  128.230   76.212    0.432   12.084
  128.480   74.371    0.438   11.616
  128.730   70.072    0.446   11.148
  128.980   72.534    0.458   10.814
  129.230   71.308    0.462   10.145
  129.480   67.623    0.438   10.080
  129.730   65.168    0.433   10.349
  129.980   74.390    0.430   10.686
  130.230   71.935    0.424   11.156
  130.480   59.032    0.453   12.567
  130.730   39.369    0.443   12.300
  130.980   20.320    0.440   11.965
  131.230   21.553    0.439   11.632
  131.480   25.243    0.458   12.036
