~VERSION INFORMATION
 VERS.                 2.0:   CWLS LOG ASCII STANDARD -VERSION 2.0
 WRAP.                  NO:   ONE LINE PER DEPTH STEP
~WELL INFORMATION BLOCK
#MNEM.UNIT           DATA                    DESCRIPTION OF MNEMONIC
#---------    -------------------            -------------------------------
# Generated from Intellog Unique Number	CN_91_93/WELL/2634
WELL.         10-29-091-16W4                 : Well_name    - WELL
LOC .         AA/10-29-091-16W4/0            : Location     - LOCATION
UWI .         AA/10-29-091-16W400            : Uwi          - UNIQUE WELL ID
ENTR.         JOETTE                         : Entered      - ENTERED BY
SRVC.         SCHLUMBERGER                   : Scn          - SERVICE COMPANY
DATE.         02/11/92                       : Date         - LOG DATE
STRT.M        75                             : top_depth    - START DEPTH
STOP.M        240                            : bot_depth    - STOP DEPTH
STEP.M        0.25                           : increment    - STEP LENGTH
 NULL. -999.2500:NULL Value
~CURVE INFORMATION BLOCK
#MNEM UNIT       ERCB CURVE CODE    CURVE DESCRIPTION
#-----------   ------------------   ----------------------------------
DEPT.M        00 001 00 00         : DEPTH        - DEPTH
GR  .API      00 310 00 00         : GR           - GAMMA RAY
CALI.MM       00 280 01 00         : CAL          - CALIPER
NPHI.V/V      00 330 00 00         : PHIN         - NEUTRON POROSITY (SANDSTONE)
DPHI.V/V      00 890 00 00         : PHID         - DENSITY POROSITY (SANDSTONE)
ILD .OHMM     00 120 00 00         : RESD         - DEEP RESISTIVITY (DIL)
~PARAMETER INFORMATION
#MNEM.UNIT           DATA             DESCRIPTION OF MNEMONIC
#---------         -----------     ------------------------------
GL  .M        490.6                : gl           - GROUND LEVEL ELEVATION
EREF.M        493.66               : kb           - ELEVATION OF DEPTH REFERENCE
DATM.M        493.66               : datum        - DATUM ELEVATION
TDD .M        249.5                : tdd          - TOTAL DEPTH DRILLER
RUN .         ONE                  : Run          - RUN NUMBER
ENG .         BILL                 : Engineer     - RECORDING ENGINEER
WIT .         JIM                  : Witness      - WITNESSED BY
MUD .         GEL                  : Mud_type     - MUD TYPE
MATR.         SANDSTONE            : Logunit      - NEUTRON MATRIX
TMAX.C        22                   : BHT          - MAXIMUM RECORDED TEMPERATURE
BHTD.M        249.5                : BHTDEP       - MAXIMUM RECORDED TEMPERATURE
RMT .C        21                   : MDTP         - TEMPERATURE OF MUD
MUDD.KG/M     1060                 : MWT          - MUD DENSITY
NEUT.         1                    : NEUTRON      - NEUTRON TYPE
RESI.         0                    : RESIST       - RESISTIVITY TYPE
RM  .OHMM     7.3                  : RM           - RESISTIVITY OF MUD
RMC .OHMM     9.8                  : RMC          - RESISTIVITY OF MUD CAKE
RMF .OHMM     6.8                  : RMF          - RESISTIVITY OF MUD FILTRATE
SUFT.C        4                    : SUFT         - SURFACE TEMPERATURE
~A  DEPTH       GR      CAL     PHIN     PHID     RESD
   75.000   95.430  278.552    0.620    0.278    1.000
   75.250   92.749  278.087    0.620    0.257    4.632
   75.500   84.968  276.620    0.611    0.257    4.389
   75.750   80.490  275.655    0.624    0.250    4.394
   76.000   76.308  275.689    0.593    0.238    5.326
   76.250   74.230  276.232    0.507    0.190    5.631
   76.500   71.248  277.262    0.585    0.091    6.232
   76.750   62.271  275.296    0.643   -0.172    7.553
   77.000   56.585  271.325    0.676    0.157    9.325
   77.250   46.703  288.363    0.563    0.144   13.442
   77.500   43.428  278.895    0.502    0.170   15.287
   77.750   43.428  264.426    0.450    0.289   22.037
   78.000   44.980  258.959    0.470    0.326   23.948
   78.250   46.491  255.497    0.478    0.351   25.092
   78.500   47.407  253.535    0.448    0.353   25.343
   78.750   47.732  253.535    0.432    0.353   25.141
   79.000   47.732  252.608    0.440    0.356   24.714
   79.250   47.776  251.133    0.463    0.357   24.508
   79.500   47.491  249.671    0.497    0.352   24.550
   79.750   48.117  248.205    0.485    0.342   24.339
   80.000   48.133  245.739    0.457    0.327   24.357
   80.250   46.658  241.772    0.454    0.324   24.605
   80.500   48.479  236.801    0.461    0.353   25.315
   80.750   49.995  227.833    0.451    0.364   26.280
   81.000   53.021  214.369    0.403    0.285   27.782
   81.250   51.241  207.897    0.324    0.218   35.574
   81.500   49.464  202.430    0.142    0.173   45.546
   81.750   48.282  200.469    0.080    0.161   58.862
   82.000   48.600  200.499    0.050    0.160   66.940
   82.250   48.636  201.533    0.057    0.176   70.122
   82.500   48.941  204.568    0.099    0.195   70.843
   82.750   48.664  218.105    0.145    0.243   61.842
   83.000   47.182  230.147    0.184    0.278   41.454
   83.250   55.007  241.184    0.479    0.314   30.156
   83.500   70.033  245.219    0.538    0.347   25.152
   83.750   80.256  245.219    0.521    0.406   17.014
   84.000   89.879  248.292    0.464    0.433   13.806
   84.250   95.906  253.828    0.464    0.421    8.761
   84.500   95.922  253.828    0.506    0.326    6.089
   84.750   89.041  257.414    0.558    0.327    4.854
   85.000   81.862  261.437    0.596    0.300    4.516
   85.250   77.682  261.437    0.619    0.289    4.360
   85.500   70.498  264.019    0.574    0.277    5.141
   85.750   60.916  267.541    0.534    0.262    7.146
   86.000   57.939  267.541    0.479    0.271    8.821
   86.250   65.759  270.114    0.494    0.336   10.502
   86.500   71.783  275.654    0.501    0.361   10.609
   86.750   73.904  278.681    0.511    0.318   10.146
   87.000   73.027  298.724    0.483    0.303    8.160
   87.250   81.447  289.256    0.485    0.321    6.931
   87.500   82.368  286.790    0.510    0.285    6.509
   87.750   80.290  286.790    0.527    0.288    6.112
   88.000   78.208  288.867    0.545    0.287    5.954
   88.250   75.828  289.902    0.564    0.285    5.960
   88.500   73.748  288.427    0.589    0.300    5.970
   88.750   71.671  291.471    0.604    0.323    6.027
   89.000   69.591  290.996    0.621    0.330    6.032
   89.250   67.211  290.043    0.619    0.305    6.094
   89.500   65.434  290.043    0.563    0.238    6.269
   89.750   71.753  291.616    0.487    0.252    6.689
   90.000   76.277  293.638    0.499    0.300    7.008
   90.250   76.898  294.173    0.537    0.311    7.078
   90.500   76.616  296.216    0.555    0.295    6.586
   90.750   79.940  298.751    0.561    0.307    5.250
   91.000   91.966  288.274    0.549    0.317    5.020
   91.250   94.684  285.812    0.590    0.322    4.227
   91.500   95.605  286.347    0.632    0.290    4.227
   91.750   93.530  282.380    0.634    0.253    4.084
   92.000   86.949  279.914    0.631    0.168    3.406
   92.250   85.765  279.948    0.591    0.171    3.258
   92.500   91.789  281.983    0.586    0.214    3.258
   92.750   95.713  282.521    0.644    0.283    3.176
   93.000   93.931  283.056    0.643    0.324    3.066
   93.250   99.055  282.590    0.635    0.323    3.066
   93.500   96.372  282.120    0.628    0.316    3.072
   93.750   91.292  283.154    0.646    0.314    3.074
   94.000   89.212  283.693    0.634    0.310    3.105
   94.250   94.336  283.236    0.627    0.304    3.081
   94.500   91.056  283.262    0.653    0.295    3.056
   94.750   86.876  283.322    0.671    0.286    3.056
   95.000   82.998  283.835    0.666    0.250    3.062
   95.250   82.718  283.835    0.653    0.211    3.092
   95.500   85.437  284.403    0.641    0.212    3.181
   95.750   90.859  283.942    0.629    0.247    3.213
   96.000   93.285  283.467    0.632    0.291    3.213
   96.250   93.903  282.501    0.660    0.296    3.251
   96.500   93.624  282.501    0.658    0.294    3.253
   96.750   93.344  282.074    0.626    0.281    3.256
   97.000   95.765  281.112    0.555    0.282    3.256
   97.250   94.586  279.646    0.566    0.280    3.234
   97.500   95.507  278.180    0.581    0.275    3.207
   97.750   95.527  278.180    0.591    0.274    3.239
   98.000   95.253  277.753    0.604    0.279    3.426
   98.250   94.673  277.279    0.577    0.282    3.688
   98.500   92.588  277.279    0.545    0.267    3.935
   98.750   82.109  278.365    0.575    0.257    4.122
   99.000   79.431  280.391    0.590    0.251    4.319
   99.250   80.647  280.930    0.603    0.245    4.525
   99.500   71.065  280.930    0.558    0.239    5.007
   99.750   66.285  281.002    0.487    0.228    6.125
  100.000   68.706  280.032    0.467    0.169    7.631
  100.250   74.733  279.058    0.481    0.207    9.252
  100.500   73.856  278.096    0.514    0.268    9.781
  100.750   77.172  278.096    0.505    0.272   10.434
  101.000   78.698  277.177    0.489    0.275   10.449
  101.250   79.014  277.199    0.522    0.263   10.174
  101.500   78.734  278.738    0.507    0.248    9.555
  101.750   77.555  279.772    0.509    0.234    9.057
  102.000   74.874  279.802    0.484    0.225    8.982
  102.250   70.694  280.837    0.459    0.191   10.988
  102.500   65.314  280.875    0.451    0.226   11.939
  102.750   64.136  286.907    0.453    0.245   14.344
  103.000   62.059  281.444    0.465    0.295   15.162
  103.250   59.376  278.973    0.484    0.289   16.329
  103.500   56.702  278.520    0.474    0.285   16.794
  103.750   56.719  279.046    0.455    0.285   17.437
  104.000   57.340  279.106    0.450    0.293   17.437
  104.250   55.860  279.619    0.450    0.296   17.640
  104.500   56.779  280.149    0.465    0.299   17.488
  104.750   64.303  280.188    0.450    0.281   16.576
  105.000   64.927  280.718    0.442    0.273   15.425
  105.250   61.941  292.759    0.466    0.249   14.749
  105.500   64.668  292.759    0.478    0.291   13.725
  105.750   67.992  280.355    0.474    0.283   12.772
  106.000   69.510  280.368    0.493    0.261   11.672
  106.250   67.428  281.394    0.513    0.175   11.163
  106.500   61.147  281.394    0.465    0.195   12.580
  106.750   63.870  281.462    0.411    0.236   15.533
  107.000   63.291  279.996    0.416    0.254   15.533
  107.250   60.611  279.996    0.378    0.236   18.346
  107.500   58.534  278.565    0.368    0.191   19.387
  107.750   59.452  276.103    0.378    0.173   19.763
  108.000   64.573  276.141    0.381    0.168   20.146
  108.250   70.295  276.171    0.403    0.172   20.171
  108.500   79.318  276.710    0.461    0.280   18.427
  108.750   82.642  279.249    0.487    0.282   12.693
  109.000   86.263  280.779    0.474    0.263   11.705
  109.250   94.386  281.810    0.490    0.247    9.764
  109.500   93.809  280.844    0.551    0.250    8.144
  109.750   89.628  276.377    0.580    0.248    6.610
  110.000   86.646  269.910    0.603    0.215    5.931
  110.250   90.567  272.449    0.555    0.155    4.857
  110.500   97.495  274.992    0.502    0.219    3.942
  110.750   99.313  272.022    0.504    0.252    3.840
  111.000  100.236  270.551    0.520    0.255    3.844
  111.250   99.957  268.585    0.550    0.254    3.844
