~VERSION INFORMATION
 VERS.                 2.0:   CWLS LOG ASCII STANDARD -VERSION 2.0
 WRAP.                  NO:   ONE LINE PER DEPTH STEP
~WELL INFORMATION BLOCK
#MNEM.UNIT           DATA                    DESCRIPTION OF MNEMONIC
#---------    -------------------            -------------------------------
# Generated from Intellog Unique Number	CC_84_87/WELL/2329
NULL.         -999.25                        : NULL_VALUE
WELL.         SUN CHEECHAM                   : Well_name    - WELL              
LOC .         11-17-084-07W4                 : Location     - LOCATION          
UWI .         AA/11-17-084-07W4/0            : Uwi          - UNIQUE WELL ID    
ENTR.         RJA                            : Entered      - ENTERED BY        
SRVC.         SCHLUMBERGER                   : Scn          - SERVICE COMPANY   
DATE.         02 FEB 80                      : Date         - LOG DATE
STRT.M        215                            : top_depth    - START DEPTH       
STOP.M        478.091                        : bot_depth    - STOP DEPTH        
STEP.M        0.3                            : increment    - STEP LENGTH       
~CURVE INFORMATION BLOCK
#MNEM UNIT       ERCB CURVE CODE    CURVE DESCRIPTION
#-----------   ------------------   ----------------------------------
DEPT.M        00 001 00 00         : DEPTH        - DEPTH                       
DPHI.V/V      00 890 00 00         : PHID         - DENSITY POROSITY (LIMESTONE)
NPHI.V/V      00 330 00 00         : PHIN         - NEUTRON POROSITY (LIMESTONE)
GR  .API      00 310 00 00         : GR           - GAMMA RAY                   
ILD .OHMM     00 120 00 00         : RESD         - DEEP RESISTIVITY (DIL)      
~PARAMETER INFORMATION       
#MNEM.UNIT           DATA             DESCRIPTION OF MNEMONIC
#---------         -----------     ------------------------------
GL  .M        679.4                : gl           - GROUND LEVEL ELEVATION      
EREF.M        682.4                : kb           - ELEVATION OF DEPTH REFERENCE
DATM.M        682.4                : datum        - DATUM ELEVATION             
TDD .M        482                  : tdd          - TOTAL DEPTH DRILLER         
RUN .         ONE                  : Run          - RUN NUMBER                  
ENG .         BILL                 : Engineer     - RECORDING ENGINEER          
WIT .         JIM                  : Witness      - WITNESSED BY                
MUD .         GEL                  : Mud_type     - MUD TYPE                    
MATR.         LIMESTONE            : Logunit      - NEUTRON MATRIX              
TMAX.C        43                   : BHT          - MAXIMUM RECORDED TEMPERATURE
BHTD.M        482                  : BHTDEP       - MAXIMUM RECORDED TEMPERATURE
MATR.         1                    : LOGUNIT      - NEUTRON MATRIX              
RMT .C        25                   : MDTP         - TEMPERATURE OF MUD          
NEUT.         1                    : NEUTRON      - NEUTRON TYPE                
RESI.         0                    : RESIST       - RESISTIVITY TYPE            
RMC .OHMM     0.25                 : RMC          - RESISTIVITY OF MUD CAKE     
RMF .OHMM     0.25                 : RMF          - RESISTIVITY OF MUD FILTRATE 
SUFT.C        4                    : SUFT         - SURFACE TEMPERATURE         
~A  DEPTH     PHID     PHIN       GR     RESD
# ...
  371.596    0.355    0.512   98.702    6.450
  371.896    0.333    0.525   95.691    7.770
  372.196    0.273    0.509   96.294    9.186
  372.496    0.249    0.425   98.705   10.863
  372.796    0.297    0.413   99.910   10.868
  373.096    0.266    0.419   97.502   10.096
  373.396    0.243    0.441   95.093    9.378
  373.696    0.253    0.462   95.094    9.211
  373.996    0.277    0.451   98.710    8.558
  374.296    0.321    0.445   99.915    7.659
  374.596    0.329    0.464  101.723    6.021
  374.896    0.370    0.535   90.278    5.593
  375.196    0.403    0.560   87.267    4.915
  375.496    0.426    0.551   90.281    4.917
  375.796    0.415    0.527   93.293    5.299
  376.096    0.428    0.514   95.704    5.711
  376.396    0.455    0.536   88.476    6.153
  376.695    0.414    0.517   89.080    7.011
  376.995    0.435    0.517   90.285    7.696
  377.295    0.384    0.526   85.467    8.450
  377.595    0.271    0.436   84.263    8.774
  377.895    0.286    0.435   86.072    8.942
  378.195    0.314    0.427   87.880    8.155
  378.495    0.338    0.424   90.291    6.292
  378.795    0.370    0.423   91.496    4.264
  379.095    0.426    0.491   92.702    3.888
  379.395    0.427    0.520   91.498    3.749
  379.695    0.398    0.542   92.102    3.892
  379.995    0.373    0.561   92.102    5.051
  380.295    0.360    0.541   91.501    5.861
  380.595    0.310    0.503   92.104    7.060
  380.895    0.279    0.442   93.310    7.896
  381.195    0.265    0.423   93.311    8.509
  381.495    0.251    0.407   89.095    8.204
  381.795    0.248    0.408   86.084    7.480
  382.095    0.240    0.458   84.880    8.686
  382.395    0.257    0.466   81.869    9.535
  382.695    0.265    0.461   78.858    9.716
  382.995    0.216    0.446   78.859   10.280
  383.295    0.178    0.440   81.270   10.477
  383.595    0.255    0.425   83.680   10.481
  383.895    0.239    0.444   83.681   10.294
  384.195    0.209    0.442   84.887    8.880
  384.495    0.227    0.423   89.105    7.803
  384.795    0.266    0.420   91.515    7.383
  385.095    0.278    0.465   96.938    6.252
  385.395    0.285    0.525   92.722    6.254
  385.695    0.295    0.502   89.711    6.866
  385.995    0.334    0.518   92.724    7.537
  386.295    0.343    0.502   95.737    8.275
  386.595    0.372    0.503   95.738    8.279
  386.895    0.387    0.520   92.727    7.411
  387.195    0.384    0.519   89.114    5.613
  387.495    0.378    0.509   84.295    3.875
  387.795    0.427    0.525   78.874    3.103
  388.095    0.473    0.530   75.261    2.936
  388.395    0.473    0.561   76.467    3.165
  388.695    0.467    0.562   77.672    3.410
  388.995    0.320    0.526   80.083    3.886
  389.295    0.290    0.489   84.301    4.266
  389.595    0.305    0.494   89.121    4.596
  389.895    0.360    0.535   83.098    4.954
  390.195    0.369    0.535   81.292    5.049
  390.495    0.337    0.420   86.113    4.959
  390.795    0.315    0.429   87.318    4.607
  391.095    0.405    0.488   89.728    3.900
  391.395    0.445    0.548   92.742    3.760
  391.695    0.428    0.566   93.947    3.832
  391.995    0.392    0.543   97.563    3.834
  392.295    0.355    0.516   98.166    3.562
  392.595    0.352    0.519   95.155    3.309
  392.895    0.381    0.552  101.181    3.374
  393.195    0.385    0.571  100.579    3.438
  393.495    0.346    0.541   95.761    3.636
  393.795    0.337    0.531   93.954    3.919
  394.095    0.346    0.532   92.148    4.146
  394.395    0.326    0.528   94.559    4.552
  394.695    0.339    0.513   95.764    4.639
  394.995    0.355    0.505   93.958    4.816
  395.295    0.373    0.494   90.947    5.095
  395.595    0.380    0.491   87.936    5.193
  395.895    0.328    0.492   87.335    5.394
  396.195    0.361    0.490   88.540    5.706
  396.495    0.309    0.482   89.746    5.924
  396.795    0.339    0.477   89.747    6.266
  397.095    0.376    0.477   87.941    6.628
  397.395    0.262    0.455   86.135    6.632
  397.695    0.309    0.457   83.726    6.047
  397.995    0.317    0.492   82.522    5.619
  398.295    0.414    0.551   81.318    5.416
  398.595    0.343    0.492   77.705    5.521
  398.895    0.299    0.447   75.296    7.031
  399.195    0.321    0.449   74.695    8.469
  399.495    0.340    0.434   75.900   12.055
  399.795    0.341    0.416   74.094   15.642
  400.095    0.272    0.419   99.388    8.488
  400.395    0.295    0.472  101.825    8.028
  400.695    0.309    0.486   93.286    8.177
  400.995    0.303    0.470   77.431    9.310
  401.294    0.308    0.392   65.843   11.000
  401.594    0.307    0.386   74.987   13.742
  401.894    0.268    0.412   81.082   14.527
  402.194    0.226    0.401   78.031   15.643
  402.494    0.223    0.388   79.248   14.255
  402.794    0.255    0.383   87.172   11.839
  403.094    0.250    0.377   96.316   10.396
  403.394    0.237    0.402  105.460    8.634
  403.694    0.203    0.417  112.775    7.442
  403.994    0.221    0.435  120.699    6.657
  404.294    0.209    0.453  122.526    6.413
  404.594    0.208    0.436  119.475    6.655
  404.894    0.246    0.418  112.156    7.035
  405.194    0.239    0.410   99.959    9.823
  405.494    0.282    0.423   86.542   14.235
  405.794    0.293    0.405   76.784   21.015
  406.094    0.291    0.388   63.977   25.297
  406.394    0.251    0.394   68.852   26.249
  406.694    0.250    0.401   68.850   22.208
  406.994    0.258    0.399   68.238   19.501
  407.294    0.243    0.366   77.382   15.898
  407.594    0.223    0.369   90.794   14.488
  407.894    0.202    0.411   99.938   13.701
  408.194    0.234    0.423   95.666   13.200
  408.494    0.212    0.394   92.616   12.718
  408.794    0.223    0.354   97.492   13.952
  409.094    0.261    0.369   87.733   18.088
  409.394    0.256    0.383   75.536   25.730
  409.694    0.307    0.375   68.217   38.696
  409.994    0.301    0.362   64.556   62.680
  410.294    0.293    0.358   65.164  101.529
  410.594    0.296    0.373   76.137  109.335
  410.894    0.316    0.389   66.988   75.427
  411.194    0.313    0.384   56.011   42.428
  411.494    0.270    0.371   59.057   31.525
  411.794    0.238    0.366   81.615   23.862
  412.094    0.245    0.381   78.564   20.567
  412.394    0.296    0.397   70.025   17.401
  412.694    0.268    0.388   73.072   16.765
  412.994    0.290    0.360   63.923   22.558
  413.294    0.292    0.359   47.457   48.265
  413.594    0.339    0.381   38.309   79.643
  413.894    0.322    0.400   29.161  109.166
  414.194    0.327    0.394   26.719  201.347
  414.494    0.337    0.362   29.765  509.118
  414.794    0.332    0.358   35.251  212.817
  415.094    0.316    0.371   43.784  265.851
  415.394    0.328    0.377   50.490  302.685
  415.694    0.321    0.411   58.414  124.202
  415.994    0.330    0.418   59.632  121.897
  416.294    0.324    0.397   63.897  146.732
  416.594    0.332    0.401   68.163  170.192
  416.894    0.321    0.399   67.550  170.168
  417.194    0.326    0.386   69.378   16.423
  417.494    0.336    0.405   79.741   11.121
  417.794    0.280    0.412   93.763    9.236
  418.094    0.257    0.425  105.346    8.417
  418.394    0.266    0.442  112.051    7.814
  418.694    0.284    0.448  104.731    7.669
  418.994    0.247    0.459  112.047    8.259
  419.294    0.237    0.470  110.825    8.730
  419.594    0.246    0.484  105.334    9.939
  419.894    0.191    0.476  100.453   10.314
  420.194    0.139    0.400   98.623   10.506
  420.494    0.129    0.390  108.376    9.397
  420.794    0.200    0.418  114.472    8.564
  421.094    0.227    0.441  112.030    9.750
  421.394    0.247    0.461  108.369   12.180
  421.694    0.293    0.472   80.928   15.216
  421.994    0.318    0.432   77.268   16.386
  422.294    0.244    0.403   83.362   15.211
  422.594    0.220    0.373   87.628   12.870
  422.894    0.212    0.361   90.674   11.948
  423.194    0.219    0.370   89.453   14.382
  423.494    0.220    0.378   77.866   22.447
