~VERSION INFORMATION
 VERS.                 2.0:   CWLS LOG ASCII STANDARD -VERSION 2.0
 WRAP.                  NO:   ONE LINE PER DEPTH STEP
~WELL INFORMATION BLOCK
#MNEM.UNIT           DATA                    DESCRIPTION OF MNEMONIC
#---------    -------------------            -------------------------------
# Generated from Intellog Unique Number	CS_73_76/WELL/3235
WELL.         HOME OIL COMPANY LIMITED       : Well_name    - WELL
LOC .         AA/10-14-076-07W4/0            : Location     - LOCATION
UWI .         AA/10-14-076-07W4/0            : Uwi          - UNIQUE WELL ID
ENTR.         SP                             : Entered      - ENTERED BY
SRVC.         SCHLUMBERGER                   : Scn          - SERVICE COMPANY
STRT.M        175                            : top_depth    - START DEPTH
STOP.M        405                            : bot_depth    - STOP DEPTH
STEP.M        0.25                           : increment    - STEP LENGTH
 NULL. -999.2500:NULL Value
~CURVE INFORMATION BLOCK
#MNEM UNIT       ERCB CURVE CODE    CURVE DESCRIPTION
#-----------   ------------------   ----------------------------------
DEPT.M        00 001 00 00         : DEPTH        - DEPTH
DPHI.V/V      00 890 00 00         : PHID         - DENSITY POROSITY (LIMESTONE)
NPHI.V/V      00 330 00 00         : PHIN         - NEUTRON POROSITY (LIMESTONE)
GR  .API      00 310 00 00         : GR           - GAMMA RAY
ILD .OHMM     00 120 00 00         : RESD         - DEEP RESISTIVITY (DIL)
~PARAMETER INFORMATION
#MNEM.UNIT           DATA             DESCRIPTION OF MNEMONIC
#---------         -----------     ------------------------------
GL  .M        590.89               : gl           - GROUND LEVEL ELEVATION
EREF.M        594.34               : kb           - ELEVATION OF DEPTH REFERENCE
DATM.M        590.89               : datum        - DATUM ELEVATION
TDD .M        430                  : tdd          - TOTAL DEPTH DRILLER
RUN .         ONE                  : Run          - RUN NUMBER
ENG .         BILL                 : Engineer     - RECORDING ENGINEER
WIT .         JIM                  : Witness      - WITNESSED BY
MUD .         GEL                  : Mud_type     - MUD TYPE
MATR.         LIMESTONE            : Logunit      - NEUTRON MATRIX
TMAX.C        21                   : BHT          - MAXIMUM RECORDED TEMPERATURE
BHTD.M        430                  : BHTDEP       - MAXIMUM RECORDED TEMPERATURE
MATR.         1                    : LOGUNIT      - NEUTRON MATRIX
RMT .C        25                   : MDTP         - TEMPERATURE OF MUD
NEUT.         1                    : NEUTRON      - NEUTRON TYPE
RESI.         0                    : RESIST       - RESISTIVITY TYPE
RMC .OHMM     0.25                 : RMC          - RESISTIVITY OF MUD CAKE
RMF .OHMM     0.25                 : RMF          - RESISTIVITY OF MUD FILTRATE
SUFT.C        15                   : SUFT         - SURFACE TEMPERATURE
~A  DEPTH     PHID     PHIN       GR     RESD
  175.000    0.285    0.566  108.538    4.769
  175.250    0.280    0.573  106.104    4.769
  175.500    0.277    0.479  100.012    4.769
  175.750    0.287    0.495   98.189    4.769
  176.000    0.297    0.582  104.903    4.951
  176.250    0.285    0.594  104.300    5.045
  176.500    0.275    0.577  100.649    4.950
  176.750    0.285    0.553  100.655    4.950
  177.000    0.276    0.552  101.878    4.857
  177.250    0.271    0.573  100.665    4.857
  177.500    0.282    0.594  100.671    4.766
  177.750    0.293    0.606  103.727    4.856
  178.000    0.300    0.538  102.513    4.856
  178.250    0.291    0.491  101.302    4.856
  178.500    0.285    0.511  100.696    4.855
  178.750    0.285    0.528  100.092    4.855
  179.000    0.283    0.539   98.269    4.947
  179.250    0.281    0.536   97.056    5.435
  179.500    0.286    0.528   98.892    5.333
  179.750    0.283    0.514   98.288    5.136
  180.000    0.282    0.526   96.464    5.039
  180.250    0.291    0.556   96.471    4.945
  180.500    0.266    0.574   97.086    4.945
  180.750    0.264    0.561   97.094    4.944
  181.000    0.287    0.580   97.708    4.944
  181.250    0.315    0.550   98.933    4.944
  181.500    0.295    0.539   93.454    4.851
  181.750    0.277    0.525   91.628    4.851
  182.000    0.272    0.514   88.587    4.850
  182.250    0.293    0.545   87.372    4.760
  182.500    0.288    0.502   90.427    4.671
  182.750    0.279    0.492   89.824    4.759
  183.000    0.286    0.503   87.391    4.670
  183.250    0.295    0.530   87.397    4.583
  183.500    0.295    0.551   90.452    4.497
  183.750    0.295    0.543   88.632    4.330
  184.000    0.301    0.536   88.634    4.249
  184.250    0.305    0.541   91.690    4.092
  184.500    0.309    0.547   94.135    4.015
  184.750    0.314    0.552   95.360    4.091
  185.000    0.317    0.557   91.100    4.411
  185.250    0.317    0.569   89.276    5.225
  185.500    0.307    0.559   83.793    6.426
  185.750    0.287    0.494   69.774    7.904
  186.000    0.296    0.448   58.195   11.517
  186.250    0.317    0.377   49.055   16.467
  186.500    0.343    0.387   49.061   21.837
  186.750    0.359    0.409   57.605   21.428
  187.000    0.345    0.433   67.976   19.873
  187.250    0.353    0.426   86.885   17.749
  187.500    0.340    0.443   94.208   16.773
  187.750    0.302    0.461   96.043   16.460
  188.000    0.291    0.480   93.001   17.415
  188.250    0.331    0.444   86.908   19.495
  188.500    0.368    0.440   58.867   23.092
  188.750    0.361    0.447   52.165   24.896
  189.000    0.356    0.425   46.074   26.841
  189.250    0.376    0.421   45.469   27.868
  189.500    0.396    0.442   46.696   28.396
  189.750    0.374    0.455   49.750   29.483
  190.000    0.367    0.460   48.537   29.481
  190.250    0.372    0.448   46.104   29.479
  190.500    0.372    0.445   47.940   29.477
  190.750    0.376    0.461   50.994   28.387
  191.000    0.369    0.473   55.269   27.335
  191.250    0.389    0.495   59.545   26.824
  191.500    0.406    0.509   62.598   26.322
  191.750    0.378    0.470   67.482   25.347
  192.000    0.349    0.433   69.319   23.508
  192.250    0.360    0.407   72.373   20.996
  192.500    0.380    0.432   88.232   17.723
  192.750    0.334    0.479   96.165   15.244
  193.000    0.263    0.478   99.220   12.628
  193.250    0.208    0.468  102.275   11.279
  193.500    0.229    0.487  108.988   10.074
  193.750    0.240    0.514  113.873    8.503
  194.000    0.219    0.514  115.707    7.886
  194.250    0.235    0.505  116.934    7.043
  194.500    0.252    0.520  115.109    6.656
  194.750    0.234    0.512  116.337    6.410
  195.000    0.208    0.509  116.952    6.409
  195.250    0.217    0.522  113.909    7.175
  195.500    0.218    0.531  102.330    8.499
  195.750    0.226    0.518   80.384   10.652
  196.000    0.249    0.482   73.074   12.857
  196.250    0.284    0.456   77.957   14.393
  196.500    0.298    0.463   87.110   15.228
  196.750    0.306    0.463   88.947   17.048
  197.000    0.324    0.444   88.341   18.380
  197.250    0.347    0.461   79.201   18.378
  197.500    0.375    0.472   68.232   17.044
  197.750    0.386    0.474   67.019   13.597
  198.000    0.363    0.474   95.073   10.061
  198.250    0.263    0.483  107.275    8.334
  198.500    0.246    0.499  111.549    7.305
  198.750    0.241    0.550  112.165    7.034
  199.000    0.247    0.565  109.732    8.024
  199.250    0.277    0.574   88.397   11.473
  199.500    0.299    0.524   76.207   13.849
  199.750    0.296    0.406   73.775   16.716
  200.000    0.291    0.386   71.952   20.950
  200.250    0.293    0.400   70.129   22.166
  200.500    0.303    0.406   67.087   23.014
  200.750    0.307    0.404   65.262   23.012
  201.000    0.294    0.407   61.611   23.011
  201.250    0.293    0.417   59.787   23.009
  201.500    0.307    0.429   57.963   21.745
  201.750    0.320    0.420   61.019   20.549
  202.000    0.329    0.417   65.292   19.420
  202.250    0.305    0.397   67.130   18.352
  202.500    0.283    0.385   68.355   17.343
  202.750    0.281    0.388   70.799   16.701
  203.000    0.270    0.397   73.854   15.783
  203.250    0.275    0.409   75.689   15.488
  203.500    0.287    0.418   75.085   14.914
  203.750    0.292    0.421   73.262   14.363
  204.000    0.289    0.408   76.929   14.362
  204.250    0.282    0.409   79.372   13.572
  204.500    0.271    0.418   81.817   13.318
  204.750    0.256    0.424   79.995   13.069
  205.000    0.265    0.418   76.951   12.824
  205.250    0.271    0.419   73.300   13.067
  205.500    0.272    0.420   73.306   13.066
  205.750    0.282    0.410   76.973   13.065
  206.000    0.277    0.391   78.194   13.064
  206.250    0.275    0.399   81.250   13.064
  206.500    0.270    0.420   81.256   13.311
  206.750    0.267    0.426   77.604   14.351
  207.000    0.271    0.429   75.780   15.766
  207.250    0.283    0.427   81.885   16.997
  207.500    0.300    0.411   87.987   17.984
  207.750    0.311    0.429   91.654   17.646
  208.000    0.308    0.443   93.488   17.316
  208.250    0.304    0.454   95.324   16.675
  208.500    0.306    0.454   95.329   16.674
  208.750    0.295    0.439   94.725   16.673
  209.000    0.299    0.446   95.342   16.672
  209.250    0.298    0.457   95.347   17.311
  209.500    0.293    0.465   90.475   18.663
  209.750    0.293    0.454   75.847   19.745
  210.000    0.293    0.435   69.145   20.502
  210.250    0.276    0.389   67.323   21.286
  210.500    0.232    0.384   66.110   21.689
  210.750    0.227    0.384   66.726   22.099
  211.000    0.237    0.387   68.564   22.098
  211.250    0.251    0.392   69.177   22.944
  211.500    0.272    0.377   67.963   23.823
  211.750    0.285    0.397   64.312   24.735
  212.000    0.289    0.414   62.488   25.204
  212.250    0.298    0.399   60.054   25.201
  212.500    0.320    0.400   67.379   24.729
  212.750    0.318    0.411   71.042   23.815
  213.000    0.309    0.421   71.659   21.674
  213.250    0.293    0.418   72.275   20.101
  213.500    0.280    0.393   78.377   17.953
  213.750    0.268    0.379   83.262   16.339
  214.000    0.260    0.373   88.755   14.594
  214.250    0.250    0.378   97.298   13.282
  214.500    0.235    0.390  107.062   11.863
  214.750    0.224    0.398  110.725   11.001
  215.000    0.217    0.416  106.463   10.396
  215.250    0.207    0.426  104.030   10.202
  215.500    0.206    0.420  102.819   10.999
  215.750    0.217    0.432  101.604   11.858
  216.000    0.230    0.413   99.171   13.028
  216.250    0.245    0.399   94.299   13.527
  216.500    0.251    0.407   91.865   13.526
  216.750    0.253    0.413   93.091   12.544
  217.000    0.246    0.413  101.634   11.416
  217.250    0.235    0.400  108.957   10.789
  217.500    0.220    0.424  115.061   10.006
  217.750    0.220    0.465  118.115    9.455
  218.000    0.226    0.471  116.903    9.455
  218.250    0.234    0.462  113.249    9.634
