~VERSION INFORMATION
 VERS.                 2.0:   CWLS LOG ASCII STANDARD -VERSION 2.0
 WRAP.                  NO:   ONE LINE PER DEPTH STEP
~WELL INFORMATION BLOCK
#MNEM.UNIT           DATA                    DESCRIPTION OF MNEMONIC
#---------    -------------------            -------------------------------
# Generated from Intellog Unique Number	CN_91_93/WELL/2634
WELL.         10-29-091-16W4                 : Well_name    - WELL
LOC .         AA/10-29-091-16W4/0            : Location     - LOCATION
UWI .         AA/10-29-091-16W400            : Uwi          - UNIQUE WELL ID
ENTR.         JOETTE                         : Entered      - ENTERED BY
SRVC.         SCHLUMBERGER                   : Scn          - SERVICE COMPANY
DATE.         02/11/92                       : Date         - LOG DATE
STRT.M        75                             : top_depth    - START DEPTH
STOP.M        240                            : bot_depth    - STOP DEPTH
STEP.M        0.25                           : increment    - STEP LENGTH
 NULL. -999.2500:NULL Value
~CURVE INFORMATION BLOCK
#MNEM UNIT       ERCB CURVE CODE    CURVE DESCRIPTION
#-----------   ------------------   ----------------------------------
DEPT.M        00 001 00 00         : DEPTH        - DEPTH
GR  .API      00 310 00 00         : GR           - GAMMA RAY
CALI.MM       00 280 01 00         : CAL          - CALIPER
NPHI.V/V      00 330 00 00         : PHIN         - NEUTRON POROSITY (SANDSTONE)
DPHI.V/V      00 890 00 00         : PHID         - DENSITY POROSITY (SANDSTONE)
ILD .OHMM     00 120 00 00         : RESD         - DEEP RESISTIVITY (DIL)
~PARAMETER INFORMATION
#MNEM.UNIT           DATA             DESCRIPTION OF MNEMONIC
#---------         -----------     ------------------------------
GL  .M        490.6                : gl           - GROUND LEVEL ELEVATION
EREF.M        493.66               : kb           - ELEVATION OF DEPTH REFERENCE
DATM.M        493.66               : datum        - DATUM ELEVATION
TDD .M        249.5                : tdd          - TOTAL DEPTH DRILLER
RUN .         ONE                  : Run          - RUN NUMBER
ENG .         BILL                 : Engineer     - RECORDING ENGINEER
WIT .         JIM                  : Witness      - WITNESSED BY
MUD .         GEL                  : Mud_type     - MUD TYPE
MATR.         SANDSTONE            : Logunit      - NEUTRON MATRIX
TMAX.C        22                   : BHT          - MAXIMUM RECORDED TEMPERATURE
BHTD.M        249.5                : BHTDEP       - MAXIMUM RECORDED TEMPERATURE
RMT .C        21                   : MDTP         - TEMPERATURE OF MUD
MUDD.KG/M     1060                 : MWT          - MUD DENSITY
NEUT.         1                    : NEUTRON      - NEUTRON TYPE
RESI.         0                    : RESIST       - RESISTIVITY TYPE
RM  .OHMM     7.3                  : RM           - RESISTIVITY OF MUD
RMC .OHMM     9.8                  : RMC          - RESISTIVITY OF MUD CAKE
RMF .OHMM     6.8                  : RMF          - RESISTIVITY OF MUD FILTRATE
SUFT.C        4                    : SUFT         - SURFACE TEMPERATURE
~A  DEPTH       GR      CAL     PHIN     PHID     RESD
# ...
  221.000  101.014  242.333    0.406    0.168   13.367
  221.250   98.075  242.333    0.410    0.164   15.204
  221.500   93.948  241.958    0.397    0.188   17.293
  221.750   87.442  240.025    0.410    0.221   20.592
  222.000   88.966  237.591    0.415    0.247   20.592
  222.250   93.463  233.188    0.422    0.265   21.832
  222.500   94.979  227.299    0.423    0.248   23.718
  222.750   95.901  221.418    0.375    0.236   24.196
  223.000   97.128  215.019    0.360    0.227   19.299
  223.250   94.780  210.121    0.376    0.176   17.488
  223.500   81.734  212.174    0.389    0.157   16.584
  223.750   78.498  211.728    0.401    0.137   16.456
  224.000   88.341  197.409    0.334    0.074   19.779
  224.250   98.784  188.555    0.333    0.164   19.991
  224.500   96.741  190.105    0.359    0.188   18.954
  224.750   88.753  190.650    0.383    0.204   18.139
  225.000   85.806  191.202    0.422    0.269   18.337
  225.250   83.165  191.251    0.395    0.262   20.667
  225.500   81.419  191.251    0.385    0.230   29.255
  225.750   79.075  189.906    0.387    0.240   34.851
  226.000   76.425  189.453    0.372    0.292   35.532
  226.250   72.000  189.453    0.370    0.292   36.906
  226.500   72.034  189.573    0.385    0.282   37.642
  226.750   75.643  189.616    0.397    0.286   38.052
  227.000   75.975  194.627    0.405    0.283   37.758
  227.250   79.274  200.636    0.404    0.271   36.798
  227.500   85.848  204.160    0.381    0.244   28.067
  227.750   91.241  205.703    0.373    0.223   25.885
  228.000   94.842  205.703    0.369    0.191   21.813
  228.250   93.683  206.807    0.371    0.195   18.208
  228.500   86.285  207.359    0.390    0.196   17.581
  228.750   79.779  207.423    0.416    0.194   16.522
  229.000   75.944  206.984    0.465    0.268   16.105
  229.250   73.010  208.031    0.483    0.305   25.192
  229.500   76.615  215.527    0.477    0.303   28.142
  229.750   83.779  219.554    0.443    0.268   27.941
  230.000   89.767  221.585    0.405    0.236   26.020
  230.250   92.774  222.137    0.396    0.219   23.569
  230.500   95.776  222.689    0.389    0.208   21.163
  230.750   89.865  222.250    0.415    0.203   18.324
  231.000   71.166  222.300    0.428    0.208   18.324
  231.250   49.496  221.372    0.417    0.289   17.886
  231.500   54.583  220.933    0.406    0.296   18.581
  231.750   62.945  217.019    0.401    0.294   20.761
  232.000   67.438  214.606    0.382    0.271   20.789
  232.250   75.498  216.658    0.360    0.247   19.011
  232.500   88.917  220.678    0.362    0.211   15.731
  232.750  102.031  221.719    0.365    0.170   14.913
  233.000   99.092  223.269    0.354    0.175   13.637
  233.250   91.104  223.311    0.352    0.172   12.701
  233.500   90.242  219.411    0.352    0.172   12.378
  233.750   89.388  216.495    0.357    0.162   12.378
  234.000   83.175  214.074    0.372    0.169   12.197
  234.250   77.260  212.149    0.389    0.182   12.103
  234.500   74.024  210.224    0.383    0.189   12.120
  234.750   69.599  208.298    0.374    0.196   12.249
  235.000   66.066  205.389    0.334    0.197   12.498
  235.250   62.239  201.482    0.333    0.193   12.745
  235.500   59.296  200.534    0.354    0.189   13.238
  235.750   57.249  203.075    0.367    0.191   14.128
  236.000   49.550  203.124    0.373    0.196   17.607
  236.250   23.717  191.785    0.370    0.183   21.546
  236.500   13.941  184.410    0.212    0.093   32.796
  236.750   11.011  178.033    0.054    0.060   49.940
  237.000   10.145  173.645    0.050    0.095   73.312
  237.250    9.300  171.698    0.049    0.082  174.323
  237.500    9.329  170.771    0.048    0.079  806.028
  237.750    9.329  170.375    0.052    0.083  950.941
  238.000    9.401  169.893    0.055    0.085 1082.020
  238.250    9.720  168.959    0.055    0.087 1144.280
  238.500   10.055  168.520    0.054    0.100 1167.100
  238.750   10.382  168.570    0.055    0.102 1169.130
  239.000   10.718  168.633    0.063    0.101 1181.870
  239.250   11.049  168.187    0.073    0.098 1194.280
  239.500   11.380  167.755    0.080    0.099 1240.470
  239.750   12.013  167.805    0.077    0.099 1265.200
  240.000   12.340  167.883    0.077    0.092 1290.680
