~VERSION INFORMATION
 VERS.                 2.0:   CWLS LOG ASCII STANDARD -VERSION 2.0
 WRAP.                  NO:   ONE LINE PER DEPTH STEP
~WELL INFORMATION BLOCK
#MNEM.UNIT           DATA                    DESCRIPTION OF MNEMONIC
#---------    -------------------            -------------------------------
# Generated from Intellog Unique Number	CS_73_76/WELL/3235
WELL.         HOME OIL COMPANY LIMITED       : Well_name    - WELL
LOC .         AA/10-14-076-07W4/0            : Location     - LOCATION
UWI .         AA/10-14-076-07W4/0            : Uwi          - UNIQUE WELL ID
ENTR.         SP                             : Entered      - ENTERED BY
SRVC.         SCHLUMBERGER                   : Scn          - SERVICE COMPANY
STRT.M        175                            : top_depth    - START DEPTH
STOP.M        405                            : bot_depth    - STOP DEPTH
STEP.M        0.25                           : increment    - STEP LENGTH
 NULL. -999.2500:NULL Value
~CURVE INFORMATION BLOCK
#MNEM UNIT       ERCB CURVE CODE    CURVE DESCRIPTION
#-----------   ------------------   ----------------------------------
DEPT.M        00 001 00 00         : DEPTH        - DEPTH
DPHI.V/V      00 890 00 00         : PHID         - DENSITY POROSITY (LIMESTONE)
NPHI.V/V      00 330 00 00         : PHIN         - NEUTRON POROSITY (LIMESTONE)
GR  .API      00 310 00 00         : GR           - GAMMA RAY
ILD .OHMM     00 120 00 00         : RESD         - DEEP RESISTIVITY (DIL)
~PARAMETER INFORMATION
#MNEM.UNIT           DATA             DESCRIPTION OF MNEMONIC
#---------         -----------     ------------------------------
GL  .M        590.89               : gl           - GROUND LEVEL ELEVATION
EREF.M        594.34               : kb           - ELEVATION OF DEPTH REFERENCE
DATM.M        590.89               : datum        - DATUM ELEVATION
TDD .M        430                  : tdd          - TOTAL DEPTH DRILLER
RUN .         ONE                  : Run          - RUN NUMBER
ENG .         BILL                 : Engineer     - RECORDING ENGINEER
WIT .         JIM                  : Witness      - WITNESSED BY
MUD .         GEL                  : Mud_type     - MUD TYPE
MATR.         LIMESTONE            : Logunit      - NEUTRON MATRIX
TMAX.C        21                   : BHT          - MAXIMUM RECORDED TEMPERATURE
BHTD.M        430                  : BHTDEP       - MAXIMUM RECORDED TEMPERATURE
MATR.         1                    : LOGUNIT      - NEUTRON MATRIX
RMT .C        25                   : MDTP         - TEMPERATURE OF MUD
NEUT.         1                    : NEUTRON      - NEUTRON TYPE
RESI.         0                    : RESIST       - RESISTIVITY TYPE
RMC .OHMM     0.25                 : RMC          - RESISTIVITY OF MUD CAKE
RMF .OHMM     0.25                 : RMF          - RESISTIVITY OF MUD FILTRATE
SUFT.C        15                   : SUFT         - SURFACE TEMPERATURE
~A  DEPTH     PHID     PHIN       GR     RESD
# ...
  262.000    0.250    0.458   78.339    8.185
  262.250    0.250    0.454   87.492    6.530
  262.500    0.241    0.460   92.986    5.832
  262.750    0.229    0.466   94.822    5.512
  263.000    0.240    0.472   93.608    5.723
  263.250    0.255    0.470   94.224    5.942
  263.500    0.290    0.447   88.741    6.652
  263.750    0.310    0.429   80.821    7.447
  264.000    0.327    0.427   74.729    8.656
  264.250    0.317    0.448   69.858   10.448
  264.500    0.305    0.456   67.424   11.054
  264.750    0.296    0.436   68.041   10.645
  265.000    0.286    0.427   73.534    8.654
  265.250    0.274    0.439   83.297    7.168
  265.500    0.256    0.444   88.181    6.166
  265.750    0.261    0.482   87.577    5.827
  266.000    0.256    0.519   87.583    5.611
  266.250    0.252    0.509   88.200    5.506
  266.500    0.250    0.503   89.425    5.506
  266.750    0.252    0.504   91.260    5.506
  267.000    0.258    0.484   93.706    5.716
  267.250    0.263    0.493   93.711    5.825
  267.500    0.272    0.499   84.571    6.280
  267.750    0.277    0.478   80.308    6.899
  268.000    0.284    0.460   77.266    7.870
  268.250    0.286    0.439   75.444    8.977
  268.500    0.292    0.406   73.620   10.050
  268.750    0.300    0.399   70.577   10.633
  269.000    0.297    0.389   71.804   10.834
  269.250    0.290    0.413   75.467   10.434
  269.500    0.290    0.433   77.303    9.860
  269.750    0.275    0.438   76.700    9.675
  270.000    0.279    0.427   76.095    9.494
  270.250    0.283    0.416   71.224    9.494
  270.500    0.279    0.408   68.791    9.493
  270.750    0.281    0.401   71.236    9.673
  271.000    0.292    0.395   74.290    9.856
  271.250    0.300    0.402   79.174    9.671
  271.500    0.308    0.406   83.450    9.490
  271.750    0.278    0.403   84.676    9.313
  272.000    0.257    0.454   86.510    8.801
  272.250    0.260    0.471   87.736    8.317
  272.500    0.247    0.457   86.522    8.316
  272.750    0.243    0.453   86.528    8.474
  273.000    0.251    0.460   87.145    8.473
  273.250    0.258    0.458   88.369    8.634
  273.500    0.257    0.452   85.937    8.797
  273.750    0.244    0.452   82.894    9.307
  274.000    0.224    0.482   79.852    9.847
  274.250    0.197    0.423   73.760   10.818
  274.500    0.155    0.295   63.401   11.446
  274.750    0.039    0.242   56.698   12.340
  275.000    0.017    0.209   59.753   12.339
  275.250    0.066    0.227   76.832   10.614
  275.500    0.149    0.363   83.546    9.480
  275.750    0.213    0.430   86.601    8.467
  276.000    0.268    0.453   87.218    7.283
  276.250    0.226    0.481   84.784    6.882
  276.500    0.239    0.481   87.840    6.628
  276.750    0.250    0.486   90.284    6.503
  277.000    0.253    0.483   93.339    6.382
  277.250    0.237    0.480   90.296    6.262
  277.500    0.239    0.479   89.083    6.031
  277.750    0.252    0.472   92.140    4.996
  278.000    0.269    0.465   93.974    3.985
  278.250    0.282    0.483   92.150    3.364
  278.500    0.276    0.528   93.986    2.840
  278.750    0.274    0.535   94.601    2.684
  279.000    0.274    0.512   93.388    2.839
  279.250    0.274    0.506   95.833    2.893
  279.500    0.260    0.544   95.838    3.004
  279.750    0.255    0.536   92.187    3.119
  280.000    0.255    0.509   87.924    3.362
  280.250    0.253    0.513   86.711    3.836
  280.500    0.256    0.552   87.936    4.459
  280.750    0.254    0.548   83.674    4.991
  281.000    0.249    0.514   84.291    5.588
  281.250    0.267    0.449   87.955    6.873
  281.500    0.288    0.401   82.474    9.643
  281.750    0.320    0.366   74.554   12.086
  282.000    0.356    0.200   70.290   17.610
  282.250    0.397    0.181   66.028   20.470
  282.500    0.375    0.212   67.254   24.707
  282.750    0.338    0.238   70.919   26.637
  283.000    0.314    0.253   75.194   27.658
  283.250    0.354    0.216   78.859   28.716
  283.500    0.398    0.204   83.131   32.147
  283.750    0.378    0.199   81.918   36.672
  284.000    0.350    0.213   69.119   44.264
  284.250    0.303    0.202   56.930   50.494
  284.500    0.167    0.188   46.570   55.473
  284.750    0.075    0.167   42.918   57.597
  285.000    0.122    0.122   48.412   58.688
  285.250    0.173    0.150   55.735   57.588
  285.500    0.381    0.152   58.790   55.458
  285.750    0.431    0.145   55.748   50.472
  286.000    0.438    0.162   57.583   47.698
  286.250    0.445    0.183   59.417   43.410
  286.500    0.461    0.205   58.204   40.260
  286.750    0.452    0.218   60.652   36.641
  287.000    0.447    0.224   62.487   33.347
  287.250    0.445    0.224   63.711   31.514
  287.500    0.448    0.229   64.936   29.227
  287.750    0.443    0.233   64.332   27.620
  288.000    0.416    0.235   60.680   26.102
  288.250    0.400    0.244   61.906   25.136
  288.500    0.383    0.261   62.521   24.665
  288.750    0.368    0.268   57.649   23.752
  289.000    0.360    0.271   53.997   24.201
  289.250    0.372    0.264   53.394   24.660
  289.500    0.393    0.252   57.058   24.659
  289.750    0.404    0.239   59.503   25.603
  290.000    0.420    0.227   57.071   27.088
  290.250    0.415    0.238   57.076   28.660
  290.500    0.387    0.268   56.474   29.757
  290.750    0.283    0.231   55.869   25.118
  291.000    0.143    0.196   57.094   20.039
  291.250    0.186    0.206   63.198   16.915
  291.500    0.319    0.251   62.595   14.278
  291.750    0.336    0.313   60.161   13.750
  292.000    0.323    0.373   55.289   13.492
  292.250    0.318    0.432   52.246   14.009
  292.500    0.289    0.391   54.083   15.103
  292.750    0.000    0.240   50.430   15.681
  293.000    0.005    0.168   48.606   15.388
  293.250    0.121    0.220   51.661   12.747
  293.500    0.237    0.308   54.108   11.385
  293.750    0.291    0.416   57.163   10.964
  294.000    0.306    0.406   60.217   10.167
  294.250    0.311    0.410   61.442    9.791
  294.500    0.306    0.399   60.839    9.608
  294.750    0.297    0.399   60.844    9.252
  295.000    0.308    0.415   61.460    9.079
  295.250    0.327    0.427   61.468    9.251
  295.500    0.324    0.416   61.472    9.605
  295.750    0.281    0.399   59.040    9.973
  296.000    0.205    0.313   49.289   10.355
  296.250    0.099    0.240   39.539   10.354
  296.500    0.142    0.286   48.085    9.971
  296.750    0.210    0.341   53.577    9.247
  297.000    0.313    0.381   59.070    8.739
  297.250    0.344    0.390   60.905    8.575
  297.500    0.356    0.445   59.082    8.575
  297.750    0.362    0.484   64.577    8.574
  298.000    0.353    0.447   60.314    8.903
  298.250    0.347    0.424   56.052    9.071
  298.500    0.351    0.407   60.327    8.901
  298.750    0.347    0.405   59.113    8.901
  299.000    0.342    0.445   54.851    8.900
  299.250    0.331    0.460   49.980    8.899
  299.500    0.326    0.438   48.155    9.068
  299.750    0.319    0.426   49.990    9.067
  300.000    0.318    0.424   53.045    9.239
  300.250    0.320    0.422   48.783    9.413
  300.500    0.325    0.408   46.960    9.592
  300.750    0.331    0.393   46.966    9.773
  301.000    0.330    0.396   48.802    9.772
  301.250    0.336    0.396   50.637    9.957
  301.500    0.337    0.387   50.645    9.957
  301.750    0.330    0.375   50.649    9.956
  302.000    0.325    0.390   50.045    9.956
  302.250    0.329    0.387   48.833    9.769
  302.500    0.331    0.392   53.106    9.768
  302.750    0.333    0.396   53.113    9.768
  303.000    0.319    0.398   51.898    9.767
  303.250    0.304    0.396   50.075    9.766
  303.500    0.297    0.384   47.643    9.951
  303.750    0.307    0.373   50.089    9.765
  304.000    0.330    0.373   50.704    9.764
  304.250    0.333    0.373   48.881    9.764
  304.500    0.337    0.383   45.838    9.763
  304.750    0.350    0.401   44.014    9.762
  305.000    0.335    0.418   43.412    9.762
  305.250    0.317    0.432   44.639    9.946
