~VERSION INFORMATION
 VERS.                 2.0:   CWLS LOG ASCII STANDARD -VERSION 2.0
 WRAP.                  NO:   ONE LINE PER DEPTH STEP
~WELL INFORMATION BLOCK
#MNEM.UNIT           DATA                    DESCRIPTION OF MNEMONIC
#---------    -------------------            -------------------------------
# Generated from Intellog Unique Number	CC_80_83/WELL/2367
NULL.         -999.25                        : NULL_VALUE
WELL.         OIL BUTTES GRANOR OV           : Well_name    - WELL
LOC .         10-23-082-18W4                 : Location     - LOCATION          
UWI .         AA/10-23-082-18W400            : Uwi          - UNIQUE WELL ID    
ENTR.         DW                             : Entered      - ENTERED BY        
SRVC.         SCHLUMBERGER                   : Scn          - SERVICE COMPANY   
DATE.         29 FEB 80                      : Date         - LOG DATE
STRT.M        200                            : top_depth    - START DEPTH       
STOP.M        325.098                        : bot_depth    - STOP DEPTH        
STEP.M        0.3                            : increment    - STEP LENGTH       
~CURVE INFORMATION BLOCK
#MNEM UNIT       ERCB CURVE CODE    CURVE DESCRIPTION
#-----------   ------------------   ----------------------------------
DEPT.M        00 001 00 00         : DEPTH        - DEPTH                       
DPHI.V/V      00 890 00 00         : PHID         - DENSITY POROSITY (LIMESTONE)
NPHI.V/V      00 330 00 00         : PHIN         - NEUTRON POROSITY (LIMESTONE)
GR  .API      00 310 00 00         : GR           - GAMMA RAY                   
ILD .OHMM     00 120 00 00         : RESD         - DEEP RESISTIVITY (DIL)      
~PARAMETER INFORMATION       
#MNEM.UNIT           DATA             DESCRIPTION OF MNEMONIC
#---------         -----------     ------------------------------
GL  .M        552.95               : gl           - GROUND LEVEL ELEVATION      
EREF.M        556.35               : kb           - ELEVATION OF DEPTH REFERENCE
DATM.M        556.35               : datum        - DATUM ELEVATION             
TDD .M        327                  : tdd          - TOTAL DEPTH DRILLER         
RUN .         ONE                  : Run          - RUN NUMBER                  
ENG .         BILL                 : Engineer     - RECORDING ENGINEER          
WIT .         JIM                  : Witness      - WITNESSED BY                
MUD .         GEL                  : Mud_type     - MUD TYPE                    
MATR.         LIMESTONE            : Logunit      - NEUTRON MATRIX              
TMAX.C        23.3                 : BHT          - MAXIMUM RECORDED TEMPERATURE
BHTD.M        327                  : BHTDEP       - MAXIMUM RECORDED TEMPERATURE
MATR.         1                    : LOGUNIT      - NEUTRON MATRIX              
RMT .C        25                   : MDTP         - TEMPERATURE OF MUD          
NEUT.         1                    : NEUTRON      - NEUTRON TYPE                
RESI.         0                    : RESIST       - RESISTIVITY TYPE            
RMC .OHMM     0.25                 : RMC          - RESISTIVITY OF MUD CAKE     
RMF .OHMM     0.25                 : RMF          - RESISTIVITY OF MUD FILTRATE 
SUFT.C        15                   : SUFT         - SURFACE TEMPERATURE         
~A  DEPTH     PHID     PHIN       GR     RESD
  200.000    0.259    0.465   41.113   16.276
  200.300    0.272    0.480   39.255   15.970
  200.600    0.281    0.456   34.315   16.276
  200.900    0.293    0.430   33.076   16.276
  201.200    0.281    0.437   32.436   16.905
  201.500    0.267    0.443   34.870   17.559
  201.800    0.304    0.434   39.145   17.896
  202.100    0.297    0.432   42.810   17.896
  202.400    0.297    0.437   46.472   17.896
  202.700    0.299    0.443   51.358   16.905
  203.000    0.272    0.457   53.795   16.587
  203.300    0.305    0.463   58.065   15.086
  203.600    0.277    0.457   61.729   12.478
  203.900    0.213    0.452   64.776    9.937
  204.200    0.187    0.467   68.438    8.377
  204.500    0.170    0.459   79.461    7.913
  204.800    0.187    0.469   86.801    6.929
  205.100    0.201    0.520   88.629    5.953
  205.400    0.237    0.504   89.833    5.414
  205.700    0.325    0.503   87.973    4.924
  206.000    0.362    0.559   86.723    4.831
  206.300    0.366    0.546   89.156    4.740
  206.600    0.330    0.546   92.198    4.740
  206.900    0.284    0.576   91.568    4.831
  207.200    0.269    0.543   86.013    4.831
  207.500    0.249    0.503   84.773    4.831
  207.800    0.170    0.544   85.972    4.831
  208.100    0.235    0.599   87.800    4.831
  208.400    0.175    0.503   87.776    5.018
  208.700    0.120    0.470   78.552    5.518
  209.000    0.082    0.398   68.097    6.929
  209.300    0.133    0.404   63.162    8.377
  209.600    0.260    0.516   61.300   10.127
  209.900    0.247    0.505   58.826   11.349
  210.200    0.261    0.463   57.575   12.717
  210.500    0.246    0.467   61.232   13.209
  210.800    0.244    0.479   66.121   13.720
  211.100    0.246    0.484   66.719   13.983
  211.400    0.252    0.491   58.713   13.983
  211.700    0.265    0.478   53.164   13.462
  212.000    0.274    0.466   51.310   13.462
  212.300    0.267    0.463   51.901   13.209
  212.600    0.246    0.457   56.792   13.462
  212.900    0.229    0.448   61.672   13.720
  213.200    0.239    0.453   61.034   13.983
  213.500    0.258    0.489   59.178   13.983
  213.800    0.244    0.457   57.934   14.251
  214.100    0.261    0.444   57.903   14.251
  214.400    0.278    0.472   60.333   14.251
  214.700    0.276    0.470   60.932   14.251
  215.000    0.213    0.463   61.529   14.524
  215.300    0.201    0.472   62.720   14.524
  215.600    0.227    0.485   63.935   13.983
  215.900    0.227    0.451   70.667   13.462
  216.200    0.194    0.475   77.395   11.788
  216.500    0.205    0.491   80.448    9.567
  216.800    0.178    0.479   77.358    8.701
  217.100    0.195    0.486   69.357    9.037
  217.400    0.206    0.465   64.423    9.750
  217.700    0.229    0.466   70.535   10.127
  218.000    0.204    0.474   77.877    9.937
  218.300    0.189    0.483   80.316    9.037
  218.600    0.193    0.502   80.904    8.537
  218.900    0.195    0.462   77.205    8.377
  219.200    0.198    0.455   76.572    8.377
  219.500    0.198    0.459   82.679    8.537
  219.800    0.184    0.465   84.506    8.868
  220.100    0.176    0.482   86.322    9.037
  220.400    0.173    0.495   84.464    9.037
  220.700    0.193    0.478   76.460    8.868
  221.000    0.214    0.431   71.532    7.913
  221.300    0.246    0.452   67.207    7.618
  221.600    0.251    0.437   66.579    7.618
  221.900    0.234    0.457   65.332    7.913
  222.200    0.295    0.488   63.470    8.219
  222.500    0.198    0.448   65.902    8.377
  222.800    0.169    0.441   71.403    8.868
  223.100    0.124    0.453   72.612    9.211
  223.400    0.163    0.471   71.974    9.387
  223.700    0.211    0.452   68.887    7.764
  224.000    0.186    0.470   74.389    7.335
  224.300    0.206    0.488   73.745    6.799
  224.600    0.184    0.472   67.586    6.929
  224.900    0.236    0.460   65.119    7.913
  225.200    0.246    0.450   60.185    8.868
  225.500    0.240    0.462   53.409    9.567
  225.800    0.205    0.451   49.092   10.926
  226.100    0.069    0.367   49.074   12.244
  226.400    0.000    0.221   48.440   14.524
  226.700    0.002    0.187   46.575   16.276
  227.000    0.009    0.175   42.870   22.903
  227.300    0.031    0.211   41.624   30.445
  227.600    0.119    0.266   44.053   31.028
  227.900    0.168    0.444   52.012   24.709
  228.200    0.223    0.480   58.132   18.588
  228.500    0.231    0.491   58.716   14.251
  228.800    0.259    0.464   56.855   11.349
  229.100    0.260    0.443   57.446   10.127
  229.400    0.251    0.422   59.270    9.750
  229.700    0.250    0.428   62.308   10.127
  230.000    0.234    0.450   64.135   10.321
  230.300    0.232    0.440   67.796    9.937
  230.600    0.228    0.463   65.323    9.387
  230.900    0.235    0.500   62.231    9.211
  231.200    0.203    0.448   65.278   10.127
  231.500    0.260    0.486   68.327   10.721
  231.800    0.269    0.512   68.915   11.349
  232.100    0.271    0.483   65.829   10.721
  232.400    0.247    0.480   67.643   10.321
  232.700    0.217    0.481   69.471    9.567
  233.000    0.221    0.497   71.904    9.037
  233.300    0.209    0.506   71.260    8.219
  233.600    0.199    0.481   71.855    8.065
  233.900    0.210    0.460   72.443    7.913
  234.200    0.194    0.484   72.428    7.913
  234.500    0.210    0.495   68.107    8.219
  234.800    0.222    0.466   68.091    9.037
  235.100    0.199    0.454   76.665    9.211
  235.400    0.159    0.491   80.940    9.211
  235.700    0.205    0.512   80.297    8.537
  236.000    0.192    0.515   77.828    7.618
  236.300    0.176    0.469   75.958    7.475
  236.600    0.185    0.453   78.390    7.335
  236.900    0.155    0.463   83.287    7.197
  237.200    0.172    0.493   88.171    7.475
  237.500    0.209    0.505   85.695    7.618
  237.800    0.192    0.488   77.694    7.764
  238.100    0.198    0.463   77.057    8.377
  238.400    0.223    0.464   75.810    9.211
  238.700    0.203    0.462   73.952    9.937
  239.000    0.218    0.461   64.106   11.135
  239.300    0.240    0.472   60.406   12.961
  239.600    0.259    0.447   55.475   14.802
  239.900    0.242    0.419   52.997   16.276
  240.200    0.182    0.379   53.591   15.669
  240.500    0.198    0.397   62.774   14.524
  240.800    0.190    0.421   69.505   12.717
  241.100    0.252    0.483   75.008   10.321
  241.400    0.267    0.464   78.049    9.037
  241.700    0.184    0.459   78.027    8.868
  242.000    0.196    0.450   78.011    8.537
  242.300    0.210    0.448   82.897    8.537
  242.600    0.191    0.483   88.396    7.618
  242.900    0.195    0.511   87.759    6.671
  243.200    0.194    0.524   85.286    6.183
  243.500    0.153    0.510   81.589    6.422
  243.800    0.204    0.501   78.496    7.475
  244.100    0.217    0.492   77.243    8.868
  244.400    0.190    0.458   80.908    9.567
  244.700    0.198    0.442   85.184   10.127
  245.000    0.192    0.473   84.548   10.721
  245.300    0.171    0.463   82.068   10.721
  245.600    0.181    0.460   78.975   10.519
  245.900    0.192    0.480   79.562   10.721
  246.200    0.202    0.478   78.937   11.135
  246.500    0.213    0.461   77.691   11.349
  246.800    0.209    0.464   76.438   11.788
  247.100    0.178    0.459   78.873   12.014
  247.400    0.165    0.454   81.298   11.349
  247.700    0.154    0.452   81.287   10.926
  248.000    0.164    0.458   80.038   10.926
  248.300    0.193    0.469   80.012   11.349
  248.600    0.186    0.482   78.764   12.478
  248.900    0.202    0.461   79.359   12.717
  249.201    0.169    0.441   82.405   12.717
  249.501    0.175    0.449   82.996   12.478
  249.801    0.161    0.489   83.589   11.788
  250.101    0.158    0.481   83.571   11.135
  250.401    0.175    0.469   81.095   10.721
  250.701    0.179    0.455   79.227   10.321
  251.001    0.183    0.456   79.200   10.321
  251.301    0.167    0.443   79.804   10.321
  251.601    0.170    0.454   79.780   10.519
  251.901    0.144    0.435   80.986   10.519
