~VERSION INFORMATION
 VERS.                 2.0:   CWLS LOG ASCII STANDARD -VERSION 2.0
 WRAP.                  NO:   ONE LINE PER DEPTH STEP
~WELL INFORMATION BLOCK
#MNEM.UNIT           DATA                    DESCRIPTION OF MNEMONIC
#---------    -------------------            -------------------------------
# Generated from Intellog Unique Number	CN_94_101/WELL/5004
WELL.         10-18-097-07W4                 : Well_name    - WELL
LOC .         AA/10-18-097-07W4/0            : Location     - LOCATION
UWI .         AA/10-18-097-07W400            : Uwi          - UNIQUE WELL ID
ENTR.         T                              : Entered      - ENTERED BY
SRVC.         SCHLUMBERGER                   : Scn          - SERVICE COMPANY
DATE.         08/11/92                       : Date         - LOG DATE
STRT.M        0                              : top_depth    - START DEPTH
STOP.M        80                             : bot_depth    - STOP DEPTH
STEP.M        0.25                           : increment    - STEP LENGTH
 NULL. -999.2500:NULL Value
~CURVE INFORMATION BLOCK
#MNEM UNIT       ERCB CURVE CODE    CURVE DESCRIPTION
#-----------   ------------------   ----------------------------------
DEPT.M        00 001 00 00         : DEPTH        - DEPTH
GR  .API      00 310 00 00         : GR           - GAMMA RAY
DPHI.V/V      00 890 00 00         : PHID         - DENSITY POROSITY (SANDSTONE)
ILD .OHMM     00 120 00 00         : RESD         - DEEP RESISTIVITY (DIL)
NPHI.V/V      00 330 00 00         : PHIN         - NEUTRON POROSITY (SANDSTONE)
~PARAMETER INFORMATION
#MNEM.UNIT           DATA             DESCRIPTION OF MNEMONIC
#---------         -----------     ------------------------------
GL  .M        319                  : gl           - GROUND LEVEL ELEVATION
EREF.M        319                  : kb           - ELEVATION OF DEPTH REFERENCE
DATM.M        319                  : datum        - DATUM ELEVATION
TDD .M        85                   : tdd          - TOTAL DEPTH DRILLER
RUN .         ONE                  : Run          - RUN NUMBER
ENG .         BILL                 : Engineer     - RECORDING ENGINEER
WIT .         JIM                  : Witness      - WITNESSED BY
MUD .         GEL                  : Mud_type     - MUD TYPE
MATR.         SANDSTONE            : Logunit      - NEUTRON MATRIX
TMAX.C        10                   : BHT          - MAXIMUM RECORDED TEMPERATURE
BHTD.M        78.6                 : BHTDEP       - MAXIMUM RECORDED TEMPERATURE
RMT .C        10                   : MDTP         - TEMPERATURE OF MUD
MUDD.KG/M     1090                 : MWT          - MUD DENSITY
NEUT.         1                    : NEUTRON      - NEUTRON TYPE
RESI.         0                    : RESIST       - RESISTIVITY TYPE
RM  .OHMM     13.1                 : RM           - RESISTIVITY OF MUD
RMC .OHMM     13.1                 : RMC          - RESISTIVITY OF MUD CAKE
RMF .OHMM     13.1                 : RMF          - RESISTIVITY OF MUD FILTRATE
SUFT.C        4                    : SUFT         - SURFACE TEMPERATURE
~A  DEPTH       GR     PHID     RESD     PHIN
# ...
   43.500   38.324    0.295 2518.090    0.404
   43.750   38.948    0.302 5634.040    0.428
   44.000   35.839    0.321 5794.950    0.457
   44.250   33.975    0.304 5475.880    0.470
   44.500   32.111    0.315 4245.390    0.492
   44.750   33.980    0.332 1923.710    0.494
   45.000   37.714    0.318 1600.570    0.446
   45.250   42.694    0.286 1429.320    0.431
   45.500   55.139    0.280 1258.430    0.417
   45.750   60.118    0.257 1258.260    0.441
   46.000   57.010    0.227 1668.950    0.461
   46.250   52.657    0.276 2152.160    0.469
   46.500   52.659    0.306 5316.010    0.480
   46.750   43.951    0.276 5391.300    0.482
   47.000   35.865    0.275 5390.550    0.470
   47.250   26.535    0.302 5314.160    0.445
   47.500   24.671    0.310 5388.850    0.432
   47.750   37.738    0.284 5542.560    0.420
   48.000   30.274    0.265 5781.790    0.412
   48.250   27.166    0.272 5863.460    0.413
   48.500   25.923    0.299 6030.710    0.415
   48.750   23.438    0.300 6029.870    0.415
   49.000   21.574    0.302 5861.000    0.412
   49.250   21.576    0.285 5538.100    0.410
   49.500   21.578    0.254 5015.770    0.405
   49.750   21.581    0.227 4739.430    0.399
   50.000   21.582    0.231 4415.330    0.398
   50.250   20.962    0.238 4414.710    0.398
   50.500   20.964    0.233 4414.090    0.394
   50.750   20.344    0.206 4476.130    0.390
   51.000   19.724    0.178 4475.660    0.389
   51.250   20.349    0.169 4603.000    0.395
   51.500   22.839    0.180 4668.020    0.409
   51.750   24.708    0.182 4938.640    0.413
   52.000   24.087    0.189 5152.160    0.410
   52.250   25.956    0.198 5528.420    0.408
   52.500   27.824    0.202 5686.310    0.403
   52.750   29.693    0.210 5685.320    0.397
   53.000   29.696    0.195 5684.520    0.394
   53.250   29.698    0.183 5604.160    0.394
   53.500   27.211    0.195 5603.190    0.394
   53.750   24.725    0.207 5446.270    0.394
   54.000   22.238    0.212 5293.560    0.394
   54.250   20.373    0.204 5218.910    0.394
   54.500   20.376    0.190 5144.780    0.395
   54.750   21.000    0.183 5144.240    0.395
   55.000   20.380    0.199 5216.720    0.391
   55.250   19.138    0.227 5289.860    0.386
   55.500   19.762    0.242 5440.750    0.387
   55.750   24.120    0.241 5595.740    0.389
   56.000   24.122    0.230 5595.150    0.384
   56.250   22.879    0.220 5286.720    0.380
   56.500   21.015    0.218 5212.160    0.378
   56.750   17.907    0.233 4994.930    0.373
   57.000   16.665    0.244 4924.320    0.375
   57.250   14.800    0.244 4854.540    0.386
   57.500   16.669    0.228 4853.690    0.385
   57.750   19.160    0.233 4922.250    0.378
   58.000   19.784    0.237 4991.610    0.372
   58.250   20.408    0.237 5061.950    0.366
   58.500   22.899    0.223 5133.090    0.361
   58.750   26.634    0.207 5205.420    0.365
   59.000   23.525    0.205 4988.640    0.367
   59.250   19.173    0.243 4848.940    0.374
   59.500   17.308    0.276 4780.390    0.386
   59.750   17.933    0.310 4847.750    0.404
   60.000   18.557    0.312 4916.060    0.407
   60.250   19.181    0.323 4915.370    0.409
   60.500   19.183    0.334 4777.550    0.407
   60.750   21.052    0.334 4776.880    0.419
   61.000   23.542    0.328 4844.190    0.434
   61.250   30.388    0.303 4843.510    0.430
   61.500   42.833    0.271 3214.480    0.414
   61.750   40.968    0.271 1630.980    0.416
   62.000   40.349    0.293 1178.210    0.417
   62.250   49.683    0.261 1725.350    0.425
   62.500   44.086    0.254 2635.980    0.439
   62.750   39.111    0.293 3647.920    0.452
   63.000   29.158    0.318 2598.260    0.460
   63.250   26.672    0.353 1497.120    0.469
   63.500   26.674    0.385 1022.080    0.424
   63.750   33.520    0.381  548.726    0.368
   64.000   43.476    0.353  369.341    0.376
   64.250   62.765    0.311  294.565    0.378
   64.500   82.676    0.266  358.960    0.341
   64.750   89.522    0.152  518.277    0.314
   65.000   75.215    0.061  912.017    0.284
   65.250   52.820    0.050 5113.560    0.270
   65.500   35.402    0.045 5334.270    0.260
   65.750   28.560    0.041 5409.250    0.259
   66.000   28.562    0.038 5332.410    0.256
   66.250   32.919    0.036 5183.440    0.254
   66.500   33.544    0.033 5038.100    0.244
   66.750   31.057    0.032 5037.570    0.250
   67.000   29.194    0.033 5036.870    0.252
   67.250   32.306    0.037 5107.840    0.255
   67.500   32.309    0.035 5107.120    0.258
   67.750   29.200    0.032 5179.080    0.260
   68.000   27.958    0.029 5178.360    0.260
   68.250   28.581    0.027 5177.460    0.260
   68.500   31.694    0.026 5176.910    0.260
   68.750   32.319    0.027 5324.390    0.259
   69.000   30.454    0.030 5476.070    0.255
   69.250   31.079    0.033 5475.490    0.254
   69.500   33.570    0.035 5552.840    0.251
   69.750   34.194    0.036 5551.680    0.255
   70.000   33.574    0.037 5473.390    0.256
   70.250   34.820    0.037 5472.430    0.258
   70.500   37.311    0.037 5394.510    0.259
   70.750   41.668    0.037 5393.940    0.258
   71.000   42.292    0.037 5317.690    0.258
   71.250   40.429    0.037 5316.950    0.257
   71.500   39.185    0.040 5315.830    0.254
   71.750   36.077    0.042 5315.460    0.252
   72.000   34.213    0.044 5390.360    0.249
   72.250   35.459    0.047 5389.600    0.248
   72.500   44.793    0.049 5388.850    0.242
   72.750   44.795    0.051 4744.570    0.235
   73.000   36.710    0.052 3783.870    0.227
   73.250   45.422    0.052 3238.520    0.209
   73.500   44.180    0.052 3060.210    0.216
   73.750   42.317    0.052 2619.250    0.220
   74.000   42.940    0.052 2693.960    0.221
   74.250   44.187    0.051 2973.680    0.219
   74.500   37.967    0.051 3473.330    0.224
   74.750   33.615    0.053 3101.480    0.228
   75.000   37.350    0.057 2544.390    0.234
   75.250   39.841    0.058 2240.190    0.236
   75.500   42.331    0.060 2438.000    0.238
   75.750   46.066    0.062 2616.140    0.238
   76.000   49.801    0.062 2507.190    0.237
   76.250   46.693    0.062 2369.140    0.238
   76.500   43.584    0.057 2302.800    0.239
   76.750   39.853    0.052 1943.320    0.244
   77.000   42.966    0.048 1444.090    0.246
   77.250   47.323    0.047 1119.590    0.251
   77.500   47.948    0.047  892.888    0.252
   77.750   56.037    0.052  764.228    0.256
   78.000   62.883    0.057  672.860    0.258
   78.250   61.019    0.068  600.825    0.259
   78.500   70.353    0.075  551.883    0.259
   78.750   77.821    0.068  600.657    0.259
   79.000   87.155    0.099 1808.460    0.258
   79.250   82.802    0.129 2882.620    0.258
   79.500   75.338    0.115 3512.670    0.258
   79.750   66.008    0.111 1967.600    0.258
   80.000   49.835    0.110 1269.440    0.258
