~VERSION INFORMATION
 VERS.                 2.0:   CWLS LOG ASCII STANDARD -VERSION 2.0
 WRAP.                  NO:   ONE LINE PER DEPTH STEP
~WELL INFORMATION BLOCK
#MNEM.UNIT           DATA                    DESCRIPTION OF MNEMONIC
#---------    -------------------            -------------------------------
# Generated from Intellog Unique Number	CW_82_90/WELL/3435
WELL.         CDN SUP                        : Well_name    - WELL
LOC .         AA/10-02-090-24W4/0            : Location     - LOCATION
UWI .         AA/10-02-090-24W4/0            : Uwi          - UNIQUE WELL ID
ENTR.         MAX                            : Entered      - ENTERED BY
SRVC.         SCHLUMBERGER                   : Scn          - SERVICE COMPANY
STRT.M        173                            : top_depth    - START DEPTH
STOP.M        293                            : bot_depth    - STOP DEPTH
STEP.M        0.25                           : increment    - STEP LENGTH
 NULL. -999.2500:NULL Value
~CURVE INFORMATION BLOCK
#MNEM UNIT       ERCB CURVE CODE    CURVE DESCRIPTION
#-----------   ------------------   ----------------------------------
DEPT.M        00 001 00 00         : DEPTH        - DEPTH
ILD .OHMM     00 120 00 00         : RESD         - DEEP RESISTIVITY (DIL)
NPHI.V/V      00 330 00 00         : PHIN         - NEUTRON POROSITY (SANDSTONE)
DPHI.V/V      00 890 00 00         : PHID         - DENSITY POROSITY (SANDSTONE)
CALI.MM       00 280 01 00         : CAL          - CALIPER
GR  .API      00 310 00 00         : GR           - GAMMA RAY
~PARAMETER INFORMATION
#MNEM.UNIT           DATA             DESCRIPTION OF MNEMONIC
#---------         -----------     ------------------------------
GL  .M        512                  : gl           - GROUND LEVEL ELEVATION
EREF.M        515.5                : kb           - ELEVATION OF DEPTH REFERENCE
DATM.M        512                  : datum        - DATUM ELEVATION
TDD .M        320                  : tdd          - TOTAL DEPTH DRILLER
RUN .         ONE                  : Run          - RUN NUMBER
ENG .         BILL                 : Engineer     - RECORDING ENGINEER
WIT .         JIM                  : Witness      - WITNESSED BY
MUD .         GEL                  : Mud_type     - MUD TYPE
MATR.         SANDSTONE            : Logunit      - NEUTRON MATRIX
TMAX.C        16                   : BHT          - MAXIMUM RECORDED TEMPERATURE
BHTD.M        320                  : BHTDEP       - MAXIMUM RECORDED TEMPERATURE
MATR.         1                    : LOGUNIT      - NEUTRON MATRIX
RMT .C        16                   : MDTP         - TEMPERATURE OF MUD
NEUT.         1                    : NEUTRON      - NEUTRON TYPE
RESI.         0                    : RESIST       - RESISTIVITY TYPE
RMC .OHMM     2.61                 : RMC          - RESISTIVITY OF MUD CAKE
RMF .OHMM     2.61                 : RMF          - RESISTIVITY OF MUD FILTRATE
SUFT.C        -15                  : SUFT         - SURFACE TEMPERATURE
~A  DEPTH     RESD     PHIN     PHID      CAL       GR
  173.000    8.054    0.495    0.230  208.750   84.458
  173.250    8.275    0.520    0.241  217.304   87.777
  173.500    8.271    0.535    0.242  215.269   89.279
  173.750    8.042    0.551    0.258  211.214   88.964
  174.000    7.265    0.562    0.250  207.667   86.833
  174.250    6.098    0.570    0.272  207.141   82.282
  174.500    4.979    0.568    0.255  204.098   82.270
  174.750    3.709    0.568    0.237  197.013   84.075
  175.000    3.707    0.566    0.234  196.488   90.421
  175.250    5.551    0.563    0.241  195.967   92.226
  175.500    4.924    0.561    0.264  196.955   95.848
  175.750    4.171    0.566    0.258  197.443   96.442
  176.000    3.437    0.568    0.237  201.458   91.284
  176.250    2.806    0.567    0.197  197.401   89.760
  176.500    2.729    0.560    0.149  196.378   90.050
  176.750    2.855    0.559    0.097  197.873   88.222
  177.000    2.934    0.561    0.172  198.356   85.184
  177.250    2.986    0.564    0.143  196.822   88.503
  177.500    3.097    0.570    0.114  195.796   88.794
  177.750    3.271    0.564    0.245  195.271   86.059
  178.000    3.455    0.542    0.294  195.759   88.468
  178.250    3.716    0.529    0.280  196.245   89.667
  178.500    4.035    0.529    0.259  197.740   90.867
  178.750    4.503    0.536    0.252  200.241   90.856
  179.000    5.310    0.544    0.238  203.757   88.724
  179.250    5.116    0.550    0.241  211.810   86.898
  179.500    4.794    0.554    0.275  215.323   86.885
  179.750    4.535    0.557    0.286  213.786   89.295
  180.000    3.985    0.556    0.290  210.743   93.827
  180.250    3.911    0.557    0.274  208.202   99.264
  180.500    4.325    0.561    0.270  208.181  101.675
  180.750    4.205    0.565    0.262  207.660   99.846
  181.000    3.869    0.568    0.245  208.143   98.020
  181.250    3.593    0.571    0.246  208.632   98.009
  181.500    3.558    0.568    0.239  208.106   99.208
  181.750    3.656    0.557    0.231  207.078   98.892
  182.000    3.756    0.544    0.233  206.557   96.459
  182.250    3.754    0.545    0.235  202.500   95.237
  182.500    3.684    0.556    0.244  198.948   94.923
  182.750    3.648    0.570    0.277  198.927   92.189
  183.000    3.647    0.562    0.276  198.913   90.965
  183.250    3.713    0.555    0.275  198.389   91.561
  183.500    3.779    0.545    0.271  198.368   91.247
  183.750    3.848    0.527    0.263  198.854   90.328
  184.000    4.026    0.520    0.255  204.892   90.315
  184.250    4.253    0.527    0.255  207.396   92.423
  184.500    4.834    0.538    0.255  202.330   91.199
  184.750    5.346    0.532    0.259  199.789   93.914
  185.000    5.294    0.521    0.263  204.815   96.022
  185.250    5.147    0.525    0.247  208.326   98.127
  185.500    5.051    0.546    0.244  208.307   99.026
  185.750    4.866    0.546    0.226  207.786   99.923
  186.000    4.160    0.553    0.222  206.759  100.820
  186.250    3.724    0.559    0.231  207.747   96.874
  186.500    3.490    0.568    0.241  210.253   93.229
  186.750    3.393    0.574    0.252  218.811   88.980
  187.000    3.269    0.569    0.263  220.304   82.307
  187.250    3.179    0.560    0.290  209.692   82.599
  187.500    3.207    0.547    0.332  199.579   83.496
  187.750    4.146    0.533    0.326  195.019   82.880
  188.000    4.800    0.521    0.280  191.973   83.775
  188.250    5.765    0.525    0.256  190.444   83.766
  188.500    6.494    0.548    0.225  190.425   82.845
  188.750    7.050    0.539    0.198  190.404   83.742
  189.000    6.792    0.495    0.062  190.890   92.510
  189.250    6.366    0.468    0.135  191.878   96.432
  189.500    5.543    0.552    0.218  192.870  100.358
  189.750    4.739    0.570    0.213  193.856  108.217
  190.000    4.127    0.584    0.200  194.846  106.995
  190.250    3.496    0.587    0.188  195.842  106.074
  190.500    3.246    0.589    0.197  197.836  101.827
  190.750    3.185    0.577    0.197  198.831  103.933
  191.000    3.154    0.584    0.217  199.317  106.950
  191.250    3.153    0.585    0.231  200.303  106.938
  191.500    3.151    0.585    0.240  201.293  107.533
  191.750    3.150    0.586    0.242  201.781  106.311
  192.000    3.148    0.583    0.236  201.763  103.574
  192.250    3.147    0.588    0.223  201.744  100.839
  192.500    3.145    0.586    0.215  201.219   99.919
  192.750    3.143    0.577    0.219  199.689   98.697
  193.000    3.142    0.560    0.227  198.154   98.685
  193.250    3.198    0.548    0.246  195.613   94.134
  193.500    3.347    0.537    0.239  195.090   84.737
  193.750    3.503    0.509    0.224  198.603   83.516
  194.000    3.768    0.499    0.239  202.618   85.926
  194.250    4.244    0.519    0.265  203.608   83.796
  194.500    4.869    0.544    0.268  202.078   79.545
  194.750    5.586    0.510    0.241  196.505   76.206
  195.000    6.234    0.494    0.215  195.987   67.416
  195.250    6.524    0.469    0.119  195.966   66.494
  195.500    7.082    0.451    0.073  195.947   67.693
  195.750    8.826    0.442    0.114  196.433   70.104
  196.000   12.625    0.431    0.171  196.919   71.910
  196.250   16.623    0.432    0.208  197.909   75.833
  196.500   16.164    0.459    0.255  198.395   79.454
  196.750   14.873    0.473    0.249  197.369   80.353
  197.000   12.951    0.476    0.266  195.328   81.552
  197.250   10.575    0.499    0.265  194.807   81.541
  197.500    9.379    0.529    0.272  193.270   80.015
  197.750    8.954    0.525    0.295  193.761   82.427
  198.000    8.163    0.534    0.283  195.758   88.470
  198.250    7.864    0.508    0.236  197.255   95.724
  198.500    8.616    0.510    0.199  199.757  100.857
  198.750    8.691    0.535    0.206  200.745  102.361
  199.000    7.363    0.541    0.224  202.240  102.955
  199.250    6.068    0.541    0.221  203.739  100.218
  199.500    4.820    0.533    0.218  204.225   98.996
  199.750    3.492    0.513    0.239  204.706   97.168
  200.000    3.933    0.492    0.220  202.163   88.379
  200.250    4.596    0.489    0.235  200.128   87.459
  200.500    5.129    0.474    0.259  199.100   93.502
  200.750    5.569    0.471    0.239  199.084   98.637
  201.000    6.507    0.489    0.215  199.065   98.625
  201.250    6.504    0.507    0.224  198.035   98.614
  201.500    5.984    0.502    0.231  197.512   98.602
  201.750    5.308    0.535    0.238  197.494   95.562
  202.000    4.374    0.552    0.264  195.961   91.920
  202.250    3.774    0.555    0.281  192.915   85.855
  202.500    3.949    0.557    0.292  192.388   79.184
  202.750    4.531    0.548    0.302  191.867   75.539
  203.000    5.442    0.534    0.269  191.846   74.014
  203.250    6.908    0.535    0.246  194.857   70.067
  203.500    8.452    0.535    0.228  196.856   64.909
  203.750    9.607    0.534    0.188  196.335   64.596
  204.000   10.146    0.533    0.171  196.314   71.547
  204.250    9.776    0.536    0.262  198.820   80.920
  204.500    8.913    0.519    0.290  197.283   89.385
  204.750    7.833    0.507    0.275  205.842   91.190
  205.000    6.634    0.516    0.270  203.303   90.271
  205.250    5.885    0.533    0.282  206.311   92.379
  205.500    5.124    0.549    0.274  201.749   97.512
  205.750    4.033    0.566    0.267  200.722  100.225
  206.000    3.032    0.578    0.265  203.226   98.702
  206.250    3.231    0.582    0.252  205.227   96.572
  206.500    2.737    0.565    0.256  208.740   95.348
  206.750    2.277    0.542    0.245  209.728   92.007
  207.000    2.153    0.537    0.227  208.703   88.666
  207.250    2.295    0.523    0.230  213.225   86.535
  207.500    2.707    0.519    0.238  212.699   85.615
  207.750    4.167    0.524    0.243  204.606   87.119
  208.000    5.745    0.525    0.249  203.581   90.740
  208.250    7.428    0.518    0.236  203.557   94.664
  208.500    9.004    0.517    0.228  203.039   94.956
  208.750    7.913    0.526    0.213  203.020   94.339
  209.000    6.461    0.532    0.208  201.988   91.902
  209.250    6.398    0.512    0.222  201.974   89.775
