~VERSION INFORMATION
 VERS.                 2.0:   CWLS LOG ASCII STANDARD -VERSION 2.0
 WRAP.                  NO:   ONE LINE PER DEPTH STEP
~WELL INFORMATION BLOCK
#MNEM.UNIT           DATA                    DESCRIPTION OF MNEMONIC
#---------    -------------------            -------------------------------
# Generated from Intellog Unique Number	CX_WELLS/WELL/3697
WELL.         HANGINGSTONE OV 11-6           : Well_name    - WELL
LOC .         AA/11-06-085-11W4/0            : Location     - LOCATION
UWI .         AA/11-06-085-11W400            : Uwi          - UNIQUE WELL ID
ENTR.         T                              : Entered      - ENTERED BY
SRVC.         SCHLUMBERGER                   : Scn          - SERVICE COMPANY
STRT.M        95                             : top_depth    - START DEPTH
STOP.M        285                            : bot_depth    - STOP DEPTH
STEP.M        0.25                           : increment    - STEP LENGTH
 NULL. -999.2500:NULL Value
~CURVE INFORMATION BLOCK
#MNEM UNIT       ERCB CURVE CODE    CURVE DESCRIPTION
#-----------   ------------------   ----------------------------------
DEPT.M        00 001 00 00         : DEPTH        - DEPTH
GR  .API      00 310 00 00         : GR           - GAMMA RAY
NPHI.V/V      00 330 00 00         : PHIN         - NEUTRON POROSITY (SANDSTONE)
DPHI.V/V      00 890 00 00         : PHID         - DENSITY POROSITY (SANDSTONE)
ILD .OHMM     00 120 00 00         : RESD         - DEEP RESISTIVITY (OTHER)
~PARAMETER INFORMATION
#MNEM.UNIT           DATA             DESCRIPTION OF MNEMONIC
#---------         -----------     ------------------------------
GL  .M        532                  : gl           - GROUND LEVEL ELEVATION
EREF.M        537.2                : kb           - ELEVATION OF DEPTH REFERENCE
DATM.M        537.2                : datum        - DATUM ELEVATION
TDD .M        292                  : tdd          - TOTAL DEPTH DRILLER
RUN .         ONE                  : Run          - RUN NUMBER
ENG .         BILL                 : Engineer     - RECORDING ENGINEER
WIT .         JIM                  : Witness      - WITNESSED BY
MUD .         GEL                  : Mud_type     - MUD TYPE
MATR.         SANDSTONE            : Logunit      - NEUTRON MATRIX
TMAX.C        20                   : BHT          - MAXIMUM RECORDED TEMPERATURE
BHTD.M        292                  : BHTDEP       - MAXIMUM RECORDED TEMPERATURE
MATR.         1                    : LOGUNIT      - NEUTRON MATRIX
RMT .C        25                   : MDTP         - TEMPERATURE OF MUD
NEUT.         1                    : NEUTRON      - NEUTRON TYPE
RESI.         3.4                  : RESIST       - RESISTIVITY TYPE
RMC .OHMM     2.9                  : RMC          - RESISTIVITY OF MUD CAKE
RMF .OHMM     2.07                 : RMF          - RESISTIVITY OF MUD FILTRATE
SUFT.C        4                    : SUFT         - SURFACE TEMPERATURE
~A  DEPTH       GR     PHIN     PHID     RESD
# ...
  182.000   89.365    0.460    0.309   12.337
  182.250   92.473    0.452    0.299   11.452
  182.500   93.123    0.438    0.285   11.036
  182.750   91.306    0.372    0.088   10.839
  183.000   89.489    0.223    0.025   10.848
  183.250   85.822    0.236    0.056   10.851
  183.500   74.138    0.280    0.114   12.154
  183.750   71.088    0.338    0.144   13.614
  184.000   72.971    0.382    0.170   15.538
  184.250   85.337    0.408    0.211   16.450
  184.500   96.470    0.418    0.243   16.153
  184.750   98.978    0.425    0.241   14.713
  185.000   97.153    0.428    0.246   12.907
  185.250   95.969    0.428    0.249   10.702
  185.500   95.985    0.427    0.251    9.390
  185.750   95.410    0.442    0.254    9.047
  186.000   92.976    0.459    0.256    8.722
  186.250   92.393    0.466    0.261    8.726
  186.500   92.434    0.472    0.263    8.567
  186.750   91.850    0.461    0.267    8.259
  187.000   90.033    0.451    0.271    8.109
  187.250   91.291    0.453    0.277    7.668
  187.500   95.641    0.444    0.285    6.986
  187.750  101.232    0.432    0.291    6.732
  188.000  105.581    0.418    0.301    6.487
  188.250  106.848    0.419    0.306    6.251
  188.500  106.881    0.428    0.266    6.138
  188.750  107.522    0.424    0.239    6.030
  189.000  106.938    0.414    0.218    6.149
  189.250  102.038    0.402    0.244    6.152
  189.500   94.671    0.403    0.259    6.513
  189.750   82.988    0.430    0.280    7.025
  190.000   80.554    0.442    0.299    8.017
  190.250   89.845    0.456    0.308    8.649
  190.500   89.886    0.462    0.297    8.818
  190.750   89.903    0.459    0.278    8.824
  191.000   91.802    0.454    0.283    8.666
  191.250   92.452    0.446    0.289    8.672
  191.500   92.485    0.439    0.284    8.677
  191.750   93.751    0.444    0.281    8.847
  192.000   94.401    0.453    0.276    8.853
  192.250   93.817    0.461    0.275    8.857
  192.500   93.858    0.460    0.277    8.862
  192.750   93.883    0.434    0.282    8.871
  193.000   94.525    0.430    0.285    8.876
  193.250   94.566    0.425    0.278    9.049
  193.500   92.124    0.429    0.268    9.054
  193.750   88.457    0.431    0.243    9.232
  194.000   91.573    0.435    0.244    9.592
  194.250   93.456    0.441    0.270    9.780
  194.500   93.489    0.440    0.280    9.972
  194.750   92.289    0.431    0.280    9.979
  195.000   99.121    0.425    0.280    9.093
  195.250  104.704    0.418    0.285    8.760
  195.500  105.971    0.416    0.280    8.130
  195.750  105.387    0.416    0.265    7.688
  196.000  104.803    0.424    0.257    7.272
  196.250  106.695    0.432    0.261    7.277
  196.500  107.944    0.428    0.267    7.144
  196.750  111.069    0.423    0.268    6.886
  197.000  113.577    0.418    0.268    6.635
  197.250  114.835    0.412    0.268    6.046
  197.500  114.868    0.412    0.269    5.717
  197.750  114.901    0.413    0.272    5.208
  198.000  115.567    0.418    0.273    5.018
  198.250  115.592    0.421    0.270    4.927
  198.500  115.616    0.419    0.263    4.930
  198.750  114.416    0.416    0.259    4.933
  199.000  110.141    0.412    0.252    5.127
  199.250  109.549    0.411    0.251    5.326
  199.500  116.365    0.415    0.249    5.745
  199.750  116.406    0.423    0.248    6.199
  200.000  113.348    0.429    0.247    6.204
  200.250  112.147    0.432    0.240    6.205
  200.500  113.414    0.425    0.233    6.209
  200.750  114.063    0.414    0.232    6.331
  201.000  110.404    0.408    0.242    6.704
  201.250  112.279    0.406    0.245    7.096
  201.500  115.395    0.409    0.240    7.801
  201.750  117.278    0.414    0.234    8.575
  202.000  115.478    0.421    0.228    9.251
  202.250  114.886    0.422    0.220    9.795
  202.500  112.452    0.412    0.214   10.175
  202.750  111.877    0.402    0.219   10.181
  203.000  114.368    0.399    0.221   10.383
  203.250  115.018    0.403    0.224   10.387
  203.500  115.051    0.408    0.224   10.396
  203.750  115.700    0.408    0.222   10.210
  204.000  115.742    0.405    0.222   10.213
  204.250  115.775    0.403    0.221   10.219
  204.500  116.416    0.403    0.221   10.421
  204.750  116.449    0.403    0.221   10.426
  205.000  114.640    0.404    0.221   10.634
  205.250  113.432    0.408    0.225   10.639
  205.500  115.323    0.410    0.231   10.644
  205.750  116.581    0.414    0.237   10.652
  206.000  116.614    0.412    0.243   10.659
  206.250  114.797    0.403    0.251   10.274
  206.500  108.663    0.395    0.248    9.897
  206.750  110.546    0.394    0.246    9.538
  207.000  114.287    0.400    0.252    9.544
  207.250  111.854    0.409    0.260   10.297
  207.500  108.187    0.412    0.265   10.903
  207.750  104.528    0.412    0.265   10.910
  208.000  102.094    0.415    0.262   10.915
  208.250   99.052    0.410    0.258   11.342
  208.500   97.835    0.400    0.252   11.563
  208.750   95.410    0.380    0.237   12.013
  209.000   92.352    0.359    0.184   12.251
  209.250   89.301    0.333    0.125   12.491
  209.500   85.026    0.316    0.091   12.977
  209.750   81.967    0.336    0.166   13.998
  210.000   80.767    0.381    0.194   15.976
  210.250   83.267    0.388    0.216   16.916
  210.500   89.466    0.414    0.232   17.578
  210.750   96.899    0.420    0.247   17.583
  211.000  104.949    0.442    0.254   15.722
  211.250  112.998    0.450    0.260   14.867
  211.500  116.131    0.423    0.254   13.542
  211.750  114.314    0.409    0.245   12.107
  212.000  112.497    0.403    0.244   11.666
  212.250  112.522    0.403    0.245   11.036
  212.500  109.471    0.406    0.246   11.041
  212.750  106.429    0.414    0.248   10.841
  213.000  105.846    0.430    0.250   10.848
  213.250  105.254    0.447    0.252   11.062
  213.500  104.053    0.463    0.247   11.067
  213.750  103.470    0.453    0.246   11.288
  214.000  102.269    0.438    0.260   11.291
  214.250   99.836    0.444    0.278   10.883
  214.500   98.635    0.450    0.280   10.102
  214.750  104.218    0.453    0.278    9.552
  215.000  109.801    0.449    0.280    9.033
  215.250  109.834    0.446    0.289    8.229
  215.500  109.250    0.448    0.300    7.637
  215.750  109.900    0.446    0.294    6.699
  216.000  114.258    0.443    0.276    5.877
  216.250  118.607    0.440    0.260    5.156
  216.500  117.415    0.434    0.255    4.609
  216.750  114.973    0.424    0.261    4.277
  217.000  113.156    0.415    0.264    4.122
  217.250  111.964    0.405    0.264    5.267
  217.500  110.756    0.395    0.245    5.900
  217.750  107.714    0.397    0.230    6.364
  218.000  105.272    0.405    0.223    7.403
  218.250  102.838    0.412    0.225    8.292
  218.500  100.404    0.416    0.208    9.117
  218.750  105.379    0.418    0.201    9.648
  219.000  108.487    0.418    0.212   10.027
  219.250  107.920    0.413    0.220   10.223
  219.500  106.703    0.411    0.220   10.229
  219.750  107.969    0.413    0.224   10.428
  220.000  109.244    0.419    0.231   10.632
  220.250  108.035    0.418    0.238   10.842
  220.500  105.618    0.412    0.238   10.650
  220.750  106.884    0.413    0.238   10.457
  221.000  108.776    0.459    0.242   10.460
  221.250  108.792    0.472    0.264    9.896
  221.500  109.442    0.484    0.273    9.716
  221.750  109.475    0.479    0.290    9.019
  222.000  108.283    0.473    0.308    8.529
  222.250  105.224    0.462    0.302    7.770
  222.500   97.857    0.455    0.288    7.210
  222.750   86.782    0.448    0.293    6.206
  223.000   80.648    0.443    0.297    5.146
  223.250   78.840    0.445    0.303    4.600
  223.500   78.873    0.445    0.312    4.963
  223.750   81.989    0.452    0.318    5.883
  224.000   87.572    0.458    0.311    6.465
  224.250   92.546    0.450    0.306    7.242
  224.500   91.954    0.444    0.305    7.962
  224.750   90.754    0.441    0.310    8.273
  225.000   88.937    0.444    0.309    7.970
  225.250   87.120    0.440    0.299    7.540
