~VERSION INFORMATION
 VERS.                 2.0:   CWLS LOG ASCII STANDARD -VERSION 2.0
 WRAP.                  NO:   ONE LINE PER DEPTH STEP
~WELL INFORMATION BLOCK
#MNEM.UNIT           DATA                    DESCRIPTION OF MNEMONIC
#---------    -------------------            -------------------------------
# Generated from Intellog Unique Number	CN_94_101/WELL/2690
WELL.         16-30-094-15W4                 : Well_name    - WELL
LOC .         AA/16-30-094-15W4/0            : Location     - LOCATION
UWI .         AA/16-30-094-15W400            : Uwi          - UNIQUE WELL ID
ENTR.         JOETTE                         : Entered      - ENTERED BY
SRVC.         SCHLUMBERGER                   : Scn          - SERVICE COMPANY
DATE.         06/19/92                       : Date         - LOG DATE
STRT.F        100                            : top_depth    - START DEPTH
STOP.F        870.177                        : bot_depth    - STOP DEPTH
STEP.F        0.82                           : increment    - STEP LENGTH
 NULL. -999.2500:NULL Value
~CURVE INFORMATION BLOCK
#MNEM UNIT       ERCB CURVE CODE    CURVE DESCRIPTION
#-----------   ------------------   ----------------------------------
DEPT.F        00 001 00 00         : DEPTH        - DEPTH
CALI.IN       00 280 01 00         : CAL          - CALIPER
GR  .API      00 310 00 00         : GR           - GAMMA RAY
DPHI.V/V      00 890 00 00         : PHID         - DENSITY POROSITY (SANDSTONE)
ILD .OHMM     00 120 00 00         : RESD         - DEEP RESISTIVITY (DIL)
~PARAMETER INFORMATION
#MNEM.UNIT           DATA             DESCRIPTION OF MNEMONIC
#---------         -----------     ------------------------------
GL  .M        520.294              : gl           - GROUND LEVEL ELEVATION
EREF.M        523.342              : kb           - ELEVATION OF DEPTH REFERENCE
DATM.M        523.342              : datum        - DATUM ELEVATION
TDD .M        269.748              : tdd          - TOTAL DEPTH DRILLER
RUN .         ONE                  : Run          - RUN NUMBER
ENG .         BILL                 : Engineer     - RECORDING ENGINEER
WIT .         JIM                  : Witness      - WITNESSED BY
MUD .         GEL                  : Mud_type     - MUD TYPE
MATR.         SANDSTONE            : Logunit      - NEUTRON MATRIX
TMAX.F        68                   : BHT          - MAXIMUM RECORDED TEMPERATURE
BHTD.F        885                  : BHTDEP       - MAXIMUM RECORDED TEMPERATURE
RMT .F        68                   : MDTP         - TEMPERATURE OF MUD
MUDD.LB/G     9.5                  : MWT          - MUD DENSITY
NEUT.         1                    : NEUTRON      - NEUTRON TYPE
RESI.         0                    : RESIST       - RESISTIVITY TYPE
RM  .OHMM     0.84                 : RM           - RESISTIVITY OF MUD
RMC .OHMM     0.84                 : RMC          - RESISTIVITY OF MUD CAKE
RMF .OHMM     0.84                 : RMF          - RESISTIVITY OF MUD FILTRATE
SUFT.F        39.2                 : SUFT         - SURFACE TEMPERATURE
~A  DEPTH      CAL       GR     PHID     RESD
# ...
  670.866    9.317   84.503    0.249    5.482
  671.686    9.320   78.684    0.234    6.254
  672.507    9.323   75.595    0.214    6.620
  673.327    9.327   80.302    0.179    5.499
  674.147    9.330   87.369    0.223    5.404
  674.967    9.333   88.553    0.225    5.511
  675.787    9.297   89.362    0.221    6.055
  676.608    9.261   90.178    0.217    7.307
  677.428    9.146   80.064    0.187    7.179
  678.248    8.954   77.754    0.167    6.669
  679.068    8.958   77.783    0.182    6.677
  679.888    8.844   83.277    0.195    7.763
  680.709    8.729   86.034    0.214    9.365
  681.529    8.927   82.165    0.192   11.300
  682.349    9.086   74.008    0.161   12.895
  683.169    9.284   69.749    0.142   11.116
  683.990    9.092   71.734    0.101    9.585
  684.810    9.056   74.875    0.110    8.418
  685.630    9.216   79.199    0.135    8.116
  686.450    9.375   83.126    0.178    7.974
  687.270    9.104   85.891    0.177    8.442
  688.091    8.913   85.523    0.190    8.612
  688.911    9.033   81.654    0.190    8.461
  689.731    9.230   79.344    0.191    8.008
  690.551    9.468   81.329    0.192    8.967
  691.371    9.431   78.629    0.156    9.493
  692.192    9.122   76.327    0.163    8.338
  693.012    9.242   78.297    0.197    6.796
  693.832    9.558   79.886    0.277    5.336
  694.652    9.248   78.745    0.287    3.888
  695.472    8.978   80.731    0.303    3.680
  696.293    9.294   82.319    0.263    4.442
  697.113    9.413   80.009    0.240    4.617
  697.933    9.338   82.377    0.221    4.535
  698.753    9.186   76.169    0.199    4.625
  699.573    9.501   61.385    0.184    5.580
  700.394    9.347   44.254    0.176   17.463
  701.214    9.077   36.501    0.211   18.846
  702.034    9.080   37.295    0.397   19.584
  702.854    9.044   35.375    0.419   22.758
  703.675    8.891   29.947    0.406   30.718
  704.495    8.777   25.695    0.394   55.923
  705.315    8.663   26.106    0.390   76.908
  706.135    8.627   27.702    0.396   67.547
  706.955    8.709   28.113    0.398   74.255
  707.776    8.713   28.532    0.390   78.635
  708.596    8.715   27.789    0.367   73.046
  709.416    8.678   27.442    0.359   62.953
  710.236    8.683   27.847    0.347   47.615
  711.056    8.685   28.663    0.334   30.440
  711.877    8.687   31.031    0.325   19.827
  712.697    8.652   33.002    0.313   12.438
  713.517    8.655   37.716    0.307    9.585
  714.337    8.658   41.253    0.307    8.577
  715.157    8.661   41.282    0.312    9.256
  715.978    8.663   45.613    0.298    9.263
  716.798    8.705   46.805    0.281    8.605
  717.618    8.709   49.952    0.272    8.776
  718.438    8.712   53.489    0.263    9.830
  719.259    8.715   51.187    0.239   11.007
  720.079    8.718   51.613    0.239   11.437
  720.899    8.720   53.598    0.231   11.665
  721.719    8.685   54.789    0.252   12.586
  722.539    8.688   55.988    0.282   13.075
  723.360    8.652   54.060    0.270   14.924
  724.180    8.655   50.978    0.267   16.099
  725.000    8.658   49.838    0.274   17.688
  725.820    8.661   50.264    0.278   20.561
  726.640    8.702   50.293    0.286   28.816
  727.461    8.706   49.932    0.286   34.771
  728.281    8.749   48.409    0.278   32.909
  729.101    8.751   47.651    0.270   28.369
  729.921    8.754   46.893    0.281   31.766
  730.741    8.796   45.370    0.300   34.929
  731.562    8.799   44.619    0.320   30.670
  732.382    8.841   44.258    0.304   27.963
  733.202    8.844   43.118    0.316   37.045
  734.022    8.847   35.740    0.271   76.865
  734.843    8.851   33.033    0.213   53.951
  735.663    8.814   32.680    0.163   82.997
  736.483    8.817   28.421    0.123   96.475
  737.303    8.821   29.229    0.058   44.892
  738.123    8.822   31.605    0.110   37.279
  738.944    8.825   32.413    0.179   34.630
  739.764    8.830   33.994    0.336   41.786
  740.584    8.833   37.539    0.321   45.085
  741.404    8.835   37.178    0.312   47.733
  742.224    8.799   35.648    0.312   54.457
  743.045    8.763   33.735    0.326   56.601
  743.865    8.766   32.197    0.319   55.610
  744.685    8.770   32.226    0.310   47.938
  745.505    8.772   35.388    0.317   41.345
  746.325    8.776   37.374    0.323   39.849
  747.146    8.776   38.168    0.336   35.668
  747.966    8.704   39.381    0.353   34.386
  748.786    8.668   39.395    0.348   32.552
  749.606    8.670   38.645    0.337   32.577
  750.427    8.673   35.562    0.326   32.610
  751.247    8.677   32.083    0.316   36.524
  752.067    8.680   29.765    0.319   44.903
  752.887    8.721   25.904    0.323   62.916
  753.707    8.724   27.882    0.335   75.956
  754.528    8.727   29.080    0.350   78.927
  755.348    8.730   30.286    0.354   80.497
  756.168    8.733   31.484    0.354   70.682
  756.988    8.736   33.852    0.340   38.913
  757.808    8.739   37.000    0.348   40.435
  758.629    8.742   39.375    0.357   42.810
  759.449    8.784   37.837    0.342   36.904
  760.269    8.787   37.094    0.326   30.078
  761.089    8.790   39.859    0.314   20.721
  761.909    8.794   43.389    0.302   16.889
  762.730    8.797   48.486    0.288   15.992
  763.550    8.799   55.149    0.289   16.306
  764.370    8.763   61.805    0.281   16.630
  765.190    8.766   58.333    0.270   15.744
  766.010    8.769   61.098    0.258   14.900
  766.831    8.772   63.068    0.263   15.197
  767.651    8.737   63.097    0.284   16.389
  768.471    8.739   53.771    0.282   18.011
  769.291    8.742   51.071    0.277   21.739
  770.112    8.746   44.863    0.271   31.619
  770.932    8.748   46.848    0.286   34.107
  771.752    8.751   44.531    0.306   86.916
  772.572    8.716   33.248    0.311  115.146
  773.392    8.719   24.701    0.316  141.597
  774.213    8.682   25.120    0.309  158.553
  775.033    8.647   23.207    0.316  194.925
  775.853    8.611   20.890    0.330  239.701
  776.673    8.575   18.977    0.340  191.752
  777.493    8.538   19.006    0.333  120.286
  778.314    8.424   20.204    0.354   92.695
  779.134    8.349   22.189    0.335   82.949
  779.954    8.469   22.991    0.323   72.853
  780.774    8.590   24.189    0.329   71.613
  781.594    8.593   26.954    0.336   74.396
  782.415    8.595   25.814    0.335   74.471
  783.235    8.560   25.850    0.328   70.483
  784.055    8.525   27.835    0.324   64.261
  784.875    8.449   28.629    0.317   59.709
  785.696    8.491   28.283    0.299   59.770
  786.516    8.532   28.312    0.303   62.108
  787.336    8.535   29.113    0.316   63.359
  788.156    8.538   30.702    0.307   62.249
  788.976    8.503   32.304    0.287   63.487
  789.797    8.467   33.510    0.282   64.733
  790.617    8.469   35.481    0.272   61.266
  791.437    8.473   39.401    0.244   44.640
  792.257    8.515   44.895    0.277   46.398
  793.077    8.635   51.551    0.285   41.519
  793.898    8.677   41.444    0.279   30.244
  794.718    8.719   28.992    0.293   35.173
  795.538    8.721   32.147    0.315   40.885
  796.358    8.724   34.514    0.328   40.158
  797.178    8.727   37.272    0.322   39.465
  797.999    8.692   40.427    0.324   42.559
  798.819    8.694   36.940    0.322   41.071
  799.639    8.659   34.630    0.338   38.852
  800.459    8.623   35.064    0.312   34.784
  801.280    8.626   33.533    0.312   32.304
  802.100    8.628   32.386    0.335   30.000
  802.920    8.631   33.194    0.326   28.408
  803.740    8.635   35.179    0.306   27.896
  804.560    8.639   36.371    0.281   27.414
  805.381    8.641   39.923    0.258   27.449
  806.201    8.684   41.894    0.226   27.988
  807.021    8.685   45.041    0.216   29.639
  807.841    8.688   49.755    0.172   15.424
  808.661    8.691   54.462    0.157   14.598
  809.482    8.695   57.999    0.264   14.616
  810.302    8.698   62.324    0.261   15.192
  811.122    8.702   60.021    0.264   16.383
  811.942    8.704   58.093    0.266   17.341
  812.762    8.706   55.011    0.261   19.788
