~VERSION INFORMATION
 VERS.                 2.0:   CWLS LOG ASCII STANDARD -VERSION 2.0
 WRAP.                  NO:   ONE LINE PER DEPTH STEP
~WELL INFORMATION BLOCK
#MNEM.UNIT           DATA                    DESCRIPTION OF MNEMONIC
#---------    -------------------            -------------------------------
# Generated from Intellog Unique Number	CN_94_101/WELL/5022
WELL.         11-26-099-15W4                 : Well_name    - WELL
LOC .         AA/11-26-099-15W4/0            : Location     - LOCATION
UWI .         AA/11-26-099-15W400            : Uwi          - UNIQUE WELL ID
ENTR.         TIM                            : Entered      - ENTERED BY
SRVC.         SCHLUMBERGER                   : Scn          - SERVICE COMPANY
DATE.         08/13/92                       : Date         - LOG DATE
STRT.M        275                            : top_depth    - START DEPTH
STOP.M        485                            : bot_depth    - STOP DEPTH
STEP.M        0.25                           : increment    - STEP LENGTH
 NULL. -999.2500:NULL Value
~CURVE INFORMATION BLOCK
#MNEM UNIT       ERCB CURVE CODE    CURVE DESCRIPTION
#-----------   ------------------   ----------------------------------
DEPT.M        00 001 00 00         : DEPTH        - DEPTH
GR  .API      00 310 00 00         : GR           - GAMMA RAY
ILD .OHMM     00 120 00 00         : RESD         - DEEP RESISTIVITY (DIL)
NPHI.V/V      00 330 00 00         : PHIN         - NEUTRON POROSITY (SANDSTONE)
DPHI.V/V      00 890 00 00         : PHID         - DENSITY POROSITY (SANDSTONE)
~PARAMETER INFORMATION
#MNEM.UNIT           DATA             DESCRIPTION OF MNEMONIC
#---------         -----------     ------------------------------
GL  .M        724.5                : gl           - GROUND LEVEL ELEVATION
EREF.M        727.9                : kb           - ELEVATION OF DEPTH REFERENCE
DATM.M        727.9                : datum        - DATUM ELEVATION
TDD .M        488                  : tdd          - TOTAL DEPTH DRILLER
RUN .         ONE                  : Run          - RUN NUMBER
ENG .         BILL                 : Engineer     - RECORDING ENGINEER
WIT .         JIM                  : Witness      - WITNESSED BY
MUD .         GEL                  : Mud_type     - MUD TYPE
MATR.         SANDSTONE            : Logunit      - NEUTRON MATRIX
TMAX.C        28                   : BHT          - MAXIMUM RECORDED TEMPERATURE
BHTD.M        488                  : BHTDEP       - MAXIMUM RECORDED TEMPERATURE
RMT .C        10                   : MDTP         - TEMPERATURE OF MUD
MUDD.KG/M     1140                 : MWT          - MUD DENSITY
NEUT.         1                    : NEUTRON      - NEUTRON TYPE
RESI.         0                    : RESIST       - RESISTIVITY TYPE
RM  .OHMM     1.08                 : RM           - RESISTIVITY OF MUD
RMC .OHMM     1.08                 : RMC          - RESISTIVITY OF MUD CAKE
RMF .OHMM     1.08                 : RMF          - RESISTIVITY OF MUD FILTRATE
SUFT.C        4                    : SUFT         - SURFACE TEMPERATURE
~A  DEPTH       GR     RESD     PHIN     PHID
  275.000  162.036    6.160    0.626    0.243
  275.250  161.408    6.155    0.623    0.247
  275.500  161.398    6.149    0.612    0.249
  275.750  162.611    5.949    0.601    0.254
  276.000  164.432    5.347    0.592    0.258
  276.250  164.416    4.748    0.584    0.248
  276.500  161.950    4.149    0.576    0.230
  276.750  161.332    3.349    0.577    0.227
  277.000  158.258    3.147    0.583    0.223
  277.250  155.796    3.343    0.594    0.228
  277.500  154.566    4.133    0.604    0.239
  277.750  152.719    4.923    0.615    0.246
  278.000  150.260    5.516    0.606    0.253
  278.250  150.854    6.109    0.595    0.254
  278.500  155.733    6.502    0.571    0.254
  278.750  154.490    6.696    0.564    0.245
  279.000  153.872    6.495    0.563    0.234
  279.250  152.636    6.092    0.558    0.230
  279.500  151.396    5.891    0.539    0.232
  279.750  151.386    5.886    0.527    0.234
  280.000  152.593    5.883    0.533    0.238
  280.250  155.637    5.679    0.557    0.243
  280.500  157.454    5.279    0.562    0.247
  280.750  157.448    5.076    0.570    0.251
  281.000  156.820    5.073    0.569    0.251
  281.250  156.192    5.268    0.536    0.247
  281.500  154.952    5.661    0.543    0.246
  281.750  154.946    6.252    0.562    0.245
  282.000  154.929    6.646    0.573    0.244
  282.250  155.530    7.040    0.583    0.244
  282.500  157.348    7.036    0.560    0.244
  282.750  157.950    7.032    0.553    0.244
  283.000  158.541    7.027    0.569    0.244
  283.250  158.531    6.825    0.583    0.243
  283.500  157.295    6.821    0.590    0.239
  283.750  156.056    6.818    0.592    0.238
  284.000  154.820    6.814    0.599    0.237
  284.250  154.806    6.811    0.604    0.238
  284.500  157.239    6.607    0.601    0.243
  284.750  158.448    6.605    0.596    0.249
  285.000  158.432    6.601    0.591    0.257
  285.250  157.811    6.597    0.589    0.260
  285.500  156.578    6.194    0.554    0.260
  285.750  154.112    6.191    0.554    0.262
  286.000  152.261    6.185    0.552    0.263
  286.250  151.028    6.183    0.544    0.262
  286.500  149.789    6.180    0.546    0.260
  286.750  148.556    6.174    0.537    0.260
  287.000  146.705    6.172    0.523    0.262
  287.250  146.083    6.168    0.531    0.267
  287.500  144.850    6.163    0.553    0.269
  287.750  143.611    6.161    0.558    0.272
  288.000  142.986    6.156    0.558    0.273
  288.250  141.750    6.151    0.534    0.273
  288.500  141.122    6.148    0.528    0.272
  288.750  139.886    5.946    0.515    0.267
  289.000  139.258    5.545    0.493    0.262
  289.250  138.636    6.733    0.475    0.260
  289.500  137.404    7.722    0.465    0.258
  289.750  136.161    7.918    0.471    0.255
  290.000  135.536    8.113    0.480    0.253
  290.250  134.297    8.109    0.476    0.249
  290.500  134.290    8.103    0.500    0.249
  290.750  134.888    7.702    0.528    0.252
  291.000  137.321    6.705    0.554    0.260
  291.250  142.199    6.105    0.564    0.266
  291.500  145.243    5.903    0.558    0.271
  291.750  147.676    5.900    0.530    0.278
  292.000  148.882    5.498    0.515    0.285
  292.250  146.423    5.296    0.547    0.290
  292.500  145.190    5.093    0.559    0.296
  292.750  141.505    5.486    0.558    0.303
  293.000  138.434    6.475    0.536    0.307
  293.250  135.364    7.466    0.511    0.311
  293.500  131.070    8.654    0.464    0.313
  293.750  126.777    9.445    0.458    0.316
  294.000  121.868    9.639    0.448    0.316
  294.250  118.801    9.438    0.455    0.314
  294.500  113.893    9.035    0.496    0.312
  294.750  113.265    8.833    0.503    0.307
  295.000  116.309    8.632    0.498    0.304
  295.250  118.741    8.428    0.469    0.300
  295.500  119.951    8.225    0.454    0.300
  295.750  120.553    8.023    0.456    0.298
  296.000  121.759    7.622    0.462    0.292
  296.250  124.191    7.022    0.487    0.284
  296.500  126.624    6.421    0.513    0.287
  296.750  129.665    5.822    0.546    0.288
  297.000  131.493    5.618    0.549    0.286
  297.250  133.310    5.616    0.542    0.280
  297.500  133.290    6.406    0.539    0.273
  297.750  130.838    7.197    0.532    0.279
  298.000  125.933    7.192    0.557    0.286
  298.250  125.308    6.791    0.560    0.287
  298.500  133.244    6.391    0.566    0.280
  298.750  138.734    5.988    0.575    0.273
  299.000  139.940    5.986    0.579    0.258
  299.250  138.704    6.777    0.513    0.238
  299.500  135.022    7.966    0.497    0.238
  299.750  129.506    8.359    0.488    0.253
  300.000  122.766    8.354    0.473    0.282
  300.250  117.858    8.352    0.459    0.294
  300.500  119.682    8.148    0.453    0.305
  300.750  123.338    8.145    0.453    0.300
  301.000  127.605    7.742    0.455    0.296
  301.250  131.869    7.341    0.461    0.299
  301.500  134.913    6.941    0.471    0.308
  301.750  136.126    6.341    0.482    0.309
  302.000  134.886    5.543    0.574    0.304
  302.250  132.424    5.339    0.594    0.299
  302.500  130.573    5.138    0.590    0.293
  302.750  131.174    5.132    0.585    0.289
  303.000  131.161    5.128    0.585    0.284
  303.250  131.151    5.124    0.583    0.280
  303.500  127.469    5.122    0.570    0.283
  303.750  123.175    5.117    0.561    0.285
  304.000  128.054    5.114    0.560    0.283
  304.250  131.098    5.109    0.554    0.278
  304.500  131.693    5.106    0.538    0.273
  304.750  128.619    5.103    0.528    0.272
  305.000  127.386    5.099    0.525    0.271
  305.250  127.984    4.895    0.532    0.272
  305.500  132.863    4.890    0.543    0.276
  305.750  135.295    4.887    0.551    0.279
  306.000  132.836    5.083    0.555    0.283
  306.250  129.154    5.278    0.548    0.286
  306.500  126.080    6.067    0.543    0.292
  306.750  123.010    6.463    0.548    0.297
  307.000  121.162    6.855    0.559    0.308
  307.250  118.703    6.852    0.561    0.309
  307.500  116.855    6.450    0.542    0.306
  307.750  113.781    6.447    0.504    0.300
  308.000  112.542    6.442    0.480    0.300
  308.250  111.924    6.835    0.470    0.297
  308.500  116.191    7.031    0.495    0.290
  308.750  126.572    7.027    0.498    0.282
  309.000  131.447    6.626    0.505    0.278
  309.250  132.660    6.424    0.510    0.283
  309.500  133.255    6.420    0.510    0.287
  309.750  133.242    6.416    0.510    0.287
  310.000  133.225    6.610    0.512    0.283
  310.250  133.212    6.805    0.522    0.281
  310.500  133.195    6.999    0.535    0.278
  310.750  133.189    7.195    0.569    0.278
  311.000  133.176    7.191    0.588    0.281
  311.250  133.774    7.385    0.600    0.284
  311.500  134.369    7.381    0.551    0.287
  311.750  134.352    7.180    0.537    0.293
  312.000  133.113    6.779    0.522    0.295
  312.250  131.268    6.575    0.517    0.299
  312.500  129.424    6.374    0.515    0.296
  312.750  126.965    6.367    0.511    0.294
  313.000  123.891    6.364    0.505    0.288
  313.250  123.270    6.362    0.496    0.288
  313.500  123.868    6.358    0.491    0.293
  313.750  125.077    6.552    0.495    0.298
  314.000  126.284    6.549    0.497    0.297
  314.250  128.710    5.949    0.504    0.289
  314.500  129.311    5.548    0.533    0.286
  314.750  129.298    5.743    0.538    0.283
  315.000  129.281    6.533    0.500    0.281
  315.250  128.660    6.927    0.518    0.279
  315.500  128.650    7.121    0.538    0.274
  315.750  128.637    7.117    0.534    0.271
  316.000  129.235    6.915    0.540    0.265
  316.250  130.441    6.314    0.538    0.259
  316.500  131.039    6.311    0.515    0.256
  316.750  132.252    6.108    0.501    0.256
  317.000  133.459    6.105    0.505    0.260
  317.250  134.057    6.299    0.505    0.264
  317.500  134.037    6.494    0.499    0.269
  317.750  134.027    6.689    0.505    0.272
  318.000  133.399    7.082    0.514    0.275
  318.250  133.392    7.079    0.517    0.276
