~VERSION INFORMATION
 VERS.                 2.0:   CWLS LOG ASCII STANDARD -VERSION 2.0
 WRAP.                  NO:   ONE LINE PER DEPTH STEP
~WELL INFORMATION BLOCK
#MNEM.UNIT           DATA                    DESCRIPTION OF MNEMONIC
#---------    -------------------            -------------------------------
# Generated from Intellog Unique Number	CN_94_101/WELL/2560
WELL.         PETRO-CANADA EXPLORATION INC.  : Well_name    - WELL
LOC .         AA/10-11-094-16W4/0            : Location     - LOCATION
UWI .         AA/10-11-094-16W400            : Uwi          - UNIQUE WELL ID
ENTR.         JOETTE                         : Entered      - ENTERED BY
SRVC.         SCHLUMBERGER                   : Scn          - SERVICE COMPANY
DATE.         05/17/92                       : Date         - LOG DATE
STRT.F        300                            : top_depth    - START DEPTH
STOP.F        820.013                        : bot_depth    - STOP DEPTH
STEP.F        0.82                           : increment    - STEP LENGTH
 NULL. -999.2500:NULL Value
~CURVE INFORMATION BLOCK
#MNEM UNIT       ERCB CURVE CODE    CURVE DESCRIPTION
#-----------   ------------------   ----------------------------------
DEPT.F        00 001 00 00         : DEPTH        - DEPTH
CALI.IN       00 280 01 00         : CAL          - CALIPER
GR  .API      00 310 00 00         : GR           - GAMMA RAY
NPHI.V/V      00 330 00 00         : PHIN         - NEUTRON POROSITY (SANDSTONE)
DPHI.V/V      00 890 00 00         : PHID         - DENSITY POROSITY (SANDSTONE)
ILD .OHMM     00 120 00 00         : RESD         - DEEP RESISTIVITY (DIL)
~PARAMETER INFORMATION
#MNEM.UNIT           DATA             DESCRIPTION OF MNEMONIC
#---------         -----------     ------------------------------
GL  .F        1644.4               : gl           - GROUND LEVEL ELEVATION
EREF.F        1655.8               : kb           - ELEVATION OF DEPTH REFERENCE
DATM.F        1655.8               : datum        - DATUM ELEVATION
TDD .F        859                  : tdd          - TOTAL DEPTH DRILLER
RUN .         ONE                  : Run          - RUN NUMBER
ENG .         BILL                 : Engineer     - RECORDING ENGINEER
WIT .         JIM                  : Witness      - WITNESSED BY
MUD .         GEL                  : Mud_type     - MUD TYPE
MATR.         SANDSTONE            : Logunit      - NEUTRON MATRIX
TMAX.F        84                   : BHT          - MAXIMUM RECORDED TEMPERATURE
BHTD.F        859                  : BHTDEP       - MAXIMUM RECORDED TEMPERATURE
RMT .F        75                   : MDTP         - TEMPERATURE OF MUD
MUDD.LB/G     3                    : MWT          - MUD DENSITY
NEUT.         1                    : NEUTRON      - NEUTRON TYPE
RESI.         0                    : RESIST       - RESISTIVITY TYPE
RM  .OHMM     0.84                 : RM           - RESISTIVITY OF MUD
RMC .OHMM     0.84                 : RMC          - RESISTIVITY OF MUD CAKE
RMF .OHMM     0.7                  : RMF          - RESISTIVITY OF MUD FILTRATE
SUFT.F        39.2                 : SUFT         - SURFACE TEMPERATURE
~A  DEPTH      CAL       GR     PHIN     PHID     RESD
# ...
  539.501    6.689  102.547    0.412    0.223   11.678
  540.322    6.612  102.565    0.456    0.227   12.355
  541.142    6.495  101.998    0.466    0.223   12.126
  541.962    6.418  104.370    0.437    0.217   11.901
  542.782    6.419  109.103    0.433    0.209   11.251
  543.602    6.420  109.121    0.426    0.206   10.837
  544.423    6.461  105.607    0.421    0.205   10.636
  545.243    6.462  103.858    0.431    0.203   10.439
  546.063    6.463  102.697    0.439    0.198   10.439
  546.883    6.464  102.126    0.440    0.207   10.440
  547.703    6.427  102.733    0.433    0.202   10.441
  548.524    6.427  103.336    0.427    0.195   10.639
  549.344    6.429  105.123    0.427    0.185   10.841
  550.164    6.430  103.967    0.422    0.190   11.047
  550.984    6.392  105.164    0.443    0.200   11.257
  551.804    6.275  105.771    0.448    0.203   11.258
  552.625    6.237  104.017    0.452    0.207   11.050
  553.445    6.160  103.446    0.445    0.203   11.050
  554.265    6.122  104.647    0.433    0.201   11.051
  555.085    6.083  106.433    0.435    0.197   11.051
  555.906    6.084  105.862    0.428    0.204   11.262
  556.726    6.086  104.693    0.423    0.215   11.262
  557.546    6.087  102.353    0.428    0.228   11.263
  558.366    6.088  100.014    0.420    0.238   11.264
  559.186    6.089   98.269    0.428    0.228   11.264
  560.007    6.090   96.523    0.440    0.217   11.265
  560.827    6.092   95.943    0.434    0.220   11.266
  561.647    6.054   94.193    0.433    0.223   11.480
  562.467    6.055   94.801    0.443    0.212   11.480
  563.287    6.056   97.770    0.430    0.214   11.481
  564.108    6.018   95.427    0.421    0.220   11.269
  564.928    6.019   90.730    0.423    0.237   11.060
  565.748    6.020   86.627    0.417    0.263   10.855
  566.568    6.022   85.471    0.423    0.269   10.855
  567.388    5.983   85.485    0.410    0.263   11.271
  568.209    5.985   87.860    0.411    0.245   11.485
  569.029    5.986   90.236    0.423    0.245   11.486
  569.849    5.988   87.303    0.454    0.241   11.064
  570.669    5.988   86.736    0.445    0.249   10.264
  571.490    5.990   91.469    0.440    0.257    9.887
  572.310    5.991   93.251    0.433    0.224   10.266
  573.130    5.992   86.197    0.428    0.211   10.659
  573.950    5.993   77.964    0.438    0.194   11.930
  574.770    6.034   66.789    0.445    0.181   13.104
  575.591    6.035   63.855    0.458    0.159   15.228
  576.411    6.075   62.695    0.465    0.024   17.044
  577.231    6.077   63.298    0.475    0.027   19.438
  578.051    6.157   69.214    0.490    0.021   20.183
  578.871    6.197   74.537    0.503    0.005   19.079
  579.692    6.237   76.323    0.513    0.097   28.297
  580.512    6.317   82.235    0.510    0.139   32.271
  581.332    6.397   90.504    0.505    0.164   22.174
  582.152    6.556   99.363    0.499    0.173   19.084
  582.972    7.028  107.632    0.490    0.186   13.361
  583.793    7.540  106.472    0.481    0.199   11.285
  584.613    7.698  104.133    0.486    0.194    8.517
  585.433    7.857  104.155    0.507    0.185    7.610
  586.253    7.544  105.352    0.515    0.180    7.330
  587.073    7.388  107.724    0.516    0.168    7.331
  587.894    7.350  111.867    0.511    0.168    7.612
  588.714    7.430  111.890    0.498    0.159    7.756
  589.534    7.471  107.778    0.503    0.167    7.613
  590.354    7.471  106.627    0.519    0.211    7.333
  591.175    7.473  106.636    0.526    0.209    7.333
  591.995    7.513  106.069    0.493    0.203    7.472
  592.815    7.947  104.315    0.501    0.201    7.615
  593.635    7.869  109.642    0.488    0.213    7.759
  594.455    7.595  113.192    0.495    0.184    7.907
  595.276    7.282  110.852    0.506    0.175    8.365
  596.096    7.087  106.750    0.472    0.170    8.524
  596.916    6.970  110.304    0.446    0.094    8.686
  597.736    6.972  113.858    0.431    0.152    8.851
  598.556    7.169  116.229    0.428    0.186    8.852
  599.377    7.642  118.610    0.472    0.190    8.852
  600.197    7.604  116.266    0.507    0.195    8.853
  601.017    7.644  115.695    0.513    0.200    8.853
  601.837    7.410  114.534    0.507    0.208    8.689
  602.657    7.214  113.374    0.508    0.224    8.528
  603.478    7.177  111.624    0.511    0.219    8.215
  604.298    7.492  108.700    0.517    0.206    7.912
  605.118    7.651  108.119    0.523    0.222    7.070
  605.938    7.652  106.959    0.529    0.170    6.559
  606.759    7.770  104.030    0.556    0.158    6.318
  607.579    7.418  101.695    0.549    0.179    5.862
  608.399    7.183  104.656    0.553    0.220    5.753
  609.219    7.184  111.157    0.516    0.230    5.973
  610.039    7.775  111.774    0.519    0.211    6.686
  610.860    7.698  111.194    0.532    0.208    6.813
  611.680    7.699  110.033    0.529    0.202    6.562
  612.500    7.661  111.230    0.523    0.196    7.074
  613.320    7.662  114.195    0.522    0.187    6.687
  614.140    7.388  120.107    0.523    0.173    5.976
  614.961    6.918  120.130    0.508    0.232    6.089
  615.781    6.919  118.965    0.483    0.212    6.322
  616.601    7.156  117.804    0.488    0.216    6.816
  617.421    7.315  119.001    0.494    0.209    7.077
  618.241    7.120  110.179    0.495    0.176    7.211
  619.062    7.042  106.076    0.512    0.130    7.078
  619.882    6.768  109.036    0.500    0.148    6.946
  620.702    6.809  112.591    0.453    0.205    7.775
  621.522    6.731  116.145    0.399    0.213    8.073
  622.343    6.693  119.119    0.428    0.206    8.868
  623.163    6.969  119.718    0.449    0.211    9.207
  623.983    7.285  116.789    0.450    0.219    9.382
  624.803    7.129  110.324    0.476    0.220    9.383
  625.623    6.698  106.217    0.489    0.167    9.209
  626.444    6.542  106.240    0.458    0.115    8.870
  627.264    6.426  109.799    0.450    0.113    8.385
  628.084    6.427  110.402    0.459    0.190    8.077
  628.904    6.860  109.237    0.459    0.207    8.230
  629.724    7.018  107.487    0.505    0.232    8.231
  630.545    6.980  107.505    0.543    0.245    8.231
  631.365    7.060  107.523    0.543    0.246    7.218
  632.185    7.101  108.131    0.537    0.238    5.872
  633.005    6.984  108.149    0.534    0.222    4.269
  633.825    6.671   88.718    0.543    0.216    3.960
  634.646    6.318   72.819    0.534    0.243    4.112
  635.466    6.045   63.407    0.540    0.235    5.248
  636.286    6.085   57.531    0.531    0.181    6.452
  637.106    6.126   56.371    0.529    0.095    7.784
  637.927    6.127   61.104    0.393    0.148    9.217
  638.747    6.089   68.784    0.361    0.178   12.215
  639.567    6.168   72.343    0.389    0.205   13.931
  640.387    6.327   73.540    0.393    0.236   14.738
  641.207    6.486   76.505    0.414    0.241   14.739
  642.028    6.683   78.881    0.418    0.245   13.933
  642.848    6.920   80.078    0.426    0.251   13.934
  643.668    7.235   77.149    0.465    0.258   13.422
  644.488    7.354   73.626    0.490    0.267   12.220
  645.308    6.531   70.113    0.502    0.263   10.717
  646.129    6.060   67.774    0.512    0.260    9.757
  646.949    5.944   64.840    0.424    0.264    8.242
  647.769    5.827   56.607    0.428    0.294    7.791
  648.589    5.671   50.736    0.445    0.311    8.242
  649.409    5.554   53.697    0.453    0.325    9.054
  650.230    5.516   56.073    0.423    0.315   10.720
  651.050    5.518   56.680    0.387    0.318   15.315
  651.870    5.519   55.520    0.335    0.315   30.099
  652.690    5.481   53.185    0.360    0.310   43.811
  653.510    5.325   52.024    0.383    0.306   52.858
  654.331    5.444   53.811    0.391    0.273   56.983
  655.151    5.641   52.650    0.399    0.273   52.866
  655.971    5.878   50.311    0.414    0.278   50.921
  656.791    6.116   48.561    0.441    0.277   49.048
  657.612    6.195   46.816    0.453    0.277   48.140
  658.432    6.275   46.240    0.455    0.279   49.054
