~VERSION INFORMATION
 VERS.                 2.0:   CWLS LOG ASCII STANDARD -VERSION 2.0
 WRAP.                  NO:   ONE LINE PER DEPTH STEP
~WELL INFORMATION BLOCK
#MNEM.UNIT           DATA                    DESCRIPTION OF MNEMONIC
#---------    -------------------            -------------------------------
# Generated from Intellog Unique Number	CN_94_101/WELL/5030
WELL.         12-16-098-10W4                 : Well_name    - WELL
LOC .         AA/12-16-098-10W4/0            : Location     - LOCATION
UWI .         AA/12-16-098-10W400            : Uwi          - UNIQUE WELL ID
ENTR.         TIM                            : Entered      - ENTERED BY
SRVC.         SCHLUMBERGER                   : Scn          - SERVICE COMPANY
DATE.         08/13/92                       : Date         - LOG DATE
STRT.M        0                              : top_depth    - START DEPTH
STOP.M        65                             : bot_depth    - STOP DEPTH
STEP.M        0.25                           : increment    - STEP LENGTH
 NULL. -999.2500:NULL Value
~CURVE INFORMATION BLOCK
#MNEM UNIT       ERCB CURVE CODE    CURVE DESCRIPTION
#-----------   ------------------   ----------------------------------
DEPT.M        00 001 00 00         : DEPTH        - DEPTH
GR  .API      00 310 00 00         : GR           - GAMMA RAY
ILD .OHMM     00 120 00 00         : RESD         - DEEP RESISTIVITY (DIL)
NPHI.V/V      00 330 00 00         : PHIN         - NEUTRON POROSITY (SANDSTONE)
DPHI.V/V      00 890 00 00         : PHID         - DENSITY POROSITY (SANDSTONE)
~PARAMETER INFORMATION
#MNEM.UNIT           DATA             DESCRIPTION OF MNEMONIC
#---------         -----------     ------------------------------
GL  .M        257.06               : gl           - GROUND LEVEL ELEVATION
EREF.M        257.06               : kb           - ELEVATION OF DEPTH REFERENCE
DATM.M        257.06               : datum        - DATUM ELEVATION
TDD .M        71                   : tdd          - TOTAL DEPTH DRILLER
RUN .         ONE                  : Run          - RUN NUMBER
ENG .         BILL                 : Engineer     - RECORDING ENGINEER
WIT .         JIM                  : Witness      - WITNESSED BY
MUD .         GEL                  : Mud_type     - MUD TYPE
MATR.         SANDSTONE            : Logunit      - NEUTRON MATRIX
TMAX.C        10                   : BHT          - MAXIMUM RECORDED TEMPERATURE
BHTD.M        71                   : BHTDEP       - MAXIMUM RECORDED TEMPERATURE
RMT .C        8                    : MDTP         - TEMPERATURE OF MUD
MUDD.KG/M     1050                 : MWT          - MUD DENSITY
NEUT.         1                    : NEUTRON      - NEUTRON TYPE
RESI.         0                    : RESIST       - RESISTIVITY TYPE
RM  .OHMM     16.4                 : RM           - RESISTIVITY OF MUD
RMC .OHMM     16.4                 : RMC          - RESISTIVITY OF MUD CAKE
RMF .OHMM     16.4                 : RMF          - RESISTIVITY OF MUD FILTRATE
SUFT.C        4                    : SUFT         - SURFACE TEMPERATURE
~A  DEPTH       GR     RESD     PHIN     PHID
# ...
   43.500   59.770   51.281    0.484    0.327
   43.750   62.339   51.346    0.490    0.295
   44.000   64.892   50.698    0.497    0.281
   44.250   67.461   49.343    0.508    0.320
   44.500   70.014   48.025    0.515    0.335
   44.750   72.567   45.436    0.510    0.288
   45.000   75.758   43.590    0.557    0.256
   45.250   76.428   43.040    0.529    0.268
   45.500   77.114   41.275    0.510    0.279
   45.750   74.049   37.942    0.473    0.268
   46.000   60.418   35.866    0.487    0.257
   46.250   47.411   37.511    0.501    0.264
   46.500   45.606   41.554    0.475    0.281
   46.750   44.425   46.032    0.457    0.299
   47.000   43.243   52.526    0.479    0.332
   47.250   42.077   57.356    0.480    0.340
   47.500   41.502   57.429    0.451    0.313
   47.750   40.959   56.704    0.446    0.307
   48.000   41.022   55.212    0.469    0.307
   48.250   40.463   55.305    0.476    0.298
   48.500   40.510   56.201    0.486    0.288
   48.750   40.574   56.272    0.479    0.284
   49.000   41.275   55.585    0.459    0.309
   49.250   41.961   54.100    0.446    0.319
   49.500   42.646   56.581    0.440    0.310
   49.750   43.954   59.175    0.448    0.290
   50.000   47.114   60.158    0.456    0.290
   50.250   50.959   59.399    0.465    0.312
   50.500   51.613   59.524    0.475    0.314
   50.750   52.315   59.575    0.471    0.318
   51.000   52.378   59.675    0.465    0.316
   51.250   51.819   59.775    0.467    0.311
   51.500   51.882   59.021    0.465    0.307
   51.750   51.945   58.276    0.472    0.302
   52.000   50.764   55.909    0.479    0.303
   52.250   50.188   53.639    0.485    0.312
   52.500   52.741   52.206    0.448    0.320
   52.750  100.141   50.832    0.441    0.323
   53.000  115.158   49.474    0.462    0.280
   53.250  118.956   48.152    0.480    0.219
   53.500  112.173   46.216    0.487    0.208
   53.750   91.057   44.943    0.495    0.216
   54.000   81.162   43.136    0.496    0.235
   54.250   70.005   41.384    0.452    0.261
   54.500   61.355   39.720    0.455    0.290
   54.750   58.928   39.186    0.478    0.294
   55.000   55.879   37.594    0.475    0.300
   55.250   53.453   35.552    0.448    0.314
   55.500   51.042   33.621    0.442    0.327
   55.750   51.121   31.355    0.447    0.299
   56.000   50.530   30.068    0.456    0.284
   56.250   49.971   28.447    0.463    0.289
   56.500   49.412   27.292    0.468    0.312
   56.750   49.475   25.809    0.476    0.318
   57.000   48.931   24.408    0.484    0.326
   57.250   48.372   23.092    0.485    0.348
   57.500   51.548   22.135    0.458    0.335
   57.750   52.233   20.933    0.478    0.322
   58.000   50.429   19.804    0.483    0.304
   58.250   53.620   18.461    0.495    0.308
   58.500   54.928   17.451    0.496    0.332
   58.750   53.108   16.035    0.489    0.357
   59.000   50.060   14.518    0.485    0.362
   59.250   50.761   14.136    0.479    0.340
   59.500   52.691   14.365    0.476    0.311
   59.750   52.117   13.579    0.482    0.286
   60.000   47.839   12.129    0.489    0.277
   60.250   49.131   11.140    0.499    0.287
   60.500   54.796   10.692    0.509    0.304
   60.750   63.589   10.710    0.514    0.312
   61.000   74.234   10.570    0.508    0.315
   61.250  109.807   10.437    0.485    0.288
   61.500  104.891    9.870    0.435    0.123
   61.750   71.933    8.320    0.366    0.037
   62.000   57.058    9.085    0.338    0.006
   62.250   53.387   11.130    0.327   -0.002
   62.500   54.072   15.979    0.333   -0.000
   62.750   59.738   44.475    0.351    0.006
   63.000   66.663   56.913    0.365    0.009
   63.250   72.329   47.972    0.378    0.008
   63.500   79.861   42.813    0.402    0.012
   63.750   92.389   35.572    0.433    0.022
   64.000   97.447   26.343    0.459    0.035
   64.250   93.760   20.655    0.481    0.072
   64.500   89.466   14.651    0.430    0.086
   64.750   89.529   12.888    0.419    0.082
   65.000  104.547   13.102    0.418    0.079
