~VERSION INFORMATION
 VERS.                 2.0:   CWLS LOG ASCII STANDARD -VERSION 2.0
 WRAP.                  NO:   ONE LINE PER DEPTH STEP
~WELL INFORMATION BLOCK
#MNEM.UNIT           DATA                    DESCRIPTION OF MNEMONIC
#---------    -------------------            -------------------------------
# Generated from Intellog Unique Number	CN_94_101/WELL/5043
WELL.         14-35-100-13W4                 : Well_name    - WELL
LOC .         AA/14-35-100-13W4/0            : Location     - LOCATION
UWI .         AA/14-35-100-13W400            : Uwi          - UNIQUE WELL ID
ENTR.         TIM                            : Entered      - ENTERED BY
SRVC.         SCHLUMBERGER                   : Scn          - SERVICE COMPANY
DATE.         08/11/92                       : Date         - LOG DATE
STRT.M        350.52                         : top_depth    - START DEPTH
STOP.M        576.02                         : bot_depth    - STOP DEPTH
STEP.M        0.25                           : increment    - STEP LENGTH
 NULL. -999.2500:NULL Value
~CURVE INFORMATION BLOCK
#MNEM UNIT       ERCB CURVE CODE    CURVE DESCRIPTION
#-----------   ------------------   ----------------------------------
DEPT.M        00 001 00 00         : DEPTH        - DEPTH
GR  .API      00 310 00 00         : GR           - GAMMA RAY
ILD .OHMM     00 120 00 00         : RESD         - DEEP RESISTIVITY (DIL)
NPHI.V/V      00 330 00 00         : PHIN         - NEUTRON POROSITY (SANDSTONE)
~PARAMETER INFORMATION
#MNEM.UNIT           DATA             DESCRIPTION OF MNEMONIC
#---------         -----------     ------------------------------
GL  .M        784.555              : gl           - GROUND LEVEL ELEVATION
EREF.M        787.908              : kb           - ELEVATION OF DEPTH REFERENCE
DATM.M        787.908              : datum        - DATUM ELEVATION
TDD .M        577.596              : tdd          - TOTAL DEPTH DRILLER
RUN .         ONE                  : Run          - RUN NUMBER
ENG .         BILL                 : Engineer     - RECORDING ENGINEER
WIT .         JIM                  : Witness      - WITNESSED BY
MUD .         GEL                  : Mud_type     - MUD TYPE
MATR.         SANDSTONE            : Logunit      - NEUTRON MATRIX
TMAX.C        22.2222              : BHT          - MAXIMUM RECORDED TEMPERATURE
BHTD.M        577.596              : BHTDEP       - MAXIMUM RECORDED TEMPERATURE
RMT .C        22.2222              : MDTP         - TEMPERATURE OF MUD
MUDD.KG/M     9400                 : MWT          - MUD DENSITY
NEUT.         1                    : NEUTRON      - NEUTRON TYPE
RESI.         0                    : RESIST       - RESISTIVITY TYPE
RM  .OHMM     9                    : RM           - RESISTIVITY OF MUD
RMC .OHMM     9                    : RMC          - RESISTIVITY OF MUD CAKE
RMF .OHMM     9                    : RMF          - RESISTIVITY OF MUD FILTRATE
SUFT.C        4                    : SUFT         - SURFACE TEMPERATURE
~A  DEPTH       GR     RESD     PHIN
  350.520   94.066    2.487    0.459
  350.770   92.837    2.536    0.457
  351.020   92.845    2.796    0.456
  351.270   91.611    2.908    0.454
  351.520   89.130    3.084    0.453
  351.770   86.026    3.207    0.452
  352.020   82.303    3.335    0.452
  352.270   80.442    3.402    0.451
  352.520   80.456    3.471    0.451
  352.770   82.336    3.473    0.451
  353.020   86.085    3.407    0.450
  353.270   89.214    3.279    0.450
  353.520   92.337    3.218    0.450
  353.770   96.708    3.097    0.451
  354.020  102.329    2.981    0.451
  354.270  102.966    2.814    0.449
  354.520   99.862    2.708    0.449
  354.770   94.887    2.507    0.451
  355.020   91.789    2.460    0.453
  355.270   91.175    2.368    0.457
  355.520   89.937    2.511    0.461
  355.770   86.839    3.109    0.460
  356.020   83.110    3.562    0.430
  356.270   77.515    3.927    0.386
  356.520   76.906    4.007    0.358
  356.770   80.034    4.008    0.369
  357.020   81.909    3.711    0.404
  357.270   86.906    3.571    0.437
  357.520   89.409    3.306    0.452
  357.770   90.046    3.002    0.472
  358.020   87.565    2.727    0.474
  358.270   85.082    2.624    0.474
  358.520   82.601    2.477    0.476
  358.770   81.367    2.430    0.478
  359.020   81.378    2.527    0.480
  359.270   82.017    2.628    0.480
  359.520   84.520    2.787    0.482
  359.770   86.400    2.900    0.484
  360.020   87.660    2.900    0.485
  360.270   87.043    2.958    0.488
  360.520   83.939    3.018    0.490
  360.770   83.953    3.079    0.488
  361.020   88.948    3.021    0.483
  361.270   94.566    2.852    0.474
  361.520   95.823    2.692    0.467
  361.770   92.096    2.444    0.460
  362.020   86.501    2.307    0.441
  362.270   82.151    2.264    0.408
  362.520   75.310    2.265    0.380
  362.770   77.193    2.356    0.362
  363.020   81.565    2.499    0.360
  363.270   84.691    2.548    0.477
  363.520   81.587    2.755    0.480
  363.770   77.238    2.866    0.481
  364.020   78.495    2.867    0.487
  364.270   82.246    2.813    0.492
  364.520   87.867    2.760    0.496
  364.770   92.236    2.657    0.497
  365.020   94.741    2.557    0.498
  365.270   92.881    2.509    0.497
  365.520   89.783    2.462    0.494
  365.770   87.300    2.463    0.493
  366.020   84.196    2.562    0.492
  366.270   80.470    2.664    0.488
  366.520   76.743    2.825    0.487
  366.770   73.020    2.938    0.485
  367.020   71.162    2.940    0.481
  367.270   72.422    2.941    0.475
  367.520   73.053    2.886    0.467
  367.770   73.687    2.778    0.462
  368.020   73.078    2.833    0.469
  368.270   71.844    3.004    0.477
  368.520   72.480    3.065    0.473
  368.770   75.601    3.250    0.459
  369.020   79.352    3.582    0.451
  369.270   81.235    3.873    0.450
  369.520   81.869    4.439    0.450
  369.770   83.749    4.440    0.454
  370.020   84.380    4.358    0.458
  370.270   85.637    4.275    0.463
  370.520   85.651    4.036    0.468
  370.770   85.045    3.810    0.474
  371.020   84.430    3.597    0.478
  371.270   84.439    3.529    0.487
  371.520   84.453    3.396    0.488
  371.770   85.710    3.206    0.488
  372.020   87.593    3.085    0.488
  372.270   88.847    2.857    0.489
  372.520   90.107    2.697    0.490
  372.770   90.741    2.546    0.492
  373.020   90.758    2.403    0.493
  373.270   90.766    2.312    0.493
  373.520   90.772    2.269    0.493
  373.770   91.411    2.270    0.489
  374.020   90.177    2.316    0.483
  374.270   87.070    2.362    0.478
  374.520   84.590    2.457    0.475
  374.770   82.112    2.656    0.464
  375.020   81.503    2.928    0.455
  375.270   80.888    3.165    0.449
  375.520   80.279    3.422    0.443
  375.770   80.290    3.629    0.430
  376.020   80.925    3.702    0.413
  376.270   80.933    3.850    0.398
  376.520   80.947    3.928    0.404
  376.770   80.332    3.930    0.411
  377.020   80.346    3.856    0.429
  377.270   80.980    3.784    0.436
  377.520   82.237    3.641    0.443
  377.770   82.871    3.438    0.450
  378.020   83.506    3.309    0.456
  378.270   84.140    3.310    0.462
  378.520   84.774    3.311    0.467
  378.770   84.790    3.313    0.470
  379.020   85.422    3.380    0.465
  379.270   87.307    3.381    0.454
  379.520   88.562    3.318    0.453
  379.770   89.193    3.194    0.451
  380.020   91.076    3.073    0.451
  380.270   90.469    2.845    0.451
  380.520   88.609    2.738    0.451
  380.770   86.749    2.740    0.466
  381.020   84.891    2.741    0.475
  381.270   83.656    2.796    0.477
  381.520   84.293    2.908    0.474
  381.770   86.176    2.966    0.474
  382.020   88.056    2.968    0.475
  382.270   89.933    2.969    0.480
  382.520   95.551    2.858    0.484
  382.770   97.436    2.804    0.489
  383.020   97.442    2.752    0.493
  383.270   99.327    2.700    0.496
  383.520   99.959    2.598    0.492
  383.770  101.839    2.550    0.488
  384.020  103.719    2.552    0.482
  384.270  106.847    2.602    0.480
  384.520  108.104    2.603    0.475
  384.770  107.493    2.656    0.472
  385.020  104.392    2.657    0.469
  385.270  101.911    2.659    0.469
  385.520   99.428    2.609    0.469
  385.770   96.324    2.610    0.473
  386.020   92.598    2.561    0.474
  386.270   90.117    2.513    0.473
  386.520   88.262    2.466    0.469
  386.770   83.913    2.516    0.467
  387.020   74.580    2.667    0.453
  387.270   64.624    2.940    0.426
  387.520   57.160    3.435    0.412
  387.770   51.565    4.253    0.393
  388.020   49.710    6.519    0.361
  388.270   50.965    7.186    0.287
  388.520   54.093    7.330    0.286
  388.770   56.602    7.334    0.325
  389.020   57.853    7.338    0.361
  389.270   59.113    7.341    0.363
  389.520   59.744    6.930    0.364
  389.770   61.630    6.669    0.364
  390.020   62.261    6.056    0.364
  390.270   63.518    5.828    0.364
  390.520   64.775    5.609    0.364
  390.770   66.035    5.399    0.367
  391.020   66.666    5.402    0.369
  391.270   67.303    5.300    0.371
  391.520   67.317    5.303    0.375
  391.770   67.951    5.305    0.377
  392.020   68.588    5.206    0.379
  392.270   68.599    5.109    0.379
  392.520   68.608    5.013    0.376
  392.770   69.242    5.015    0.376
  393.020   69.873    5.017    0.374
  393.270   71.761    4.923    0.372
  393.520   72.393    4.831    0.375
  393.770   73.650    4.650    0.382
  394.020   74.281    4.476    0.386
  394.270   74.918    4.477    0.392
  394.520   74.929    4.393    0.387
  394.770   74.317    4.311    0.382
  395.020   73.708    4.230    0.381
  395.270   73.094    4.232    0.381
  395.520   72.487    4.317    0.382
  395.770   72.496    4.320    0.383
  396.020   72.507    4.321    0.385
  396.270   72.515    4.324    0.389
  396.520   73.158    4.243    0.391
  396.770   73.163    4.164    0.395
  397.020   73.175    4.085    0.401
  397.270   73.189    4.009    0.406
  397.520   73.203    4.011    0.408
  397.770   73.208    4.012    0.412
  398.020   71.353    4.014    0.412
  398.270   69.496    4.017    0.409
  398.520   68.264    4.018    0.411
  398.770   67.029    4.020    0.415
  399.020   67.663    3.945    0.421
  399.270   67.671    3.871    0.426
  399.520   68.308    3.654    0.429
  399.770   67.697    3.585    0.432
  400.020   65.842    3.658    0.432
  400.270   64.604    3.804    0.433
  400.520   61.504    4.034    0.432
  400.770   59.023    4.114    0.430
  401.020   57.791    4.197    0.428
  401.270   59.042    4.281    0.424
  401.520   62.171    4.284    0.421
  401.770   61.559    4.203    0.420
  402.020   61.573    4.124    0.420
  402.270   62.207    3.894    0.420
  402.520   64.713    3.747    0.420
  402.770   67.210    3.677    0.421
  403.020   71.588    3.471    0.423
  403.270   74.093    3.405    0.426
  403.520   75.348    3.342    0.433
  403.770   76.605    3.344    0.434
  404.020   76.616    3.411    0.435
  404.270   76.624    3.479    0.431
  404.520   76.638    3.762    0.426
