~VERSION INFORMATION
 VERS.                 2.0:   CWLS LOG ASCII STANDARD -VERSION 2.0
 WRAP.                  NO:   ONE LINE PER DEPTH STEP
~WELL INFORMATION BLOCK
#MNEM.UNIT           DATA                    DESCRIPTION OF MNEMONIC
#---------    -------------------            -------------------------------
# Generated from Intellog Unique Number	CC_88_90/WELL/1179
WELL.         10-11-090-07W4                 : Well_name    - WELL
LOC .         AA/10-11-090-07W4/0            : Location     - LOCATION
UWI .         AA/10-11-090-07W400            : Uwi          - UNIQUE WELL ID
ENTR.         DW                             : Entered      - ENTERED BY
SRVC.         SCHLUMBERGER                   : Scn          - SERVICE COMPANY
STRT.M        15                             : top_depth    - START DEPTH
STOP.M        194.75                         : bot_depth    - STOP DEPTH
STEP.M        0.25                           : increment    - STEP LENGTH
 NULL. -999.2500:NULL Value
~CURVE INFORMATION BLOCK
#MNEM UNIT       ERCB CURVE CODE    CURVE DESCRIPTION
#-----------   ------------------   ----------------------------------
DEPT.M        00 001 00 00         : DEPTH        - DEPTH
GR  .API      00 310 00 00         : GR           - GAMMA RAY
DPHI.V/V      00 890 00 00         : PHID         - DENSITY POROSITY (SANDSTONE)
NPHI.V/V      00 330 00 00         : PHIN         - NEUTRON POROSITY (SANDSTONE)
ILD .OHMM     00 120 00 00         : RESD         - DEEP RESISTIVITY (DIL)
~PARAMETER INFORMATION
#MNEM.UNIT           DATA             DESCRIPTION OF MNEMONIC
#---------         -----------     ------------------------------
GL  .M        460.1                : gl           - GROUND LEVEL ELEVATION
EREF.M        461.1                : kb           - ELEVATION OF DEPTH REFERENCE
DATM.M        461.1                : datum        - DATUM ELEVATION
TDD .M        200                  : tdd          - TOTAL DEPTH DRILLER
RUN .         ONE                  : Run          - RUN NUMBER
ENG .         BILL                 : Engineer     - RECORDING ENGINEER
WIT .         JIM                  : Witness      - WITNESSED BY
MUD .         GEL                  : Mud_type     - MUD TYPE
MATR.         SANDSTONE            : Logunit      - NEUTRON MATRIX
TMAX.C        10                   : BHT          - MAXIMUM RECORDED TEMPERATURE
BHTD.M        200                  : BHTDEP       - MAXIMUM RECORDED TEMPERATURE
MATR.         1                    : LOGUNIT      - NEUTRON MATRIX
RMT .C        25                   : MDTP         - TEMPERATURE OF MUD
NEUT.         1                    : NEUTRON      - NEUTRON TYPE
RESI.         0                    : RESIST       - RESISTIVITY TYPE
RMC .OHMM     0.25                 : RMC          - RESISTIVITY OF MUD CAKE
RMF .OHMM     0.25                 : RMF          - RESISTIVITY OF MUD FILTRATE
SUFT.C        4                    : SUFT         - SURFACE TEMPERATURE
~A  DEPTH       GR     PHID     PHIN     RESD
   15.000   92.304    0.323    0.414   15.084
   15.250   89.651    0.332    0.410   15.421
   15.500   87.494    0.312    0.409   15.870
   15.750   87.728    0.304    0.412   16.584
   16.000   90.054    0.305    0.417   17.039
   16.250   90.524    0.296    0.425   16.914
   16.500   87.686    0.287    0.432   16.750
   16.750   87.669    0.294    0.432   16.735
   17.000   86.422    0.305    0.431   16.881
   17.250   84.992    0.277    0.422   17.082
   17.500   80.735    0.244    0.407   17.212
   17.750   79.051    0.243    0.394   17.469
   18.000   85.578    0.250    0.385   18.003
   18.250   79.561    0.251    0.386   18.208
   18.500   80.562    0.249    0.402   18.202
   18.750   80.298    0.223    0.403   18.329
   19.000   77.622    0.204    0.384   18.975
   19.250   76.502    0.216    0.378   20.113
   19.500   70.359    0.222    0.386   21.116
   19.750   67.864    0.223    0.373   21.507
   20.000   68.520    0.226    0.366   21.558
   20.250   72.001    0.238    0.384   21.465
   20.500   71.046    0.250    0.396   21.198
   20.750   65.891    0.251    0.385   20.870
   21.000   66.373    0.256    0.374   20.923
   21.250   65.921    0.273    0.369   21.604
   21.500   65.049    0.305    0.371   22.209
   21.750   65.527    0.350    0.381   22.586
   22.000   68.174    0.340    0.390   22.941
   22.250   70.799    0.269    0.390   23.251
   22.500   70.490    0.239    0.387   23.210
   22.750   69.878    0.255    0.388   22.701
   23.000   69.761    0.288    0.389   22.279
   23.250   69.730    0.309    0.384   22.109
   23.500   69.788    0.282    0.379   22.350
   23.750   70.519    0.237    0.382   22.916
   24.000   72.732    0.242    0.387   23.224
   24.250   76.095    0.242    0.384   23.061
   24.500   75.836    0.242    0.375   22.914
   24.750   74.545    0.237    0.370   22.535
   25.000   74.536    0.228    0.368   22.015
   25.250   74.182    0.225    0.368   21.764
   25.500   71.863    0.230    0.369   21.791
   25.750   68.549    0.232    0.370   21.960
   26.000   67.483    0.235    0.372   22.155
   26.250   69.739    0.237    0.374   22.243
   26.500   72.711    0.237    0.374   22.161
   26.750   73.461    0.232    0.370   21.967
   27.000   72.237    0.221    0.366   21.805
   27.250   71.519    0.213    0.365   21.795
   27.500   72.346    0.219    0.364   21.912
   27.750   73.000    0.220    0.366   22.247
   28.000   72.265    0.211    0.365   22.469
   28.250   70.348    0.209    0.363   22.437
   28.500   68.883    0.213    0.362   22.438
   28.750   70.355    0.220    0.362   22.254
   29.000   71.298    0.228    0.364   22.325
   29.250   71.031    0.235    0.363   22.666
   29.500   70.208    0.238    0.370   22.942
   29.750   69.064    0.241    0.385   23.114
   30.000   68.004    0.249    0.387   23.279
   30.250   67.401    0.255    0.388   23.102
   30.500   67.047    0.250    0.386   23.091
   30.750   65.568    0.235    0.372   22.920
   31.000   63.151    0.220    0.364   22.496
   31.250   61.312    0.213    0.371   22.233
   31.500   61.526    0.210    0.377   22.259
   31.750   64.595    0.212    0.379   22.272
   32.000   66.763    0.215    0.375   22.220
   32.250   66.938    0.217    0.374   22.467
   32.500   65.818    0.216    0.378   22.751
   32.750   65.086    0.215    0.375   22.968
   33.000   65.648    0.216    0.363   23.513
   33.250   65.094    0.220    0.357   23.874
   33.500   64.893    0.249    0.355   24.115
   33.750   65.020    0.275    0.375   24.047
   34.000   67.869    0.285    0.400   23.880
   34.250   73.267    0.295    0.411   22.298
   34.500   77.877    0.309    0.426   18.154
   34.750   85.004    0.322    0.441   15.253
   35.000   92.444    0.332    0.464   13.364
   35.250   99.259    0.342    0.474   10.346
   35.500  104.309    0.351    0.475    7.707
   35.750  103.640    0.361    0.478    7.194
   36.000  100.083    0.377    0.470    7.217
   36.250  107.404    0.380    0.465    7.191
   36.500  109.751    0.376    0.458    7.572
   36.750  106.732    0.369    0.448    8.288
   37.000  100.707    0.364    0.441    8.837
   37.250   93.951    0.366    0.439    8.827
   37.500   92.351    0.365    0.436    8.472
   37.750   92.758    0.360    0.431    8.475
   38.000   93.487    0.350    0.424    8.344
   38.250   92.889    0.339    0.415    8.235
   38.500   90.381    0.330    0.404    8.323
   38.750   87.189    0.325    0.392    8.537
   39.000   84.617    0.324    0.382    8.899
   39.250   82.400    0.322    0.372    9.520
   39.500   81.394    0.322    0.367   10.837
   39.750   81.786    0.293    0.332   12.164
   40.000   83.187    0.271    0.305   15.985
   40.250   79.578    0.277    0.313   22.218
   40.500   66.283    0.276    0.311   27.923
   40.750   55.196    0.297    0.315   35.924
   41.000   50.601    0.333    0.326   38.423
   41.250   49.416    0.378    0.331   40.672
   41.500   49.467    0.410    0.325   39.383
   41.750   49.853    0.422    0.312   57.784
   42.000   48.569    0.390    0.296  110.350
   42.250   46.089    0.231    0.292  116.102
   42.500   47.899    0.224    0.289  111.759
   42.750   50.001    0.268    0.307  105.654
   43.000   52.150    0.263    0.332   97.181
   43.250   55.887    0.255    0.340   83.353
   43.500   59.558    0.248    0.345   56.747
   43.750   66.294    0.245    0.353   42.549
   44.000   71.450    0.240    0.361   37.735
   44.250   73.292    0.231    0.365   34.171
   44.500   72.646    0.219    0.364   32.793
   44.750   71.841    0.209    0.363   34.402
   45.000   73.031    0.212    0.361   34.780
   45.250   74.203    0.224    0.359   35.248
   45.500   73.310    0.236    0.357   36.193
   45.750   70.354    0.239    0.358   37.293
   46.000   67.682    0.237    0.359   37.681
   46.250   67.329    0.235    0.360   36.797
   46.500   68.413    0.241    0.361   35.206
   46.750   70.644    0.257    0.361   34.069
   47.000   81.484    0.265    0.360   33.959
   47.250   85.911    0.261    0.360   33.888
   47.500   82.706    0.240    0.344   35.446
   47.750   78.937    0.212    0.316   40.319
   48.000   71.287    0.200    0.310   46.587
   48.250   63.942    0.206    0.313   52.024
   48.500   57.346    0.227    0.318   56.685
   48.750   57.267    0.242    0.320   55.923
   49.000   59.810    0.246    0.324   56.653
   49.250   58.971    0.247    0.330   62.211
   49.500   56.072    0.248    0.337   63.506
   49.750   50.973    0.251    0.346   63.683
   50.000   56.526    0.262    0.355   62.157
   50.250   61.715    0.277    0.362   61.152
   50.500   61.104    0.286    0.364   62.068
   50.750   59.036    0.285    0.360   64.045
   51.000   55.822    0.278    0.360   65.713
   51.250   54.139    0.268    0.364   65.753
   51.500   52.781    0.256    0.376   65.881
   51.750   50.447    0.249    0.385   64.976
   52.000   47.949    0.249    0.385   62.845
   52.250   48.848    0.252    0.380   61.617
   52.500   54.962    0.257    0.374   57.575
   52.750   61.242    0.264    0.368   41.609
   53.000   66.486    0.276    0.366   33.241
   53.250   69.264    0.295    0.365   32.296
   53.500   71.409    0.345    0.376   33.694
   53.750   69.704    0.410    0.390   39.048
   54.000   60.323    0.445    0.392   47.882
   54.250   54.496    0.498    0.407   57.020
   54.500   42.844    0.523    0.405   75.697
   54.750   37.999    0.513    0.389   96.609
   55.000   40.113    0.470    0.377  108.769
   55.250   39.232    0.425    0.378  111.771
   55.500   37.622    0.428    0.383  109.509
   55.750   36.950    0.434    0.384  100.801
   56.000   37.297    0.437    0.379   95.659
   56.250   37.787    0.431    0.376   94.989
   56.500   38.407    0.411    0.379   95.114
   56.750   38.546    0.386    0.381   95.298
   57.000   37.373    0.379    0.381   97.256
   57.250   37.192    0.379    0.382  100.883
   57.500   38.344    0.382    0.382  101.962
   57.750   40.591    0.381    0.375  100.132
   58.000   41.664    0.375    0.362   99.800
   58.250   40.697    0.360    0.350  101.779
