~VERSION INFORMATION
 VERS.                 2.0:   CWLS LOG ASCII STANDARD -VERSION 2.0
 WRAP.                  NO:   ONE LINE PER DEPTH STEP
~WELL INFORMATION BLOCK
#MNEM.UNIT           DATA                    DESCRIPTION OF MNEMONIC
#---------    -------------------            -------------------------------
# Generated from Intellog Unique Number	CN_94_101/WELL/5006
WELL.         10-27-097-06W4                 : Well_name    - WELL
LOC .         AA/10-27-097-06W4/0            : Location     - LOCATION
UWI .         AA/10-27-097-06W400            : Uwi          - UNIQUE WELL ID
ENTR.         JOETTE                         : Entered      - ENTERED BY
SRVC.         SCHLUMBERGER                   : Scn          - SERVICE COMPANY
DATE.         08/11/92                       : Date         - LOG DATE
STRT.M        0                              : top_depth    - START DEPTH
STOP.M        90                             : bot_depth    - STOP DEPTH
STEP.M        0.25                           : increment    - STEP LENGTH
 NULL. -999.2500:NULL Value
~CURVE INFORMATION BLOCK
#MNEM UNIT       ERCB CURVE CODE    CURVE DESCRIPTION
#-----------   ------------------   ----------------------------------
DEPT.M        00 001 00 00         : DEPTH        - DEPTH
DPHI.V/V      00 890 00 00         : PHID         - DENSITY POROSITY (SANDSTONE)
NPHI.V/V      00 330 00 00         : PHIN         - NEUTRON POROSITY (SANDSTONE)
GR  .API      00 310 00 00         : GR           - GAMMA RAY
ILD .OHMM     00 120 00 00         : RESD         - DEEP RESISTIVITY (DIL)
~PARAMETER INFORMATION
#MNEM.UNIT           DATA             DESCRIPTION OF MNEMONIC
#---------         -----------     ------------------------------
GL  .M        358.5                : gl           - GROUND LEVEL ELEVATION
EREF.M        358.5                : kb           - ELEVATION OF DEPTH REFERENCE
DATM.M        358.5                : datum        - DATUM ELEVATION
TDD .M        93.8                 : tdd          - TOTAL DEPTH DRILLER
RUN .         ONE                  : Run          - RUN NUMBER
ENG .         BILL                 : Engineer     - RECORDING ENGINEER
WIT .         JIM                  : Witness      - WITNESSED BY
MUD .         GEL                  : Mud_type     - MUD TYPE
MATR.         SANDSTONE            : Logunit      - NEUTRON MATRIX
TMAX.C        0                    : BHT          - MAXIMUM RECORDED TEMPERATURE
BHTD.M        93.8                 : BHTDEP       - MAXIMUM RECORDED TEMPERATURE
RMT .C        0                    : MDTP         - TEMPERATURE OF MUD
MUDD.KG/M     0                    : MWT          - MUD DENSITY
NEUT.         1                    : NEUTRON      - NEUTRON TYPE
RESI.         0                    : RESIST       - RESISTIVITY TYPE
RM  .OHMM     7.7                  : RM           - RESISTIVITY OF MUD
RMC .OHMM     7.7                  : RMC          - RESISTIVITY OF MUD CAKE
RMF .OHMM     7.7                  : RMF          - RESISTIVITY OF MUD FILTRATE
SUFT.C        4                    : SUFT         - SURFACE TEMPERATURE
~A  DEPTH     PHID     PHIN       GR     RESD
    0.000    0.177    0.313   32.470   43.386
    0.250    0.178    0.314   32.418   45.905
    0.500    0.178    0.317   33.014   47.180
    0.750    0.178    0.318   33.584   48.501
    1.000    0.179    0.316   34.784   48.471
    1.250    0.184    0.270   36.587   49.114
    1.500    0.187    0.248   32.265   49.083
    1.750    0.185    0.242   21.816   48.351
    2.000    0.153    0.199   23.007   48.301
    2.250    0.125    0.177   28.487   47.580
    2.500    0.109    0.540   40.697   46.860
    2.750    0.081    0.555   41.284   46.821
    3.000    0.066    0.584   42.475   46.132
    3.250    0.033    0.543   29.576   45.443
    3.500    0.023    0.499   24.028   44.764
    3.750    0.015    0.484   22.768   44.087
    4.000    0.010    0.475   25.176   44.041
    4.250    0.005    0.479   28.818   44.023
    4.500    0.004    0.483   31.856   43.987
    4.750    0.001    0.460   34.876   43.330
    5.000    0.000    0.407   33.004   43.286
    5.250   -0.002    0.382   30.520   43.250
    5.500   -0.003    0.340   32.944   43.833
    5.750   -0.003    0.366   34.740   43.806
    6.000   -0.003    0.347   32.255   43.769
    6.250    0.001    0.379   32.221   44.350
    6.500    0.003    0.366   34.025   44.323
    6.750    0.008    0.373   32.765   44.911
    7.000    0.011    0.384   34.561   44.874
    7.250    0.011    0.389   37.598   44.828
    7.500    0.011    0.363   33.267   44.800
    7.750    0.007    0.380   30.782   44.754
    8.000    0.006    0.352   31.965   44.717
    8.250    0.006    0.358   33.786   44.689
    8.500    0.006    0.376   35.581   44.643
    8.750    0.006    0.377   33.105   44.606
    9.000    0.009    0.393   31.846   44.578
    9.250    0.013    0.392   34.254   44.578
    9.500    0.015    0.361   36.670   45.114
    9.750    0.016    0.325   37.861   42.611
   10.000    0.018    0.346   37.206   42.576
   10.250    0.019    0.347   37.189   43.150
   10.500    0.019    0.336   35.929   43.114
   10.750    0.017    0.366   34.670   43.079
   11.000    0.013    0.349   35.240   43.043
   11.250    0.011    0.342   34.593   42.999
   11.500    0.006    0.344   32.117   42.972
   11.750    0.005    0.329   29.624   42.928
   12.000    0.002    0.300   31.428   42.892
   12.250    0.003    0.300   40.592   42.857
   12.500    0.005    0.335   47.901   42.804
   12.750    0.006    0.345   38.686   42.777
   13.000    0.009    0.335   36.201   42.742
   13.250    0.009    0.346   34.942   42.716
   13.500    0.011    0.347   33.061   42.680
   13.750    0.014    0.335   29.351   42.645
   14.000    0.015    0.327   31.155   42.610
   14.250    0.016    0.314   32.346   42.566
   14.500    0.016    0.327   33.537   41.939
   14.750    0.015    0.335   37.792   41.296
   15.000    0.014    0.350   38.983   41.279
   15.250    0.013    0.394   35.877   40.654
   15.500    0.012    0.419   33.401   40.039
   15.750    0.011    0.369   32.142   40.023
   16.000    0.008    0.336   32.712   39.409
   16.250    0.007    0.325   32.677   39.384
   16.500    0.006    0.309   32.039   39.344
   16.750    0.006    0.293   30.763   39.327
   17.000    0.007    0.244   30.746   39.295
   17.250    0.009    0.250   30.712   39.254
   17.500    0.010    0.244   29.452   39.775
   17.750    0.009    0.261   29.410   39.734
   18.000    0.004    0.291   29.384   39.718
   18.250   -0.002    0.330   31.792   40.245
   18.500   -0.008    0.357   38.505   40.203
   18.750   -0.011    0.428   45.814   40.762
   19.000   -0.006    0.499   47.627   41.303
   19.250    0.003    0.565   49.422   41.851
   19.500    0.004    0.593   51.234   41.834
   19.750    0.007    0.603   51.813   42.389
   20.000    0.007    0.614   56.067   43.566
   20.250    0.007    0.612   57.250   44.163
   20.500    0.007    0.597   54.765   46.718
   20.750    0.007    0.571   52.289   52.301
   21.000    0.007    0.566   51.633   58.551
   21.250    0.007    0.571   52.833   71.385
   21.500    0.015    0.586   51.574   85.821
   21.750    0.026    0.601   50.919  112.340
   22.000    0.050    0.610   47.830  151.293
   22.250    0.083    0.593   46.562  189.774
   22.500    0.102    0.570   50.825  259.236
   22.750    0.178    0.527   56.304  402.536
   23.000    0.261    0.472   57.495  680.561
   23.250    0.302    0.429   59.291  841.784
   23.500    0.296    0.419   56.202 2149.730
   23.750    0.289    0.401   58.006 2620.930
   24.000    0.289    0.358   59.197 3195.400
   24.250    0.294    0.352   49.973 3895.790
   24.500    0.293    0.366   45.642 4423.830
   24.750    0.288    0.321   49.284 4678.790
   25.000    0.293    0.327   49.250 4878.600
   25.250    0.308    0.308   47.990 5086.950
   25.500    0.303    0.330   46.118 5081.700
   25.750    0.303    0.348   49.148 5077.500
   26.000    0.302    0.316   47.888 5072.260
   26.250    0.302    0.326   47.233 5069.120
   26.500    0.304    0.328   50.253 4994.480
   26.750    0.304    0.347   48.390 4918.900
   27.000    0.303    0.350   48.968 4915.850
   27.250    0.299    0.318   47.709 4910.780
   27.500    0.296    0.329   47.062 4907.730
   27.750    0.300    0.325   48.254 4903.680
   28.000    0.302    0.319   50.066 4969.780
   28.250    0.302    0.335   54.320 5107.820
   28.500    0.304    0.333   53.061 5177.740
   28.750    0.305    0.328   48.117 5245.360
   29.000    0.304    0.336   46.254 5317.160
   29.250    0.302    0.333   43.769 5311.670
   29.500    0.306    0.346   40.663 5308.380
   29.750    0.309    0.330   39.404 5304.000
   30.000    0.313    0.319   39.974 5224.820
   30.250    0.305    0.315   41.182 5002.550
   30.500    0.282    0.314   46.662 4524.060
   30.750    0.276    0.344   55.204 3812.210
   31.000    0.271    0.361   64.972 2008.720
   31.250    0.261    0.374   67.380  843.115
   31.500    0.265    0.354   64.291  661.573
   31.750    0.295    0.412   59.356 1364.800
   32.000    0.308    0.417   55.034 1918.510
   32.250    0.307    0.348   45.793 2813.780
   32.500    0.302    0.322   48.831 3287.310
   32.750    0.294    0.313   46.346 3680.190
   33.000    0.285    0.317   48.150 4238.830
   33.250    0.285    0.310   44.440 4613.370
   33.500    0.290    0.316   48.073 4949.110
   33.750    0.289    0.316   46.210 5087.630
   34.000    0.287    0.307   41.887 5083.430
   34.250    0.288    0.312   42.457 5006.500
   34.500    0.289    0.322   44.269 4792.540
   34.750    0.284    0.321   47.298 4655.320
   35.000    0.282    0.311   51.553 4521.100
   35.250    0.282    0.310   53.348 4582.030
   35.500    0.278    0.318   52.089 4709.300
   35.750    0.275    0.324   55.126 4909.400
   36.000    0.280    0.328   55.084 4977.640
   36.250    0.288    0.322   51.995 4902.310
   36.500    0.284    0.309   49.493 4760.970
   36.750    0.276    0.301   48.863 4369.030
   37.000    0.279    0.312   51.280 3841.180
   37.250    0.292    0.328   57.364 2846.900
   37.500    0.291    0.345   59.167 1358.280
   37.750    0.289    0.376   63.430  898.481
   38.000    0.280    0.394   65.847 1375.170
   38.250    0.283    0.408   51.722 2075.480
   38.500    0.296    0.404   41.886 2716.800
   38.750    0.303    0.380   30.203 3556.280
   39.000    0.269    0.336   26.485 4589.440
   39.250    0.262    0.329   25.225 5139.010
   39.500    0.250    0.321   25.200 5281.750
   39.750    0.246    0.318   25.778 5352.940
   40.000    0.252    0.320   25.131 5347.410
   40.250    0.257    0.314   22.034 5343.000
   40.500    0.254    0.315   20.775 5339.690
   40.750    0.245    0.303   21.353 5334.180
   41.000    0.238    0.301   21.932 5255.630
   41.250    0.234    0.312   23.114 5103.040
   41.500    0.239    0.318   22.468 4955.910
   41.750    0.248    0.311   21.208 5093.570
   42.000    0.255    0.311   20.562 5163.290
   42.250    0.256    0.311   20.527 5233.970
   42.500    0.248    0.305   20.502 5303.420
   42.750    0.235    0.316   21.684 5299.040
   43.000    0.226    0.310   21.038 5219.930
   43.250    0.236    0.319   21.004 5215.620
