~VERSION INFORMATION
 VERS.                 2.0:   CWLS LOG ASCII STANDARD -VERSION 2.0
 WRAP.                  NO:   ONE LINE PER DEPTH STEP
~WELL INFORMATION BLOCK
#MNEM.UNIT           DATA                    DESCRIPTION OF MNEMONIC
#---------    -------------------            -------------------------------
# Generated from Intellog Unique Number	CN_94_101/WELL/5048
WELL.         15-19-098-12W4                 : Well_name    - WELL
LOC .         AA/15-19-098-12W4/0            : Location     - LOCATION
UWI .         AA/15-19-098-12W400            : Uwi          - UNIQUE WELL ID
ENTR.         T                              : Entered      - ENTERED BY
SRVC.         SCHLUMBERGER                   : Scn          - SERVICE COMPANY
DATE.         08/14/92                       : Date         - LOG DATE
STRT.M        195                            : top_depth    - START DEPTH
STOP.M        470                            : bot_depth    - STOP DEPTH
STEP.M        0.25                           : increment    - STEP LENGTH
 NULL. -999.2500:NULL Value
~CURVE INFORMATION BLOCK
#MNEM UNIT       ERCB CURVE CODE    CURVE DESCRIPTION
#-----------   ------------------   ----------------------------------
DEPT.M        00 001 00 00         : DEPTH        - DEPTH
GR  .API      00 310 00 00         : GR           - GAMMA RAY
NPHI.V/V      00 330 00 00         : PHIN         - NEUTRON POROSITY (SANDSTONE)
DPHI.V/V      00 890 00 00         : PHID         - DENSITY POROSITY (SANDSTONE)
ILD .OHMM     00 120 00 00         : RESD         - DEEP RESISTIVITY (DIL)
~PARAMETER INFORMATION
#MNEM.UNIT           DATA             DESCRIPTION OF MNEMONIC
#---------         -----------     ------------------------------
GL  .M        718.4                : gl           - GROUND LEVEL ELEVATION
EREF.M        721.67               : kb           - ELEVATION OF DEPTH REFERENCE
DATM.M        721.67               : datum        - DATUM ELEVATION
TDD .M        479                  : tdd          - TOTAL DEPTH DRILLER
RUN .         ONE                  : Run          - RUN NUMBER
ENG .         BILL                 : Engineer     - RECORDING ENGINEER
WIT .         JIM                  : Witness      - WITNESSED BY
MUD .         GEL                  : Mud_type     - MUD TYPE
MATR.         SANDSTONE            : Logunit      - NEUTRON MATRIX
TMAX.C        21                   : BHT          - MAXIMUM RECORDED TEMPERATURE
BHTD.M        479                  : BHTDEP       - MAXIMUM RECORDED TEMPERATURE
RMT .C        21                   : MDTP         - TEMPERATURE OF MUD
MUDD.KG/M     1090                 : MWT          - MUD DENSITY
NEUT.         1                    : NEUTRON      - NEUTRON TYPE
RESI.         0                    : RESIST       - RESISTIVITY TYPE
RM  .OHMM     5.7                  : RM           - RESISTIVITY OF MUD
RMC .OHMM     5.7                  : RMC          - RESISTIVITY OF MUD CAKE
RMF .OHMM     5.7                  : RMF          - RESISTIVITY OF MUD FILTRATE
SUFT.C        4                    : SUFT         - SURFACE TEMPERATURE
~A  DEPTH       GR     PHIN     PHID     RESD
# ...
  369.000  114.767    0.442    0.207    9.483
  369.250  112.879    0.438    0.210   10.212
  369.500  112.411    0.430    0.218   11.200
  369.750  111.471    0.431    0.228   12.749
  370.000  109.585    0.450    0.239   13.238
  370.250  107.694    0.474    0.246   13.508
  370.500  108.652    0.498    0.254   13.279
  370.750  110.085    0.506    0.255   12.149
  371.000  111.043    0.502    0.257   11.728
  371.250  110.106    0.486    0.254   11.329
  371.500  108.692    0.475    0.246   11.338
  371.750  107.752    0.463    0.235   11.355
  372.000  108.236    0.455    0.234   11.167
  372.250  109.668    0.456    0.231   11.189
  372.500  110.627    0.460    0.231   11.003
  372.750  109.692    0.467    0.231   10.821
  373.000  108.750    0.469    0.230   10.646
  373.250  108.282    0.467    0.225   10.280
  373.500  107.342    0.462    0.221    9.927
  373.750  106.879    0.453    0.219    9.759
  374.000  107.361    0.452    0.221    9.431
  374.250  107.849    0.446    0.224    9.271
  374.500  107.856    0.444    0.231    9.282
  374.750  108.338    0.450    0.236    9.303
  375.000  108.352    0.456    0.242    9.142
  375.250  107.884    0.461    0.245    8.832
  375.500  107.891    0.469    0.251    8.685
  375.750  107.428    0.471    0.254    8.538
  376.000  106.491    0.472    0.260    8.554
  376.250  106.498    0.472    0.262    8.564
  376.500  106.507    0.472    0.266    8.742
  376.750  106.519    0.474    0.267    8.910
  377.000  107.477    0.480    0.268    9.258
  377.250  108.910    0.483    0.270    9.443
  377.500  113.662    0.492    0.270    8.480
  377.750  117.942    0.499    0.271    7.750
  378.000  120.799    0.507    0.271    7.219
  378.250  123.183    0.515    0.270    7.094
  378.500  121.769    0.517    0.269    7.241
  378.750  120.827    0.508    0.266    7.249
  379.000  118.466    0.485    0.259    7.530
  379.250  115.628    0.477    0.245    7.542
  379.500  112.313    0.464    0.226    7.417
  379.750  107.102    0.471    0.223    7.162
  380.000  105.690    0.497    0.234    6.794
  380.250  108.547    0.508    0.243    6.558
  380.500  112.353    0.519    0.252    6.221
  380.750  117.582    0.528    0.260    6.233
  381.000  121.387    0.536    0.265    6.240
  381.250  122.820    0.538    0.258    6.367
  381.500  119.508    0.526    0.254    6.372
  381.750  115.246    0.513    0.253    6.266
  382.000  115.258    0.497    0.252    5.326
  382.250  117.165    0.523    0.250    4.285
  382.500  120.022    0.546    0.253    3.512
  382.750  122.401    0.552    0.261    3.212
  383.000  123.362    0.559    0.266    3.160
  383.250  122.422    0.568    0.266    3.162
  383.500  121.957    0.573    0.261    3.226
  383.750  120.543    0.569    0.256    3.478
  384.000  118.182    0.562    0.251    3.544
  384.250  116.291    0.551    0.242    3.615
  384.500  117.249    0.529    0.241    3.491
  384.750  119.631    0.518    0.244    3.193
  385.000  122.962    0.494    0.249    3.082
  385.250  121.550    0.487    0.255    2.922
  385.500  119.187    0.480    0.261    3.091
  385.750  118.244    0.470    0.262    3.392
  386.000  116.358    0.460    0.255    3.861
  386.250  114.471    0.456    0.250    4.474
  386.500  113.527    0.458    0.244    5.091
  386.750  112.587    0.480    0.238    6.119
  387.000  113.071    0.486    0.233    6.963
  387.250  114.504    0.507    0.226    8.078
  387.500  115.939    0.510    0.221    8.542
  387.750  116.898    0.513    0.223    9.036
  388.000  116.909    0.518    0.232    9.383
  388.250  115.969    0.517    0.240    9.746
  388.500  113.606    0.505    0.246    9.941
  388.750  111.715    0.484    0.247    9.960
  389.000  111.724    0.475    0.242    9.971
  389.250  112.683    0.458    0.232    9.990
  389.500  113.641    0.442    0.217   10.006
  389.750  113.176    0.430    0.220   10.209
  390.000  111.766    0.416    0.214   10.999
  390.250  111.296    0.403    0.206   12.067
  390.500  110.831    0.393    0.197   13.736
  390.750  111.317    0.423    0.199   14.787
  391.000  111.326    0.433    0.207   15.360
  391.250  111.810    0.443    0.218   15.401
  391.500  112.292    0.454    0.236   15.419
  391.750  114.199    0.463    0.243   15.152
  392.000  118.484    0.472    0.251   15.175
  392.250  121.815    0.472    0.254   14.935
  392.500  123.720    0.462    0.254   15.227
  392.750  124.204    0.444    0.252   15.531
  393.000  123.266    0.434    0.246   15.561
  393.250  121.852    0.424    0.242   15.032
  393.500  119.489    0.419    0.234   14.772
  393.750  116.651    0.409    0.224   14.265
  394.000  114.760    0.404    0.223   13.056
  394.250  113.824    0.403    0.225   12.835
  394.500  114.304    0.408    0.232   12.845
  394.750  114.787    0.414    0.238   12.637
  395.000  114.322    0.416    0.237   12.208
  395.250  111.964    0.414    0.232   12.217
  395.500  111.019    0.408    0.225   12.019
  395.750  108.658    0.398    0.215   11.820
  396.000  105.820    0.386    0.206   11.843
  396.250  102.982    0.343    0.191   11.852
  396.500   99.193    0.321    0.168   12.538
  396.750   92.559    0.293    0.156   12.788
  397.000   93.520    0.303    0.168   13.043
  397.250   99.223    0.347    0.191   13.068
  397.500  110.147    0.377    0.203   13.329
  397.750  116.325    0.434    0.221   14.105
  398.000  119.656    0.459    0.238   15.482
  398.250  123.464    0.487    0.241   16.365
  398.500  119.675    0.507    0.241   17.961
  398.750  119.212    0.511    0.241   16.118
  399.000  119.695    0.513    0.241   10.240
  399.250  118.756    0.514    0.240    9.527
  399.500  116.392    0.513    0.238    8.398
  399.750  114.976    0.512    0.227    7.542
  400.000  112.612    0.507    0.217    7.149
  400.250  113.573    0.501    0.185    6.776
  400.500  117.379    0.493    0.174    6.430
  400.750  122.133    0.496    0.165    6.324
  401.000  130.212    0.502    0.174    6.331
  401.250  129.272    0.509    0.189    6.345
  401.500  128.332    0.519    0.206    6.350
  401.750  129.291    0.522    0.222    6.362
  402.000  129.774    0.530    0.234    6.255
  402.250  127.409    0.531    0.237    5.615
  402.500  122.198    0.530    0.235    4.860
  402.750  122.208    0.526    0.234    4.132
  403.000  119.370    0.519    0.231    3.915
  403.250  118.430    0.511    0.231    3.580
  403.500  119.391    0.501    0.231    3.457
  403.750  120.349    0.490    0.230    3.465
  404.000  121.782    0.484    0.226    3.665
  404.250  122.266    0.480    0.228    4.023
  404.500  121.326    0.469    0.235    4.252
  404.750  120.386    0.456    0.248    4.665
  405.000  118.972    0.429    0.247    5.215
  405.250  116.611    0.395    0.238    5.824
  405.500  113.771    0.379    0.223    6.630
  405.750  109.509    0.374    0.214    7.274
  406.000  112.840    0.378    0.206    8.127
  406.250  122.817    0.387    0.190    9.088
  406.500  124.247    0.405    0.184    9.262
  406.750  123.785    0.410    0.212    9.116
  407.000  123.794    0.439    0.216    8.799
  407.250  124.750    0.454    0.212    8.650
  407.500  125.708    0.470    0.208    8.507
  407.750  126.192    0.475    0.204    8.366
  408.000  126.206    0.475    0.203    8.231
  408.250  125.266    0.474    0.202    8.094
  408.500  123.852    0.474    0.202    7.966
  408.750  122.912    0.472    0.205    7.831
  409.000  123.396    0.470    0.208    7.699
  409.250  123.880    0.471    0.210    7.305
  409.500  125.313    0.476    0.211    7.179
  409.750  126.271    0.481    0.209    6.932
  410.000  126.753    0.485    0.205    6.694
  410.250  127.236    0.490    0.198    6.586
  410.500  127.720    0.497    0.197    6.479
  410.750  126.780    0.503    0.203    6.367
  411.000  125.841    0.503    0.208    6.042
  411.250  125.375    0.497    0.215    5.937
  411.500  124.910    0.496    0.221    5.630
  411.750  124.920    0.500    0.230    5.338
  412.000  124.929    0.501    0.237    4.970
  412.250  124.940    0.506    0.241    4.713
