~VERSION INFORMATION
 VERS.                 2.0:   CWLS LOG ASCII STANDARD -VERSION 2.0
 WRAP.                  NO:   ONE LINE PER DEPTH STEP
~WELL INFORMATION BLOCK
#MNEM.UNIT           DATA                    DESCRIPTION OF MNEMONIC
#---------    -------------------            -------------------------------
# Generated from Intellog Unique Number	CN_91_93/WELL/3550
WELL.         10-24-093-08W4                 : Well_name    - WELL
LOC .         AA/10-24-093-08W4/0            : Location     - LOCATION
UWI .         AA/10-24-093-08W400            : Uwi          - UNIQUE WELL ID
ENTR.         JOETTE                         : Entered      - ENTERED BY
SRVC.         SCHLUMBERGER                   : Scn          - SERVICE COMPANY
DATE.         03/16/92                       : Date         - LOG DATE
STRT.M        5                              : top_depth    - START DEPTH
STOP.M        225                            : bot_depth    - STOP DEPTH
STEP.M        0.25                           : increment    - STEP LENGTH
 NULL. -999.2500:NULL Value
~CURVE INFORMATION BLOCK
#MNEM UNIT       ERCB CURVE CODE    CURVE DESCRIPTION
#-----------   ------------------   ----------------------------------
DEPT.M        00 001 00 00         : DEPTH        - DEPTH
GR  .API      00 310 00 00         : GR           - GAMMA RAY
CALI.MM       00 280 01 00         : CAL          - CALIPER
NPHI.V/V      00 330 00 00         : PHIN         - NEUTRON POROSITY (SANDSTONE)
DPHI.V/V      00 890 00 00         : PHID         - DENSITY POROSITY (SANDSTONE)
ILD .OHMM     00 120 00 00         : RESD         - DEEP RESISTIVITY (DIL)
~PARAMETER INFORMATION
#MNEM.UNIT           DATA             DESCRIPTION OF MNEMONIC
#---------         -----------     ------------------------------
GL  .M        486.6                : gl           - GROUND LEVEL ELEVATION
EREF.M        486.6                : kb           - ELEVATION OF DEPTH REFERENCE
DATM.M        486.6                : datum        - DATUM ELEVATION
TDD .M        226.7                : tdd          - TOTAL DEPTH DRILLER
RUN .         ONE                  : Run          - RUN NUMBER
ENG .         BILL                 : Engineer     - RECORDING ENGINEER
WIT .         JIM                  : Witness      - WITNESSED BY
MUD .         GEL                  : Mud_type     - MUD TYPE
MATR.         SANDSTONE            : Logunit      - NEUTRON MATRIX
TMAX.C        18                   : BHT          - MAXIMUM RECORDED TEMPERATURE
BHTD.M        226.7                : BHTDEP       - MAXIMUM RECORDED TEMPERATURE
RMT .C        16                   : MDTP         - TEMPERATURE OF MUD
MUDD.KG/M     1.01                 : MWT          - MUD DENSITY
NEUT.         1                    : NEUTRON      - NEUTRON TYPE
RESI.         0                    : RESIST       - RESISTIVITY TYPE
RM  .OHMM     4.5                  : RM           - RESISTIVITY OF MUD
RMC .OHMM     4.5                  : RMC          - RESISTIVITY OF MUD CAKE
RMF .OHMM     4.5                  : RMF          - RESISTIVITY OF MUD FILTRATE
SUFT.C        4                    : SUFT         - SURFACE TEMPERATURE
~A  DEPTH       GR      CAL     PHIN     PHID     RESD
# ...
  187.500   28.693  175.946    0.351    0.320  157.170
  187.750   26.116  176.885    0.350    0.320  174.463
  188.000   26.070  176.757    0.327    0.317  184.097
  188.250   28.508  177.695    0.339    0.320  190.879
  188.500   25.946  177.618    0.346    0.320  198.014
  188.750   24.619  178.557    0.345    0.330  198.323
  189.000   24.573  179.418    0.339    0.330  202.258
  189.250   26.386  179.367    0.334    0.327  202.574
  189.500   27.574  179.290    0.339    0.324  203.101
  189.750   29.372  179.187    0.347    0.324  199.978
  190.000   31.201  179.084    0.351    0.327  197.007
  190.250   33.623  178.981    0.351    0.333  190.798
  190.500   36.077  178.852    0.351    0.337  178.589
  190.750   31.000  178.750    0.354    0.337  164.336
  191.000   28.438  178.595    0.355    0.337  153.741
  191.250   32.126  178.544    0.356    0.337  136.728
  191.500   37.064  178.415    0.353    0.333  111.661
  191.750   32.628  179.380    0.346    0.327   94.402
  192.000   30.676  179.251    0.343    0.327   89.881
  192.250   36.879  179.174    0.352    0.327   84.086
  192.500   48.081  180.087    0.356    0.327   74.742
  192.750   48.645  179.958    0.357    0.333   61.039
  193.000   29.820  179.907    0.373    0.337   51.604
  193.250   37.882  179.778    0.434    0.372   58.237
  193.500   39.070  179.675    0.417    0.372   70.397
  193.750   32.134  179.573    0.386    0.349  102.705
  194.000   25.183  179.470    0.361    0.349  149.841
  194.250   24.480  179.367    0.381    0.349  158.115
  194.500   25.059  179.264    0.428    0.375  155.766
  194.750   26.841  179.161    0.437    0.378  148.229
  195.000   28.060  179.084    0.432    0.385  134.093
  195.250   27.374  178.955    0.420    0.359  121.368
  195.500   24.187  177.811    0.394    0.340  113.602
  195.750   22.876  177.682    0.350    0.330  113.839
  196.000   24.064  177.605    0.334    0.330  122.064
  196.250   24.627  176.461    0.329    0.324  142.605
  196.500   22.066  176.332    0.328    0.324  169.556
  196.750   18.864  176.229    0.337    0.324  191.447
  197.000   17.552  176.126    0.342    0.324  176.168
  197.250   18.115  174.982    0.337    0.320  159.285
  197.500   19.288  174.905    0.325    0.320  141.658
  197.750   20.476  174.776    0.325    0.317  125.982
  198.000   22.289  173.606    0.331    0.317  112.041
  198.250   24.727  172.487    0.338    0.252   86.937
  198.500   27.181  172.410    0.375    0.176   73.423
  198.750   33.384  171.240    0.405    0.280   63.109
  199.000   63.959  169.003    0.441    0.327   49.811
  199.250   97.660  168.951    0.430    0.327   26.533
  199.500   83.225  167.807    0.412    0.276   11.524
  199.750   71.898  166.662    0.419    0.246    9.101
  200.000   74.961  166.560    0.434    0.236    8.966
  200.250   89.914  165.415    0.442    0.225    8.388
  200.500   82.337  164.271    0.430    0.213    8.405
  200.750   79.135  164.168    0.423    0.218    8.715
  201.000   87.838  163.023    0.427    0.254    9.191
  201.250   85.902  162.920    0.431    0.333    9.530
  201.500   80.825  162.792    0.401    0.340   10.405
  201.750   79.529  161.647    0.404    0.312   10.968
  202.000   76.936  161.570    0.433    0.269   11.180
  202.250   75.656  161.416    0.440    0.290   11.209
  202.500   69.329  160.272    0.442    0.320   11.226
  202.750   71.142  160.169    0.441    0.318   10.700
  203.000   78.595  160.040    0.439    0.271   10.535
  203.250   88.533  159.963    0.438    0.256    9.695
  203.500   85.956  159.886    0.439    0.264    9.069
  203.750   85.269  159.783    0.442    0.241    8.066
  204.000   87.082  159.629    0.442    0.295    7.550
  204.250   86.395  159.551    0.436    0.297    7.828
  204.500   81.944  160.464    0.426    0.283    8.256
  204.750   76.258  161.429    0.434    0.311    9.014
  205.000   71.212  162.393    0.447    0.313    9.665
  205.250   74.900  163.306    0.438    0.273   10.553
  205.500   79.213  164.271    0.432    0.298   10.047
  205.750   84.135  164.168    0.442    0.297    9.405
  206.000   88.463  165.106    0.444    0.266    8.954
  206.250   89.026  166.019    0.415    0.332    8.525
  206.500   75.216  166.958    0.404    0.285    9.463
  206.750   66.374  166.855    0.433    0.333   10.152
  207.000   75.093  166.727    0.443    0.311   11.269
  207.250   81.905  166.598    0.414    0.300   11.493
  207.500   84.343  166.547    0.409    0.327   10.943
  207.750   82.407  166.418    0.418    0.346   10.960
  208.000   67.956  166.341    0.404    0.317   10.797
  208.250   62.270  166.212    0.400    0.287   10.819
  208.500   65.333  167.177    0.401    0.291   12.216
  208.750   61.522  167.048    0.391    0.327   14.279
  209.000   57.070  166.920    0.414    0.343   15.591
  209.250   71.397  166.868    0.417    0.311   17.004
  209.500   85.084  167.781    0.427    0.293   18.875
  209.750   91.272  167.678    0.436    0.324   20.250
  210.000   79.961  167.601    0.434    0.350   15.186
  210.250   54.886  167.498    0.419    0.354   11.001
  210.500   46.700  167.370    0.396    0.345   12.217
  210.750   40.374  167.267    0.375    0.346   15.281
  211.000   35.938  167.190    0.377    0.355   18.159
  211.250   31.501  166.019    0.403    0.348   24.328
  211.500   35.189  165.942    0.426    0.306   31.484
  211.750   53.891  165.814    0.421    0.300   30.507
  212.000   68.203  164.644    0.398    0.331   22.100
  212.250   59.392  164.541    0.392    0.314   13.968
  212.500   53.050  164.438    0.400    0.334    9.958
  212.750   49.254  164.309    0.407    0.331    9.984
  213.000   58.566  164.232    0.427    0.302   10.341
  213.250   63.520  164.129    0.428    0.308   10.722
  213.500   54.693  164.001    0.415    0.339   11.308
  213.750   47.133  163.923    0.395    0.347   11.926
  214.000   42.071  163.769    0.389    0.355   12.801
  214.250   35.745  163.718    0.396    0.370   13.733
  214.500   31.308  163.615    0.393    0.375   14.994
  214.750   26.857  163.538    0.393    0.363   16.086
  215.000   28.060  164.451    0.394    0.332   16.678
  215.250   48.637  164.374    0.394    0.321   16.430
  215.500   44.810  164.245    0.401    0.308   16.178
  215.750   44.124  164.116    0.407    0.306   14.887
  216.000   50.936  165.081    0.412    0.316   13.699
  216.250   62.139  164.926    0.400    0.307   12.392
  216.500  103.979  165.891    0.384    0.258   11.593
  216.750   96.402  165.814    0.415    0.227    9.965
  217.000   80.717  165.685    0.432    0.210    8.000
  217.250   81.265  165.582    0.440    0.201    6.530
  217.500   83.718  165.479    0.419    0.225    5.067
  217.750   76.767  165.351    0.393    0.246    4.824
  218.000   67.316  165.299    0.385    0.278    5.450
  218.250   65.394  166.212    0.413    0.260    5.745
  218.500   71.582  166.135    0.432    0.261    5.286
  218.750   82.144  166.007    0.442    0.266    4.546
  219.000   92.707  165.929    0.427    0.243    4.181
  219.250   93.270  166.817    0.406    0.230    3.594
  219.500   98.223  166.765    0.420    0.222    3.364
  219.750  104.411  166.662    0.405    0.229    3.611
  220.000   95.584  166.534    0.430    0.231    2.998
  220.250   88.648  166.457    0.433    0.203    2.575
  220.500   81.697  166.328    0.397    0.170    1.656
  220.750   79.151  166.174    0.392    0.185    0.529
  221.000   80.948  166.174    0.396    0.153    0.418
  221.250   92.776  161.802    0.401    0.100    0.455
  221.500   95.839  161.802    0.405    0.087    0.590
  221.750   91.403  166.830    0.400    0.100    1.411
  222.000   84.467  167.743    0.378    0.067    2.441
  222.250   76.250  167.691    0.327    0.062    5.274
  222.500   72.454  167.588    0.295    0.043    7.183
  222.750   63.003  167.408    0.237    0.043    9.789
  223.000   57.942  167.331    0.239    0.050   12.668
  223.250   53.505  167.280    0.245    0.061   16.980
  223.500   44.694  167.151    0.250    0.054   18.839
  223.750   41.493  167.048    0.260    0.049   18.878
