~Version : LASO    vs 4.00
VERS.                2.00:   CWLS Log ASCII Standard -VERSION 2.0
WRAP.                  NO:
~Well Information Block
#MNEM.UNIT       Data                        Description of Mnemonic
#----.----      -------------------------- : -----------------------------
STRT.M             3.0000:
STOP.M           202.0000:
STEP.M             0.1250:
NULL.           -999.2500:
COMP.  MOBILOIL CANADA             :COMPANY
WELL.  MOBIL CLARKE OV 10-26       :WELL
FLD.   CLARKE                      :FIELD
LOC.   10-26-090-07W4              :LOCATION
CTRY.  CANADA                      :COUNTRY
PROV.  ALBERTA                     :PROVINCE
SRVC.  DRESSER ATLAS               :SERVICE COMPANY
DATE.  31-JAN-81                   :LOG DATE
UWI.   AA/10-26-090-07W400         :UNIQUE WELL ID
~Parameter Information Block
#MNEM.UNIT       Data                        Description of Mnemonic
#----.----      -------------------------- : -----------------------------
RUN .                   1                 : Run Number
GL  .M           456.0000                 : Ground Level Elevation
DREF.                  KB                 : Depth Reference
EREF.M           456.0000                 : Elevation of Depth Reference
TDL .M           201.0000                 : Total Depth Logger
TDD .M           203.0000                 : Total Depth Driller
CSGL.M            13.0000                 : Casing Bottom Logger
CSGD.M            12.0000                 : Casing Bottom Driller
CSGS.MM          219.0000                 : Casing Size
CSGW.KG/M          0.0000                 : Casing Weight
BHT .DEGC         18.0000                 : Bottom Hole Temperature
BS  .MM          171.4000                 : Bit Size
DFD .              9.7000                 : Mud Weight (Density)
DFV .             85.0000                 : Mud Viscosity
RM  .OHMM          4.0000                 : Mud Resistivity
RMT .DEGC         18.0000                 : Mud Resistivity Temperature
RMF .OHMM          6.2000                 : Mud Filtrate Resistivity
RMFT.DEGC         12.0000                 : RMF Temperature
RMC .OHMM         11.6000                 : Mud Cake Resistivity
RMCT.DEGC         12.0000                 : RMC Temperature
~Curve Information Block
#MNEM.UNIT        API CODE    Curve Description
#---------    ------------    -------------------------------------------
DEPT.M                    :   DEPTH
CALI.MM       42 280  1  1:   3 DENSITY CALIPER
DPHI.V/V                  :   DPHI
DT  .US/M     60 520 42  1:   2 SONIC INTERVAL TRANSIT TIME (COMPENSATED)
GR  .GAPI     42 310  1  1:   4 GAMMA RAY
LLD .Ohmm                 :   LLD
NPHI.V/V      42 890  3  1:   5 NEUTRON POROSITY (SANDSTONE)
RHOB.K/M3     42 350  1  1:   6 BULK DENSITY
~A  Depth           CALI        DPHI          DT          GR         LLD        NPHI        RHOB
# ...
106.7500        185.2250      0.1029    319.8800     85.6950     79.1496      0.4066   2324.8000
106.8750        184.6000      0.1252    365.7200     83.1150     77.9289      0.4073   2278.3000
107.0000        183.7000      0.1881    390.4800     81.0900     77.2789      0.4091   2253.8000
107.1250        181.5500      0.2289    377.7200     79.8000     77.2957      0.4066   2249.5000
107.2500        180.9250      0.2378    515.2000     77.7750     77.3647      0.4091   2245.8000
107.3750        181.2500      0.2458    506.1600     79.6200     76.8360      0.4163   2240.3000
107.5000        180.6250      0.2484    475.2800     81.8250     76.6444      0.4253   2238.5000
107.6250        180.6250      0.2489    466.2000     83.4900     75.1931      0.4339   2238.5000
107.7500        180.6250      0.2481    463.7600     83.4900     72.6722      0.4474   2241.0000
107.8750        179.1000      0.2478    467.6800     84.6000     70.5713      0.4410   2243.3999
108.0000        178.4750      0.2477    464.7200     81.8250     68.5897      0.4335   2247.1001
108.1250        178.4750      0.2476    459.5600     80.3550     65.3457      0.4245   2247.7000
108.2500        179.4000      0.2475    456.6400     83.1150     61.5192      0.4088   2248.3000
108.3750        179.7000      0.2487    455.9200     87.9150     59.2890      0.4091   2244.0000
108.5000        180.6250      0.2486    455.1600     92.3400     57.3078      0.4118   2236.7000
108.6250        182.1500      0.2508    452.2400     92.5200     56.2101      0.4163   2226.3000
108.7500        184.0000      0.2523    449.5200     91.2300     56.1087      0.4253   2217.7000
108.8750        184.6000      0.2542    452.9600     90.6750     56.8906      0.4298   2211.0000
109.0000        185.5250      0.2584    456.8800     91.5900     57.1949      0.4361   2211.6001
109.1250        188.6000      0.2638    459.8400     91.4100     57.3672      0.4451   2218.8999
109.2500        193.1750      0.2668    466.2000     87.7200     57.4750      0.4537   2232.3999
109.3750        195.0250      0.2657    468.8800     88.0950     56.8544      0.4478   2244.6001
109.5000        194.4000      0.2618    469.6400     91.9650     54.9602      0.4444   2248.8999
109.6250        193.1750      0.2589    467.9200     94.9200     54.0947      0.4455   2250.7000
109.7500        193.8000      0.2563    469.1200     96.5700     53.8418      0.4545   2250.1001
109.8750        196.5500      0.2547    463.7600     98.7900     53.8958      0.4564   2250.1001
110.0000        199.3250      0.2541    458.1200     98.4150     53.9797      0.4549   2250.7000
110.1250        198.4000      0.2531    459.5600     94.7250     55.8469      0.4508   2250.7000
110.2500        196.8750      0.2519    455.9200     94.7250     58.3543      0.4436   2251.3999
110.3750        198.7000      0.2488    458.3600     93.8100     61.0980      0.4474   2253.2000
110.5000        199.3250      0.2475    464.9600     91.9650     61.4722      0.4418   2264.2000
110.6250        193.8000      0.2459    471.8400     94.9200     61.5969      0.4399   2267.3000
110.7500        192.8750      0.2438    477.7200     98.4150     62.6249      0.4496   2272.2000
110.8750        192.8750      0.2413    480.9200     96.9450     63.7425      0.4448   2278.8999
111.0000        192.8750      0.2389    482.1200     95.2800     64.8681      0.4399   2286.2000
111.1250        191.6500      0.2352    480.6400    100.6200     65.9945      0.4335   2285.6001
111.2500        191.3500      0.2326    471.3600    104.4900     63.3268      0.4211   2282.0000
111.3750        191.6500      0.2301    458.6000    102.6600     58.5849      0.4226   2275.8000
111.5000        191.6500      0.2276    446.6000     98.5950     55.4868      0.4294   2275.2000
111.6250        187.0500      0.2273    439.2400     98.5950     51.6431      0.4253   2278.3000
111.7500        182.4750      0.2281    444.1200     96.5700     50.3937      0.4328   2262.3999
111.8750        181.2500      0.2292    450.5200    102.2850     47.6465      0.4429   2230.5000
112.0000        181.2500      0.2294    462.5200    109.4700     45.6159      0.4519   2213.3999
112.1250        182.4750      0.2312    474.0400    107.4450     44.5553      0.4508   2220.1001
112.2500        189.8250      0.2461    484.3200    105.4200     43.6148      0.4388   2227.5000
112.3750        194.4000      0.2621    485.8000    100.0800     43.5817      0.4455   2231.2000
112.5000        195.0250      0.2634    486.8000     98.9700     43.6624      0.4541   2229.3000
112.6250        195.3250      0.2620    486.2800     96.5700     44.6647      0.4522   2223.8000
112.7500        194.4000      0.2601    491.9200     96.3900     45.7773      0.4421   2212.8000
112.8750        193.5000      0.2598    494.1200     98.0400     46.9023      0.4391   2204.8000
113.0000        192.8750      0.2596    494.4000    103.5750     48.9678      0.4519   2203.6001
113.1250        191.9500      0.2643    493.4000    108.7350     50.1738      0.4481   2204.2000
113.2500        191.3500      0.2697    493.1600    108.9150     51.3064      0.4567   2208.5000
113.3750        190.7250      0.2720    494.4000    108.7350     51.4738      0.4721   2220.1001
113.5000        191.3500      0.2726    493.6400    109.8450     52.5380      0.4729   2231.8000
113.6250        191.0500      0.2719    492.1600    106.3350     54.6416      0.4620   2254.3999
113.7500        191.6500      0.2708    476.4800    101.7300     54.8259      0.4508   2272.8000
113.8750        192.2750      0.2696    475.0000    101.9100     52.0137      0.4474   2292.3999
114.0000        190.4250      0.2633    474.5200    106.1550     50.0375      0.4470   2294.2000
114.1250        189.8250      0.2544    473.3200    105.2400     47.7179      0.4582   2287.5000
114.2500        191.6500      0.2446    481.8800    106.1550     45.1992      0.4672   2270.3000
114.3750        190.4250      0.2364    492.6800    109.4700     43.6151      0.4541   2254.3999
114.5000        188.2750      0.2286    493.4000    107.2650     43.2971      0.4448   2246.5000
114.6250        187.0500      0.2256    492.6800    105.0450     43.2689      0.4451   2242.8000
114.7500        188.2750      0.2296    485.8000    102.6600     43.3575      0.4657   2244.6001
114.8750        189.2000      0.2339    481.4000     99.3300     43.4535      0.4639   2241.6001
115.0000        191.6500      0.2427    475.5200     96.0150     43.5500      0.4672   2234.2000
115.1250        192.2750      0.2487    474.0400     92.8800     45.6072      0.4747   2228.7000
115.2500        193.1750      0.2486    483.3600     94.5450     46.7705      0.4706   2231.8000
115.3750        193.8000      0.2495    490.2000     95.2800     46.8999      0.4657   2237.3000
115.5000        193.1750      0.2542    497.5600     96.9450     47.9996      0.4627   2230.5000
115.6250        190.7250      0.2556    510.3200     96.9450     49.1256      0.4642   2225.0000
115.7500        189.2000      0.2565    515.4400     96.3900     50.0467      0.4612   2214.6001
115.8750        189.5000      0.2575    509.0800     92.7000     51.9624      0.4556   2211.0000
116.0000        188.9000      0.2611    504.6800     93.4350     53.2399      0.4508   2217.7000
116.1250        189.8250      0.2640    501.9200     97.6800     56.9550      0.4444   2230.5000
116.2500        191.3500      0.2616    489.7200     98.0400     58.5188      0.4283   2244.6001
116.3750        191.6500      0.2591    483.6000     97.1250     61.4647      0.4151   2249.5000
116.5000        191.3500      0.2543    475.7600     94.9200     67.3652      0.4114   2255.6001
116.6250        194.4000      0.2517    466.4400     98.7900     69.9957      0.4129   2266.0000
116.7500        194.4000      0.2480    464.9600    104.8650     75.0323      0.4268   2273.3999
116.8750        193.8000      0.2454    465.7200    101.9100     79.3784      0.4388   2274.6001
117.0000        193.5000      0.2429    469.8800     98.0400     83.6605      0.4478   2277.7000
