~VERSION INFORMATION
 VERS.                 2.0:   CWLS LOG ASCII STANDARD -VERSION 2.0
 WRAP.                  NO:   ONE LINE PER DEPTH STEP
~WELL INFORMATION BLOCK
#MNEM.UNIT           DATA                    DESCRIPTION OF MNEMONIC
#---------    -------------------            -------------------------------
# Generated from Intellog Unique Number	CS_77_79/WELL/982
LOC .         AA/10-36-079-09W4/0            : Location     - LOCATION
UWI .         AA/10-36-079-09W4/0            : Uwi          - UNIQUE WELL ID
ENTR.         JHS                            : Entered      - ENTERED BY
SRVC.         SCHLUMBERGER                   : Scn          - SERVICE COMPANY
STRT.M        235                            : top_depth    - START DEPTH
STOP.M        455                            : bot_depth    - STOP DEPTH
STEP.M        0.25                           : increment    - STEP LENGTH
 NULL. -999.2500:NULL Value
~CURVE INFORMATION BLOCK
#MNEM UNIT       ERCB CURVE CODE    CURVE DESCRIPTION
#-----------   ------------------   ----------------------------------
DEPT.M        00 001 00 00         : DEPTH        - DEPTH
DPHI.V/V      00 890 00 00         : PHID         - DENSITY POROSITY (LIMESTONE)
NPHI.V/V      00 330 00 00         : PHIN         - NEUTRON POROSITY (LIMESTONE)
GR  .API      00 310 00 00         : GR           - GAMMA RAY
ILD .OHMM     00 120 00 00         : RESD         - DEEP RESISTIVITY (DIL)
RHOB.KG/M3    00 350 00 00         : DENS         - BULK DENSITY
~PARAMETER INFORMATION
#MNEM.UNIT           DATA             DESCRIPTION OF MNEMONIC
#---------         -----------     ------------------------------
GL  .M        672.8                : gl           - GROUND LEVEL ELEVATION
EREF.M        676.49               : kb           - ELEVATION OF DEPTH REFERENCE
DATM.M        676.49               : datum        - DATUM ELEVATION
TDD .M        434.08               : tdd          - TOTAL DEPTH DRILLER
RUN .         ONE                  : Run          - RUN NUMBER
ENG .         BILL                 : Engineer     - RECORDING ENGINEER
WIT .         JIM                  : Witness      - WITNESSED BY
MUD .         GEL                  : Mud_type     - MUD TYPE
MATR.         LIMESTONE            : Logunit      - NEUTRON MATRIX
TMAX.C        18                   : BHT          - MAXIMUM RECORDED TEMPERATURE
BHTD.M        434.08               : BHTDEP       - MAXIMUM RECORDED TEMPERATURE
MATR.         1                    : LOGUNIT      - NEUTRON MATRIX
RMT .C        25                   : MDTP         - TEMPERATURE OF MUD
NEUT.         1                    : NEUTRON      - NEUTRON TYPE
RESI.         0                    : RESIST       - RESISTIVITY TYPE
RMC .OHMM     0.25                 : RMC          - RESISTIVITY OF MUD CAKE
RMF .OHMM     0.25                 : RMF          - RESISTIVITY OF MUD FILTRATE
SUFT.C        15                   : SUFT         - SURFACE TEMPERATURE
~A  DEPTH     PHID     PHIN       GR     RESD     DENS
  235.000    0.260    0.585  137.645    3.203    0.000
  235.250    0.260    0.595  129.644    3.145    0.000
  235.500    0.258    0.564  121.643    3.088    0.000
  235.750    0.259    0.550  109.324    3.091    0.000
  236.000    0.280    0.538  105.642    3.093    0.000
  236.250    0.276    0.563  126.652    3.037    0.000
  236.500    0.257    0.580  117.420    3.039    0.000
  236.750    0.256    0.527  109.419    3.099    0.000
  237.000    0.262    0.498  118.083    3.220    0.000
  237.250    0.250    0.482  125.514    3.346    0.000
  237.500    0.245    0.520  132.327    3.476    0.000
  237.750    0.253    0.547  121.857    3.680    0.000
  238.000    0.249    0.528  124.352    3.823    0.000
  238.250    0.250    0.518  119.441    4.047    0.000
  238.500    0.255    0.505  126.872    4.205    0.000
  238.750    0.252    0.533  128.125    4.369    0.000
  239.000    0.239    0.526  130.002    4.373    0.000
  239.250    0.235    0.505  129.407    4.293    0.000
  239.500    0.238    0.507  126.350    4.216    0.000
  239.750    0.242    0.534  129.456    4.064    0.000
  240.000    0.244    0.520  141.827    3.992    0.000
  240.250    0.242    0.486  120.247    3.993    0.000
  240.500    0.230    0.469  125.213    4.072    0.000
  240.750    0.222    0.496  127.699    4.311    0.000
  241.000    0.222    0.509  121.555    4.480    0.000
  241.250    0.226    0.501  119.724    4.482    0.000
  241.500    0.229    0.491  132.095    4.402    0.000
  241.750    0.232    0.505  138.904    4.488    0.000
  242.000    0.237    0.494  130.288    4.751    0.000
  242.250    0.234    0.483  122.288    5.030    0.000
  242.500    0.235    0.455  108.733    5.129    0.000
  242.750    0.196    0.425   99.497    5.329    0.000
  243.000    0.205    0.446  113.102    5.537    0.000
  243.250    0.218    0.487  128.557    5.540    0.000
  243.500    0.208    0.471  112.530    5.047    0.000
  243.750    0.200    0.461  108.853    4.686    0.000
  244.000    0.211    0.482  118.750    4.602    0.000
  244.250    0.257    0.495  123.717    4.781    0.000
  244.500    0.247    0.491  126.207    5.158    0.000
  244.750    0.246    0.464  115.738    5.563    0.000
  245.000    0.255    0.420  108.358    6.230    0.000
  245.250    0.259    0.420  100.355    6.978    0.000
  245.500    0.258    0.397   94.207    7.526    0.000
  245.750    0.242    0.442  112.128    7.532    0.000
  246.000    0.235    0.460  121.410    7.259    0.000
  246.250    0.240    0.433  117.730    6.868    0.000
  246.500    0.244    0.414  131.952    6.872    0.000
  246.750    0.247    0.432  130.123    7.552    0.000
  247.000    0.249    0.414  131.383    8.146    0.000
  247.250    0.250    0.415  130.170    8.308    0.000
  247.500    0.243    0.432  125.259    8.006    0.000
  247.750    0.222    0.440  124.666    7.433    0.000
  248.000    0.210    0.470  135.180    7.164    0.000
  248.250    0.217    0.462  143.848    7.303    0.000
  248.500    0.226    0.431  149.426    8.028    0.000
  248.750    0.235    0.415  144.512    9.162    0.000
  249.000    0.246    0.407  137.129   10.260    0.000
  249.250    0.252    0.406  130.979   12.159    0.000
  249.500    0.254    0.423  126.065   13.114    0.000
  249.750    0.247    0.414  125.472   13.629    0.000
  250.000    0.231    0.407  138.457   13.380    0.000
  250.250    0.225    0.422  147.126   12.657    0.000
  250.500    0.224    0.442  151.467   11.971    0.000
  250.750    0.219    0.431  149.640   10.909    0.000
  251.000    0.213    0.425  152.137   10.514    0.000
  251.250    0.207    0.428  150.309   10.131    0.000
  251.500    0.203    0.407  144.776    9.951    0.000
  251.750    0.219    0.403  136.158   10.735    0.000
  252.000    0.247    0.399  125.685   11.362    0.000
  252.250    0.256    0.387  117.067   12.966    0.000
  252.500    0.260    0.375  110.919   14.798    0.000
  252.750    0.268    0.374  102.921   16.576    0.000
  253.000    0.273    0.395   99.239   17.547    0.000
  253.250    0.269    0.392  106.671   17.891    0.000
  253.500    0.274    0.378  101.759   17.903    0.000
  253.750    0.280    0.378   97.461   17.917    0.000
  254.000    0.283    0.404  103.655   17.929    0.000
  254.250    0.294    0.384  103.679   18.625    0.000
  254.500    0.298    0.396  103.704   19.351    0.000
  254.750    0.299    0.399   95.710   19.735    0.000
  255.000    0.295    0.378   94.495   19.749    0.000
  255.250    0.283    0.365   95.138   19.758    0.000
  255.500    0.277    0.383   92.692   19.774    0.000
  255.750    0.279    0.374   89.627   19.784    0.000
  256.000    0.278    0.374   80.391   19.808    0.000
  256.250    0.267    0.381   74.246   19.815    0.000
  256.500    0.255    0.377   75.507   20.204    0.000
  256.750    0.229    0.379   88.487   20.603    0.000
  257.000    0.267    0.388   96.536   21.003    0.000
  257.250    0.305    0.399   90.386   21.418    0.000
  257.500    0.307    0.402   79.300   21.843    0.000
  257.750    0.299    0.383   82.421   21.853    0.000
  258.000    0.295    0.366   81.199   22.281    0.000
  258.250    0.294    0.370   83.076   22.297    0.000
  258.500    0.294    0.386   93.592   22.741    0.000
  258.750    0.292    0.390  102.876   22.752    0.000
  259.000    0.289    0.406  102.902   22.349    0.000
  259.250    0.287    0.415  104.160   22.358    0.000
  259.500    0.282    0.398  107.266   21.960    0.000
  259.750    0.280    0.411  106.673   21.565    0.000
  260.000    0.281    0.391  112.254   21.174    0.000
  260.250    0.288    0.415  106.721   20.797    0.000
  260.500    0.285    0.401  115.385   20.427    0.000
  260.750    0.278    0.397  112.942   19.690    0.000
  261.000    0.277    0.385  117.902   19.330    0.000
  261.250    0.281    0.374  122.865   18.636    0.000
  261.500    0.276    0.373  118.570   18.300    0.000
  261.750    0.270    0.386  132.787   18.313    0.000
  262.000    0.265    0.382  137.133   18.323    0.000
  262.250    0.257    0.373  129.136   19.035    0.000
  262.500    0.250    0.379  127.304   19.051    0.000
  262.750    0.245    0.376  119.308   18.706    0.000
  263.000    0.240    0.371  113.772   18.722    0.000
  263.250    0.240    0.375  114.414   19.088    0.000
  263.500    0.242    0.370  116.906   19.834    0.000
  263.750    0.251    0.372  106.438   19.477    0.000
  264.000    0.256    0.361   87.329   18.424    0.000
  264.250    0.253    0.354   67.599   17.101    0.000
  264.500    0.254    0.357   94.164   15.874    0.000
  264.750    0.260    0.373  115.177   15.017    0.000
  265.000    0.271    0.394  111.496   14.746    0.000
  265.250    0.286    0.435   97.325   15.038    0.000
  265.500    0.309    0.453   91.793   15.918    0.000
  265.750    0.347    0.427   82.561   17.831    0.000
  266.000    0.323    0.394   71.469   19.597    0.000
  266.250    0.312    0.384   64.093   21.140    0.000
  266.500    0.303    0.377   68.435   21.963    0.000
  266.750    0.296    0.375   77.716   22.819    0.000
  267.000    0.293    0.384   83.295   22.833    0.000
  267.250    0.294    0.397   91.961   22.424    0.000
  267.500    0.297    0.401   91.983   21.613    0.000
  267.750    0.299    0.407   83.982   20.442    0.000
  268.000    0.302    0.375   77.218   17.608    0.000
  268.250    0.299    0.368   87.115   16.342    0.000
  268.500    0.274    0.363   98.865   14.889    0.000
  268.750    0.244    0.354   98.894   13.824    0.000
  269.000    0.212    0.365   98.300   13.835    0.000
  269.250    0.209    0.353   99.557   13.840    0.000
  269.500    0.226    0.344   89.704   14.378    0.000
  269.750    0.256    0.347   86.645   15.225    0.000
  270.000    0.270    0.355   92.219   16.118    0.000
  270.250    0.279    0.340   91.012   17.062    0.000
  270.500    0.283    0.343   78.071   17.724    0.000
  270.750    0.294    0.332   66.989   18.417    0.000
  271.000    0.292    0.335   80.588   19.136    0.000
  271.250    0.286    0.344   91.724   18.794    0.000
