~VERSION INFORMATION
 VERS.                 2.0:   CWLS LOG ASCII STANDARD -VERSION 2.0
 WRAP.                  NO:   ONE LINE PER DEPTH STEP
~WELL INFORMATION BLOCK
#MNEM.UNIT           DATA                    DESCRIPTION OF MNEMONIC
#---------    -------------------            -------------------------------
# Generated from Intellog Unique Number	CW_82_90/WELL/1035
WELL.         14-17-082-21W4                 : Well_name    - WELL
LOC .         AA/14-17-082-21W4/0            : Location     - LOCATION
UWI .         AA/14-17-082-21W4/0            : Uwi          - UNIQUE WELL ID
ENTR.         JAYE                           : Entered      - ENTERED BY
SRVC.         SCHLUMBERGER                   : Scn          - SERVICE COMPANY
DATE.         1FEB 82                        : Date         - LOG DATE
STRT.M        220                            : top_depth    - START DEPTH
STOP.M        445                            : bot_depth    - STOP DEPTH
STEP.M        0.25                           : increment    - STEP LENGTH
 NULL. -999.2500:NULL Value
~CURVE INFORMATION BLOCK
#MNEM UNIT       ERCB CURVE CODE    CURVE DESCRIPTION
#-----------   ------------------   ----------------------------------
DEPT.M        00 001 00 00         : DEPTH        - DEPTH
CALI.MM       00 280 01 00         : CAL          - CALIPER
GR  .API      00 310 00 00         : GR           - GAMMA RAY
NPHI.V/V      00 330 00 00         : PHIN         - NEUTRON POROSITY (SANDSTONE)
DPHI.V/V      00 890 00 00         : PHID         - DENSITY POROSITY (SANDSTONE)
ILD .OHMM     00 120 00 00         : RESD         - DEEP RESISTIVITY (DIL)
~PARAMETER INFORMATION
#MNEM.UNIT           DATA             DESCRIPTION OF MNEMONIC
#---------         -----------     ------------------------------
GL  .M        619.5                : gl           - GROUND LEVEL ELEVATION
EREF.M        623.9                : kb           - ELEVATION OF DEPTH REFERENCE
DATM.M        619.5                : datum        - DATUM ELEVATION
TDD .M        453.5                : tdd          - TOTAL DEPTH DRILLER
RUN .         ONE                  : Run          - RUN NUMBER
ENG .         VANDENBRINK          : Engineer     - RECORDING ENGINEER
WIT .         WALKER               : Witness      - WITNESSED BY
BASE.         EDMONTON             : Branch       - HOME BASE OF LOGGING UNIT
MUD .         GEL CHEM             : Mud_type     - MUD TYPE
MATR.         SANDSTONE            : Logunit      - NEUTRON MATRIX
TMAX.C        22.2                 : BHT          - MAXIMUM RECORDED TEMPERATURE
BHTD.M        453.5                : BHTDEP       - MAXIMUM RECORDED TEMPERATURE
RMT .C        20.5                 : MDTP         - TEMPERATURE OF MUD
MUDD.KG/M     1070                 : MWT          - MUD DENSITY
NEUT.         1                    : NEUTRON      - NEUTRON TYPE
RESI.         0                    : RESIST       - RESISTIVITY TYPE
RM  .OHMM     4.89                 : RM           - RESISTIVITY OF MUD
RMC .OHMM     0.25                 : RMC          - RESISTIVITY OF MUD CAKE
RMF .OHMM     4.77                 : RMF          - RESISTIVITY OF MUD FILTRATE
SUFT.C        4                    : SUFT         - SURFACE TEMPERATURE
~A  DEPTH      CAL       GR     PHIN     PHID     RESD
# ...
  366.000  160.664   91.056    0.436    0.225    9.856
  366.250  160.635   87.968    0.444    0.218    9.830
  366.500  160.602   88.009    0.455    0.213    9.880
  366.750  160.987   89.308    0.464    0.217    9.926
  367.000  161.898   91.359    0.466    0.228    9.919
  367.250  162.496   93.971    0.453    0.225    9.895
  367.500  163.181   95.896    0.438    0.218    9.923
  367.750  164.099   95.311    0.423    0.209    9.988
  368.000  164.601   94.355    0.426    0.196   10.057
  368.250  165.193   95.088    0.428    0.187   10.146
  368.500  165.063   97.134    0.433    0.183   10.234
  368.750  163.975   98.871    0.444    0.219   10.243
  369.000  163.936   99.355    0.465    0.227   10.255
  369.250  164.108   95.639    0.473    0.210   10.303
  369.500  164.499   97.062    0.465    0.196   10.296
  369.750  164.361   97.858    0.449    0.185   10.288
  370.000  163.799   98.028    0.454    0.174   10.356
  370.250  163.028  100.702    0.444    0.177   10.506
  370.500  162.050  101.686    0.442    0.199   10.499
  370.750  161.171   96.217    0.445    0.204   10.470
  371.000  160.926   90.372    0.448    0.203   10.286
  371.250  160.998   89.914    0.460    0.217   10.258
  371.500  161.278   90.399    0.481    0.224   10.154
  371.750  161.135   93.450    0.443    0.221   10.127
  372.000  160.885   98.379    0.435    0.215   10.179
  372.250  161.485   97.920    0.441    0.196   10.225
  372.500  162.720   98.531    0.448    0.177   10.610
  372.750  162.997  101.646    0.454    0.159   10.966
  373.000  161.808  100.812    0.450    0.161   11.020
  373.250  161.455   98.539    0.436    0.197   10.969
  373.500  163.632  100.146    0.437    0.216   10.797
  373.750  165.486   99.120    0.449    0.222   10.829
  374.000  166.601   98.734    0.461    0.218   10.761
  374.250  166.686   99.587    0.475    0.215   10.355
  374.500  166.861  101.324    0.476    0.218   10.291
  374.750  166.716  103.127    0.457    0.218   10.299
  375.000  166.472  100.352    0.453    0.214   10.486
  375.250  166.126   99.891    0.456    0.214   10.244
  375.500  165.979  101.066    0.453    0.212   10.063
  375.750  165.954  104.805    0.450    0.204    9.868
  376.000  165.907  102.342    0.454    0.187    9.974
  376.250  166.197   99.380    0.450    0.169   10.039
  376.500  166.264  101.241    0.445    0.158    9.975
  376.750  166.440  103.603    0.448    0.165    9.893
  377.000  166.619  107.597    0.456    0.195    9.812
  377.250  167.211  104.946    0.461    0.194    9.768
  377.500  167.599  105.171    0.461    0.187    9.722
  377.750  167.988  107.287    0.465    0.181    9.807
  378.000  168.376  110.780    0.474    0.172    9.890
  378.250  174.028  108.068    0.510    0.174    9.884
  378.500  178.204  105.977    0.522    0.192    9.894
  378.750  170.274  107.027    0.484    0.199    9.942
  379.000  168.450  109.578    0.470    0.180    9.861
  379.250  171.151  109.057    0.443    0.164    9.434
  379.500  177.223  107.724    0.434    0.212    8.893
  379.750  174.242  110.086    0.430    0.220    8.288
  380.000  172.726  112.447    0.429    0.216    7.901
  380.250  171.752  112.054    0.430    0.207    8.447
  380.500  174.870  111.534    0.418    0.198    8.409
  380.750  177.150  116.588    0.422    0.189    8.077
  381.000  169.644  110.181    0.443    0.198    8.027
  381.250  166.244   92.809    0.443    0.224    8.389
  381.500  165.573   91.661    0.413    0.233    9.564
  381.750  166.277   90.641    0.419    0.234   10.841
  382.000  166.555   82.166    0.424    0.216   13.554
  382.250  166.949   81.709    0.376    0.204   15.983
  382.500  166.805   86.137    0.301    0.095   18.462
  382.750  166.452   89.691    0.318    0.230   20.614
  383.000  166.836   81.465    0.423    0.254   22.678
  383.250  166.808   77.686    0.419    0.246   23.793
  383.500  166.774   76.039    0.387    0.216   24.687
  383.750  167.148   76.521    0.311    0.139   25.371
  384.000  167.444   78.008    0.311    0.092   26.224
  384.250  166.354   75.482    0.323    0.098   27.008
  384.500  166.521   69.388    0.293    0.088   28.020
  384.750  166.708   61.724    0.272    0.077   28.693
  385.000  167.300   63.334    0.264    0.068   28.668
  385.250  167.999   67.388    0.279    0.067   27.647
  385.500  168.596   73.071    0.346    0.195   25.423
  385.750  168.775   78.442    0.375    0.233   22.141
  386.000  168.535   81.180    0.401    0.243   19.575
  386.250  168.077   77.841    0.403    0.229   17.904
  386.500  167.407   77.823    0.379    0.198   17.593
  386.750  167.155   76.611    0.373    0.166   17.713
  387.000  167.340   76.219    0.391    0.159   17.997
  387.250  167.308   74.698    0.408    0.134   18.991
  387.500  167.269   76.745    0.323    0.101   19.819
  387.750  167.342   79.484    0.251    0.082   19.838
  388.000  167.094   82.660    0.267    0.097   18.561
  388.250  167.159   84.209    0.330    0.153   17.134
  388.500  167.650   86.067    0.363    0.191   15.349
  388.750  168.252   87.554    0.407    0.201   13.294
  389.000  168.540   89.912    0.402    0.212   12.179
  389.250  169.235   89.709    0.400    0.225   10.809
  389.500  170.041   86.997    0.415    0.233    9.962
  389.750  170.223   83.845    0.422    0.235    9.657
  390.000  170.183   81.572    0.419    0.232   10.001
  390.250  169.932   78.924    0.406    0.222   10.981
  390.500  169.689   79.279    0.399    0.214   11.033
  390.750  169.557   79.634    0.417    0.203   10.458
  391.000  169.316   80.245    0.429    0.202    9.547
  391.250  169.269   80.917    0.419    0.239    9.051
  391.500  169.244   81.650    0.404    0.235    9.025
  391.750  169.416   83.386    0.420    0.214    9.562
  392.000  169.697   87.876    0.441    0.202    9.625
  392.250  170.085   93.245    0.429    0.190    9.837
  392.500  170.368   93.477    0.411    0.211    9.923
  392.750  170.849   90.077    0.413    0.232   10.066
  393.000  171.026   90.621    0.428    0.230   10.172
  393.250  171.212   88.286    0.428    0.216   10.240
  393.500  171.070   87.704    0.413    0.195    9.948
  393.750  171.039   89.248    0.400    0.179    9.903
  394.000  171.002   90.234    0.405    0.194    9.931
  394.250  171.680   92.097    0.417    0.183    9.886
  394.500  171.983   95.336    0.433    0.169    9.677
  394.750  173.109   96.506    0.441    0.183    9.347
  395.000  174.128   95.110    0.442    0.199    9.199
  395.250  175.251   93.462    0.431    0.189    9.368
  395.500  176.057   92.692    0.407    0.178    9.555
  395.750  175.485   92.800    0.411    0.169    9.895
  396.000  175.357   92.968    0.415    0.190   10.152
  396.250  175.534   93.201    0.404    0.204   10.259
  396.500  175.688   97.506    0.392    0.214   10.347
  396.750  175.881  101.246    0.388    0.206   10.478
  397.000  176.037   95.841    0.400    0.195   10.451
  397.250  176.449   94.945    0.424    0.182   10.343
  397.500  178.415   97.994    0.429    0.171   10.218
  397.750  180.165  100.670    0.439    0.170   10.095
  398.000  179.819  102.906    0.439    0.198    9.696
  398.250  181.363  103.516    0.432    0.209    9.384
  398.500  184.271  102.243    0.427    0.210    9.032
  398.750  184.553   98.843    0.455    0.207    8.675
  399.000  178.207   94.126    0.461    0.196    8.732
  399.250  174.589  102.816    0.450    0.178    8.790
  399.500  175.286  111.443    0.432    0.154    8.255
  399.750  175.467  115.996    0.421    0.177    7.367
  400.000  177.487  112.128    0.435    0.201    7.315
  400.250  178.824  114.559    0.431    0.204    7.614
  400.500  177.986  117.053    0.425    0.197    7.691
  400.750  177.147  118.612    0.412    0.205    7.767
  401.000  176.305  120.172    0.411    0.208    7.845
  401.250  174.845  116.125    0.433    0.202    7.968
  401.500  172.969  107.032    0.439    0.161    8.231
  401.750  170.366   97.628    0.434    0.103   10.698
  402.000  167.036  101.243    0.387    0.115   16.849
  402.250  169.515  105.730    0.365    0.170   19.747
