~VERSION INFORMATION
 VERS.                 2.0:   CWLS LOG ASCII STANDARD -VERSION 2.0
 WRAP.                  NO:   ONE LINE PER DEPTH STEP
~WELL INFORMATION BLOCK
#MNEM.UNIT           DATA                    DESCRIPTION OF MNEMONIC
#---------    -------------------            -------------------------------
# Generated from Intellog Unique Number	CS_73_76/WELL/3235
WELL.         HOME OIL COMPANY LIMITED       : Well_name    - WELL
LOC .         AA/10-14-076-07W4/0            : Location     - LOCATION
UWI .         AA/10-14-076-07W4/0            : Uwi          - UNIQUE WELL ID
ENTR.         SP                             : Entered      - ENTERED BY
SRVC.         SCHLUMBERGER                   : Scn          - SERVICE COMPANY
STRT.M        175                            : top_depth    - START DEPTH
STOP.M        405                            : bot_depth    - STOP DEPTH
STEP.M        0.25                           : increment    - STEP LENGTH
 NULL. -999.2500:NULL Value
~CURVE INFORMATION BLOCK
#MNEM UNIT       ERCB CURVE CODE    CURVE DESCRIPTION
#-----------   ------------------   ----------------------------------
DEPT.M        00 001 00 00         : DEPTH        - DEPTH
DPHI.V/V      00 890 00 00         : PHID         - DENSITY POROSITY (LIMESTONE)
NPHI.V/V      00 330 00 00         : PHIN         - NEUTRON POROSITY (LIMESTONE)
GR  .API      00 310 00 00         : GR           - GAMMA RAY
ILD .OHMM     00 120 00 00         : RESD         - DEEP RESISTIVITY (DIL)
~PARAMETER INFORMATION
#MNEM.UNIT           DATA             DESCRIPTION OF MNEMONIC
#---------         -----------     ------------------------------
GL  .M        590.89               : gl           - GROUND LEVEL ELEVATION
EREF.M        594.34               : kb           - ELEVATION OF DEPTH REFERENCE
DATM.M        590.89               : datum        - DATUM ELEVATION
TDD .M        430                  : tdd          - TOTAL DEPTH DRILLER
RUN .         ONE                  : Run          - RUN NUMBER
ENG .         BILL                 : Engineer     - RECORDING ENGINEER
WIT .         JIM                  : Witness      - WITNESSED BY
MUD .         GEL                  : Mud_type     - MUD TYPE
MATR.         LIMESTONE            : Logunit      - NEUTRON MATRIX
TMAX.C        21                   : BHT          - MAXIMUM RECORDED TEMPERATURE
BHTD.M        430                  : BHTDEP       - MAXIMUM RECORDED TEMPERATURE
MATR.         1                    : LOGUNIT      - NEUTRON MATRIX
RMT .C        25                   : MDTP         - TEMPERATURE OF MUD
NEUT.         1                    : NEUTRON      - NEUTRON TYPE
RESI.         0                    : RESIST       - RESISTIVITY TYPE
RMC .OHMM     0.25                 : RMC          - RESISTIVITY OF MUD CAKE
RMF .OHMM     0.25                 : RMF          - RESISTIVITY OF MUD FILTRATE
SUFT.C        15                   : SUFT         - SURFACE TEMPERATURE
~A  DEPTH     PHID     PHIN       GR     RESD
# ...
  349.000    0.328    0.383   28.020   94.022
  349.250    0.325    0.378   28.027   99.480
  349.500    0.330    0.379   28.032   97.617
  349.750    0.325    0.385   29.259   88.843
  350.000    0.315    0.391   29.263   83.960
  350.250    0.308    0.385   28.660   79.343
  350.500    0.303    0.362   28.666   77.859
  350.750    0.307    0.373   29.893   76.401
  351.000    0.314    0.408   29.898   77.845
  351.250    0.321    0.412   28.685   77.841
  351.500    0.327    0.398   29.909   77.836
  351.750    0.331    0.382   30.526   76.381
  352.000    0.335    0.378   28.703   76.373
  352.250    0.331    0.373   28.710   76.370
  352.500    0.315    0.381   28.714   74.939
  352.750    0.310    0.374   31.161   72.164
  353.000    0.311    0.376   31.166   69.495
  353.250    0.320    0.386   27.514   64.449
  353.500    0.324    0.377   25.692   60.909
  353.750    0.322    0.369   25.086   49.513
  354.000    0.324    0.362   27.531   45.064
  354.250    0.327    0.354   31.197   34.622
  354.500    0.330    0.388   32.422   25.140
  354.750    0.335    0.398   36.696   11.403
  355.000    0.278    0.381   44.629    7.825
  355.250    0.218    0.342   77.562    6.126
  355.500    0.194    0.431   98.910    5.575
  355.750    0.183    0.441  108.672    5.171
  356.000    0.190    0.449  112.337    4.886
  356.250    0.205    0.457  113.563    4.886
  356.500    0.200    0.456  113.568    4.795
  356.750    0.193    0.468  111.745    4.705
  357.000    0.185    0.463  114.191    4.617
  357.250    0.188    0.470  114.806    4.531
  357.500    0.188    0.492  111.763    4.530
  357.750    0.200    0.479  109.330    4.530
  358.000    0.204    0.471  111.166    4.616
  358.250    0.202    0.479  115.441    4.883
  358.500    0.202    0.486  118.495    5.070
  358.750    0.201    0.483  110.575    5.466
  359.000    0.202    0.471  109.361    6.236
  359.250    0.188    0.442  114.856    7.249
  359.500    0.173    0.430  113.642    7.963
  359.750    0.185    0.447  109.380    9.257
  360.000    0.215    0.413  106.946   11.386
  360.250    0.235    0.380  105.123   14.004
  360.500    0.235    0.354  105.740   15.385
  360.750    0.217    0.337  110.623   17.550
  361.000    0.204    0.315  115.509   18.921
  361.250    0.212    0.328  101.489   20.786
  361.500    0.260    0.334   91.129   21.993
  361.750    0.266    0.323   80.769   24.161
  362.000    0.257    0.320   71.629   24.619
  362.250    0.249    0.321   73.464   25.085
  362.500    0.246    0.322   80.178   25.082
  362.750    0.250    0.332   83.842   25.558
  363.000    0.263    0.353   84.459   26.041
  363.250    0.261    0.348   91.781   27.552
  363.500    0.263    0.338   88.739   28.607
  363.750    0.269    0.343   82.648   29.149
  364.000    0.261    0.341   80.824   31.425
  364.250    0.252    0.332   80.221   33.880
  364.500    0.249    0.350   75.348   37.221
  364.750    0.272    0.341   86.940   41.669
  365.000    0.282    0.330   94.264   48.436
  365.250    0.291    0.345  103.415   56.303
  365.500    0.296    0.377   74.153   65.449
  365.750    0.296    0.368   60.745   71.903
  366.000    0.304    0.351   51.604   67.948
  366.250    0.316    0.336   41.855   64.215
  366.500    0.310    0.343   42.470   57.353
  366.750    0.296    0.338   51.623   57.350
  367.000    0.283    0.327   55.288   71.875
  367.250    0.274    0.341   56.513   85.138
  367.500    0.278    0.365   42.495   98.968
  367.750    0.286    0.347   32.745  141.507
  368.000    0.301    0.330   28.482  161.423
  368.250    0.308    0.335   26.659  158.402
  368.500    0.314    0.355   37.031  138.838
  368.750    0.314    0.350   65.085  124.001
  369.000    0.307    0.339  107.775  117.187
  369.250    0.308    0.357   97.415  110.746
  369.500    0.311    0.357   75.470  106.646
  369.750    0.312    0.358   68.159  104.651
  370.000    0.314    0.368   60.848   95.242
  370.250    0.316    0.372   61.464   86.682
  370.500    0.314    0.368   76.104   78.893
  370.750    0.303    0.375   87.696   67.859
  371.000    0.300    0.389   71.238   59.478
  371.250    0.304    0.380   59.659   57.277
  371.500    0.300    0.364   52.348   61.750
  371.750    0.296    0.366   49.915   69.127
  372.000    0.297    0.392   54.190   77.387
  372.250    0.304    0.372   56.025   89.958
  372.500    0.304    0.366   51.763  117.070
  372.750    0.308    0.380   45.062  143.992
  373.000    0.318    0.392   41.409  170.562
  373.250    0.318    0.374   38.976  190.940
  373.500    0.314    0.362   37.152  190.925
  373.750    0.308    0.351   34.110  180.430
  374.000    0.304    0.351   31.678  164.209
  374.250    0.308    0.351   31.074  158.132
  374.500    0.313    0.378   31.689  158.122
  374.750    0.319    0.386   37.184  164.174
  375.000    0.326    0.378   38.868  181.197
  375.250    0.324    0.370   35.229  195.326
  375.500    0.323    0.361   32.198  191.694
  375.750    0.323    0.353   30.987  171.276
  376.000    0.320    0.348   34.030  150.186
  376.250    0.312    0.354   38.287  119.896
  376.500    0.315    0.375   39.505   95.715
  376.750    0.326    0.391   40.724   72.226
  377.000    0.331    0.397   38.300   56.587
  377.250    0.328    0.394   37.091   51.518
  377.500    0.316    0.380   37.703   51.518
  377.750    0.322    0.355   40.745   53.489
  378.000    0.342    0.376   43.178   59.865
  378.250    0.353    0.446   46.827   62.155
  378.500    0.351    0.384   43.796   58.752
  378.750    0.321    0.371   45.015   54.502
  379.000    0.279    0.354   49.878   49.620
  379.250    0.247    0.384   49.884   46.030
  379.500    0.278    0.425   43.817   50.560
  379.750    0.310    0.416   37.748   65.756
  380.000    0.337    0.407   34.109   92.188
  380.250    0.342    0.393   31.078  122.168
  380.500    0.338    0.380   34.120  129.245
  380.750    0.331    0.376   36.554  129.245
  381.000    0.320    0.376   38.380  117.666
  381.250    0.309    0.371   38.994  105.133
  381.500    0.309    0.358   38.998   93.935
  381.750    0.327    0.349   38.395   87.140
  382.000    0.350    0.345   37.793   87.140
  382.250    0.359    0.372   39.620   88.791
  382.500    0.343    0.391   40.840   90.474
  382.750    0.318    0.378   39.631   93.935
  383.000    0.302    0.384   37.207   97.528
  383.250    0.295    0.393   34.781   99.376
  383.500    0.288    0.372   29.929  107.125
  383.750    0.290    0.349   28.719  109.155
  384.000    0.309    0.367   30.550  115.478
  384.250    0.317    0.380   31.769  115.478
  384.500    0.316    0.392   31.772  117.666
  384.750    0.311    0.399   32.383  115.478
  385.000    0.302    0.384   32.388  117.666
  385.250    0.290    0.345   32.394  119.896
  385.500    0.285    0.351   36.044  124.483
  385.750    0.287    0.372   37.868  124.483
  386.000    0.290    0.377   41.518  115.478
  386.250    0.285    0.369   40.307  105.133
  386.500    0.280    0.350   39.706  103.178
  386.750    0.278    0.340   40.926   93.935
  387.000    0.285    0.347   42.754   79.334
  387.250    0.290    0.356   43.364   72.226
  387.500    0.287    0.347   47.013   70.883
  387.750    0.293    0.339   50.055   69.565
  388.000    0.309    0.361   50.666   68.272
  388.250    0.311    0.392   48.242   68.272
  388.500    0.315    0.421   43.388   65.756
  388.750    0.320    0.425   40.965   62.155
  389.000    0.323    0.410   43.398   56.587
  389.250    0.316    0.384   42.796   53.489
  389.500    0.316    0.361   39.767   48.697
  389.750    0.316    0.351   39.163   46.030
  390.000    0.316    0.347   38.560   48.697
  390.250    0.315    0.350   37.351   50.560
  390.500    0.298    0.345   35.534   55.535
  390.750    0.299    0.338   33.109   58.752
  391.000    0.315    0.345   32.507   60.999
  391.250    0.311    0.354   36.763   60.999
  391.500    0.310    0.366   39.804   60.999
  391.750    0.307    0.372   36.168   58.752
  392.000    0.306    0.367   37.386   59.865
  392.250    0.306    0.369   44.678   60.999
