~VERSION INFORMATION
 VERS.                 2.0:   CWLS LOG ASCII STANDARD -VERSION 2.0
 WRAP.                  NO:   ONE LINE PER DEPTH STEP
~WELL INFORMATION BLOCK
#MNEM.UNIT           DATA                    DESCRIPTION OF MNEMONIC
#---------    -------------------            -------------------------------
# Generated from Intellog Unique Number	CN_94_101/WELL/5014
WELL.         11-08-101-14W4                 : Well_name    - WELL
LOC .         AA/11-08-101-14W4/0            : Location     - LOCATION
UWI .         AA/11-08-101-14W400            : Uwi          - UNIQUE WELL ID
ENTR.         TIM                            : Entered      - ENTERED BY
SRVC.         SCHLUMBERGER                   : Scn          - SERVICE COMPANY
DATE.         08/13/92                       : Date         - LOG DATE
STRT.M        300                            : top_depth    - START DEPTH
STOP.M        506                            : bot_depth    - STOP DEPTH
STEP.M        0.25                           : increment    - STEP LENGTH
NULL. -999.2500:NULL Value
~CURVE INFORMATION BLOCK
#MNEM UNIT       ERCB CURVE CODE    CURVE DESCRIPTION
#-----------   ------------------   ----------------------------------
DEPT.M        00 001 00 00         : DEPTH        - DEPTH
GR  .API      00 310 00 00         : GR           - GAMMA RAY
ILD .OHMM     00 120 00 00         : RESD         - DEEP RESISTIVITY (DIL)
NPHI.V/V      00 330 00 00         : PHIN         - NEUTRON POROSITY (SANDSTONE)
DPHI.V/V      00 890 00 00         : PHID         - DENSITY POROSITY (SANDSTONE)
~PARAMETER INFORMATION
#MNEM.UNIT           DATA             DESCRIPTION OF MNEMONIC
#---------         -----------     ------------------------------
GL  .M        734.7                : gl           - GROUND LEVEL ELEVATION
EREF.M        737.96               : kb           - ELEVATION OF DEPTH REFERENCE
DATM.M        737.96               : datum        - DATUM ELEVATION
TDD .M        508                  : tdd          - TOTAL DEPTH DRILLER
RUN .         ONE                  : Run          - RUN NUMBER
ENG .         BILL                 : Engineer     - RECORDING ENGINEER
WIT .         JIM                  : Witness      - WITNESSED BY
MUD .         GEL                  : Mud_type     - MUD TYPE
MATR.         SANDSTONE            : Logunit      - NEUTRON MATRIX
TMAX.C        20                   : BHT          - MAXIMUM RECORDED TEMPERATURE
BHTD.M        508                  : BHTDEP       - MAXIMUM RECORDED TEMPERATURE
RMT .C        12                   : MDTP         - TEMPERATURE OF MUD
MUDD.KG/M     1150                 : MWT          - MUD DENSITY
NEUT.         1                    : NEUTRON      - NEUTRON TYPE
RESI.         0                    : RESIST       - RESISTIVITY TYPE
RM  .OHMM     1.01                 : RM           - RESISTIVITY OF MUD
RMC .OHMM     1.01                 : RMC          - RESISTIVITY OF MUD CAKE
RMF .OHMM     1.01                 : RMF          - RESISTIVITY OF MUD FILTRATE
SUFT.C        4                    : SUFT         - SURFACE TEMPERATURE
~A  DEPTH       GR     RESD     PHIN     PHID
# ...
  387.000   83.438    6.767    0.443    0.294
  387.250   87.142    6.561    0.458    0.298
  387.500   92.081    6.150    0.466    0.305
  387.750   94.549    5.740    0.473    0.311
  388.000   96.401    5.124    0.471    0.319
  388.250   99.487    4.714    0.469    0.325
  388.500  104.426    4.303    0.460    0.318
  388.750  111.835    3.688    0.450    0.305
  389.000  118.009    3.277    0.489    0.293
  389.250  124.184    3.071    0.544    0.281
  389.500  127.887    3.068    0.540    0.281
  389.750  129.121    3.271    0.533    0.279
  390.000  129.119    3.473    0.530    0.273
  390.250  128.500    3.879    0.526    0.267
  390.500  128.498    4.284    0.517    0.265
  390.750  127.879    4.487    0.514    0.265
  391.000  127.878    4.689    0.513    0.270
  391.250  127.876    5.094    0.513    0.273
  391.500  127.874    5.297    0.516    0.281
  391.750  127.873    5.295    0.528    0.281
  392.000  127.872    4.680    0.540    0.279
  392.250  125.400    4.065    0.547    0.277
  392.500  121.693    3.859    0.512    0.270
  392.750  111.193    3.243    0.453    0.263
  393.000  102.545    2.425    0.387    0.257
  393.250  113.042    3.034    0.383    0.255
  393.500  126.627    3.237    0.506    0.251
  393.750  132.183    3.643    0.540    0.257
  394.000  129.712    4.050    0.544    0.266
  394.250  126.005    4.660    0.532    0.271
  394.500  118.592    4.861    0.500    0.277
  394.750  115.503    4.860    0.502    0.283
  395.000  119.207    4.652    0.510    0.282
  395.250  120.440    4.447    0.511    0.276
  395.500  120.439    4.239    0.501    0.271
  395.750  118.584    4.238    0.483    0.267
  396.000  113.642    4.440    0.478    0.264
  396.250  109.317    4.845    0.478    0.261
  396.500  108.698    5.047    0.479    0.261
  396.750  107.461    5.454    0.481    0.267
  397.000  106.843    5.654    0.484    0.278
  397.250  104.988    5.245    0.480    0.287
  397.500  103.134    4.834    0.469    0.308
  397.750  101.897    4.627    0.460    0.313
  398.000  102.513    4.626    0.443    0.319
  398.250  106.835    4.826    0.447    0.314
  398.500  114.862    4.825    0.492    0.304
  398.750  117.947    4.823    0.531    0.292
  399.000  116.094    4.820    0.537    0.291
  399.250  114.239    4.819    0.515    0.297
  399.500  113.003    5.020    0.497    0.305
  399.750  111.148    5.222    0.494    0.312
  400.000  106.823    5.424    0.495    0.320
  400.250  103.117    5.626    0.490    0.328
  400.500  100.027    5.624    0.479    0.324
  400.750  100.026    5.213    0.470    0.319
  401.000  104.965    5.007    0.461    0.314
  401.250  108.669    5.004    0.459    0.306
  401.500  112.990    5.002    0.470    0.301
  401.750  115.458    5.000    0.486    0.301
  402.000  116.691    5.202    0.520    0.297
  402.250  116.691    5.200    0.532    0.292
  402.500  116.072    5.401    0.520    0.290
  402.750  115.452    5.400    0.509    0.296
  403.000  115.451    5.397    0.498    0.299
  403.250  114.831    5.599    0.495    0.301
  403.500  114.212    5.597    0.500    0.298
  403.750  113.593    5.595    0.522    0.296
  404.000  112.356    5.797    0.542    0.297
  404.250  111.737    5.795    0.543    0.302
  404.500  109.882    5.792    0.515    0.304
  404.750  109.881    5.790    0.500    0.306
  405.000  112.349    5.787    0.509    0.292
  405.250  113.584    5.785    0.532    0.277
  405.500  116.669    5.783    0.511    0.272
  405.750  117.903    5.781    0.496    0.271
  406.000  116.666    5.574    0.494    0.270
  406.250  117.282    4.550    0.480    0.265
  406.500  118.516    4.548    0.468    0.263
  406.750  119.749    4.546    0.458    0.264
  407.000  120.983    4.544    0.456    0.267
  407.250  123.452    4.746    0.458    0.269
  407.500  124.685    4.744    0.523    0.263
  407.750  126.536    4.741    0.523    0.256
  408.000  127.153    4.943    0.531    0.250
  408.250  130.239    4.941    0.539    0.242
  408.500  133.325    4.939    0.512    0.236
  408.750  135.177    4.527    0.509    0.234
  409.000  137.645    4.322    0.533    0.236
  409.250  139.496    4.116    0.539    0.237
  409.500  137.642    3.909    0.548    0.237
  409.750  133.934    3.907    0.546    0.233
  410.000  132.081    3.905    0.521    0.231
  410.250  128.991    3.902    0.506    0.224
  410.500  127.137    4.104    0.494    0.223
  410.750  128.371    4.102    0.498    0.223
  411.000  132.692    4.303    0.504    0.224
  411.250  135.160    4.302    0.511    0.223
  411.500  133.923    4.708    0.521    0.218
  411.750  130.216    5.318    0.520    0.212
  412.000  127.745    5.928    0.494    0.212
  412.250  130.214    6.539    0.474    0.218
  412.500  132.682    6.944    0.448    0.225
  412.750  132.681    7.147    0.453    0.227
  413.000  130.826    7.349    0.460    0.228
  413.250  129.590    7.754    0.460    0.228
  413.500  128.353    7.548    0.453    0.231
  413.750  127.116    7.137    0.442    0.234
  414.000  125.879    6.727    0.433    0.237
  414.250  124.643    6.724    0.442    0.241
  414.500  122.788    6.722    0.467    0.241
  414.750  121.552    6.720    0.469    0.237
  415.000  120.315    6.718    0.442    0.237
  415.250  119.078    6.919    0.431    0.238
  415.500  118.459    7.121    0.409    0.241
  415.750  117.222    6.915    0.407    0.241
  416.000  117.221    6.505    0.418    0.241
  416.250  116.602    6.093    0.424    0.239
  416.500  116.600    6.091    0.421    0.238
  416.750  116.599    6.294    0.415    0.243
  417.000  117.215    6.699    0.412    0.246
  417.250  118.448    7.106    0.403    0.252
  417.500  121.534    7.716    0.398    0.255
  417.750  121.532    7.714    0.404    0.250
  418.000  120.914    7.302    0.430    0.246
  418.250  119.059    7.097    0.438    0.238
  418.500  118.440    6.686    0.433    0.232
  418.750  117.203    6.276    0.428    0.231
  419.000  116.585    6.069    0.426    0.231
  419.250  119.053    5.863    0.429    0.233
  419.500  122.757    5.655    0.441    0.236
  419.750  124.608    5.450    0.450    0.241
  420.000  123.371    5.447    0.455    0.246
  420.250  120.899    5.445    0.449    0.253
  420.500  120.280    5.646    0.445    0.255
  420.750  120.896    5.645    0.452    0.259
  421.000  122.130    5.643    0.468    0.260
  421.250  123.363    5.436    0.471    0.262
  421.500  123.979    5.230    0.459    0.259
  421.750  124.595    5.023    0.463    0.255
  422.000  123.359    5.021    0.491    0.254
  422.250  120.887    5.019    0.499    0.253
  422.500  119.650    5.016    0.509    0.252
  422.750  119.031    5.217    0.504    0.255
  423.000  118.412    5.216    0.491    0.263
  423.250  118.410    5.622    0.478    0.271
  423.500  118.408    5.824    0.466    0.279
  423.750  118.407    5.821    0.456    0.280
  424.000  117.788    5.410    0.450    0.272
  424.250  117.168    5.409    0.440    0.268
  424.500  117.784    4.997    0.429    0.260
  424.750  120.871    4.792    0.420    0.257
  425.000  122.722    4.381    0.491    0.264
  425.250  122.103    4.174    0.502    0.272
  425.500  120.866    3.763    0.504    0.281
  425.750  119.011    3.762    0.505    0.285
  426.000  118.393    3.759    0.512    0.285
  426.250  118.391    3.552    0.520    0.275
  426.500  119.007    3.551    0.531    0.267
  426.750  119.623    3.549    0.547    0.258
  427.000  121.475    3.751    0.567    0.264
  427.250  125.178    3.748    0.582    0.270
  427.500  126.411    3.746    0.582    0.274
  427.750  126.410    3.948    0.574    0.277
  428.000  125.173    4.150    0.568    0.277
  428.250  123.937    4.556    0.564    0.278
  428.500  123.935    4.758    0.563    0.275
  428.750  124.551    4.959    0.563    0.273
  429.000  125.785    5.162    0.562    0.267
  429.250  127.635    5.568    0.550    0.262
  429.500  130.104    5.769    0.499    0.256
  429.750  130.720    6.175    0.478    0.246
  430.000  130.719    6.582    0.471    0.231
  430.250  128.246    6.783    0.455    0.217
