~VERSION INFORMATION
 VERS.                 2.0:   CWLS LOG ASCII STANDARD -VERSION 2.0
 WRAP.                  NO:   ONE LINE PER DEPTH STEP
~WELL INFORMATION BLOCK
#MNEM.UNIT           DATA                    DESCRIPTION OF MNEMONIC
#---------    -------------------            -------------------------------
# Generated from Intellog Unique Number	CX_WELLS/WELL/3822
WELL.         REGENT HORSE                   : Well_name    - WELL
LOC .         AA/16-34-086-12W4/0            : Location     - LOCATION
UWI .         AA/16-34-086-12W400            : Uwi          - UNIQUE WELL ID
ENTR.         T                              : Entered      - ENTERED BY
SRVC.         SCHLUMBERGER                   : Scn          - SERVICE COMPANY
STRT.F        150                            : top_depth    - START DEPTH
STOP.F        639.665                        : bot_depth    - STOP DEPTH
STEP.F        0.82                           : increment    - STEP LENGTH
 NULL. -999.2500:NULL Value
~CURVE INFORMATION BLOCK
#MNEM UNIT       ERCB CURVE CODE    CURVE DESCRIPTION
#-----------   ------------------   ----------------------------------
DEPT.F        00 001 00 00         : DEPTH        - DEPTH
GR  .API      00 310 00 00         : GR           - GAMMA RAY
NPHI.V/V      00 330 00 00         : PHIN         - NEUTRON POROSITY (SANDSTONE)
ILD .OHMM     00 120 00 00         : RESD         - DEEP RESISTIVITY (DIL)
~PARAMETER INFORMATION
#MNEM.UNIT           DATA             DESCRIPTION OF MNEMONIC
#---------         -----------     ------------------------------
GL  .F        1515                 : gl           - GROUND LEVEL ELEVATION
EREF.F        1515                 : kb           - ELEVATION OF DEPTH REFERENCE
DATM.F        1515                 : datum        - DATUM ELEVATION
TDD .F        647                  : tdd          - TOTAL DEPTH DRILLER
RUN .         ONE                  : Run          - RUN NUMBER
ENG .         BILL                 : Engineer     - RECORDING ENGINEER
WIT .         JIM                  : Witness      - WITNESSED BY
MUD .         GEL                  : Mud_type     - MUD TYPE
MATR.         SANDSTONE            : Logunit      - NEUTRON MATRIX
TMAX.F        58                   : BHT          - MAXIMUM RECORDED TEMPERATURE
BHTD.F        647                  : BHTDEP       - MAXIMUM RECORDED TEMPERATURE
MATR.         1                    : LOGUNIT      - NEUTRON MATRIX
RMT .F        50                   : MDTP         - TEMPERATURE OF MUD
NEUT.         1                    : NEUTRON      - NEUTRON TYPE
RESI.         2.6                  : RESIST       - RESISTIVITY TYPE
RMC .OHMM     0.25                 : RMC          - RESISTIVITY OF MUD CAKE
RMF .OHMM     2.9                  : RMF          - RESISTIVITY OF MUD FILTRATE
SUFT.F        39.2                 : SUFT         - SURFACE TEMPERATURE
~A  DEPTH       GR     PHIN     RESD
# ...
  505.971  112.989    0.500   10.359
  506.791  116.459    0.495   10.387
  507.612  121.245    0.494   10.239
  508.432  113.168    0.495   10.267
  509.252  107.245    0.495   10.471
  510.072   97.885    0.495   11.595
  510.892   92.390    0.479   13.091
  511.713   88.162    0.463   15.128
  512.533   86.089    0.425   16.273
  513.353   86.598    0.395   16.287
  514.173   90.085    0.394   16.315
  514.993   92.716    0.407   16.533
  515.814   94.080    0.411   16.736
  516.634   84.720    0.405   17.326
  517.454   78.354    0.372   18.268
  518.274   67.710    0.314   19.202
  519.094   58.778   -0.009   49.233
  519.915   56.721   -0.006   43.957
  520.735   56.802    0.004   42.334
  521.555   55.584    0.045   43.465
  522.375   55.222    0.121   42.025
  523.196   55.714    0.141   36.384
  524.016   57.046    0.166   20.866
  524.836   58.822    0.206   18.344
  525.656   62.325    0.235   17.452
  526.476   64.545    0.269   16.932
  527.297   66.749    0.293   17.332
  528.117   68.097    0.336   18.084
  528.937   66.435    0.344   19.945
  529.757   62.239    0.367   20.711
  530.577   59.294    0.360   19.636
  531.398   55.510    0.348   17.107
  532.218   52.565    0.329   15.681
  533.038   57.779    0.339   15.709
  533.858   65.559    0.347   15.920
  534.678   63.518    0.357   15.941
  535.499   61.412    0.363   16.151
  536.319   58.484    0.357   16.186
  537.139   56.410    0.349   16.214
  537.959   57.758    0.343   16.249
  538.780   59.107    0.350   16.263
  539.600   61.327    0.367   16.305
  540.420   64.813    0.377   16.509
  541.240   67.033    0.373   16.902
  542.060   67.510    0.365   17.303
  542.881   68.446    0.362   17.506
  543.701   68.923    0.362   17.534
  544.521   70.304    0.363   17.576
  545.341   70.796    0.364   17.597
  546.161   69.562    0.368   17.625
  546.982   67.505    0.371   17.843
  547.802   66.699    0.375   18.243
  548.622   65.086    0.376   18.447
  549.442   64.707    0.370   18.475
  550.262   65.216    0.367   18.327
  551.083   65.676    0.367   17.990
  551.903   67.041    0.367   17.835
  552.723   69.228    0.367   17.681
  553.543   76.580    0.366   17.526
  554.364   87.353    0.373   17.379
  555.184   94.706    0.388   17.034
  556.004  100.363    0.402   16.690
  556.824   99.162    0.411   15.994
  557.644   98.799    0.414   15.475
  558.465   99.687    0.410   15.868
  559.285  101.891    0.411   17.181
  560.105  104.094    0.416   17.392
  560.925  106.330    0.420   17.603
  561.745  107.251    0.425   17.820
  562.566  107.332    0.431   17.652
  563.386  106.937    0.438   16.956
  564.206  103.597    0.441   16.612
  565.026  101.080    0.434   16.282
  565.846   98.579    0.436   16.675
  566.667   99.943    0.442   16.886
  567.487  101.291    0.452   16.914
  568.307  102.640    0.461   16.576
  569.127  104.859    0.467   16.239
  569.948  106.208    0.462   16.267
  570.768  104.990    0.455   16.112
  571.588  104.611    0.445   15.965
  572.408  102.965    0.440   15.986
  573.228  101.747    0.431   15.845
  574.049  101.829    0.415   15.866
  574.869  102.749    0.398   16.077
  575.689  104.097    0.392   17.931
  576.509  104.574    0.405   17.053
  577.329  105.527    0.407   16.526
  578.150  106.020    0.411   16.561
  578.970  106.924    0.431   16.407
  579.790  107.845    0.432   16.442
  580.610  107.071    0.434   16.463
  581.430  106.280    0.435   16.512
  582.251  105.918    0.433   16.533
  583.071  107.266    0.424   16.547
  583.891  109.042    0.420   16.771
  584.711  109.962    0.423   16.792
  585.531  107.905    0.418   16.820
  586.352  106.671    0.410   16.673
  587.172  105.913    0.409   16.708
  587.992  105.518    0.416   16.729
  588.812  106.455    0.421   16.757
  589.633  106.932    0.428   16.602
  590.453  107.457    0.428   16.630
  591.273  107.078    0.428   16.468
  592.093  107.160    0.433   16.686
  592.913  107.225    0.435   16.721
  593.734  108.162    0.433   16.567
  594.554  109.049    0.431   16.412
  595.374  111.681    0.437   16.440
  596.194  113.473    0.445   16.292
  597.014  113.110    0.456   16.313
  597.835  113.208    0.459   16.159
  598.655  111.990    0.456   16.004
  599.475  111.167    0.446   16.032
  600.295  106.956    0.437   16.250
  601.115  102.727    0.435   16.826
  601.936   89.090    0.431   17.212
  602.756   68.594    0.428   18.160
  603.576   60.533    0.407   18.919
  604.396   56.749    0.368   21.321
  605.217   54.248    0.339   40.555
  606.037   56.024    0.329   40.962
  606.857   60.382    0.322   42.262
  607.677   63.030    0.314   43.203
  608.497   65.217    0.333   39.396
  609.318   68.720    0.347   37.956
  610.138   69.229    0.348   29.947
  610.958   67.123    0.348   31.247
  611.778   63.339    0.342   30.361
  612.598   59.144    0.330   29.849
  613.419   57.482    0.319   29.322
  614.239   57.974    0.288   27.523
  615.059   58.040    0.288   26.273
  615.879   55.555    0.308   24.474
  616.699   54.321    0.303   21.573
  617.520   52.247    0.293   21.601
  618.340   51.457    0.281   23.097
  619.160   51.127    0.282   23.856
  619.980   51.176    0.278   23.701
  620.801   51.653    0.269   24.277
  621.621   52.162    0.263   24.867
  622.441   52.654    0.274   23.968
  623.261   53.591    0.304   21.811
  624.081   55.795    0.313   20.553
  624.902   57.982    0.340   19.120
  625.722   66.189    0.348   17.870
  626.542   79.529    0.374   16.619
  627.362   90.747    0.389   15.727
  628.182   82.242    0.403   16.317
  629.003   76.303    0.400   17.076
  629.823   75.513    0.409   16.745
  630.643   85.431    0.416   16.584
  631.463   92.356    0.423   16.429
  632.283  100.991    0.435   17.736
  633.104  114.330    0.454   20.321
  633.924  114.840    0.449   23.826
  634.744  113.605    0.439   23.489
  635.564  111.532    0.430   22.055
  636.385  110.758    0.424   21.177
  637.205  110.379    0.407   20.285
  638.025  109.589    0.319   16.471
  638.845  109.654    0.287   14.489
  639.665  110.607    0.155   13.056
