~VERSION INFORMATION
 VERS.                 2.0:   CWLS LOG ASCII STANDARD -VERSION 2.0
 WRAP.                  NO:   ONE LINE PER DEPTH STEP
~WELL INFORMATION BLOCK
#MNEM.UNIT           DATA                    DESCRIPTION OF MNEMONIC
#---------    -------------------            -------------------------------
# Generated from Intellog Unique Number	CN_94_101/WELL/5007
WELL.         10-29-097-06W4                 : Well_name    - WELL
LOC .         AA/10-29-097-06W4/0            : Location     - LOCATION
UWI .         AA/10-29-097-06W400            : Uwi          - UNIQUE WELL ID
ENTR.         JOETTE                         : Entered      - ENTERED BY
SRVC.         SCHLUMBERGER                   : Scn          - SERVICE COMPANY
DATE.         08/11/92                       : Date         - LOG DATE
STRT.M        0                              : top_depth    - START DEPTH
STOP.M        100                            : bot_depth    - STOP DEPTH
STEP.M        0.25                           : increment    - STEP LENGTH
 NULL. -999.2500:NULL Value
~CURVE INFORMATION BLOCK
#MNEM UNIT       ERCB CURVE CODE    CURVE DESCRIPTION
#-----------   ------------------   ----------------------------------
DEPT.M        00 001 00 00         : DEPTH        - DEPTH
DPHI.V/V      00 890 00 00         : PHID         - DENSITY POROSITY (SANDSTONE)
NPHI.V/V      00 330 00 00         : PHIN         - NEUTRON POROSITY (SANDSTONE)
GR  .API      00 310 00 00         : GR           - GAMMA RAY
ILD .OHMM     00 120 00 00         : RESD         - DEEP RESISTIVITY (DIL)
~PARAMETER INFORMATION
#MNEM.UNIT           DATA             DESCRIPTION OF MNEMONIC
#---------         -----------     ------------------------------
GL  .M        345.1                : gl           - GROUND LEVEL ELEVATION
EREF.M        345.1                : kb           - ELEVATION OF DEPTH REFERENCE
DATM.M        345.1                : datum        - DATUM ELEVATION
TDD .M        105.1                : tdd          - TOTAL DEPTH DRILLER
RUN .         ONE                  : Run          - RUN NUMBER
ENG .         BILL                 : Engineer     - RECORDING ENGINEER
WIT .         JIM                  : Witness      - WITNESSED BY
MUD .         GEL                  : Mud_type     - MUD TYPE
MATR.         SANDSTONE            : Logunit      - NEUTRON MATRIX
TMAX.C        10                   : BHT          - MAXIMUM RECORDED TEMPERATURE
BHTD.M        105.1                : BHTDEP       - MAXIMUM RECORDED TEMPERATURE
RMT .C        17.3                 : MDTP         - TEMPERATURE OF MUD
MUDD.KG/M     1130                 : MWT          - MUD DENSITY
NEUT.         1                    : NEUTRON      - NEUTRON TYPE
RESI.         0                    : RESIST       - RESISTIVITY TYPE
RM  .OHMM     8.25                 : RM           - RESISTIVITY OF MUD
RMC .OHMM     7.89                 : RMC          - RESISTIVITY OF MUD CAKE
RMF .OHMM     6.89                 : RMF          - RESISTIVITY OF MUD FILTRATE
SUFT.C        4                    : SUFT         - SURFACE TEMPERATURE
~A  DEPTH     PHID     PHIN       GR     RESD
    0.000    0.007    0.109   43.212   19.532
    0.250    0.007    0.106   43.251   19.855
    0.500    0.008    0.104   43.289   19.597
    0.750    0.011    0.101   44.561   19.349
    1.000    0.007    0.100   45.217   19.371
    1.250    0.004    0.131   41.544   18.871
    1.500    0.006    0.127   39.124   18.892
    1.750    0.008    0.118   41.630   18.912
    2.000    0.009    0.114   41.669   18.947
    2.250    0.009    0.112   39.230   18.982
    2.500    0.008    0.099   40.512   19.003
    2.750    0.006    0.474   40.550   18.763
    3.000    0.001    0.495   38.112   18.791
    3.250   -0.001    0.489   39.384   18.818
    3.500   -0.004    0.436   41.283   18.846
    3.750   -0.004    0.418   41.311   18.615
    4.000   -0.004    0.431   40.116   18.629
    4.250   -0.003    0.451   38.921   18.663
    4.500   -0.002    0.419   37.725   18.683
    4.750    0.001    0.431   37.147   18.711
    5.000    0.007    0.461   34.718   18.475
    5.250    0.008    0.435   40.308   18.502
    5.500    0.014    0.459   45.899   18.543
    5.750    0.010    0.444   37.310   18.563
    6.000    0.008    0.434   36.115   18.591
    6.250    0.005    0.433   36.780   18.611
    6.500    0.006    0.436   36.799   18.645
    6.750    0.009    0.444   37.454   18.673
    7.000    0.015    0.474   43.054   18.694
    7.250    0.017    0.476   37.531   18.728
    7.500    0.007    0.482   33.878   18.769
    7.750    0.007    0.480   36.384   18.783
    8.000    0.015    0.459   37.039   18.825
    8.250    0.017    0.488   34.600   18.846
    8.500    0.021    0.507   36.489   18.866
    8.750    0.014    0.510   38.388   18.901
    9.000    0.007    0.513   34.715   18.929
    9.250    0.003    0.492   33.539   19.221
    9.500   -0.001    0.494   36.026   19.249
    9.750   -0.002    0.498   36.074   19.277
   10.000    0.000    0.499   35.505   19.306
   10.250    0.010    0.472   38.002   19.334
   10.500    0.015    0.469   41.742   19.363
   10.750    0.016    0.483   39.312   19.405
   11.000    0.013    0.473   36.893   19.420
   11.250    0.010    0.454   38.772   19.181
   11.500    0.002    0.463   43.129   19.203
   11.750   -0.001    0.471   38.242   19.231
   12.000   -0.004    0.462   35.196   19.259
   12.250   -0.006    0.439   37.085   19.016
   12.500   -0.007    0.431   38.965   19.044
   12.750   -0.007    0.451   37.769   19.079
   13.000   -0.004    0.430   38.434   19.100
   13.250   -0.001    0.443   38.472   19.142
   13.500    0.006    0.443   36.660   18.894
   13.750    0.013    0.425   35.465   18.928
   14.000    0.015    0.437   37.961   18.949
   14.250    0.013    0.434   43.552   18.984
   14.500    0.010    0.434   45.450   18.731
   14.750    0.005    0.463   46.096   18.779
   15.000    0.005    0.489   49.219   18.800
   15.250    0.010    0.480   42.472   18.555
   15.500    0.015    0.461   37.575   18.576
   15.750    0.027    0.490   38.847   18.603
   16.000    0.051    0.487   38.886   18.375
   16.250    0.054    0.465   38.307   18.409
   16.500    0.059    0.462   37.729   18.423
   16.750    0.068    0.432   36.533   18.190
   17.000    0.089    0.430   37.198   18.217
   17.250    0.094    0.427   38.470   18.250
   17.500    0.107    0.402   43.454   18.277
   17.750    0.134    0.399   50.885   18.304
   18.000    0.175    0.385   59.560   18.858
   18.250    0.189    0.427   68.862   57.113
   18.500    0.204    0.506   70.134  423.138
   18.750    0.236    0.540   75.098  570.989
   19.000    0.243    0.582   83.783  748.677
   19.250    0.253    0.609   82.588 1115.720
   19.500    0.267    0.494   79.551 1616.210
   19.750    0.281    0.459   74.645 2514.190
   20.000    0.289    0.419   67.271 2214.540
   20.250    0.307    0.390   67.926 1512.240
   20.500    0.310    0.380   81.546 1493.140
   20.750    0.300    0.378   78.500 1583.200
   21.000    0.307    0.409   69.902 1541.190
   21.250    0.317    0.441   65.005 1457.800
   21.500    0.323    0.395   73.680 1114.680
   21.750    0.313    0.409   84.823  431.314
   22.000    0.291    0.436   81.777  364.351
   22.250    0.289    0.453   76.263  558.599
   22.500    0.324    0.480   73.843  635.585
   22.750    0.323    0.564   76.340  345.781
   23.000    0.315    0.433   68.358  313.563
   23.250    0.329    0.408   64.705  236.470
   23.500    0.368    0.449   80.783  202.537
   23.750    0.338    0.491   80.812  430.436
   24.000    0.310    0.488   63.577  623.291
   24.250    0.341    0.564   50.034  772.468
   24.500    0.325    0.516   46.371 1404.020
   24.750    0.316    0.452   43.941 1739.410
   25.000    0.298    0.363   33.492 2155.720
   25.250    0.295    0.375   31.063 2787.790
   25.500    0.287    0.370   30.485 3126.180
   25.750    0.282    0.342   28.672 3985.860
   26.000    0.281    0.312   31.796 4346.280
   26.250    0.282    0.291   37.396 4947.100
   26.500    0.282    0.294   41.136 4884.620
   26.750    0.280    0.302   38.706 4620.330
   27.000    0.278    0.306   34.417 4189.830
   27.250    0.267    0.299   32.605 3297.060
   27.500    0.252    0.296   33.260 3164.380
   27.750    0.244    0.312   34.532 3354.010
   28.000    0.243    0.297   43.217 3657.300
   28.250    0.250    0.314   46.957 4220.780
   28.500    0.275    0.377   42.069 4872.880
   28.750    0.282    0.357   39.631 5389.400
   29.000    0.295    0.349   35.968 5714.490
   29.250    0.301    0.336   32.931 5644.390
   29.500    0.304    0.366   33.587 5490.580
   29.750    0.319    0.404   33.625 5197.320
   30.000    0.319    0.417   34.897 5204.980
   30.250    0.309    0.382   38.020 5516.910
   30.500    0.300    0.357   40.526 5681.900
   30.750    0.303    0.328   40.555 5856.150
   31.000    0.305    0.321   39.369 5864.770
   31.250    0.303    0.318   38.791 5871.250
   31.500    0.298    0.311   36.969 5879.900
   31.750    0.288    0.312   34.540 5888.560
   32.000    0.281    0.316   33.354 5732.310
   32.250    0.287    0.310   32.766 5505.680
   32.500    0.291    0.310   32.814 5355.640
   32.750    0.298    0.326   32.852 5444.150
   33.000    0.297    0.348   34.124 5684.970
   33.250    0.295    0.338   36.014 5942.990
   33.500    0.295    0.332   40.361 5953.940
   33.750    0.299    0.351   37.932 5958.320
   34.000    0.297    0.359   36.129 5718.540
   34.250    0.293    0.348   41.710 5490.430
   34.500    0.291    0.344   41.748 5344.740
   34.750    0.294    0.366   43.637 5585.270
   35.000    0.304    0.351   42.442 5671.310
   35.250    0.306    0.349   43.724 5928.710
   35.500    0.300    0.379   48.698 6108.270
   35.750    0.301    0.372   45.035 6293.270
   36.000    0.304    0.359   43.222 6394.920
   36.250    0.305    0.348   38.942 6401.980
   36.500    0.299    0.341   35.270 6411.410
   36.750    0.294    0.348   32.243 6155.660
   37.000    0.296    0.342   32.889 6075.680
   37.250    0.297    0.332   32.937 5916.640
   37.500    0.286    0.322   33.582 5759.650
   37.750    0.256    0.309   34.238 5766.010
   38.000    0.234    0.297   34.893 5613.010
   38.250    0.225    0.284   36.175 5311.270
   38.500    0.226    0.269   36.830 4885.190
   38.750    0.211    0.247   38.719 4491.640
   39.000    0.202    0.243   40.608 3959.220
   39.250    0.202    0.268   44.956 3115.590
   39.500    0.218    0.274   57.949 1534.230
   39.750    0.263    0.272   74.037  459.903
   40.000    0.275    0.307   82.095  523.287
   40.250    0.269    0.387   86.461  657.792
   40.500    0.258    0.533   81.555  925.876
   40.750    0.265    0.555   71.106 1099.670
   41.000    0.277    0.524   61.274 3949.710
   41.250    0.291    0.441   51.432 5254.740
   41.500    0.281    0.410   40.366 5491.220
   41.750    0.265    0.358   36.703 5423.860
   42.000    0.236    0.330   39.209 5060.000
   42.250    0.229    0.302   38.014 4787.990
   42.500    0.221    0.294   33.734 4725.770
   42.750    0.197    0.264   31.305 4734.480
   43.000    0.192    0.257   34.437 4879.670
   43.250    0.186    0.225   35.700 4953.010
