~VERSION INFORMATION
 VERS.                 2.0:   CWLS LOG ASCII STANDARD -VERSION 2.0
 WRAP.                  NO:   ONE LINE PER DEPTH STEP
~WELL INFORMATION BLOCK
#MNEM.UNIT           DATA                    DESCRIPTION OF MNEMONIC
#---------    -------------------            -------------------------------
# Generated from Intellog Unique Number	CC_88_90/WELL/3772
WELL.         CAN. KEWANEE MUCLUC            : Well_name    - WELL
LOC .         AA/16-33-088-14W4/0            : Location     - LOCATION
UWI .         AA/16-33-088-14W400            : Uwi          - UNIQUE WELL ID
ENTR.         T                              : Entered      - ENTERED BY
SRVC.         SCHLUMBERGER                   : Scn          - SERVICE COMPANY
DATE.         03/02/92                       : Date         - LOG DATE
STRT.M        45.72                          : top_depth    - START DEPTH
STOP.M        216.47                         : bot_depth    - STOP DEPTH
STEP.M        0.25                           : increment    - STEP LENGTH
 NULL. -999.2500:NULL Value
~CURVE INFORMATION BLOCK
#MNEM UNIT       ERCB CURVE CODE    CURVE DESCRIPTION
#-----------   ------------------   ----------------------------------
DEPT.M        00 001 00 00         : DEPTH        - DEPTH
GR  .API      00 310 00 00         : GR           - GAMMA RAY
ILD .OHMM     00 120 00 00         : RESD         - DEEP RESISTIVITY (DIL)
NPHI.V/V      00 330 00 00         : PHIN         - NEUTRON POROSITY (SANDSTONE)
~PARAMETER INFORMATION
#MNEM.UNIT           DATA             DESCRIPTION OF MNEMONIC
#---------         -----------     ------------------------------
GL  .M        499.872              : gl           - GROUND LEVEL ELEVATION
EREF.M        499.872              : kb           - ELEVATION OF DEPTH REFERENCE
DATM.M        499.872              : datum        - DATUM ELEVATION
TDD .M        220.37               : tdd          - TOTAL DEPTH DRILLER
RUN .         ONE                  : Run          - RUN NUMBER
ENG .         BILL                 : Engineer     - RECORDING ENGINEER
WIT .         JIM                  : Witness      - WITNESSED BY
MUD .         GEL                  : Mud_type     - MUD TYPE
MATR.         SANDSTONE            : Logunit      - NEUTRON MATRIX
TMAX.C        11.1111              : BHT          - MAXIMUM RECORDED TEMPERATURE
BHTD.M        220.37               : BHTDEP       - MAXIMUM RECORDED TEMPERATURE
RMT .C        11.1111              : MDTP         - TEMPERATURE OF MUD
MUDD.KG/M     1.18                 : MWT          - MUD DENSITY
NEUT.         1                    : NEUTRON      - NEUTRON TYPE
RESI.         0                    : RESIST       - RESISTIVITY TYPE
RM  .OHMM     10.8                 : RM           - RESISTIVITY OF MUD
RMC .OHMM     7.5                  : RMC          - RESISTIVITY OF MUD CAKE
RMF .OHMM     7.5                  : RMF          - RESISTIVITY OF MUD FILTRATE
SUFT.C        4                    : SUFT         - SURFACE TEMPERATURE
~A  DEPTH       GR     RESD     PHIN
   45.720   76.598    5.474    0.486
   45.970   76.126    5.775    0.486
   46.220   76.126    5.924    0.492
   46.470   75.654    6.074    0.487
   46.720   75.181    6.373    0.478
   46.970   74.709    6.674    0.473
   47.220   74.237    6.674    0.465
   47.470   74.746    6.751    0.460
   47.720   74.746    6.607    0.469
   47.970   75.256    5.500    0.476
   48.220   75.284    5.208    0.480
   48.470   75.284    5.208    0.477
   48.720   74.812    4.844    0.475
   48.970   73.849    4.773    0.466
   49.220   74.358    4.777    0.466
   49.470   74.358    4.780    0.461
   49.720   76.349    4.932    0.466
   49.970   76.349    4.932    0.469
   50.220   75.886    5.083    0.476
   50.470   75.914    5.382    0.480
   50.720   75.914    5.682    0.485
   50.970   75.933    5.682    0.478
   51.220   75.951    5.983    0.476
   51.470   75.970    6.282    0.470
   51.720   76.470    6.433    0.463
   51.970   76.489    6.583    0.454
   52.220   76.507    6.956    0.438
   52.470   75.535    7.255    0.438
   52.720   71.136    8.072    0.435
   52.970   70.164   13.473    0.430
   53.220   67.238   18.507    0.422
   53.470   66.266   18.436    0.416
   53.720   63.831   18.292    0.410
   53.970   61.395   18.292    0.404
   54.220   59.442   18.222    0.394
   54.470   55.534   18.521    0.385
   54.720   45.737   18.968    0.390
   54.970   45.737   19.267    0.413
   55.220   46.247   19.417    0.423
   55.470   51.664   18.977    0.431
   55.720   51.664   18.018    0.408
   55.970   53.655   16.615    0.412
   56.220   54.164   14.621    0.419
   56.470   54.183   14.181    0.418
   56.720   54.192   15.515    0.415
   56.970   53.229   16.628    0.410
   57.220   52.757   20.181    0.407
   57.470   53.266   22.180    0.400
   57.720   53.776   23.588    0.405
   57.970   53.776   25.663    0.408
   58.220   54.285   24.261    0.416
   58.470   54.794   20.271    0.421
   58.720   55.794   20.790    0.421
   58.970   56.785   22.050    0.418
   59.220   59.267   23.458    0.415
   59.470   59.267   23.314    0.411
   59.720   59.776   22.576    0.403
   59.970   60.777   20.435    0.391
   60.220   61.286   19.034    0.394
   60.470   61.795   20.737    0.409
   60.720   62.295   21.628    0.419
   60.970   61.333   18.228    0.432
   61.220   60.360   16.234    0.440
   61.470   58.907   13.353    0.432
   61.720   59.416   12.543    0.423
   61.970   61.388   12.914    0.424
   62.220   66.815   13.509    0.430
   62.470   65.843   13.956    0.433
   62.720   63.898   14.773    0.425
   62.970   62.935   15.442    0.411
   63.220   62.935   16.185    0.406
   63.470   63.935   17.075    0.406
   63.720   62.482   18.409    0.402
   63.970   62.482   18.041    0.402
   64.220   60.056   16.788    0.408
   64.470   60.056   14.129    0.413
   64.720   57.139   13.761    0.416
   64.970   56.667   12.802    0.421
   65.220   56.685   12.288    0.426
   65.470   56.704   13.253    0.432
   65.720   57.695   13.626    0.442
   65.970   58.695   13.408    0.437
   66.220   58.695   11.781    0.423
   66.470   66.084    8.235    0.423
   66.720   64.631    7.054    0.426
   66.970   63.668    5.208    0.433
   67.220   62.705    5.211    0.437
   67.470   62.223    5.211    0.456
   67.720   63.224    5.439    0.456
   67.970   64.214    5.146    0.456
   68.220   71.104    5.298    0.458
   68.470   74.067    5.447    0.461
   68.720   75.558    5.747    0.466
   68.970   77.040    5.898    0.470
   69.220   79.512    5.902    0.470
   69.470   79.512    5.831    0.476
   69.720   80.031    5.759    0.481
   69.970   79.068    5.759    0.484
   70.220   79.068    5.986    0.484
   70.470   78.114    6.359    0.480
   70.720   78.133    6.512    0.473
   70.970   78.642    6.366    0.469
   71.220   78.170    6.220    0.462
   71.470   77.198    5.337    0.454
   71.720   75.744    5.043    0.459
   71.970   74.281    4.751    0.467
   72.220   72.337    4.531    0.478
   72.470   72.846    4.239    0.478
   72.720   75.309    4.094    0.487
   72.970   82.689    4.098    0.479
   73.220   86.634    4.101    0.470
   73.470   89.106    4.101    0.464
   73.720   89.125    4.253    0.464
   73.970   88.153    4.404    0.460
   74.220   87.190    4.404    0.456
   74.470   84.255    4.557    0.449
   74.720   79.856    4.561    0.441
   74.970   77.912    4.565    0.439
   75.220   77.912    4.568    0.436
   75.470   77.439    4.350    0.443
   75.720   76.967    4.204    0.457
   75.970   74.532    4.281    0.462
   76.220   74.051    4.505    0.457
   76.470   71.615    5.100    0.441
   76.720   70.643    7.616    0.428
   76.970   68.699   10.579    0.402
   77.220   65.773   14.575    0.383
   77.470   64.310   16.798    0.375
   77.720   64.310   16.652    0.383
   77.970   61.393   16.286    0.387
   78.220   56.995   15.992    0.393
   78.470   55.050   15.992    0.398
   78.720   54.078   15.554    0.396
   78.970   53.605   16.225    0.396
   79.220   53.624   16.005    0.393
   79.470   53.624   15.711    0.393
   79.720   54.143   15.123    0.394
   79.970   54.161   15.123    0.395
   80.220   54.180   14.833    0.395
   80.470   54.180   14.393    0.398
   80.720   54.199   14.173    0.399
   80.970   54.217   13.585    0.400
   81.220   54.236   13.291    0.398
   81.470   54.236   12.925    0.394
   81.720   54.264   12.557    0.387
   81.970   54.264   13.374    0.374
   82.220   53.801   13.897    0.372
   82.470   53.819   14.048    0.372
   82.720   53.347   14.198    0.368
   82.970   52.384   14.127    0.370
   83.220   52.384   13.981    0.377
   83.470   51.421   13.392    0.379
   83.720   48.986   12.286    0.387
   83.970   45.569   11.992    0.392
   84.220   43.615   11.628    0.397
   84.470   45.106   11.482    0.406
   84.720   46.097   11.412    0.415
   84.970   48.079   11.412    0.417
   85.220   49.079   11.267    0.409
   85.470   51.061   11.123    0.405
   85.720   52.052   10.979    0.409
   85.970   54.033   10.907    0.414
   86.220   54.543   10.762    0.412
   86.470   54.561   10.762    0.412
   86.720   54.089   10.620    0.401
   86.970   54.089   10.697    0.399
   87.220   54.108   10.697    0.394
   87.470   55.108   10.629    0.391
   87.720   55.108   10.485    0.392
   87.970   55.145   10.340    0.401
   88.220   54.664   10.268    0.415
   88.470   55.664   10.124    0.418
   88.720   57.636    9.978    0.414
   88.970   60.599    9.686    0.408
   89.220   59.637    9.686    0.398
   89.470   57.683    9.469    0.381
   89.720   54.266    9.547    0.363
   89.970   52.803    9.846    0.365
   90.220   51.840    9.995    0.371
   90.470   51.368    9.703    0.377
   90.720   49.905    9.559    0.400
   90.970   47.960    9.413    0.414
   91.220   48.470    9.269    0.419
   91.470   49.461    9.269    0.417
   91.720   50.952    9.126    0.417
   91.970   50.952    9.058    0.414
   92.220   52.461    9.058    0.405
   92.470   51.989    8.987    0.396
   92.720   51.507    8.919    0.396
   92.970   51.035    8.919    0.395
   93.220   51.054    8.922    0.402
   93.470   51.054    8.926    0.402
   93.720   52.054    8.929    0.407
   93.970   52.563    9.007    0.407
   94.220   52.563    9.084    0.408
   94.470   53.573    9.084    0.406
   94.720   52.610    9.162    0.401
   94.970   52.138    9.241    0.395
   95.220   52.156    9.241    0.392
   95.470   52.656    9.170    0.390
   95.720   51.203    9.174    0.393
   95.970   50.240    9.178    0.398
   96.220   49.267    9.255    0.407
   96.470   48.304    9.332    0.408
   96.720   48.323    9.332    0.410
   96.970   48.323    9.410    0.408
   97.220   48.833    9.487    0.403
   97.470   49.833    9.639    0.391
   97.720   50.833    9.642    0.391
   97.970   51.824    9.720    0.393
   98.220   53.805    9.797    0.399
   98.470   55.787    9.797    0.404
   98.720   55.806    9.875    0.406
   98.970   54.833    9.952    0.403
   99.220   52.889   10.030    0.398
   99.470   52.907   10.033    0.393
   99.720   53.908   10.033    0.398
