~VERSION INFORMATION
 VERS.                 2.0:   CWLS LOG ASCII STANDARD -VERSION 2.0
 WRAP.                  NO:   ONE LINE PER DEPTH STEP
~WELL INFORMATION BLOCK
#MNEM.UNIT           DATA                    DESCRIPTION OF MNEMONIC
#---------    -------------------            -------------------------------
# Generated from Intellog Unique Number	CN_94_101/WELL/1075
WELL.         11-32-094-06W4                 : Well_name    - WELL
LOC .         AA/11-32-094-06W4/0            : Location     - LOCATION
UWI .         AA/11-32-094-06W400            : Uwi          - UNIQUE WELL ID
ENTR.         JOETTE                         : Entered      - ENTERED BY
SRVC.         SCHLUMBERGER                   : Scn          - SERVICE COMPANY
DATE.         04/10/92                       : Date         - LOG DATE
STRT.M        100                            : top_depth    - START DEPTH
STOP.M        310                            : bot_depth    - STOP DEPTH
STEP.M        0.25                           : increment    - STEP LENGTH
 NULL. -999.2500:NULL Value
~CURVE INFORMATION BLOCK
#MNEM UNIT       ERCB CURVE CODE    CURVE DESCRIPTION
#-----------   ------------------   ----------------------------------
DEPT.M        00 001 00 00         : DEPTH        - DEPTH
ILD .OHMM     00 120 00 00         : RESD         - DEEP RESISTIVITY (DIL)
DPHI.V/V      00 890 00 00         : PHID         - DENSITY POROSITY (SANDSTONE)
NPHI.V/V      00 330 00 00         : PHIN         - NEUTRON POROSITY (SANDSTONE)
GR  .API      00 310 00 00         : GR           - GAMMA RAY
CALI.MM       00 280 01 00         : CAL          - CALIPER
~PARAMETER INFORMATION
#MNEM.UNIT           DATA             DESCRIPTION OF MNEMONIC
#---------         -----------     ------------------------------
GL  .M        588.65               : gl           - GROUND LEVEL ELEVATION
EREF.M        591.35               : kb           - ELEVATION OF DEPTH REFERENCE
DATM.M        591.35               : datum        - DATUM ELEVATION
TDD .M        313                  : tdd          - TOTAL DEPTH DRILLER
RUN .         ONE                  : Run          - RUN NUMBER
ENG .         BILL                 : Engineer     - RECORDING ENGINEER
WIT .         JIM                  : Witness      - WITNESSED BY
MUD .         GEL                  : Mud_type     - MUD TYPE
MATR.         SANDSTONE            : Logunit      - NEUTRON MATRIX
TMAX.C        16                   : BHT          - MAXIMUM RECORDED TEMPERATURE
BHTD.M        313                  : BHTDEP       - MAXIMUM RECORDED TEMPERATURE
RMT .C        19                   : MDTP         - TEMPERATURE OF MUD
MUDD.KG/M     1050                 : MWT          - MUD DENSITY
NEUT.         1                    : NEUTRON      - NEUTRON TYPE
RESI.         0                    : RESIST       - RESISTIVITY TYPE
RM  .OHMM     8.17                 : RM           - RESISTIVITY OF MUD
RMC .OHMM     8.17                 : RMC          - RESISTIVITY OF MUD CAKE
RMF .OHMM     8.17                 : RMF          - RESISTIVITY OF MUD FILTRATE
SUFT.C        4                    : SUFT         - SURFACE TEMPERATURE
~A  DEPTH     RESD     PHID     PHIN       GR      CAL
# ...
  136.500   51.882    0.333    0.412   83.784  166.477
  136.750   50.053    0.323    0.399   80.165  166.551
  137.000   51.129    0.300    0.400   76.545  166.676
  137.250   56.329    0.293    0.411   72.911  166.751
  137.500   58.582    0.303    0.424   69.277  166.901
  137.750   59.785    0.331    0.435   65.672  167.998
  138.000   63.392    0.343    0.430   66.944  168.073
  138.250   64.724    0.340    0.436   71.939  169.245
  138.500   66.084    0.342    0.435   74.452  170.317
  138.750   66.241    0.349    0.439   75.125  170.441
  139.000   65.125    0.353    0.428   73.330  171.563
  139.250   63.997    0.355    0.423   70.937  171.638
  139.500   64.150    0.358    0.434   68.544  171.738
  139.750   64.272    0.349    0.441   65.538  171.838
  140.000   65.622    0.346    0.435   58.240  171.963
  140.250   68.344    0.351    0.417   58.315  171.115
  140.500   68.409    0.355    0.422   60.199  170.168
  140.750   68.572    0.355    0.428   62.099  169.196
  141.000   68.670    0.348    0.434   64.612  168.274
  141.250   68.833    0.344    0.439   65.913  167.402
  141.500   68.964    0.351    0.448   66.586  167.452
  141.750   69.062    0.355    0.434   67.274  167.602
  142.000   66.659    0.353    0.429   66.721  167.676
  142.250   65.505    0.344    0.430   64.313  167.751
  142.500   64.431    0.336    0.426   61.935  167.901
  142.750   63.376    0.332    0.415   59.542  168.001
  143.000   62.249    0.336    0.403   58.346  168.076
  143.250   61.200    0.337    0.397   57.822  170.195
  143.500   53.719    0.332    0.394   59.737  170.345
  143.750   48.053    0.327    0.394   61.606  170.444
  144.000   54.952    0.317    0.402   63.521  170.569
  144.250   62.903    0.318    0.410   64.194  170.619
  144.500   64.164    0.325    0.411   63.028  170.744
  144.750   64.316    0.338    0.415   60.620  170.869
  145.000   65.637    0.344    0.431   58.242  170.919
  145.250   67.048    0.345    0.442   56.462  171.019
  145.500   67.175    0.352    0.440   52.828  171.144
  145.750   67.303    0.355    0.445   48.610  171.218
  146.000   66.169    0.361    0.432   47.429  171.318
  146.250   63.836    0.366    0.437   46.875  171.418
  146.500   62.731    0.358    0.439   46.322  171.543
  146.750   59.414    0.345    0.428   46.995  171.643
  147.000   58.413    0.345    0.405   46.442  170.721
  147.250   61.967    0.332    0.411   52.634  170.796
  147.500   64.476    0.323    0.429   60.067  169.873
  147.750   65.862    0.331    0.432   58.288  169.998
  148.000   67.183    0.339    0.426   52.215  170.098
  148.250   67.311    0.342    0.420   54.743  170.198
  148.500   67.503    0.351    0.422   53.562  169.276
  148.750   65.092    0.358    0.418   49.942  169.401
  149.000   63.965    0.356    0.415   50.002  168.478
  149.250   59.449    0.356    0.419   53.756  168.578
  149.500   55.226    0.350    0.419   57.495  168.653
  149.750   52.307    0.340    0.413   59.380  168.753
  150.000   52.357    0.325    0.410   62.521  168.853
  150.250   54.502    0.318    0.414   64.436  168.953
  150.500   56.682    0.325    0.420   64.480  169.053
  150.750   60.102    0.334    0.431   64.555  169.153
  151.000   62.536    0.346    0.443   63.389  169.327
  151.250   63.881    0.355    0.448   60.383  169.402
  151.500   64.032    0.359    0.443   57.377  169.477
  151.750   64.124    0.363    0.443   56.210  169.602
  152.000   64.215    0.357    0.433   56.255  170.699
  152.250   64.368    0.347    0.435   58.155  174.912
  152.500   64.460    0.351    0.445   60.682  177.056
  152.750   64.644    0.354    0.450   64.421  176.108
  153.000   64.767    0.351    0.456   66.934  173.142
  153.250   62.483    0.351    0.460   70.703  170.226
  153.500   59.181    0.343    0.454   71.347  169.279
  153.750   59.265    0.335    0.443   72.035  168.332
  154.000   59.378    0.332    0.431   67.787  168.457
  154.250   59.462    0.341    0.430   59.277  168.556
  154.500   61.929    0.343    0.430   55.044  168.631
  154.750   63.200    0.345    0.439   53.265  168.731
  155.000   63.290    0.349    0.421   53.340  168.906
  155.250   63.411    0.348    0.414   53.983  168.981
  155.500   60.059    0.349    0.411   54.671  169.056
  155.750   59.019    0.350    0.413   54.716  168.184
  156.000   59.187    0.353    0.416   53.549  168.258
  156.250   59.271    0.357    0.416   49.930  168.333
  156.500   61.701    0.349    0.417   45.084  168.483
  156.750   62.997    0.349    0.423   46.386  168.558
  157.000   63.057    0.346    0.434   48.270  169.680
  157.250   63.207    0.332    0.448   50.783  169.755
  157.500   60.979    0.333    0.458   53.909  171.924
  157.750   55.587    0.343    0.455   56.422  173.021
  158.000   50.648    0.341    0.444   58.336  173.145
  158.250   45.305    0.332    0.427   59.009  173.220
  158.500   39.786    0.317    0.427   59.084  174.367
  158.750   37.665    0.297    0.434   58.546  175.489
  159.000   37.737    0.275    0.442   59.189  175.589
  159.250   37.809    0.275    0.421   64.185  176.736
  159.500   37.154    0.281    0.425   65.441  176.811
  159.750   35.190    0.317    0.430   67.341  177.932
  160.000   33.933    0.300    0.426   65.561  178.032
  160.250   30.368    0.284    0.406   65.022  178.132
  160.500   29.284    0.284    0.414   72.456  179.254
  160.750   26.707    0.279    0.424   73.727  179.354
  161.000   25.283    0.269    0.431   71.963  179.479
  161.250   24.380    0.269    0.427   72.636  179.579
  161.500   22.659    0.260    0.426   75.163  179.703
  161.750   22.267    0.252    0.424   75.806  180.800
  162.000   19.927    0.252    0.422   77.706  180.900
  162.250   19.206    0.246    0.418   83.300  182.022
  162.500   18.183    0.238    0.413   87.652  184.166
  162.750   17.221    0.243    0.410   89.552  186.335
  163.000   16.614    0.248    0.411   90.838  187.457
  163.250   16.326    0.239    0.420   92.139  189.576
  163.500   16.365    0.240    0.438   93.426  191.720
  163.750   16.097    0.235    0.455   91.661  195.932
  164.000   15.811    0.225    0.461   89.866  202.189
  164.250   15.261    0.236    0.461   86.845  205.355
  164.500   14.723    0.246    0.459   81.999  204.433
  164.750   14.758    0.243    0.464   82.074  201.467
  165.000   15.641    0.259    0.478   83.974  203.611
  165.250   18.930    0.260    0.484   82.179  205.730
  165.500   25.181    0.259    0.479   77.947  202.788
  165.750   40.482    0.276    0.488   76.167  203.935
  166.000   48.077    0.295    0.492   73.774  206.029
  166.250   49.088    0.295    0.460   65.862  200.022
  166.500   46.471    0.314    0.433   55.498  191.921
  166.750   43.170    0.337    0.428   51.265  181.825
  167.000   37.911    0.326    0.422   51.938  177.837
  167.250   35.873    0.298    0.410   51.998  176.940
  167.500   32.701    0.284    0.409   51.445  176.990
  167.750   29.824    0.308    0.431   55.199  178.187
  168.000   27.705    0.329    0.445   55.244  178.262
  168.250   25.255    0.335    0.442   55.304  179.359
  168.500   23.909    0.354    0.444   55.379  179.458
  168.750   23.055    0.367    0.446   56.037  179.558
  169.000   23.551    0.386    0.446   58.580  179.658
  169.250   26.920    0.346    0.446   59.253  180.780
  169.500   31.971    0.281    0.451   58.086  184.993
  169.750   40.970    0.319    0.467   56.905  190.178
  170.000   45.998    0.323    0.465   54.542  194.391
  170.250   46.964    0.323    0.449   53.974  189.356
  170.500   46.151    0.329    0.454   52.194  182.301
  170.750   41.283    0.325    0.454   52.254  177.316
  171.000   36.928    0.325    0.437   54.153  176.369
  171.250   33.663    0.324    0.410   56.068  174.475
  171.500   28.995    0.325    0.425   56.098  174.550
  171.750   26.935    0.330    0.436   56.173  173.603
  172.000   25.998    0.337    0.441   56.846  173.752
  172.250   26.048    0.332    0.437   57.519  172.805
  172.500   26.582    0.324    0.434   57.579  172.880
  172.750   27.672    0.325    0.443   57.654  173.055
