~VERSION INFORMATION
 VERS.                 2.0:   CWLS LOG ASCII STANDARD -VERSION 2.0
 WRAP.                  NO:   ONE LINE PER DEPTH STEP
~WELL INFORMATION BLOCK
#MNEM.UNIT           DATA                    DESCRIPTION OF MNEMONIC
#---------    -------------------            -------------------------------
# Generated from Intellog Unique Number	CN_91_93/WELL/2788
WELL.         PETRO CANADA                   : Well_name    - WELL
LOC .         AA/10-29-093-17W4/0            : Location     - LOCATION
UWI .         AA/10-29-093-17W400            : Uwi          - UNIQUE WELL ID
ENTR.         JOETTE                         : Entered      - ENTERED BY
SRVC.         SCHLUMBERGER                   : Scn          - SERVICE COMPANY
DATE.         03/24/92                       : Date         - LOG DATE
STRT.F        200                            : top_depth    - START DEPTH
STOP.F        860.269                        : bot_depth    - STOP DEPTH
STEP.F        0.82                           : increment    - STEP LENGTH
 NULL. -999.2500:NULL Value
~CURVE INFORMATION BLOCK
#MNEM UNIT       ERCB CURVE CODE    CURVE DESCRIPTION
#-----------   ------------------   ----------------------------------
DEPT.F        00 001 00 00         : DEPTH        - DEPTH
GR  .API      00 310 00 00         : GR           - GAMMA RAY
NPHI.V/V      00 330 00 00         : PHIN         - NEUTRON POROSITY (SANDSTONE)
DPHI.V/V      00 890 00 00         : PHID         - DENSITY POROSITY (SANDSTONE)
ILD .OHMM     00 120 00 00         : RESD         - DEEP RESISTIVITY (DIL)
~PARAMETER INFORMATION
#MNEM.UNIT           DATA             DESCRIPTION OF MNEMONIC
#---------         -----------     ------------------------------
GL  .F        1673.9               : gl           - GROUND LEVEL ELEVATION
EREF.F        1684.9               : kb           - ELEVATION OF DEPTH REFERENCE
DATM.F        1684.9               : datum        - DATUM ELEVATION
TDD .F        897                  : tdd          - TOTAL DEPTH DRILLER
RUN .         ONE                  : Run          - RUN NUMBER
ENG .         BILL                 : Engineer     - RECORDING ENGINEER
WIT .         JIM                  : Witness      - WITNESSED BY
MUD .         GEL                  : Mud_type     - MUD TYPE
MATR.         SANDSTONE            : Logunit      - NEUTRON MATRIX
TMAX.F        70                   : BHT          - MAXIMUM RECORDED TEMPERATURE
BHTD.F        897                  : BHTDEP       - MAXIMUM RECORDED TEMPERATURE
RMT .F        69                   : MDTP         - TEMPERATURE OF MUD
MUDD.LB/G     8.6                  : MWT          - MUD DENSITY
NEUT.         1                    : NEUTRON      - NEUTRON TYPE
RESI.         0                    : RESIST       - RESISTIVITY TYPE
RM  .OHMM     0.49                 : RM           - RESISTIVITY OF MUD
RMC .OHMM     0.49                 : RMC          - RESISTIVITY OF MUD CAKE
RMF .OHMM     0.49                 : RMF          - RESISTIVITY OF MUD FILTRATE
SUFT.F        39.2                 : SUFT         - SURFACE TEMPERATURE
~A  DEPTH       GR     PHIN     PHID     RESD
  200.000   65.371    0.570    0.233    0.038
  200.820   63.658    0.569    0.238    0.037
  201.640   61.342    0.563    0.239    0.035
  202.461   57.885    0.561    0.242    0.457
  203.281   56.743    0.559    0.245    0.433
  204.101   56.904    0.555    0.248    0.443
  204.921   57.603    0.555    0.249    0.470
  205.741   60.810    0.553    0.250    0.499
  206.562   63.984    0.553    0.251    0.837
  207.382   65.889    0.553    0.251    1.401
  208.202   68.461    0.553    0.246    4.735
  209.022   70.366    0.554    0.232    5.746
  209.843   73.509    0.555    0.233    5.769
  210.663   78.492    0.550    0.237    5.472
  211.483   81.603    0.539    0.241    5.382
  212.303   88.395    0.534    0.243    5.302
  213.123   92.744    0.528    0.245    5.412
  213.944   92.333    0.521    0.246    6.092
  214.764   92.397    0.515    0.249    6.588
  215.584   93.763    0.511    0.250    7.124
  216.404   93.859    0.509    0.251    8.329
  217.224   86.150    0.509    0.250    8.838
  218.045   79.043    0.512    0.248    9.392
  218.865   74.919    0.507    0.247    9.602
  219.685   75.650    0.482    0.245    9.817
  220.505   81.807    0.489    0.244    9.848
  221.325   87.394    0.492    0.244    9.686
  222.146   91.774    0.494    0.243    9.194
  222.966   94.885    0.494    0.240    8.700
  223.786   97.425    0.492    0.240    7.500
  224.606   98.188    0.488    0.238    6.460
  225.427   95.873    0.488    0.239    5.675
  226.247   88.195    0.489    0.241    5.187
  227.067   87.085    0.491    0.242    5.195
  227.887   85.405    0.495    0.245    5.516
  228.707   84.327    0.501    0.244    6.089
  229.528   84.487    0.507    0.245    5.456
  230.348   86.360    0.513    0.249    5.066
  231.168   91.947    0.517    0.255    4.797
  231.988   93.883    0.527    0.257    4.468
  232.808   94.647    0.530    0.258    4.564
  233.629   89.952    0.529    0.254    4.752
  234.449   87.604    0.499    0.253    5.249
  235.269   82.909    0.480    0.252    5.789
  236.089   78.785    0.473    0.256    6.385
  236.909   70.472    0.473    0.259    7.042
  237.730   65.142    0.474    0.265    7.760
  238.550   61.082    0.477    0.274    8.896
  239.370   60.639    0.480    0.282   10.199
  240.190   60.704    0.481    0.293   11.037
  241.010   60.832    0.481    0.302   11.275
  241.831   63.404    0.478    0.308   11.320
  242.651   65.944    0.476    0.314   10.925
  243.471   67.880    0.475    0.313   10.175
  244.291   70.420    0.472    0.299    9.820
  245.112   64.487    0.468    0.299   10.224
  245.932   51.922    0.462    0.301   10.857
  246.752   44.181    0.459    0.303   12.203
  247.572   41.326    0.453    0.311   17.562
  248.392   42.122    0.445    0.316   19.739
  249.213   42.186    0.442    0.324   23.062
  250.033   42.885    0.437    0.330   23.135
  250.853   43.616    0.432    0.337   21.110
  251.673   44.982    0.429    0.343   20.023
  252.493   45.078    0.430    0.349   20.086
  253.314   45.809    0.432    0.352   20.134
  254.134   45.969    0.438    0.356   19.447
  254.954   47.336    0.450    0.360   18.768
  255.774   48.002    0.457    0.363   17.787
  256.594   49.368    0.465    0.367   16.567
  257.415   50.068    0.467    0.374   15.976
  258.235   52.639    0.468    0.376   15.455
  259.055   57.591    0.468    0.386   15.492
  259.875   60.163    0.469    0.388   15.529
  260.696   59.053    0.474    0.372   15.603
  261.516   54.390    0.480    0.353   15.628
  262.336   53.851    0.484    0.336   15.990
  263.156   52.235    0.485    0.325   16.660
  263.976   52.299    0.484    0.316   16.713
  264.797   53.665    0.485    0.303   16.439
  265.617   54.364    0.488    0.298   15.299
  266.437   59.348    0.492    0.293   14.765
  267.257   63.760    0.496    0.295   14.004
  268.077   65.030    0.499    0.297   13.526
  268.898   68.205    0.505    0.298   12.091
  269.718   71.348    0.511    0.294   10.036
  270.538   75.696    0.517    0.283    9.693
  271.358   80.648    0.523    0.277    8.199
  272.178   87.440    0.526    0.270    5.117
  272.999   98.485    0.527    0.262    5.538
  273.819   96.804    0.524    0.257    6.588
  274.639   93.854    0.517    0.251    7.845
  275.459   86.747    0.510    0.247    8.496
  276.280   80.814    0.506    0.244    8.693
  277.100   82.148    0.504    0.244    8.396
  277.920   85.958    0.502    0.245    8.090
  278.740   88.498    0.502    0.249    7.108
  279.560   89.229    0.502    0.252    7.989
  280.381   84.469    0.501    0.254   10.862
  281.201   79.204    0.500    0.256   14.219
  282.021   75.143    0.497    0.258   15.111
  282.841   73.399    0.494    0.261   14.886
  283.661   71.115    0.488    0.260   13.561
  284.482   70.006    0.484    0.258   11.914
  285.302   69.531    0.480    0.251   11.728
  286.122   69.088    0.476    0.250   12.443
  286.942   69.184    0.476    0.249   14.265
  287.762   69.345    0.478    0.250   14.322
  288.583   70.679    0.480    0.251   13.844
  289.403   73.219    0.484    0.256   12.853
  290.223   74.520    0.488    0.258   11.071
  291.043   79.504    0.502    0.261    8.847
  291.864   86.867    0.513    0.264    7.627
  292.684   93.659    0.524    0.264    7.087
  293.504   99.246    0.535    0.262    6.345
  294.324  100.009    0.535    0.258    6.616
  295.144  100.073    0.528    0.252    6.894
  295.965   99.598    0.519    0.247    6.653
  296.785   97.950    0.513    0.245    5.740
  297.605   97.475    0.510    0.245    5.436
  298.425   96.968    0.507    0.247    5.562
  299.245   97.129    0.509    0.249    5.681
  300.066   97.828    0.519    0.252    5.699
  300.886   99.226    0.533    0.253    5.722
  301.706   99.290    0.541    0.254    5.740
  302.526   98.244    0.551    0.244    5.655
  303.346   97.737    0.554    0.236    5.558
  304.167   96.724    0.554    0.233    5.271
  304.987   96.185    0.544    0.232    4.988
  305.807   96.313    0.535    0.235    4.646
  306.627   96.474    0.532    0.237    4.484
  307.448   97.237    0.532    0.241    4.330
  308.268   97.333    0.532    0.243    4.341
  309.088   96.890    0.528    0.247    4.526
  309.908   96.383    0.522    0.248    4.624
  310.728   96.480    0.516    0.251    4.642
  311.549   96.608    0.513    0.252    4.566
  312.369   97.339    0.514    0.242    4.327
  313.189   99.879    0.516    0.238    4.024
  314.009  102.419    0.517    0.231    4.037
  314.829  101.944    0.518    0.227    4.713
  315.650   99.058    0.518    0.225    5.403
  316.470   95.568    0.513    0.224    5.968
  317.290   93.856    0.502    0.227    6.213
  318.110   94.016    0.498    0.228    6.238
  318.930   94.779    0.502    0.237    6.131
  319.751   96.049    0.511    0.241    5.594
  320.571  101.065    0.525    0.244    4.819
  321.391  103.604    0.536    0.245    3.927
  322.211  104.970    0.539    0.244    3.793
  323.031  105.035    0.540    0.241    3.955
  323.852  105.798    0.539    0.238    3.962
  324.672  104.117    0.538    0.239    4.128
  325.492   99.422    0.536    0.240    4.304
  326.312   95.869    0.535    0.241    4.318
  327.133   95.426    0.532    0.246    4.092
  327.953   98.601    0.526    0.252    3.949
  328.773   99.268    0.520    0.257    3.542
  329.593   99.999    0.517    0.263    3.418
  330.413  100.730    0.511    0.265    3.362
  331.234   99.653    0.505    0.272    3.307
  332.054   94.355    0.498    0.278    3.511
  332.874   89.627    0.491    0.282    4.102
  333.694   78.903    0.483    0.284    4.974
  334.514   75.382    0.479    0.284    7.024
  335.335   71.290    0.472    0.277    9.195
  336.155   69.038    0.471    0.262    9.764
  336.975   68.500    0.468    0.150    9.611
  337.795   66.851    0.461    0.171    9.109
  338.615   65.742    0.457    0.187    8.966
  339.436   64.093    0.445    0.213    9.349
  340.256   62.983    0.430    0.230   10.303
  341.076   61.335    0.411    0.225   13.477
  341.896   60.193    0.393    0.201   14.887
