~VERSION INFORMATION
 VERS.                 2.0:   CWLS LOG ASCII STANDARD -VERSION 2.0
 WRAP.                  NO:   ONE LINE PER DEPTH STEP
~WELL INFORMATION BLOCK
#MNEM.UNIT           DATA                    DESCRIPTION OF MNEMONIC
#---------    -------------------            -------------------------------
# Generated from Intellog Unique Number	CC_84_87/WELL/2342
NULL.         -999.25                        : NULL_VALUE
WELL.         PCI PCEJ HANGST OV             : Well_name    - WELL              
LOC .         13-14-084-12W4                 : Location     - LOCATION          
UWI .         AA/13-14-084-12W400            : Uwi          - UNIQUE WELL ID    
ENTR.         DW                             : Entered      - ENTERED BY        
SRVC.         SCHLUMBERGER                   : Scn          - SERVICE COMPANY   
DATE.         29 JAN 84                      : Date         - LOG DATE
STRT.M        105                            : top_depth    - START DEPTH       
STOP.M        309.899                        : bot_depth    - STOP DEPTH        
STEP.M        0.3                            : increment    - STEP LENGTH       
~CURVE INFORMATION BLOCK
#MNEM UNIT       ERCB CURVE CODE    CURVE DESCRIPTION
#-----------   ------------------   ----------------------------------
DEPT.M        00 001 00 00         : DEPTH        - DEPTH                       
DPHI.V/V      00 890 00 00         : PHID         - DENSITY POROSITY (LIMESTONE)
NPHI.V/V      00 330 00 00         : PHIN         - NEUTRON POROSITY (LIMESTONE)
GR  .API      00 310 00 00         : GR           - GAMMA RAY                   
ILD .OHMM     00 120 00 00         : RESD         - DEEP RESISTIVITY (DIL)      
~PARAMETER INFORMATION       
#MNEM.UNIT           DATA             DESCRIPTION OF MNEMONIC
#---------         -----------     ------------------------------
GL  .M        562.4                : gl           - GROUND LEVEL ELEVATION      
EREF.M        565.6                : kb           - ELEVATION OF DEPTH REFERENCE
DATM.M        565.6                : datum        - DATUM ELEVATION             
TDD .M        328                  : tdd          - TOTAL DEPTH DRILLER         
RUN .         ONE                  : Run          - RUN NUMBER                  
ENG .         BILL                 : Engineer     - RECORDING ENGINEER          
WIT .         JIM                  : Witness      - WITNESSED BY                
MUD .         GEL                  : Mud_type     - MUD TYPE                    
MATR.         LIMESTONE            : Logunit      - NEUTRON MATRIX              
TMAX.C        18.2                 : BHT          - MAXIMUM RECORDED TEMPERATURE
BHTD.M        328                  : BHTDEP       - MAXIMUM RECORDED TEMPERATURE
MATR.         1                    : LOGUNIT      - NEUTRON MATRIX              
RMT .C        25                   : MDTP         - TEMPERATURE OF MUD          
NEUT.         1                    : NEUTRON      - NEUTRON TYPE                
RESI.         0                    : RESIST       - RESISTIVITY TYPE            
RMC .OHMM     0.25                 : RMC          - RESISTIVITY OF MUD CAKE     
RMF .OHMM     0.25                 : RMF          - RESISTIVITY OF MUD FILTRATE 
SUFT.C        4                    : SUFT         - SURFACE TEMPERATURE         
~A  DEPTH     PHID     PHIN       GR     RESD
# ...
  209.401    0.000    0.141   47.671   41.046
  209.701    0.021    0.138   45.853   34.637
  210.001    0.052    0.159   51.301   24.690
  210.301    0.098    0.220   56.143   18.972
  210.601    0.259    0.315   58.563   14.044
  210.901    0.293    0.401   60.378   11.411
  211.201    0.322    0.418   63.404   10.378
  211.501    0.326    0.423   67.035    9.612
  211.801    0.318    0.450   65.823    9.415
  212.101    0.322    0.476   62.188    9.582
  212.401    0.324    0.463   60.369    9.924
  212.701    0.326    0.440   60.367   10.096
  213.001    0.309    0.455   63.999    9.714
  213.301    0.305    0.442   63.997    9.518
  213.601    0.309    0.446   60.968    9.501
  213.901    0.317    0.465   60.966    9.660
  214.201    0.329    0.442   56.119   10.199
  214.501    0.317    0.413   56.117   10.573
  214.801    0.306    0.401   58.538   11.375
  215.101    0.324    0.406   59.142   12.009
  215.401    0.324    0.451   59.140   11.994
  215.701    0.312    0.442   58.532   10.901
  216.001    0.321    0.433   61.559   10.100
  216.301    0.318    0.448   71.245    9.714
  216.601    0.327    0.454   71.849    9.516
  216.901    0.317    0.426   65.186    9.501
  217.201    0.293    0.421   69.423    9.311
  217.501    0.283    0.437   72.449    8.789
  217.801    0.320    0.472   74.263    7.555
  218.101    0.316    0.450   74.261    7.262
  218.401    0.288    0.444   75.471    7.526
  218.701    0.281    0.431   76.680    7.657
  219.001    0.265    0.432   75.467    7.644
  219.301    0.240    0.444   76.677    7.081
  219.601    0.245    0.432   79.097    6.808
  219.901    0.255    0.421   82.728    7.058
  220.201    0.250    0.425   84.543    7.590
  220.501    0.232    0.453   80.908    7.721
  220.801    0.201    0.447   79.090    7.852
  221.101    0.233    0.448   78.482    7.695
  221.401    0.281    0.470   80.297    7.263
  221.701    0.261    0.466   80.295    6.856
  222.001    0.233    0.488   81.504    6.234
  222.301    0.336    0.506   80.291    5.565
  222.601    0.356    0.522   79.079    5.251
  222.901    0.349    0.537   81.499    5.242
  223.201    0.392    0.540   87.552    5.432
  223.501    0.331    0.503   89.972    5.956
  223.801    0.275    0.471   83.310    6.650
  224.101    0.247    0.420   76.647    7.429
  224.401    0.245    0.422   76.646    9.457
  224.701    0.240    0.448   72.405   10.965
  225.001    0.127    0.388   62.110   10.744
  225.301    0.128    0.314   64.530    9.951
  225.601    0.239    0.387   68.766    8.714
  225.901    0.287    0.445   69.976    7.926
  226.201    0.278    0.461   73.002    7.341
  226.501    0.275    0.422   81.477    7.467
  226.801    0.283    0.453   80.264    8.183
  227.101    0.277    0.467   75.418    8.971
  227.401    0.261    0.451   74.811    9.125
  227.701    0.237    0.444   78.442    8.774
  228.001    0.250    0.430   78.441    8.436
  228.301    0.272    0.453   72.383    8.113
  228.601    0.280    0.442   71.776    8.102
  228.901    0.240    0.398   77.829    8.240
  229.201    0.250    0.380   81.461    8.230
  229.501    0.331    0.411   83.276    7.766
  229.801    0.388    0.430   83.274    7.060
  230.101    0.425    0.443   77.822    6.788
  230.401    0.493    0.500   81.454    6.905
  230.701    0.459    0.520   86.296    7.293
  231.001    0.398    0.514   85.083    7.702
  231.301    0.310    0.456   74.182    8.132
  231.601    0.199    0.399   73.575    8.116
  231.901    0.245    0.399   81.445    7.664
  232.201    0.314    0.434   88.103    6.711
  232.501    0.320    0.467   88.102    5.663
  232.801    0.253    0.478   86.889    4.689
  233.101    0.248    0.504   92.337    4.031
  233.401    0.255    0.499   91.729    4.336
  233.701    0.367    0.597   75.378    4.935
  234.001    0.437    0.586   72.954    6.165
  234.301    0.339    0.454   91.724    6.884
  234.601    0.215    0.459   99.594    6.871
  234.901    0.249    0.486   92.931    6.611
  235.201    0.239    0.480   93.535    5.898
  235.501    0.233    0.516   92.322    5.568
  235.801    0.258    0.493   93.531    5.159
  236.101    0.287    0.463   91.108    5.653
  236.401    0.274    0.454   86.867    7.198
  236.701    0.304    0.503   89.287    8.345
  237.001    0.341    0.482   98.974    9.319
  237.301    0.231    0.416  101.394   10.028
  237.601    0.220    0.378   98.970   10.583
  237.901    0.195    0.385   91.702   10.570
  238.201    0.185    0.398   92.911   10.554
  238.501    0.214    0.408   98.965   10.339
  238.801    0.230    0.382   98.357   10.129
  239.101    0.222    0.394   96.539    9.927
  239.401    0.220    0.409   94.721    9.905
  239.701    0.221    0.398   97.141    9.708
  240.001    0.203    0.386   96.533    9.514
  240.301    0.176    0.410   91.082    9.150
  240.601    0.220    0.436   94.108    7.864
  240.901    0.252    0.450  102.583    7.152
  241.201    0.313    0.472   99.554    7.274
  241.501    0.310    0.439   85.625    8.432
  241.801    0.224    0.391   91.678    9.959
  242.101    0.252    0.388   91.071   10.324
  242.401    0.244    0.394   88.042   10.697
  242.701    0.216    0.407   92.884   10.094
  243.001    0.250    0.398   91.671   10.080
  243.301    0.265    0.378   85.614   10.256
  243.601    0.243    0.375   83.190   10.430
  243.901    0.227    0.369   83.794   10.414
  244.201    0.218    0.372   84.397   10.200
  244.501    0.216    0.409   83.184   10.182
  244.801    0.230    0.392   81.366   10.353
  245.101    0.182    0.336   77.126   10.538
  245.401    0.194    0.346   83.179   10.520
  245.701    0.218    0.386   89.838   10.308
  246.001    0.224    0.405   92.259   10.098
  246.301    0.229    0.418   89.229    9.712
  246.601    0.283    0.449   87.411    9.168
  246.901    0.304    0.436   88.014    8.980
  247.201    0.214    0.413   85.591    8.967
  247.501    0.216    0.438   81.350    8.779
  247.801    0.283    0.486   81.954    8.768
  248.101    0.355    0.482   85.585    8.922
  248.401    0.281    0.430   86.794    9.597
  248.701    0.143    0.433   75.893    9.760
  249.001    0.064    0.381   72.258    9.932
  249.301    0.085    0.321   80.734    9.912
  249.601    0.183    0.375   87.393    9.716
  249.901    0.207    0.405   77.702    9.167
  250.201    0.224    0.431   80.728    8.652
  250.501    0.360    0.474   81.937    7.868
  250.801    0.408    0.482   86.174    7.289
  251.101    0.268    0.443   95.861    6.505
  251.401    0.276    0.469   96.465    5.697
  251.701    0.312    0.508   86.169    4.898
  252.001    0.346    0.543   89.800    3.693
  252.301    0.225    0.476  105.542    3.487
  252.602    0.219    0.462  100.696    3.820
  252.902    0.275    0.469   92.217    4.267
  253.202    0.316    0.447   86.765    6.309
  253.502    0.162    0.405   86.763    7.884
  253.802    0.168    0.412   92.211    9.139
  254.102    0.226    0.397   91.604    9.649
  254.402    0.181    0.401   84.941   10.000
  254.702    0.181    0.409   83.123   10.560
  255.002    0.226    0.398   85.543   10.742
  255.302    0.208    0.382   88.569   10.922
  255.602    0.183    0.371   89.173   10.909
  255.902    0.182    0.374   97.648   10.890
  256.202    0.209    0.420   95.224   10.667
  256.502    0.218    0.412   89.773   10.447
  256.802    0.259    0.415   87.954   10.243
  257.102    0.291    0.444   87.347    9.848
  257.401    0.218    0.470   90.978    9.297
  257.701    0.238    0.458   87.344    8.943
  258.001    0.202    0.442   89.764    8.442
  258.301    0.251    0.477   86.129    7.392
  258.601    0.295    0.521   77.650    5.897
  258.901    0.335    0.562   68.565    4.703
  259.201    0.409    0.523   65.535    3.055
  259.501    0.488    0.484   61.295    3.165
  259.801    0.362    0.446   59.477    3.809
  260.101    0.379    0.442   61.291    5.326
  260.401    0.401    0.445   60.684    8.973
  260.701    0.358    0.441   63.105    8.955
  261.001    0.332    0.436   70.975    8.299
  261.301    0.318    0.446   67.340    6.998
