~VERSION INFORMATION
 VERS.                 2.0:   CWLS LOG ASCII STANDARD -VERSION 2.0
 WRAP.                  NO:   ONE LINE PER DEPTH STEP
~WELL INFORMATION BLOCK
#MNEM.UNIT           DATA                    DESCRIPTION OF MNEMONIC
#---------    -------------------            -------------------------------
# Generated from Intellog Unique Number	CW_82_90/WELL/694
WELL.         10-09-083-19W4                 : Well_name    - WELL
LOC .         AA/10-09-083-19W4/0            : Location     - LOCATION
UWI .         AA/10-09-083-19W400            : Uwi          - UNIQUE WELL ID
ENTR.         JAYE                           : Entered      - ENTERED BY
SRVC.         WESTERN ATLAS                  : Scn          - SERVICE COMPANY
DATE.         30 FEB 81                      : Date         - LOG DATE
STRT.M        192                            : top_depth    - START DEPTH
STOP.M        365                            : bot_depth    - STOP DEPTH
STEP.M        0.25                           : increment    - STEP LENGTH
 NULL. -999.2500:NULL Value
~CURVE INFORMATION BLOCK
#MNEM UNIT       ERCB CURVE CODE    CURVE DESCRIPTION
#-----------   ------------------   ----------------------------------
DEPT.M        00 001 00 00         : DEPTH        - DEPTH
CALI.MM       00 280 01 00         : CAL          - CALIPER
GR  .API      00 310 00 00         : GR           - GAMMA RAY
NPHI.V/V      00 330 00 00         : PHIN         - NEUTRON POROSITY (SANDSTONE)
DPHI.V/V      00 890 00 00         : PHID         - DENSITY POROSITY (SANDSTONE)
ILD .OHMM     00 120 00 00         : RESD         - DEEP RESISTIVITY (DIL)
~PARAMETER INFORMATION
#MNEM.UNIT           DATA             DESCRIPTION OF MNEMONIC
#---------         -----------     ------------------------------
GL  .M        577.5                : gl           - GROUND LEVEL ELEVATION
EREF.M        580.32               : kb           - ELEVATION OF DEPTH REFERENCE
DATM.M        577.5                : datum        - DATUM ELEVATION
TDD .M        371                  : tdd          - TOTAL DEPTH DRILLER
RUN .         ONE                  : Run          - RUN NUMBER
ENG .         STEVENS & GAMBER     : Engineer     - RECORDING ENGINEER
WIT .         HAYES & CLARKE       : Witness      - WITNESSED BY
MUD .         GEL CHEM             : Mud_type     - MUD TYPE
MATR.         SANDSTONE            : Logunit      - NEUTRON MATRIX
TMAX.C        17                   : BHT          - MAXIMUM RECORDED TEMPERATURE
BHTD.M        371                  : BHTDEP       - MAXIMUM RECORDED TEMPERATURE
RMT .C        11                   : MDTP         - TEMPERATURE OF MUD
MUDD.KG/M     1100                 : MWT          - MUD DENSITY
NEUT.         1                    : NEUTRON      - NEUTRON TYPE
RESI.         0                    : RESIST       - RESISTIVITY TYPE
RM  .OHMM     3.8                  : RM           - RESISTIVITY OF MUD
RMC .OHMM     0                    : RMC          - RESISTIVITY OF MUD CAKE
RMF .OHMM     3.6                  : RMF          - RESISTIVITY OF MUD FILTRATE
SUFT.C        0                    : SUFT         - SURFACE TEMPERATURE
~A  DEPTH      CAL       GR     PHIN     PHID     RESD
# ...
  301.500  257.389   84.858    0.393    0.144    9.558
  301.750  255.400   88.676    0.410    0.127    9.284
  302.000  253.533   90.435    0.417    0.148    8.868
  302.250  252.280   89.962    0.419    0.167    8.421
  302.500  252.225   88.858    0.411    0.186    8.165
  302.750  252.791   89.497    0.402    0.189    7.948
  303.000  254.081   89.459    0.393    0.171    7.589
  303.250  253.906   88.230    0.387    0.176    7.236
  303.500  252.561   87.693    0.403    0.183    6.924
  303.750  252.179   88.959    0.411    0.193    6.626
  304.000  253.061   91.212    0.414    0.182    6.388
  304.250  255.100   91.739    0.416    0.180    6.288
  304.500  256.517   92.941    0.411    0.173    6.354
  304.750  259.179   90.713    0.403    0.179    6.519
  305.000  260.185   87.811    0.392    0.171    6.867
  305.250  261.046   81.410    0.381    0.181    7.932
  305.500  261.209   81.364    0.369    0.156    9.076
  305.750  260.695   83.196    0.365    0.141   10.927
  306.000  259.152   83.519    0.367    0.154   12.107
  306.250  257.175   85.040    0.399    0.144   12.215
  306.500  256.339   89.411    0.412    0.158   11.535
  306.750  256.921   88.687    0.417    0.179   10.354
  307.000  258.014   89.774    0.415    0.176    9.434
  307.250  258.260   91.039    0.404    0.183    9.517
  307.500  257.338   86.945    0.394    0.193   10.388
  307.750  254.832   79.487    0.391    0.185   11.108
  308.000  251.580   77.635    0.386    0.200   11.809
  308.250  250.951   76.221    0.378    0.206   12.440
  308.500  251.111   77.051    0.373    0.212   12.932
  308.750  251.144   73.766    0.365    0.190   13.985
  309.000  249.903   67.494    0.353    0.165   14.702
  309.250  249.092   66.392    0.353    0.152   15.283
  309.500  248.703   67.594    0.353    0.139   15.915
  309.750  247.890   68.607    0.359    0.144   16.086
  310.000  247.075   66.884    0.364    0.194   16.346
  310.250  246.565   65.282    0.376    0.176   16.335
  310.500  246.605   65.231    0.386    0.188   16.292
  310.750  247.173   65.444    0.390    0.221   16.156
  311.000  248.250   65.531    0.385    0.245   16.147
  311.250  246.920   64.608    0.372    0.237   15.892
  311.500  245.252   62.385    0.354    0.214   15.643
  311.750  246.132   61.469    0.357    0.205   15.514
  312.000  247.868   61.245    0.368    0.207   15.297
  312.250  247.899   63.759    0.378    0.224   15.144
  312.500  247.816   64.774    0.381    0.236   14.908
  312.750  249.655   65.979    0.379    0.221   14.729
  313.000  253.296   69.917    0.370    0.203   14.607
  313.250  255.656   70.817    0.362    0.171   14.760
  313.500  257.283   67.903    0.351    0.140   14.861
  313.750  258.271   62.309    0.335    0.135   15.277
  314.000  259.048   55.294    0.323    0.131   15.847
  314.250  259.711   54.685    0.318    0.116   15.988
  314.500  259.639   59.009    0.323    0.116   16.157
  314.750  259.242   62.513    0.333    0.111   16.144
  315.000  259.498   64.594    0.352    0.116   15.919
  315.250  260.458   67.292    0.366    0.147   15.521
  315.500  261.036   69.307    0.375    0.156   14.995
  315.750  261.602   70.129    0.384    0.178   13.613
  316.000  263.329   70.716    0.394    0.170   12.474
  316.250  265.476   71.049    0.409    0.182   11.386
  316.500  266.792   71.692    0.420    0.181   11.022
  316.750  268.518   72.829    0.418    0.186   10.290
  317.000  270.142   73.969    0.415    0.187    9.865
  317.250  271.221   74.305    0.415    0.197    9.639
  317.500  271.904   73.576    0.418    0.208    9.344
  317.750  272.679   72.411    0.419    0.215    9.268
  318.000  274.070   73.114    0.418    0.214    9.262
  318.250  274.441   73.760    0.416    0.209    9.464
  318.500  275.421   72.967    0.412    0.203    9.693
  318.750  272.808   70.487    0.410    0.209    9.833
  319.000  273.134   69.268    0.410    0.203    9.974
  319.250  273.809   68.226    0.411    0.202   10.041
  319.500  273.853   72.424    0.412    0.178   10.013
  319.750  273.887   79.228    0.416    0.166    9.802
  320.000  273.821   82.245    0.421    0.160    9.308
  320.250  273.430   82.573    0.423    0.163    8.840
  320.500  273.358   77.986    0.423    0.168    8.557
  320.750  271.884   78.241    0.421    0.166    8.093
  321.000  270.982   77.145    0.419    0.170    7.938
  321.250  269.842   76.671    0.420    0.167    7.800
  321.500  268.185   76.063    0.425    0.139    7.750
  321.750  267.376   76.837    0.444    0.206    7.686
  322.000  266.245   78.034    0.456    0.198    7.564
  322.250  264.260   81.111    0.465    0.194    7.321
  322.500  262.499   85.738    0.469    0.236    6.993
  322.750  258.927   89.191    0.466    0.210    6.857
  323.000  257.060   90.887    0.458    0.189    6.839
  323.250  255.395   89.722    0.447    0.168    6.977
  323.500  254.790   87.878    0.435    0.151    8.350
  323.750  254.822   85.379    0.413    0.144    8.998
  324.000  254.627   84.737    0.399    0.147   10.085
  324.250  254.453   77.468    0.391    0.147   12.325
  324.500  254.494   71.879    0.398    0.124   15.879
  324.750  254.735   71.391    0.407    0.126   20.885
  325.000  254.755   74.282    0.413    0.173   23.759
  325.250  254.703   77.231    0.413    0.206   24.373
  325.500  254.396   78.866    0.411    0.208   24.589
  325.750  254.553   81.257    0.412    0.202   24.343
  326.000  254.700   84.520    0.413    0.188   21.891
  326.250  255.131   84.853    0.415    0.190   20.788
  326.500  255.278   75.710    0.411    0.183   21.653
  326.750  255.734   57.970    0.407    0.205   22.980
  327.000  256.408   51.258    0.402    0.231   25.561
  327.250  256.561   46.914    0.401    0.245   28.222
  327.500  256.482   42.818    0.404    0.250   32.352
  327.750  256.292   39.724    0.415    0.258   34.785
  328.000  255.696   37.994    0.422    0.266   35.684
  328.250  255.205   39.255    0.426    0.263   36.069
  328.500  254.596   39.587    0.431    0.265   36.246
  328.750  253.989   40.487    0.436    0.271   35.604
  329.000  253.596   43.431    0.440    0.267   34.921
  329.250  253.539   45.999    0.441    0.259   33.790
  329.500  252.821   47.023    0.438    0.268   32.706
  329.750  252.538   48.481    0.432    0.258   30.312
  330.000  251.928   52.296    0.427    0.249   27.104
  330.250  251.440   57.367    0.421    0.251   21.650
  330.500  250.826   67.171    0.414    0.235   16.842
  330.750  250.449   76.412    0.410    0.204   14.315
  331.000  250.480   81.546    0.409    0.184   10.585
  331.250  250.293   82.559    0.410    0.175    7.856
  331.500  250.112   79.460    0.416    0.167    5.797
  331.750  250.150   78.238    0.422    0.171    5.323
  332.000  249.664   78.880    0.431    0.185    4.584
  332.250  248.420   82.888    0.438    0.189    4.378
  332.500  245.807   85.958    0.446    0.183    4.383
  332.750  242.335   88.724    0.453    0.175    4.590
  333.000  240.470   89.548    0.458    0.169    5.059
  333.250  239.228   83.338    0.458    0.154    5.987
  333.500  240.944   80.678    0.456    0.144    6.062
  333.750  243.540   82.255    0.448    0.152    5.790
  334.000  246.433   87.637    0.441    0.164    5.376
  334.250  246.679   92.455    0.437    0.188    5.135
  334.500  241.414   94.531    0.441    0.198    5.074
  334.750  234.239   94.548    0.446    0.210    5.284
  335.000  229.927   91.140    0.446    0.195    6.001
  335.250  229.222   84.929    0.446    0.170    7.264
  335.500  233.750   74.043    0.438    0.145    9.358
  335.750  238.614   67.019    0.421    0.125   11.247
  336.000  245.427   65.726    0.398    0.141   15.653
  336.250  244.503   66.248    0.385    0.163   18.880
  336.500  234.689   63.587    0.375    0.183   23.292
  336.750  230.047   59.120    0.368    0.216   27.676
  337.000  228.814   55.145    0.365    0.237   38.441
  337.250  228.421   52.425    0.362    0.244   46.714
  337.500  228.360   49.890    0.350    0.230   48.646
  337.750  228.807   47.915    0.336    0.209   47.530
