~VERSION INFORMATION
 VERS.                 2.0:   CWLS LOG ASCII STANDARD -VERSION 2.0
 WRAP.                  NO:   ONE LINE PER DEPTH STEP
~WELL INFORMATION BLOCK
#MNEM.UNIT           DATA                    DESCRIPTION OF MNEMONIC
#---------    -------------------            -------------------------------
# Generated from Intellog Unique Number	CS_77_79/WELL/3300
WELL.         10-11-078-08W4                 : Well_name    - WELL
LOC .         AA/10-11-078-08W4/0            : Location     - LOCATION
UWI .         AA/10-11-078-08W4/0            : Uwi          - UNIQUE WELL ID
ENTR.         JOETTE                         : Entered      - ENTERED BY
SRVC.         WESTERN ATLAS                  : Scn          - SERVICE COMPANY
DATE.         08/26/92                       : Date         - LOG DATE
STRT.M        140                            : top_depth    - START DEPTH
STOP.M        370                            : bot_depth    - STOP DEPTH
STEP.M        0.25                           : increment    - STEP LENGTH
 NULL. -999.2500:NULL Value
~CURVE INFORMATION BLOCK
#MNEM UNIT       ERCB CURVE CODE    CURVE DESCRIPTION
#-----------   ------------------   ----------------------------------
DEPT.M        00 001 00 00         : DEPTH        - DEPTH
GR  .API      00 310 00 00         : GR           - GAMMA RAY
NPHI.V/V      00 330 00 00         : PHIN         - NEUTRON POROSITY (SANDSTONE)
DPHI.V/V      00 890 00 00         : PHID         - DENSITY POROSITY (SANDSTONE)
ILD .OHMM     00 120 00 00         : RESD         - DEEP RESISTIVITY (DIL)
~PARAMETER INFORMATION
#MNEM.UNIT           DATA             DESCRIPTION OF MNEMONIC
#---------         -----------     ------------------------------
GL  .M        563.4                : gl           - GROUND LEVEL ELEVATION
EREF.M        566.9                : kb           - ELEVATION OF DEPTH REFERENCE
DATM.M        566.9                : datum        - DATUM ELEVATION
TDD .M        378                  : tdd          - TOTAL DEPTH DRILLER
RUN .         ONE                  : Run          - RUN NUMBER
ENG .         BILL                 : Engineer     - RECORDING ENGINEER
WIT .         JIM                  : Witness      - WITNESSED BY
MUD .         GEL                  : Mud_type     - MUD TYPE
MATR.         SANDSTONE            : Logunit      - NEUTRON MATRIX
TMAX.C        16                   : BHT          - MAXIMUM RECORDED TEMPERATURE
BHTD.M        378                  : BHTDEP       - MAXIMUM RECORDED TEMPERATURE
MATR.         1                    : LOGUNIT      - NEUTRON MATRIX
RMT .C        15                   : MDTP         - TEMPERATURE OF MUD
NEUT.         1                    : NEUTRON      - NEUTRON TYPE
RESI.         0                    : RESIST       - RESISTIVITY TYPE
RMC .OHMM     3.8                  : RMC          - RESISTIVITY OF MUD CAKE
RMF .OHMM     3.8                  : RMF          - RESISTIVITY OF MUD FILTRATE
SUFT.C        15                   : SUFT         - SURFACE TEMPERATURE
~A  DEPTH       GR     PHIN     PHID     RESD
# ...
  270.500   72.538    0.384    0.253    5.660
  270.750   74.917    0.385    0.247    5.765
  271.000   66.135    0.356    0.244    5.873
  271.250   64.987    0.343    0.244    5.982
  271.500   75.582    0.367    0.242    5.770
  271.750   75.608    0.383    0.236    5.564
  272.000   74.460    0.405    0.290    5.269
  272.250   80.354    0.383    0.299    5.082
  272.500   82.727    0.374    0.296    4.991
  272.750   76.298    0.365    0.242    4.992
  273.000   76.911    0.367    0.209    4.903
  273.250   75.176    0.369    0.212    4.904
  273.500   70.514    0.370    0.216    4.817
  273.750   77.582    0.369    0.216    4.817
  274.000   81.715    0.378    0.215    4.818
  274.250   84.095    0.388    0.212    4.820
  274.500   80.606    0.386    0.213    4.821
  274.750   78.865    0.379    0.212    4.822
  275.000   81.825    0.370    0.219    4.650
  275.250   85.365    0.367    0.227    4.567
  275.500   80.116    0.366    0.239    4.568
  275.750   72.507    0.373    0.250    4.653
  276.000   64.318    0.384    0.269    4.740
  276.250   58.475    0.360    0.241    4.917
  276.500   62.029    0.349    0.214    5.101
  276.750   59.714    0.359    0.242    5.196
  277.000   62.080    0.367    0.238    5.292
  277.250   62.699    0.341    0.210    5.391
  277.500   56.851    0.338    0.190    5.392
  277.750   55.116    0.361    0.137    5.394
  278.000   58.669    0.361    0.250    5.297
  278.250   59.275    0.356    0.254    5.109
  278.500   73.978    0.353    0.254    5.017
  278.750   76.938    0.363    0.243    4.839
  279.000   80.485    0.381    0.216    4.667
  279.250   83.445    0.371    0.219    4.419
  279.500   82.890    0.371    0.225    4.110
  279.750   85.263    0.386    0.277    3.963
  280.000   84.109    0.380    0.301    3.822
  280.250   75.333    0.370    0.374    3.754
  280.500   72.425    0.405    0.396    3.824
  280.750   76.565    0.376    0.243    4.114
  281.000   77.764    0.341    0.249    4.268
  281.250   76.036    0.345    0.257    4.427
  281.500   73.715    0.348    0.263    4.428
  281.750   70.220    0.342    0.263    4.429
  282.000   68.485    0.365    0.259    4.512
  282.250   69.091    0.367    0.258    4.513
  282.500   74.985    0.367    0.253    4.597
  282.750   82.646    0.376    0.223    4.769
  283.000   85.019    0.371    0.209    4.769
  283.250   70.955    0.373    0.180    4.947
  283.500   65.119    0.368    0.158    5.323
  283.750   65.145    0.352    0.195    5.324
  284.000   66.938    0.344    0.187    5.524
  284.250   64.023    0.359    0.186    5.626
  284.500   61.708    0.369    0.181    5.526
  284.750   65.249    0.345    0.203    5.427
  285.000   70.556    0.340    0.235    5.234
  285.250   76.450    0.359    0.233    5.048
  285.500   80.010    0.376    0.235    4.868
  285.750   84.730    0.380    0.239    4.526
  286.000   78.294    0.390    0.242    4.133
  286.250   80.674    0.404    0.253    3.706
  286.500   82.454    0.442    0.370    3.322
  286.750   84.247    0.454    0.375    2.872
  287.000   82.512    0.464    0.390    2.720
  287.250   82.531    0.442    0.400    2.721
  287.500   84.904    0.433    0.410    2.928
  287.750   80.836    0.436    0.398    2.982
  288.000   78.508    0.440    0.387    3.208
  288.250   80.300    0.437    0.405    3.389
  288.500   79.153    0.430    0.413    3.646
  288.750   85.627    0.383    0.375    4.143
  289.000   91.528    0.346    0.218    4.540
  289.250   89.213    0.348    0.198    4.709
  289.500   89.812    0.358    0.198    4.975
  289.750   90.431    0.363    0.197    4.887
  290.000   89.871    0.363    0.204    4.462
  290.250   94.004    0.364    0.217    4.000
  290.500   98.725    0.376    0.224    2.882
  290.750   97.577    0.403    0.244    2.729
  291.000   82.346    0.418    0.316    1.930
  291.250   63.593    0.405    0.389    1.763
  291.500   76.535    0.400    0.381    1.639
  291.750   78.322    0.451    0.384    1.497
  292.000   75.407    0.483    0.386    1.470
  292.250   70.739    0.489    0.386    1.418
  292.500   63.722    0.496    0.343    1.367
  292.750   64.922    0.482    0.323    1.343
  293.000   67.882    0.490    0.321    1.319
  293.250   64.393    0.498    0.321    1.319
  293.500   65.593    0.498    0.331    1.296
  293.750   68.553    0.513    0.350    1.296
  294.000   70.926    0.520    0.352    1.369
  294.250   78.580    0.494    0.356    1.394
  294.500   85.654    0.488    0.369    1.500
  294.750   82.153    0.444    0.295    1.644
  295.000   75.724    0.440    0.280    2.046
  295.250   78.703    0.422    0.269    2.642
  295.500   78.716    0.409    0.267    3.057
  295.750   82.850    0.410    0.264    3.538
  296.000   92.852    0.411    0.263    3.948
  296.250   88.183    0.411    0.231    4.171
  296.500   82.927    0.405    0.233    4.407
  296.750   79.432    0.397    0.263    4.407
  297.000   78.291    0.365    0.268    4.098
  297.250   82.418    0.373    0.171    3.742
  297.500   90.079    0.379    0.222    3.544
  297.750   93.639    0.331    0.234    3.236
  298.000   90.718    0.357    0.228    3.178
  298.250   83.115    0.365    0.227    3.065
  298.500   84.908    0.387    0.229    3.010
  298.750   82.593    0.393    0.245    2.956
  299.000   81.432    0.396    0.261    2.904
  299.250   82.632    0.425    0.272    2.905
  299.500   80.897    0.431    0.282    2.905
  299.750   87.971    0.434    0.291    2.906
  300.000   87.417    0.433    0.282    2.854
  300.250   88.616    0.438    0.270    2.803
  300.500   90.989    0.451    0.273    2.703
  300.750   85.734    0.452    0.280    2.704
  301.000   82.239    0.437    0.280    2.561
  301.250   85.199    0.440    0.276    2.469
  301.500   86.985    0.446    0.272    2.515
  301.750   84.663    0.425    0.281    2.756
  302.000   88.804    0.416    0.294    3.075
  302.250   82.955    0.405    0.302    3.308
  302.500   80.047    0.399    0.288    3.760
  302.750   84.187    0.387    0.266    5.221
  303.000   85.380    0.372    0.269    5.417
  303.250   83.058    0.303    0.196    5.618
  303.500   70.761    0.282    0.075    6.156
  303.750   63.158    0.281    0.121    6.623
  304.000   64.358    0.293    0.210    6.871
  304.250   65.564    0.291    0.234    6.748
  304.500   63.242    0.287    0.236    6.627
  304.750   60.914    0.287    0.241    6.391
  305.000   60.940    0.288    0.243    5.836
  305.250   64.494    0.294    0.240    5.428
  305.500   64.519    0.299    0.231    5.330
  305.750   61.618    0.308    0.213    5.235
  306.000   63.404    0.318    0.205    5.430
  306.250   63.430    0.322    0.201    5.843
  306.500   66.390    0.315    0.200    6.639
  306.750   69.936    0.318    0.200    9.739
  307.000   68.789    0.312    0.204   10.288
  307.250   64.114    0.302    0.230   16.531
  307.500   47.122    0.301    0.261   23.378
  307.750   40.106    0.298    0.262   24.699
  308.000   44.239    0.294    0.254   25.622
  308.250   47.786    0.295    0.253   25.168
  308.500   48.992    0.301    0.254   24.714
  308.750   53.126    0.298    0.258   23.404
  309.000   43.176    0.295    0.264   21.371
  309.250   43.795    0.298    0.273   19.872
  309.500   48.509    0.299    0.271   18.144
  309.750   54.409    0.300    0.268   15.686
  310.000   53.255    0.301    0.265   14.322
  310.250   48.587    0.303    0.263   12.841
  310.500   54.480    0.303    0.262   11.725
  310.750   60.968    0.307    0.261   10.706
  311.000   58.060    0.304    0.260    9.955
  311.250   54.565    0.300    0.256    8.925
  311.500   58.698    0.315    0.254    7.716
  311.750   65.179    0.330    0.250    7.175
  312.000   78.701    0.332    0.255    6.317
  312.250   74.620    0.337    0.257    5.664
  312.500   60.562    0.339    0.258    4.986
  312.750   62.348    0.347    0.252    4.553
  313.000   61.787    0.322    0.243    4.638
  313.250   64.167    0.313    0.209    4.811
  313.500   78.863    0.316    0.170    5.176
  313.750   87.691    0.340    0.176    5.468
