~VERSION INFORMATION
 VERS.                 2.0:   CWLS LOG ASCII STANDARD -VERSION 2.0
 WRAP.                  NO:   ONE LINE PER DEPTH STEP
~WELL INFORMATION BLOCK
#MNEM.UNIT           DATA                    DESCRIPTION OF MNEMONIC
#---------    -------------------            -------------------------------
# Generated from Intellog Unique Number	CX_WELLS/WELL/1170
WELL.         10-11-088-16W4                 : Well_name    - WELL
LOC .         AA/10-11-088-16W4/0            : Location     - LOCATION
UWI .         AA/10-11-088-16W400            : Uwi          - UNIQUE WELL ID
ENTR.         DW                             : Entered      - ENTERED BY
SRVC.         SCHLUMBERGER                   : Scn          - SERVICE COMPANY
STRT.M        75                             : top_depth    - START DEPTH
STOP.M        275                            : bot_depth    - STOP DEPTH
STEP.M        0.25                           : increment    - STEP LENGTH
 NULL. -999.2500:NULL Value
~CURVE INFORMATION BLOCK
#MNEM UNIT       ERCB CURVE CODE    CURVE DESCRIPTION
#-----------   ------------------   ----------------------------------
DEPT.M        00 001 00 00         : DEPTH        - DEPTH
GR  .API      00 310 00 00         : GR           - GAMMA RAY
NPHI.V/V      00 330 00 00         : PHIN         - NEUTRON POROSITY (SANDSTONE)
DPHI.V/V      00 890 00 00         : PHID         - DENSITY POROSITY (SANDSTONE)
ILD .OHMM     00 120 00 00         : RESD         - DEEP RESISTIVITY (DIL)
~PARAMETER INFORMATION
#MNEM.UNIT           DATA             DESCRIPTION OF MNEMONIC
#---------         -----------     ------------------------------
GL  .M        537.9                : gl           - GROUND LEVEL ELEVATION
EREF.M        540.9                : kb           - ELEVATION OF DEPTH REFERENCE
DATM.M        540.9                : datum        - DATUM ELEVATION
TDD .M        283.7                : tdd          - TOTAL DEPTH DRILLER
RUN .         ONE                  : Run          - RUN NUMBER
ENG .         BILL                 : Engineer     - RECORDING ENGINEER
WIT .         JIM                  : Witness      - WITNESSED BY
MUD .         GEL                  : Mud_type     - MUD TYPE
MATR.         SANDSTONE            : Logunit      - NEUTRON MATRIX
TMAX.C        25                   : BHT          - MAXIMUM RECORDED TEMPERATURE
BHTD.M        283.7                : BHTDEP       - MAXIMUM RECORDED TEMPERATURE
MATR.         1                    : LOGUNIT      - NEUTRON MATRIX
RMT .C        25                   : MDTP         - TEMPERATURE OF MUD
NEUT.         1                    : NEUTRON      - NEUTRON TYPE
RESI.         0                    : RESIST       - RESISTIVITY TYPE
RMC .OHMM     0.25                 : RMC          - RESISTIVITY OF MUD CAKE
RMF .OHMM     0.25                 : RMF          - RESISTIVITY OF MUD FILTRATE
SUFT.C        15                   : SUFT         - SURFACE TEMPERATURE
~A  DEPTH       GR     PHIN     PHID     RESD
# ...
  205.500  106.144    0.439    0.222   11.948
  205.750  104.428    0.437    0.228   11.965
  206.000  105.646    0.418    0.227   11.993
  206.250  112.157    0.418    0.208   12.010
  206.500  113.387    0.424    0.215   12.260
  206.750  113.409    0.429    0.226   12.521
  207.000  112.867    0.420    0.227   12.533
  207.250  111.151    0.409    0.211   12.800
  207.500  112.381    0.404    0.210   12.818
  207.750  115.957    0.402    0.205   12.836
  208.000  116.589    0.402    0.200   12.860
  208.250  116.036    0.403    0.195   13.121
  208.500  114.907    0.404    0.183   13.146
  208.750  115.550    0.406    0.189   12.932
  209.000  116.768    0.407    0.199   12.276
  209.250  117.997    0.410    0.209   12.076
  209.500  118.640    0.412    0.217   11.874
  209.750  118.662    0.412    0.224   11.681
  210.000  119.294    0.412    0.210   11.918
  210.250  121.099    0.413    0.207   11.952
  210.500  121.731    0.414    0.207   11.963
  210.750  117.092    0.414    0.208   11.985
  211.000  114.203    0.416    0.207   11.166
  211.250  113.649    0.421    0.197   10.984
  211.500  115.455    0.445    0.195   10.806
  211.750  121.401    0.463    0.202   10.243
  212.000  121.423    0.466    0.212    8.096
  212.250  119.708    0.469    0.221    7.268
  212.500  114.471    0.474    0.226    7.020
  212.750  109.832    0.444    0.214    7.295
  213.000  111.051    0.425    0.200    8.937
  213.250  116.964    0.432    0.191    9.637
  213.500  121.105    0.437    0.194    9.651
  213.750  126.453    0.447    0.199    9.330
  214.000  125.911    0.450    0.208    8.841
  214.250  123.011    0.455    0.207    8.091
  214.500  118.361    0.467    0.191    7.670
  214.750  113.124    0.479    0.176    7.405
  215.000  113.169    0.461    0.143    7.156
  215.250  117.908    0.449    0.145    7.169
  215.500  124.995    0.451    0.160    7.450
  215.750  126.213    0.452    0.173    7.598
  216.000  130.388    0.452    0.195    7.903
  216.250  132.780    0.451    0.203    7.774
  216.500  135.747    0.451    0.202    7.648
  216.750  136.390    0.448    0.204    7.662
  217.000  135.859    0.440    0.212    7.959
  217.250  134.121    0.431    0.193    8.898
  217.500  128.298    0.425    0.188   10.712
  217.750  122.474    0.418    0.176   11.754
  218.000  116.651    0.397    0.161   12.446
  218.250  112.599    0.374    0.125   12.463
  218.500  113.219    0.347    0.090   12.723
  218.750  123.262    0.371    0.151   12.746
  219.000  122.144    0.387    0.172   12.533
  219.250  119.831    0.404    0.199   11.897
  219.500  118.115    0.399    0.196   11.284
  219.750  118.758    0.400    0.210   11.100
  220.000  119.367    0.407    0.205   10.914
  220.250  118.825    0.409    0.201   10.940
  220.500  117.109    0.407    0.234   10.955
  220.750  115.405    0.403    0.235   12.026
  221.000  113.678    0.395    0.228   12.968
  221.250  110.202    0.339    0.198   13.972
  221.500  109.084    0.334    0.144   17.131
  221.750  113.812    0.339    0.103   17.163
  222.000  119.171    0.369    0.151   16.884
  222.250  119.194    0.375    0.172   16.300
  222.500  117.478    0.386    0.183   14.904
  222.750  115.187    0.394    0.197   13.886
  223.000  114.633    0.399    0.207   13.412
  223.250  113.505    0.401    0.203   12.726
  223.500  114.136    0.405    0.188   12.287
  223.750  118.886    0.406    0.181   12.309
  224.000  120.692    0.409    0.186   12.798
  224.250  120.149    0.410    0.194   13.052
  224.500  118.434    0.410    0.201   13.324
  224.750  114.969    0.409    0.193   13.101
  225.000  112.079    0.408    0.162   12.206
  225.250  115.047    0.405    0.144   11.165
  225.500  119.211    0.396    0.107   10.775
  225.750  122.189    0.420    0.161    9.861
  226.000  119.887    0.444    0.189    9.344
  226.250  117.573    0.487    0.202    8.705
  226.500  111.750    0.470    0.207    8.102
  226.750  100.058    0.451    0.222    8.895
  227.000   81.325    0.367    0.256   13.341
  227.250   60.233    0.370    0.290   14.367
  227.500   56.769    0.375    0.302   17.280
  227.750   57.400    0.377    0.291   23.634
  228.000   59.194    0.378    0.281   28.427
  228.250   59.825    0.378    0.268   34.192
  228.500   59.283    0.379    0.266   43.465
  228.750   56.416    0.382    0.274   51.358
  229.000   53.527    0.386    0.281   59.556
  229.250   51.236    0.389    0.283   56.483
  229.500   50.682    0.397    0.284   47.982
  229.750   50.716    0.401    0.285   39.334
  230.000   52.532    0.404    0.284   35.965
  230.250   55.500    0.408    0.283   34.109
  230.500   60.239    0.407    0.278   32.946
  230.750   62.653    0.406    0.272   33.617
  231.000   62.709    0.406    0.276   34.950
  231.250   62.732    0.409    0.280   35.015
  231.500   62.788    0.410    0.282   33.821
  231.750   62.257    0.415    0.279   33.255
  232.000   62.877    0.417    0.278   32.121
  232.250   62.911    0.426    0.288   33.995
  232.500   63.553    0.428    0.295   37.318
  232.750   64.783    0.428    0.304   44.929
  233.000   65.990    0.432    0.306   49.298
  233.250   67.795    0.433    0.300   49.413
  233.500   70.774    0.436    0.292   46.014
  233.750   72.579    0.442    0.286   42.074
  234.000   73.797    0.446    0.286   39.198
  234.250   73.864    0.448    0.286   38.524
  234.500   73.887    0.450    0.285   36.553
  234.750   74.541    0.446    0.285   35.958
  235.000   74.585    0.431    0.285   34.732
  235.250   74.630    0.427    0.283   32.971
  235.500   74.675    0.426    0.281   32.404
  235.750   75.295    0.426    0.261   29.615
  236.000   76.536    0.427    0.246   26.107
  236.250   78.319    0.432    0.235   21.786
  236.500   81.895    0.423    0.224   17.210
  236.750   86.635    0.405    0.172   11.319
  237.000   94.895    0.436    0.216    6.088
  237.250  109.621    0.476    0.244    4.722
  237.500  114.371    0.504    0.252    3.944
  237.750  116.165    0.529    0.266    3.806
  238.000  118.568    0.544    0.286    3.544
  238.250  120.362    0.543    0.282    3.553
  238.500  122.179    0.530    0.268    3.692
  238.750  122.821    0.511    0.235    3.907
  239.000  121.106    0.478    0.203    4.451
  239.250  118.205    0.462    0.188    4.795
  239.500  110.034    0.452    0.169    4.983
  239.750  116.534    0.456    0.155    4.993
  240.000  127.728    0.462    0.185    4.822
  240.250  127.806    0.469    0.213    4.834
  240.500  124.895    0.480    0.234    4.843
  240.750  119.658    0.479    0.244    4.854
  241.000  116.171    0.466    0.246    4.953
  241.250  109.761    0.445    0.245    5.051
  241.500  105.111    0.430    0.244    5.444
  241.750  101.635    0.402    0.247    9.444
  242.000   98.159    0.378    0.251   13.643
  242.250   94.682    0.364    0.260   16.410
  242.500   88.272    0.363    0.304   16.752
  242.750   80.102    0.354    0.330   15.310
  243.000   74.876    0.356    0.346   13.497
  243.250   73.160    0.363    0.347   11.471
  243.500   70.847    0.380    0.334   12.598
  243.750   66.795    0.400    0.284   15.425
  244.000   63.308    0.423    0.279   18.913
  244.250   59.256    0.429    0.281   21.135
  244.500   61.050    0.432    0.291   24.962
  244.750   79.297    0.413    0.301   30.038
  245.000   91.078    0.385    0.255   34.202
  245.250   97.002    0.381    0.246   33.067
  245.500   99.405    0.393    0.237   31.910
  245.750   97.689    0.405    0.245   30.263
  246.000   91.855    0.414    0.249   33.834
  246.250   81.337    0.408    0.260   39.978
  246.500   76.676    0.394    0.271   48.996
  246.750   70.266    0.389    0.279   55.762
  247.000   66.203    0.381    0.287   68.341
  247.250   65.661    0.372    0.289   77.851
  247.500   65.716    0.361    0.288   67.385
  247.750   65.772    0.341    0.280   60.470
  248.000   67.578    0.333    0.255   51.392
  248.250   71.719    0.326    0.142   43.698
  248.500   77.632    0.334    0.153   38.539
  248.750   82.980    0.350    0.240   37.190
