~Version : LASO    vs 4.00
VERS.                2.00:   CWLS Log ASCII Standard -VERSION 2.0
WRAP.                  NO:
~Well Information Block
#MNEM.UNIT       Data                        Description of Mnemonic
#----.----      -------------------------- : -----------------------------
STRT.M             3.0000:
STOP.M           202.0000:
STEP.M             0.1250:
NULL.           -999.2500:
COMP.  MOBILOIL CANADA             :COMPANY
WELL.  MOBIL CLARKE OV 10-26       :WELL
FLD.   CLARKE                      :FIELD
LOC.   10-26-090-07W4              :LOCATION
CTRY.  CANADA                      :COUNTRY
PROV.  ALBERTA                     :PROVINCE
SRVC.  DRESSER ATLAS               :SERVICE COMPANY
DATE.  31-JAN-81                   :LOG DATE
UWI.   AA/10-26-090-07W400         :UNIQUE WELL ID
~Parameter Information Block
#MNEM.UNIT       Data                        Description of Mnemonic
#----.----      -------------------------- : -----------------------------
RUN .                   1                 : Run Number
GL  .M           456.0000                 : Ground Level Elevation
DREF.                  KB                 : Depth Reference
EREF.M           456.0000                 : Elevation of Depth Reference
TDL .M           201.0000                 : Total Depth Logger
TDD .M           203.0000                 : Total Depth Driller
CSGL.M            13.0000                 : Casing Bottom Logger
CSGD.M            12.0000                 : Casing Bottom Driller
CSGS.MM          219.0000                 : Casing Size
CSGW.KG/M          0.0000                 : Casing Weight
BHT .DEGC         18.0000                 : Bottom Hole Temperature
BS  .MM          171.4000                 : Bit Size
DFD .              9.7000                 : Mud Weight (Density)
DFV .             85.0000                 : Mud Viscosity
RM  .OHMM          4.0000                 : Mud Resistivity
RMT .DEGC         18.0000                 : Mud Resistivity Temperature
RMF .OHMM          6.2000                 : Mud Filtrate Resistivity
RMFT.DEGC         12.0000                 : RMF Temperature
RMC .OHMM         11.6000                 : Mud Cake Resistivity
RMCT.DEGC         12.0000                 : RMC Temperature
~Curve Information Block
#MNEM.UNIT        API CODE    Curve Description
#---------    ------------    -------------------------------------------
DEPT.M                    :   DEPTH
CALI.MM       42 280  1  1:   3 DENSITY CALIPER
DPHI.V/V                  :   DPHI
DT  .US/M     60 520 42  1:   2 SONIC INTERVAL TRANSIT TIME (COMPENSATED)
GR  .GAPI     42 310  1  1:   4 GAMMA RAY
LLD .Ohmm                 :   LLD
NPHI.V/V      42 890  3  1:   5 NEUTRON POROSITY (SANDSTONE)
RHOB.K/M3     42 350  1  1:   6 BULK DENSITY
~A  Depth           CALI        DPHI          DT          GR         LLD        NPHI        RHOB
# ...
179.3750        157.9500      0.2856    367.9200     37.2300    676.1657      0.3331   2166.8999
179.5000        156.4250      0.2854    372.3200     32.0700    692.6194      0.3353   2168.7000
179.6250        154.2750      0.2853    372.3200     25.8150    700.5409      0.3421   2170.0000
179.7500        155.2000      0.2844    368.8800     22.1250    700.6901      0.3488   2170.6001
179.8750        160.4000      0.2849    364.2400     21.5700    700.7867      0.3537   2171.2000
180.0000        164.0750      0.2867    363.5200     21.2100    699.2533      0.3612   2170.0000
180.1250        164.3750      0.2887    358.6000     21.2100    694.9371      0.3608   2167.5000
180.2500        163.7750      0.2887    360.3200     21.3900    688.1383      0.3567   2168.1001
180.3750        163.7750      0.2863    364.4800     24.8850    680.3855      0.3563   2169.3000
180.5000        163.1500      0.2861    374.0400     27.6600    673.4762      0.3548   2171.2000
180.6250        162.2500      0.2871    386.5200     27.8400    667.4963      0.3556   2168.1001
180.7500        161.9250      0.2871    388.7600     26.1750    662.4637      0.3481   2166.3000
180.8750        161.6250      0.2871    387.7600     26.7300    655.8585      0.3432   2168.1001
181.0000        160.7000      0.2877    384.0800     27.8400    651.5208      0.3466   2169.3000
181.1250        160.1000      0.2881    378.9600     28.7550    648.3551      0.3455   2174.2000
181.2500        159.8000      0.2871    352.7200     28.9500    641.3390      0.3436   2176.1001
181.3750        159.8000      0.2859    344.8800     27.6600    634.6980      0.3417   2173.6001
181.5000        159.4750      0.2857    340.2000     27.8400    630.7342      0.3432   2177.3000
181.6250        159.1750      0.2846    346.3600     29.3100    626.8080      0.3432   2185.8999
181.7500        159.1750      0.2834    361.2800     29.6850    627.7174      0.3353   2198.7000
181.8750        159.1750      0.2803    371.8400     28.9500    631.8773      0.3406   2216.5000
182.0000        159.1750      0.2768    373.0400     28.9500    639.5860      0.3428   2225.7000
182.1250        159.8000      0.2704    377.4800     30.7800    649.8749      0.3518   2222.0000
182.2500        159.1750      0.2651    384.0800     31.3350    661.6315      0.3605   2209.7000
182.3750        158.2500      0.2600    383.8400     32.6250    673.6127      0.3597   2190.2000
182.5000        156.7250      0.2585    391.6800     36.8700    684.0857      0.3575   2173.0000
182.6250        152.7500      0.2613    394.1200     38.5200    693.0719      0.3567   2165.7000
182.7500        150.3000      0.2639    392.9200     39.4500    706.4926      0.3578   2160.8000
182.8750        151.5250      0.2684    391.6800     39.0750    723.8471      0.3608   2148.5000
183.0000        155.8000      0.2719    391.9200     34.2900    745.4908      0.3612   2140.0000
183.1250        159.8000      0.2774    389.4800     32.6250    751.4057      0.3657   2135.1001
183.2500        161.3250      0.2811    386.5200     32.0700    743.6796      0.3582   2122.8000
183.3750        161.9250      0.2864    383.8400     33.9150    735.0969      0.3548   2116.1001
183.5000        161.9250      0.2920    382.8800     36.1350    727.1191      0.3552   2114.3000
183.6250        162.2500      0.2992    376.9600     37.6050    708.6061      0.3563   2114.3000
183.7500        163.4750      0.3051    381.6400     38.1600    688.4746      0.3560   2117.3000
183.8750        163.7750      0.3118    386.5200     37.6050    656.0487      0.3586   2120.3999
184.0000        161.3250      0.3166    402.4800     36.6900    628.1371      0.3661   2124.7000
184.1250        156.4250      0.3211    408.6000     37.7850    598.3413      0.3721   2136.8999
184.2500        155.5000      0.3209    402.4800     36.8700    583.3877      0.3676   2148.5000
184.3750        155.8000      0.3179    403.4400     35.4000    569.8152      0.3672   2149.2000
184.5000        156.7250      0.3133    407.3600     37.7850    556.8816      0.3653   2138.7000
184.6250        157.3500      0.3084    409.5600     40.0050    502.0815      0.3605   2126.5000
184.7500        157.3500      0.3092    377.7200     40.1850    478.6251      0.3545   2122.2000
184.8750        157.0250      0.3130    244.1200     44.2350    426.2862      0.3552   2119.8000
185.0000        156.1250      0.3165    252.7200     51.0600    388.9231      0.3518   2117.3000
185.1250        154.2750      0.3175    346.6000     55.6650    304.2251      0.3507   2136.8999
185.2500        152.1250      0.3117    383.6000     63.2250    257.4097      0.3350   2171.2000
185.3750        152.4500      0.3028    376.2400     79.4400    213.8184      0.3248   2216.5000
185.5000        154.9000      0.2891    382.6000     90.8550    182.3532      0.3313   2224.3999
185.6250        157.3500      0.2779    394.8800    103.9500    161.4061      0.3368   2223.2000
185.7500        160.1000      0.2685    446.6000    123.6600    151.6987      0.3301   2230.5000
185.8750        161.0250      0.2645    461.0400    138.5850    137.6527      0.3298   2243.3999
186.0000        161.3250      0.2617    502.2000    140.9850    131.8233      0.3368   2264.2000
186.1250        157.0250      0.2582    497.5600    123.4800    126.8092      0.3458   2293.6001
186.2500        156.1250      0.2526    464.2400    108.1800    123.6000      0.3601   2313.2000
186.3750        157.9500      0.2455    454.4400    106.1550    124.0371      0.3706   2310.7000
186.5000        162.2500      0.2370    445.8400    101.5500    128.7858      0.3717   2323.0000
186.6250        171.4250      0.2261    430.4000     92.8800    138.9339      0.3676   2344.3999
186.7500        177.5500      0.2168    402.4800     81.4650    148.7046      0.3473   2341.3000
186.8750        182.1500      0.2090    384.5600     74.2800    155.6313      0.3365   2332.1001
187.0000        180.0000      0.2014    379.4400     75.3750    159.5565      0.3248   2336.3999
187.1250        172.3500      0.1971    366.4400     74.4600    165.5349      0.3148   2352.3000
187.2500        165.9250      0.1900    334.0800     75.3750    169.1783      0.2986   2398.2000
187.3750        162.2500      0.1825    328.9600     76.8600    172.4550      0.2889   2468.6001
187.5000        161.0250      0.1750    319.4000     73.7250    174.7608      0.2769   2521.8999
187.6250        159.8000      0.1589    316.4400     70.4100    175.1081      0.2717   2565.3000
187.7500        159.4750      0.1496    310.0800     68.9250    175.2273      0.2653   2596.5000
187.8750        160.1000      0.1394    306.6400     66.3450    176.2510      0.2630   2616.7000
188.0000        160.4000      0.1291    302.7200     65.2500    179.2475      0.2585   2641.8000
188.1250        160.7000      0.1122    304.2000     65.4300    181.4838      0.2529   2670.6001
188.2500        161.0250      0.0884    301.2400     64.1400    184.6295      0.2465   2680.3999
188.3750        161.3250      0.0721    289.2400     62.4750    189.8545      0.2477   2674.8999
188.5000        161.9250      0.0562    288.7600     63.0300    199.2698      0.2518   2660.8000
188.6250        162.8500      0.0378    287.2800     65.2500    207.1457      0.2503   2653.3999
188.7500        163.1500      0.0245    292.4400     65.8050    213.8052      0.2428   2658.3000
188.8750        162.8500      0.0000    295.3600     64.3200    219.3279      0.2420   2666.3000
189.0000        162.2500      0.0000    298.0400     63.5850    224.6955      0.2410   2676.1001
189.1250        162.2500      0.0000    300.0000     64.3200    226.6952      0.2350   2672.3999
189.2500        162.5500      0.0000    293.4000     69.3000    230.2698      0.2353   2665.1001
189.3750        162.8500      0.0000    294.6400     69.4800    232.9002      0.2350   2657.1001
189.5000        163.4750      0.0000    297.8000     68.7450    235.1718      0.2425   2651.0000
189.6250        163.7750      0.0000    301.4800     67.6350    237.8759      0.2440   2651.6001
