~VERSION INFORMATION
 VERS.                 2.0:   CWLS LOG ASCII STANDARD -VERSION 2.0
 WRAP.                  NO:   ONE LINE PER DEPTH STEP
~WELL INFORMATION BLOCK
#MNEM.UNIT           DATA                    DESCRIPTION OF MNEMONIC
#---------    -------------------            -------------------------------
# Generated from Intellog Unique Number	CN_91_93/WELL/3631
WELL.         10-18-093-06W4                 : Well_name    - WELL
LOC .         AA/10-18-093-06W4/0            : Location     - LOCATION
UWI .         AA/10-18-093-06W400            : Uwi          - UNIQUE WELL ID
ENTR.         JOETTE                         : Entered      - ENTERED BY
SRVC.         SCHLUMBERGER                   : Scn          - SERVICE COMPANY
DATE.         03/18/92                       : Date         - LOG DATE
STRT.M        65                             : top_depth    - START DEPTH
STOP.M        265                            : bot_depth    - STOP DEPTH
STEP.M        0.25                           : increment    - STEP LENGTH
 NULL. -999.2500:NULL Value
~CURVE INFORMATION BLOCK
#MNEM UNIT       ERCB CURVE CODE    CURVE DESCRIPTION
#-----------   ------------------   ----------------------------------
DEPT.M        00 001 00 00         : DEPTH        - DEPTH
ILD .OHMM     00 120 00 00         : RESD         - DEEP RESISTIVITY (DIL)
CALI.MM       00 280 01 00         : CAL          - CALIPER
GR  .API      00 310 00 00         : GR           - GAMMA RAY
NPHI.V/V      00 330 00 00         : PHIN         - NEUTRON POROSITY (SANDSTONE)
DPHI.V/V      00 890 00 00         : PHID         - DENSITY POROSITY (SANDSTONE)
~PARAMETER INFORMATION
#MNEM.UNIT           DATA             DESCRIPTION OF MNEMONIC
#---------         -----------     ------------------------------
GL  .M        547.76               : gl           - GROUND LEVEL ELEVATION
EREF.M        550.46               : kb           - ELEVATION OF DEPTH REFERENCE
DATM.M        550.46               : datum        - DATUM ELEVATION
TDD .M        266.5                : tdd          - TOTAL DEPTH DRILLER
RUN .         ONE                  : Run          - RUN NUMBER
ENG .         BILL                 : Engineer     - RECORDING ENGINEER
WIT .         JIM                  : Witness      - WITNESSED BY
MUD .         GEL                  : Mud_type     - MUD TYPE
MATR.         SANDSTONE            : Logunit      - NEUTRON MATRIX
TMAX.C        16                   : BHT          - MAXIMUM RECORDED TEMPERATURE
BHTD.M        266.5                : BHTDEP       - MAXIMUM RECORDED TEMPERATURE
RMT .C        37                   : MDTP         - TEMPERATURE OF MUD
MUDD.KG/M     9666.66              : MWT          - MUD DENSITY
NEUT.         1                    : NEUTRON      - NEUTRON TYPE
RESI.         0                    : RESIST       - RESISTIVITY TYPE
RM  .OHMM     12                   : RM           - RESISTIVITY OF MUD
RMC .OHMM     12                   : RMC          - RESISTIVITY OF MUD CAKE
RMF .OHMM     12                   : RMF          - RESISTIVITY OF MUD FILTRATE
SUFT.C        4                    : SUFT         - SURFACE TEMPERATURE
~A  DEPTH     RESD      CAL       GR     PHIN     PHID
# ...
  174.500    8.117  166.277   81.686    0.451    0.246
  174.750    7.823  170.387   82.305    0.464    0.251
  175.000    7.683  171.431   81.708    0.467    0.245
  175.250    8.133  171.444   78.670    0.461    0.241
  175.500    8.940  170.454   76.845    0.459    0.254
  175.750    9.643  169.452   73.800    0.465    0.253
  176.000    9.469  169.483   72.594    0.461    0.254
  176.250    8.788  168.493   72.601    0.454    0.267
  176.500    8.631  167.491   74.452    0.452    0.258
  176.750    8.798  166.502   79.366    0.451    0.241
  177.000    9.315  166.514   81.216    0.467    0.221
  177.250   10.047  167.558   80.003    0.463    0.216
  177.500   11.904  170.642   75.734    0.451    0.237
  177.750   12.843  169.647   69.629    0.421    0.211
  178.000   12.611  168.651   65.972    0.401    0.154
  178.250   12.382  167.673   69.046    0.370    0.149
  178.500   12.160  167.692   77.016    0.409    0.221
  178.750   12.633  166.684   75.195    0.442    0.289
  179.000   12.882  167.746   73.989    0.476    0.314
  179.250   12.887  167.765   75.228    0.475    0.317
  179.500   11.961  167.783   78.910    0.455    0.300
  179.750   10.690  168.821   87.496    0.466    0.220
  180.000    5.972  171.905   89.343    0.499    0.243
  180.250    5.141  173.969   88.753    0.516    0.259
  180.500    5.758  172.973   88.760    0.506    0.269
  180.750    6.450  171.978   86.950    0.494    0.278
  181.000    7.091  172.002   86.341    0.497    0.287
  181.250    7.228  171.013   85.132    0.498    0.290
  181.500    7.098  171.037   81.482    0.498    0.284
  181.750    6.344  171.055   80.265    0.490    0.272
  182.000    5.565  171.085   79.056    0.487    0.274
  182.250    4.528  170.090   79.686    0.476    0.277
  182.500    3.616  170.114   81.533    0.488    0.273
  182.750    3.055  170.132   84.608    0.511    0.273
  183.000    2.999  171.176   89.521    0.549    0.272
  183.250    2.891  171.201   91.980    0.561    0.269
  183.500    2.838  172.257   95.666    0.577    0.274
  183.750    2.787  172.269   97.517    0.584    0.282
  184.000    2.789  173.326   99.367    0.582    0.304
  184.250    2.843  173.344   99.998    0.573    0.318
  184.500    3.369  173.374   98.788    0.572    0.316
  184.750    4.554  173.392   95.743    0.563    0.314
  185.000    6.041  173.429   92.086    0.541    0.301
  185.250    7.294  172.421   90.261    0.532    0.273
  185.500    8.018  171.431   87.831    0.507    0.270
  185.750    8.815  171.456   86.618    0.473    0.255
  186.000    8.985  170.460   86.021    0.468    0.247
  186.250    8.992  170.484   85.427    0.459    0.268
  186.500    8.666  170.509   85.442    0.453    0.262
  186.750    8.349  170.533   85.453    0.457    0.259
  187.000    7.750  170.557   85.471    0.466    0.270
  187.250    7.753  171.601   86.709    0.470    0.286
  187.500   11.301  171.632   87.948    0.464    0.286
  187.750   11.520  171.644   89.798    0.452    0.263
  188.000   11.969  171.680   90.421    0.445    0.236
  188.250   11.534  171.692   91.048    0.414    0.218
  188.500   10.508  170.703   90.454    0.403    0.203
  188.750    9.936  169.707   88.021    0.387    0.186
  189.000    9.397  168.712   86.199    0.376    0.163
  189.250    9.054  168.736   84.990    0.454    0.177
  189.500    9.059  168.754   85.613    0.463    0.205
  189.750    9.065  168.778   86.239    0.462    0.265
  190.000    9.069  169.835   86.866    0.453    0.259
  190.250    9.073  170.873   86.884    0.441    0.239
  190.500    8.745  170.891   86.895    0.442    0.239
  190.750    8.269  172.961   86.913    0.453    0.237
  191.000    7.392  172.986   86.924    0.457    0.232
  191.250    7.260  174.030   86.942    0.444    0.238
  191.500    7.128  175.068   88.181    0.443    0.237
  191.750    6.867  176.112   89.416    0.452    0.203
  192.000    6.744  177.163   94.333    0.443    0.193
  192.250    6.260  177.193   95.564    0.452    0.220
  192.500    6.031  177.205   97.419    0.477    0.240
  192.750    5.812  178.261   98.045    0.472    0.237
  193.000    6.038  178.274   96.843    0.472    0.227
  193.250    6.275  178.310   95.630    0.471    0.216
  193.500    6.395  178.328   94.417    0.454    0.214
  193.750    6.399  178.346   93.208    0.473    0.212
  194.000    6.052  178.377   91.998    0.506    0.228
  194.250    5.512  178.395   92.017    0.515    0.248
  194.500    4.657  179.445   92.028    0.523    0.261
  194.750    4.162  180.483   93.270    0.523    0.265
  195.000    3.722  181.528   96.340    0.516    0.265
  195.250    3.586  183.598  101.251    0.506    0.287
  195.500    3.588  184.636  103.713    0.507    0.280
  195.750    3.798  185.692  102.507    0.532    0.266
  196.000    4.097  185.711   98.847    0.556    0.267
  196.250    4.177  184.709   93.965    0.554    0.261
  196.500    4.102  183.725   95.820    0.582    0.257
  196.750    4.027  182.730   98.894    0.598    0.255
  197.000    3.881  181.722   98.296    0.589    0.239
  197.250    3.811  180.726   94.643    0.551    0.229
  197.500    3.742  179.731   92.814    0.529    0.256
  197.750    3.744  177.721   89.157    0.528    0.263
  198.000    4.040  177.739   86.115    0.495    0.252
  198.250    4.441  176.756   85.514    0.479    0.237
  198.500    4.973  176.774   87.372    0.483    0.222
  198.750    5.784  176.798   89.215    0.478    0.217
  199.000    6.477  177.836   91.070    0.481    0.220
  199.250    7.393  177.861   91.080    0.484    0.213
  199.500    8.440  178.905   90.483    0.478    0.197
  199.750    8.765  179.955   90.498    0.454    0.163
  200.000    8.939  180.993   91.736    0.426    0.149
  200.250    8.775  181.018   90.527    0.403    0.130
  200.500    8.301  181.042   84.429    0.395    0.110
  200.750    7.997  179.032   82.604    0.392    0.135
  201.000    7.566  177.011   81.395    0.408    0.212
  201.250    7.569  174.995   83.853    0.418    0.240
  201.500    7.573  173.999   85.707    0.408    0.229
  201.750    7.721  171.984   85.106    0.402    0.220
  202.000    8.020  172.008   85.733    0.409    0.213
  202.250    8.652  171.013   91.255    0.443    0.208
  202.500    9.333  171.037   86.986    0.448    0.205
  202.750    9.339  173.113   81.497    0.421    0.158
  203.000    8.348  173.131   80.899    0.394    0.119
  203.250    6.541  176.221   85.198    0.370    0.175
  203.500    4.014  177.254   87.660    0.499    0.254
  203.750    2.918  180.338   85.842    0.569    0.281
  204.000    2.560  182.402   84.626    0.598    0.306
  204.250    2.376  180.392   82.804    0.591    0.303
  204.500    2.377  175.317   82.823    0.566    0.283
  204.750    2.565  173.295   84.061    0.563    0.287
  205.000    2.766  172.312   84.691    0.567    0.288
  205.250    2.983  172.330   85.314    0.561    0.272
  205.500    3.470  172.348   86.556    0.556    0.262
  205.750    4.035  172.372   88.399    0.533    0.262
  206.000    4.519  173.423   91.478    0.522    0.250
  206.250    4.786  173.447   92.104    0.499    0.233
  206.500    4.787  173.471   91.507    0.499    0.227
  206.750    4.527  173.496   90.297    0.493    0.228
  207.000    4.530  173.526   89.700    0.477    0.226
  207.250    4.618  173.556   88.490    0.466    0.228
  207.500    5.174  174.588   88.501    0.478    0.226
  207.750    5.374  174.619   87.904    0.488    0.233
  208.000    5.797  174.643   87.919    0.483    0.233
  208.250    6.373  174.667   87.321    0.473    0.219
  208.500    6.377  174.692   88.563    0.446    0.219
  208.750    6.144  174.722   91.026    0.439    0.218
  209.000    5.289  174.734   92.876    0.450    0.233
  209.250    3.844  174.758   91.055    0.466    0.242
  209.500    3.502  174.783   88.622    0.499    0.246
  209.750    3.504  174.813   88.636    0.513    0.255
  210.000    3.573  174.837   90.487    0.502    0.251
  210.250    3.712  174.862   90.501    0.510    0.231
  210.500    3.784  174.886   89.904    0.530    0.226
  210.750    3.716  174.904   90.530    0.544    0.214
