~VERSION INFORMATION
 VERS.                 2.0:   CWLS LOG ASCII STANDARD -VERSION 2.0
 WRAP.                  NO:   ONE LINE PER DEPTH STEP
~WELL INFORMATION BLOCK
#MNEM.UNIT           DATA                    DESCRIPTION OF MNEMONIC
#---------    -------------------            -------------------------------
# Generated from Intellog Unique Number	CS_77_79/WELL/969
WELL.         PEX PCEJ ALGAR OV              : Well_name    - WELL
LOC .         AA/10-26-079-15W4/0            : Location     - LOCATION
UWI .         AA/10-26-079-15W4/0            : Uwi          - UNIQUE WELL ID
ENTR.         JHS                            : Entered      - ENTERED BY
SRVC.         SCHLUMBERGER                   : Scn          - SERVICE COMPANY
STRT.M        225                            : top_depth    - START DEPTH
STOP.M        470                            : bot_depth    - STOP DEPTH
STEP.M        0.25                           : increment    - STEP LENGTH
 NULL. -999.2500:NULL Value
~CURVE INFORMATION BLOCK
#MNEM UNIT       ERCB CURVE CODE    CURVE DESCRIPTION
#-----------   ------------------   ----------------------------------
DEPT.M        00 001 00 00         : DEPTH        - DEPTH
DPHI.V/V      00 890 00 00         : PHID         - DENSITY POROSITY (LIMESTONE)
NPHI.V/V      00 330 00 00         : PHIN         - NEUTRON POROSITY (LIMESTONE)
GR  .API      00 310 00 00         : GR           - GAMMA RAY
ILD .OHMM     00 120 00 00         : RESD         - DEEP RESISTIVITY (DIL)
RHOB.KG/M3    00 350 00 00         : DENS         - BULK DENSITY
~PARAMETER INFORMATION
#MNEM.UNIT           DATA             DESCRIPTION OF MNEMONIC
#---------         -----------     ------------------------------
GL  .M        640.8                : gl           - GROUND LEVEL ELEVATION
EREF.M        644                  : kb           - ELEVATION OF DEPTH REFERENCE
DATM.M        644                  : datum        - DATUM ELEVATION
TDD .M        477                  : tdd          - TOTAL DEPTH DRILLER
RUN .         ONE                  : Run          - RUN NUMBER
ENG .         BILL                 : Engineer     - RECORDING ENGINEER
WIT .         JIM                  : Witness      - WITNESSED BY
MUD .         GEL                  : Mud_type     - MUD TYPE
MATR.         LIMESTONE            : Logunit      - NEUTRON MATRIX
TMAX.C        28                   : BHT          - MAXIMUM RECORDED TEMPERATURE
BHTD.M        477                  : BHTDEP       - MAXIMUM RECORDED TEMPERATURE
MATR.         1                    : LOGUNIT      - NEUTRON MATRIX
RMT .C        25                   : MDTP         - TEMPERATURE OF MUD
NEUT.         1                    : NEUTRON      - NEUTRON TYPE
RESI.         0                    : RESIST       - RESISTIVITY TYPE
RMC .OHMM     0.25                 : RMC          - RESISTIVITY OF MUD CAKE
RMF .OHMM     0.25                 : RMF          - RESISTIVITY OF MUD FILTRATE
SUFT.C        15                   : SUFT         - SURFACE TEMPERATURE
~A  DEPTH     PHID     PHIN       GR     RESD     DENS
# ...
  371.000    0.235    0.382   98.459   10.076    0.000
  371.250    0.233    0.382  100.309    9.891    0.000
  371.500    0.236    0.387  103.400    9.349    0.000
  371.750    0.254    0.388   90.309    8.837    0.000
  372.000    0.282    0.399   85.931    8.197    0.000
  372.250    0.325    0.410   81.554    7.322    0.000
  372.500    0.350    0.436   87.131    6.792    0.000
  372.750    0.370    0.441   92.713    6.067    0.000
  373.000    0.359    0.450   92.073    5.843    0.000
  373.250    0.349    0.431   97.652    5.736    0.000
  373.500    0.322    0.429   92.655    5.959    0.000
  373.750    0.292    0.413   84.542    6.190    0.000
  374.000    0.237    0.399   73.319    6.429    0.000
  374.250    0.185    0.386   82.012    7.340    0.000
  374.500    0.136    0.360   74.519    8.379    0.000
  374.750    0.181    0.349   75.735    9.212    0.000
  375.000    0.255    0.361   77.594    9.752    0.000
  375.250    0.270    0.374   82.550    9.572    0.000
  375.500    0.276    0.380   81.287    9.220    0.000
  375.750    0.275    0.376   81.265    8.236    0.000
  376.000    0.273    0.385   91.201    7.785    0.000
  376.250    0.277    0.401  100.517    7.499    0.000
  376.500    0.263    0.439   84.314    7.362    0.000
  376.750    0.245    0.431   82.426    7.363    0.000
  377.000    0.240    0.421   78.672    7.366    0.000
  377.250    0.255    0.416   70.560    7.798    0.000
  377.500    0.255    0.417   69.915    7.799    0.000
  377.750    0.261    0.398   68.652    8.103    0.000
  378.000    0.268    0.377   75.477    8.260    0.000
  378.250    0.282    0.384   74.834    8.263    0.000
  378.500    0.282    0.380   72.948    8.109    0.000
  378.750    0.275    0.379   77.279    8.112    0.000
  379.000    0.273    0.383   76.013    7.964    0.000
  379.250    0.276    0.388   79.108    7.817    0.000
  379.500    0.280    0.395   79.082    7.819    0.000
  379.750    0.277    0.405   78.442    7.822    0.000
  380.000    0.259    0.388   77.799    7.678    0.000
  380.250    0.267    0.382   80.270    7.537    0.000
  380.500    0.291    0.380   82.735    7.399    0.000
  380.750    0.285    0.373   80.849    7.400    0.000
  381.000    0.275    0.343   83.941    7.544    0.000
  381.250    0.252    0.316   78.317    7.689    0.000
  381.500    0.202    0.296   71.447    8.141    0.000
  381.750    0.142    0.231   67.700    8.617    0.000
  382.000    0.080    0.196   61.454    9.837    0.000
  382.250    0.084    0.202   59.566   11.885    0.000
  382.500    0.084    0.201   66.391   15.194    0.000
  382.750    0.088    0.201   65.743   18.705    0.000
  383.000    0.097    0.207   60.748   23.029    0.000
  383.250    0.111    0.211   56.989   24.842    0.000
  383.500    0.132    0.225   58.841   26.299    0.000
  383.750    0.158    0.245   62.556   25.332    0.000
  384.000    0.229    0.263   68.753   23.496    0.000
  384.250    0.279    0.367   69.983   19.463    0.000
  384.500    0.278    0.396   69.961   15.818    0.000
  384.750    0.273    0.402   77.410   11.265    0.000
  385.000    0.274    0.399   80.495    8.491    0.000
  385.250    0.269    0.405   73.007    7.584    0.000
  385.500    0.261    0.420   67.388    7.170    0.000
  385.750    0.261    0.420   72.347    7.037    0.000
  386.000    0.273    0.421   68.587    7.039    0.000
  386.250    0.270    0.406   66.082    7.175    0.000
  386.500    0.273    0.379   69.170    7.315    0.000
  386.750    0.264    0.367   65.417    7.317    0.000
  387.000    0.259    0.362   62.907    7.459    0.000
  387.250    0.257    0.361   62.889    7.604    0.000
  387.500    0.277    0.379   65.355    7.605    0.000
  387.750    0.283    0.388   70.314    7.466    0.000
  388.000    0.279    0.404   73.404    7.468    0.000
  388.250    0.281    0.392   70.896    7.331    0.000
  388.500    0.286    0.386   67.141    7.196    0.000
  388.750    0.280    0.392   68.985    7.064    0.000
  389.000    0.271    0.392   70.829    7.067    0.000
  389.250    0.268    0.411   71.436    6.936    0.000
  389.500    0.263    0.408   71.412    6.938    0.000
  389.750    0.252    0.413   73.261    6.941    0.000
  390.000    0.246    0.401   70.752    6.942    0.000
  390.250    0.249    0.380   71.353    7.077    0.000
  390.500    0.248    0.368   75.067    7.214    0.000
  390.750    0.244    0.402   70.690    7.354    0.000
  391.000    0.251    0.401   76.892    7.356    0.000
  391.250    0.264    0.397   79.983    7.359    0.000
  391.500    0.257    0.386   72.493    7.224    0.000
  391.750    0.253    0.401   77.451    7.091    0.000
  392.000    0.269    0.418   75.562    6.960    0.000
  392.250    0.284    0.428   78.655    6.833    0.000
  392.500    0.361    0.428   77.391    6.834    0.000
  392.750    0.436    0.441   73.636    6.836    0.000
  393.000    0.443    0.465   73.616    6.711    0.000
  393.250    0.436    0.488   79.196    6.464    0.000
  393.500    0.406    0.479   83.532    6.227    0.000
  393.750    0.372    0.465   84.751    5.998    0.000
  394.000    0.368    0.452   88.465    5.358    0.000
  394.250    0.367    0.458   89.693    5.064    0.000
  394.500    0.373    0.441   94.652    4.697    0.000
  394.750    0.367    0.426   95.872    4.275    0.000
  395.000    0.330    0.441   85.271    4.197    0.000
  395.250    0.275    0.421   80.275    4.528    0.000
  395.500    0.341    0.433   81.499    4.793    0.000
  395.750    0.360    0.442   81.478    5.369    0.000
  396.000    0.341    0.430   82.702    6.015 2126.170
  396.250    0.343    0.423   81.436    6.368 2123.980
  396.500    0.371    0.434   83.906    6.369 2075.460
  396.750    0.264    0.406   83.885    6.372 2258.680
  397.000    0.282    0.404   80.752    6.374 2227.000
  397.250    0.329    0.413   81.975    6.620 2146.880
  397.500    0.337    0.402   78.222    7.417 2134.170
  397.750    0.321    0.412   84.423    7.704 2161.490
  398.000    0.292    0.408   78.803    8.157 2209.860
  398.250    0.269    0.397   86.249    8.314 2249.820
  398.500    0.267    0.402   85.604    8.317 2253.960
  398.750    0.338    0.394   84.341    8.319 2131.710
  399.000    0.351    0.410   86.183    8.166 2110.580
  399.250    0.240    0.411   84.295    8.168 2300.110
  399.500    0.257    0.433   86.142    8.328 2270.530
  399.750    0.271    0.423   83.633    8.329 2247.300
  400.000    0.274    0.406   88.590    8.653 2240.910
  400.250    0.252    0.404   89.194    8.820 2278.740
  400.500    0.255    0.370   84.820    9.163 2274.480
  400.750    0.238    0.353   85.417    9.518 2303.870
  401.000    0.229    0.337   84.148    9.886 2318.580
  401.250    0.304    0.379   87.247   10.270 2190.000
  401.500    0.357    0.410   94.069   10.668 2099.350
  401.750    0.320    0.420   94.052   10.876 2162.470
  402.000    0.302    0.400   96.521   10.676 2193.990
  402.250    0.308    0.397  100.234   10.091 2183.400
  402.500    0.349    0.425   98.346    9.360 2113.810
  402.750    0.382    0.442   90.857    8.847 2056.860
  403.000    0.402    0.465   85.234    8.207 2023.080
  403.250    0.382    0.458   85.835    7.612 2056.720
  403.500    0.362    0.463   87.682    7.195 2090.360
  403.750    0.348    0.475   90.774    6.428 2115.560
  404.000    0.333    0.483   90.130    5.851 2140.770
  404.250    0.369    0.502   90.729    5.326 2079.620
  404.500    0.411    0.525   81.374    4.940 2007.920
  404.750    0.401    0.544   78.245    4.669 2024.700
  405.000    0.391    0.522   78.222    4.092 2041.480
  405.250    0.391    0.506   75.714    3.326 2041.420
  405.500    0.369    0.529   75.691    2.861 2079.260
  405.750    0.345    0.503   73.183    2.556 2119.220
  406.000    0.318    0.479   70.671    2.326 2165.490
  406.250    0.301    0.454   72.519    2.199 2194.920
  406.500    0.291    0.440   74.362    2.417 2211.700
  406.750    0.288    0.441   69.366    2.608 2217.950
  407.000    0.338    0.431   71.211    3.034 2131.510
  407.250    0.363    0.422   68.696    3.529 2089.310
