~VERSION INFORMATION
 VERS.                 2.0:   CWLS LOG ASCII STANDARD -VERSION 2.0
 WRAP.                  NO:   ONE LINE PER DEPTH STEP
~WELL INFORMATION BLOCK
#MNEM.UNIT           DATA                    DESCRIPTION OF MNEMONIC
#---------    -------------------            -------------------------------
# Generated from Intellog Unique Number	CN_94_101/WELL/3194
WELL.         THE CALIFORNIA STANDARD COMPAN : Well_name    - WELL
LOC .         AA/10-26-095-13W4/0            : Location     - LOCATION
UWI .         AA/10-26-095-13W4/0            : Uwi          - UNIQUE WELL ID
ENTR.         JOETTE                         : Entered      - ENTERED BY
SRVC.         SCHLUMBERGER                   : Scn          - SERVICE COMPANY
DATE.         07/17/92                       : Date         - LOG DATE
STRT.F        50                             : top_depth    - START DEPTH
STOP.F        570.013                        : bot_depth    - STOP DEPTH
STEP.F        0.8202                         : increment    - STEP LENGTH
 NULL. -999.2500:NULL Value
~CURVE INFORMATION BLOCK
#MNEM UNIT       ERCB CURVE CODE    CURVE DESCRIPTION
#-----------   ------------------   ----------------------------------
DEPT.F        00 001 00 00         : DEPTH        - DEPTH
ILD .OHMM     00 120 00 00         : RESD         - DEEP RESISTIVITY (DIL)
GR  .API      00 310 00 00         : GR           - GAMMA RAY
NPHI.V/V      00 330 00 00         : PHIN         - NEUTRON POROSITY (SANDSTONE)
~PARAMETER INFORMATION
#MNEM.UNIT           DATA             DESCRIPTION OF MNEMONIC
#---------         -----------     ------------------------------
GL  .F        1282.7               : gl           - GROUND LEVEL ELEVATION
EREF.F        1282.7               : kb           - ELEVATION OF DEPTH REFERENCE
DATM.F        1282.7               : datum        - DATUM ELEVATION
TDD .F        572                  : tdd          - TOTAL DEPTH DRILLER
RUN .         ONE                  : Run          - RUN NUMBER
ENG .         BILL                 : Engineer     - RECORDING ENGINEER
WIT .         JIM                  : Witness      - WITNESSED BY
MUD .         GEL                  : Mud_type     - MUD TYPE
MATR.         SANDSTONE            : Logunit      - NEUTRON MATRIX
TMAX.F        46                   : BHT          - MAXIMUM RECORDED TEMPERATURE
BHTD.F        572                  : BHTDEP       - MAXIMUM RECORDED TEMPERATURE
RMT .F        32                   : MDTP         - TEMPERATURE OF MUD
MUDD.LB/G     1.13                 : MWT          - MUD DENSITY
NEUT.         1                    : NEUTRON      - NEUTRON TYPE
RESI.         0                    : RESIST       - RESISTIVITY TYPE
RM  .OHMM     12.5                 : RM           - RESISTIVITY OF MUD
RMC .OHMM     12.5                 : RMC          - RESISTIVITY OF MUD CAKE
RMF .OHMM     12.5                 : RMF          - RESISTIVITY OF MUD FILTRATE
SUFT.F        39.2                 : SUFT         - SURFACE TEMPERATURE
~A  DEPTH     RESD       GR     PHIN
# ...
  227.986   19.792   58.871    0.491
  228.806   16.836   64.118    0.494
  229.626   15.306   81.547    0.504
  230.446   14.533   88.533    0.517
  231.266   14.465   98.135    0.530
  232.087   15.085   92.945    0.535
  232.907   15.739   87.754    0.536
  233.727   15.688   87.789    0.539
  234.547   16.342   88.245    0.542
  235.367   16.996   89.578    0.545
  236.188   16.928   93.954    0.537
  237.008   17.582   96.598    0.531
  237.828   18.236   94.880    0.535
  238.648   20.335   90.566    0.536
  239.469   22.433   90.159    0.530
  240.289   19.459   88.448    0.520
  241.109   17.225   85.866    0.487
  241.929   17.157   80.676    0.510
  242.749   16.367   82.443    0.526
  243.570   16.316   86.385    0.538
  244.390   14.770   92.066    0.538
  245.210   14.719   99.059    0.545
  246.030   13.928  100.392    0.552
  246.850   13.844   96.071    0.567
  247.671   13.809   91.315    0.567
  248.491   13.741   87.864    0.553
  249.311   14.395   90.936    0.566
  250.131   15.755   90.529    0.572
  250.951   17.131   93.166    0.555
  251.772   18.524   97.978    0.536
  252.592   19.161   97.150    0.509
  253.412   19.815   94.562    0.482
  254.232   19.747   88.495    0.469
  255.052   19.696   80.695    0.474
  255.873   20.350   88.123    0.482
  256.693   21.726   95.543    0.491
  257.513   27.435   95.136    0.501
  258.333   54.823   87.779    0.511
  259.154   57.644   89.546    0.501
  259.974   25.064   88.704    0.439
  260.794   17.053   72.635    0.399
  261.614   16.985   70.489    0.421
  262.434   16.866   79.214    0.445
  263.255   16.815   91.425    0.469
  264.075   16.764   93.628    0.508
  264.895   16.696   98.439    0.488
  265.715   17.333   98.909    0.497
  266.535   17.282   95.016    0.504
  267.356   17.197   90.260    0.517
  268.176   17.851   92.035    0.509
  268.996   17.783   94.237    0.462
  269.816   18.437   98.614    0.439
  270.636   18.369   97.779    0.453
  271.457   19.023   93.016    0.482
  272.277   18.955   87.391    0.521
  273.097   18.165   90.905    0.535
  273.917   18.097   94.840    0.537
  274.738   18.046   93.128    0.530
  275.558   18.700   88.373    0.517
  276.378   20.076   94.930    0.511
  277.198   21.452   99.749    0.511
  278.018   22.106   97.596    0.510
  278.839   20.577   91.970    0.506
  279.659   18.360   85.910    0.502
  280.479   15.403   89.424    0.516
  281.299   15.318   92.054    0.545
  282.119   15.267   92.082    0.565
  282.940   16.643   90.805    0.562
  283.760   16.558   94.319    0.557
  284.580   16.490   96.528    0.545
  285.400   16.422   92.201    0.528
  286.220   15.649   85.271    0.538
  287.041   15.581   80.950    0.554
  287.861   15.496   81.848    0.550
  288.681   15.445   84.485    0.540
  289.501   16.787   84.948    0.533
  290.322   17.441   85.846    0.519
  291.142   18.129   91.969    0.485
  291.962   19.505   97.215    0.505
  292.782   17.237   95.076    0.545
  293.602   15.707   92.487    0.564
  294.423   14.951   87.732    0.588
  295.243   14.883   79.932    0.588
  296.063   14.815   76.053    0.586
  296.883   14.747   77.379    0.590
  297.703   14.645   76.102    0.599
  298.524   14.577   74.398    0.607
  299.344   14.543   77.028    0.609
  300.164   15.180   77.056    0.618
  300.984   17.278   73.170    0.626
  301.804   19.377   74.068    0.609
  302.625   20.753   72.356    0.544
  303.445   22.129   59.773    0.488
  304.265   24.949   53.720    0.468
  305.085   29.953   55.494    0.458
  305.906   34.217   57.689    0.457
  306.726   37.038   61.196    0.460
  307.546   22.528   65.138    0.425
  308.366   15.239   59.948    0.412
  309.186   14.449   52.155    0.403
  310.007   14.381   54.785    0.473
  310.827   14.296   61.771    0.526
  311.647   14.950   77.896    0.561
  312.467   14.882   89.230    0.554
  313.287   16.258   93.179    0.545
  314.108   16.190   90.163    0.533
  314.928   15.399   85.407    0.526
  315.748   15.348   78.036    0.514
  316.568   16.003   80.680    0.503
  317.388   16.640   84.621    0.503
  318.209   16.572   96.391    0.542
  319.029   17.209   95.991    0.539
  319.849   17.140   88.619    0.533
  320.669   17.072   80.391    0.536
  321.490   17.744   84.761    0.548
  322.310   19.825   85.666    0.538
  323.130   19.757   83.091    0.497
  323.950   19.689   79.641    0.466
  324.770   23.248   72.269    0.446
  325.591   26.085   63.593    0.439
  326.411   22.390   51.879    0.432
  327.231   20.155   47.558    0.445
  328.051   28.770   46.717    0.458
  328.871   48.198   51.528    0.471
  329.692   79.919   62.000    0.464
  330.512   71.186   68.116    0.405
  331.332   47.272   48.575    0.400
  332.152   29.134   32.506    0.394
  332.972   30.511   29.490    0.386
  333.793   28.998   34.301    0.373
  334.613   26.764   40.859    0.357
  335.433   22.363   40.887    0.403
  336.253   17.963   49.177    0.429
  337.073   15.711   56.170    0.443
  337.894   18.532   67.070    0.446
  338.714   21.352   58.835    0.445
  339.534   21.284   50.601    0.435
  340.354   19.789   46.287    0.419
  341.175   19.721   46.750    0.417
  341.995   19.653   48.945    0.447
  342.815   18.846   52.887    0.447
  343.635   20.222   62.931    0.419
  344.455   20.893   64.256    0.402
  345.276   20.825   62.545    0.407
  346.096   19.296   62.145    0.419
  346.916   17.800   63.912    0.452
  347.736   17.715   63.070    0.442
  348.556   19.074   63.968    0.426
  349.377   19.023   62.691    0.414
  350.197   19.660   61.415    0.422
  351.017   20.314   61.443    0.440
  351.837   20.968   64.515    0.437
  352.657   21.640   64.978    0.430
  353.478   22.294   62.396    0.419
  354.298   20.781   63.736    0.409
  355.118   19.991   65.931    0.412
  355.938   21.350   74.228    0.416
  356.759   24.171   82.954    0.422
  357.579   24.825   84.286    0.418
  358.399   24.757   82.140    0.421
  359.219   31.927   69.122    0.425
  360.039   78.829   66.106    0.428
  360.860   65.041   68.750    0.405
  361.680   36.794   65.734    0.363
  362.500   23.711   64.885    0.354
  363.320   27.254   59.260    0.340
  364.140   30.074   55.816    0.376
  364.961   47.353   58.018    0.393
  365.781   71.132   58.916    0.373
  366.601   53.716   61.125    0.369
  367.421   42.094   58.537    0.386
  368.241   42.749   52.042    0.394
  369.062   48.457   52.505    0.381
  369.882   36.819   56.011    0.365
  370.702   30.252   61.693    0.356
  371.522   31.628   62.155    0.393
  372.343   35.876   61.328    0.403
  373.163   45.934   57.863    0.403
  373.983   41.533   50.063    0.397
  374.803   34.949   49.228    0.390
  375.623   31.254   52.735    0.389
  376.444   29.758   59.721    0.388
  377.264   26.819   65.402    0.392
  378.084   28.900   65.865    0.399
  378.904   31.738   58.065    0.405
  379.724   38.891   52.012    0.398
  380.545   43.877   53.338    0.383
  381.365   36.588   58.591    0.366
  382.185   40.853   60.365    0.383
  383.005   41.507   62.568    0.406
  383.825   29.163   64.328    0.397
  384.646   24.728   68.270    0.376
  385.466   26.105   80.053    0.368
  386.286   28.203   66.600    0.404
  387.106   28.857   64.454    0.407
  387.927   30.250   66.214    0.405
  388.747   32.348   70.156    0.408
  389.567   35.169   74.532    0.408
  390.387   40.894   81.960    0.407
  391.207   47.325   74.595    0.391
  392.028   50.145   69.840    0.344
  392.848   46.467   48.117    0.342
  393.668   42.066   32.925    0.352
  394.488   41.981   29.481    0.335
  395.308   45.541   30.800    0.314
  396.129   49.788   43.011    0.341
  396.949   49.703   48.257    0.364
  397.769   51.113   55.685    0.367
  398.589   62.599   59.192    0.354
  399.409  102.985   54.001    0.341
  400.230  159.275   51.420    0.331
  401.050  146.209   48.846    0.307
  401.870  139.625   43.214    0.285
  402.690  125.115   42.807    0.286
  403.510  114.938   45.451    0.323
  404.331  114.147   47.646    0.353
  405.151  111.913   46.804    0.376
