~VERSION INFORMATION
 VERS.                 2.0:   CWLS LOG ASCII STANDARD -VERSION 2.0
 WRAP.                  NO:   ONE LINE PER DEPTH STEP
~WELL INFORMATION BLOCK
#MNEM.UNIT           DATA                    DESCRIPTION OF MNEMONIC
#---------    -------------------            -------------------------------
# Generated from Intellog Unique Number	CS_77_79/WELL/936
WELL.         PEX PCEJ THORNBURY OV          : Well_name    - WELL
LOC .         AA/10-08-079-14W4/0            : Location     - LOCATION
UWI .         AA/10-08-079-14W4/0            : Uwi          - UNIQUE WELL ID
ENTR.         JHS                            : Entered      - ENTERED BY
SRVC.         SCHLUMBERGER                   : Scn          - SERVICE COMPANY
STRT.M        275                            : top_depth    - START DEPTH
STOP.M        525                            : bot_depth    - STOP DEPTH
STEP.M        0.25                           : increment    - STEP LENGTH
 NULL. -999.2500:NULL Value
~CURVE INFORMATION BLOCK
#MNEM UNIT       ERCB CURVE CODE    CURVE DESCRIPTION
#-----------   ------------------   ----------------------------------
DEPT.M        00 001 00 00         : DEPTH        - DEPTH
DPHI.V/V      00 890 00 00         : PHID         - DENSITY POROSITY (LIMESTONE)
NPHI.V/V      00 330 00 00         : PHIN         - NEUTRON POROSITY (LIMESTONE)
GR  .API      00 310 00 00         : GR           - GAMMA RAY
ILD .OHMM     00 120 00 00         : RESD         - DEEP RESISTIVITY (DIL)
RHOB.KG/M3    00 350 00 00         : DENS         - BULK DENSITY
~PARAMETER INFORMATION
#MNEM.UNIT           DATA             DESCRIPTION OF MNEMONIC
#---------         -----------     ------------------------------
GL  .M        700.7                : gl           - GROUND LEVEL ELEVATION
EREF.M        703.6                : kb           - ELEVATION OF DEPTH REFERENCE
DATM.M        703.6                : datum        - DATUM ELEVATION
TDD .M        527                  : tdd          - TOTAL DEPTH DRILLER
RUN .         ONE                  : Run          - RUN NUMBER
ENG .         BILL                 : Engineer     - RECORDING ENGINEER
WIT .         JIM                  : Witness      - WITNESSED BY
MUD .         GEL                  : Mud_type     - MUD TYPE
MATR.         LIMESTONE            : Logunit      - NEUTRON MATRIX
TMAX.C        22                   : BHT          - MAXIMUM RECORDED TEMPERATURE
BHTD.M        527                  : BHTDEP       - MAXIMUM RECORDED TEMPERATURE
MATR.         1                    : LOGUNIT      - NEUTRON MATRIX
RMT .C        25                   : MDTP         - TEMPERATURE OF MUD
NEUT.         1                    : NEUTRON      - NEUTRON TYPE
RESI.         0                    : RESIST       - RESISTIVITY TYPE
RMC .OHMM     0.25                 : RMC          - RESISTIVITY OF MUD CAKE
RMF .OHMM     0.25                 : RMF          - RESISTIVITY OF MUD FILTRATE
SUFT.C        15                   : SUFT         - SURFACE TEMPERATURE
~A  DEPTH     PHID     PHIN       GR     RESD     DENS
# ...
  457.500    0.198    0.395   80.206    8.775 2372.060
  457.750    0.193    0.413   83.259    8.935 2380.360
  458.000    0.215    0.408   86.934    9.085 2342.140
  458.250    0.167    0.399   88.732    9.249 2424.410
  458.500    0.140    0.387   82.469    9.586 2470.700
  458.750    0.119    0.377   79.919    9.579 2506.460
  459.000    0.114    0.361   79.231   10.122 2514.730
  459.250    0.164    0.357   84.784   10.695 2429.970
  459.500    0.198    0.368   91.567   10.881 2370.600
  459.750    0.194    0.389   91.481   10.864 2378.800
  460.000    0.191    0.408   92.691   10.244 2382.870
  460.250    0.196    0.408   95.129    9.672 2374.260
  460.500    0.201    0.417   98.805    8.956 2365.630
  460.750    0.188    0.402   90.040    8.295 2388.650
  461.000    0.182    0.408   85.626    7.538 2399.070
  461.250    0.187    0.398   81.210    6.848 2390.380
  461.500    0.191    0.406   89.251    6.585 2383.890
  461.750    0.180    0.417   95.406    6.332 2402.710
  462.000    0.188    0.428   92.855    5.976 2387.700
  462.250    0.200    0.420   84.102    5.533 2368.530
  462.500    0.222    0.430   89.641    4.750 2330.270
  462.750    0.284    0.441   87.096    4.318 2224.370
  463.000    0.263    0.461   87.039    3.778 2260.110
  463.250    0.256    0.477   81.389    3.183 2272.610
  463.500    0.268    0.480   73.856    2.892 2251.300
  463.750    0.261    0.487   76.918    2.729 2263.770
  464.000    0.239    0.489   78.099    2.674 2301.650
  464.250    0.219    0.445   79.269    2.773 2335.300
  464.500    0.195    0.408   77.367    3.101 2377.380
  464.750    0.197    0.390   74.204    3.670 2372.970
  465.000    0.172    0.379   77.878    4.182 2415.070
  465.250    0.174    0.372   83.416    4.855 2412.770
  465.500    0.180    0.372   78.377    5.854 2401.920
  465.750    0.162    0.381   70.235    6.799 2433.530
  466.000    0.147    0.371   62.708    7.894 2458.700
  466.250    0.138    0.361   68.253    8.663 2473.330
  466.500    0.187    0.373   69.448    8.983 2390.660
  466.750    0.186    0.396   83.075    8.971 2392.580
  467.000    0.167    0.393   87.377    8.305 2424.110
  467.250    0.151    0.381   86.074    7.404 2451.430
  467.500    0.151    0.375   87.253    6.856 2451.190
  467.750    0.175    0.369   85.953    6.228 2410.860
  468.000    0.210    0.380   75.945    5.876 2351.480
  468.250    0.207    0.414   79.624    5.871 2355.540
  468.500    0.205    0.431   81.430    5.645 2359.540
  468.750    0.215    0.446   85.110    5.428 2342.440
  469.000    0.208    0.460   85.669    4.840 2354.970
  469.250    0.194    0.469   90.597    4.078 2378.010
  469.500    0.178    0.466   93.650    3.997 2405.330
  469.750    0.180    0.463   94.833    3.842 2402.970
  470.000    0.188    0.449   94.770    3.908 2388.030
  470.250    0.201    0.441   94.101    3.905 2366.720
  470.500    0.176    0.439   94.036    3.973 2408.760
  470.750    0.169    0.424   93.976    4.199 2421.300
  471.000    0.147    0.415   90.195    4.605 2459.180
  471.250    0.121    0.402   87.637    4.959 2503.390
  471.500    0.138    0.397   93.812    5.340 2473.590
  471.750    0.187    0.403   99.965    5.536 2390.930
  472.000    0.198    0.422  105.519    5.529 2371.730
  472.250    0.198    0.417  106.701    5.316 2371.520
  472.500    0.191    0.401   98.554    5.212 2384.010
  472.750    0.186    0.394   94.133    5.717 2392.310
  473.000    0.176    0.396   89.121    6.273 2409.000
  473.250    0.176    0.375   75.376    6.505 2408.860
  473.500    0.206    0.353   65.360    6.376 2357.910
  473.750    0.223    0.358   71.521    5.905 2328.110
  474.000    0.200    0.380   80.172    5.263 2368.080
  474.250    0.168    0.397   80.110    5.256 2422.900
  474.500    0.140    0.393   78.202    5.767 2471.300
  474.750    0.189    0.367   79.987    6.955 2386.560
  475.000    0.209    0.352   76.222    9.045 2352.540
  475.250    0.194    0.350   69.945   12.447 2377.720
  475.500    0.202    0.363   74.845   14.730 2364.860
  475.750    0.183    0.353   75.415   15.857 2396.350
  476.000    0.188    0.370   66.044   14.683 2387.740
  476.250    0.228    0.364   57.897   14.943 2319.880
  476.500    0.248    0.353   48.500   16.396 2285.890
  476.750    0.225    0.356   52.183   17.995 2325.870
  477.000    0.225    0.358   77.010   19.378 2325.660
  477.250    0.255    0.346   64.512   19.344 2274.750
  477.500    0.224    0.342   46.417   17.572 2327.420
  477.750    0.194    0.336   51.952   16.279 2377.970
  478.000    0.186    0.335   63.720   14.512 2392.580
  478.250    0.171    0.342   79.828   13.692 2417.740
  478.500    0.174    0.359   95.949   15.027 2413.300
  478.750    0.187    0.381  102.100   17.126 2389.890
  479.000    0.211    0.384  100.191   20.650 2349.500
  479.250    0.221    0.372   92.039   23.977 2332.440
  479.500    0.239    0.367   85.763   26.806 2300.520
  479.750    0.254    0.357   70.788   28.869 2274.970
  480.000    0.247    0.356   68.240   29.367 2287.450
  480.250    0.248    0.366   73.770   28.777 2285.140
  480.500    0.246    0.365   73.099   27.687 2289.220
  480.750    0.215    0.367   76.779   24.676 2341.870
  481.000    0.227    0.355   74.234   23.738 2322.660
  481.250    0.213    0.352   70.446   23.260 2345.720
  481.500    0.188    0.340   84.694   23.657 2387.830
  481.750    0.195    0.339   87.746   24.543 2377.060
  482.000    0.216    0.341   72.757   26.926 2340.940
  482.250    0.194    0.342   66.484   29.551 2378.810
  482.500    0.175    0.334   65.177   33.039 2410.260
  482.750    0.184    0.329   63.879   36.234 2395.340
  483.000    0.234    0.351   57.602   36.203 2310.570
  483.250    0.263    0.352   53.187   32.889 2259.640
  483.500    0.244    0.353   66.194   29.338 2293.280
  483.750    0.215    0.356   79.811   24.716 2341.710
  484.000    0.208    0.344   83.502   22.039 2354.190
  484.250    0.201    0.336   85.916   20.407 2366.730
  484.500    0.175    0.341   79.654   18.893 2410.910
  484.750    0.175    0.349   85.192   18.162 2410.670
  485.000    0.171    0.351   90.113   18.130 2416.880
  485.250    0.170    0.342   96.897   18.116 2418.810
  485.500    0.182    0.340  100.579   19.135 2399.590
  485.750    0.187    0.336   87.457   19.482 2390.950
  486.000    0.209    0.339   84.286   19.821 2352.720
  486.250    0.203    0.340   87.340   18.705 2363.060
  486.500    0.208    0.348   81.691   16.362 2354.420
  486.750    0.214    0.358   77.900   14.318 2343.680
  487.000    0.174    0.361   84.682   13.014 2413.270
  487.250    0.141    0.373   95.824   17.242 2468.050
  487.500    0.153    0.395   92.031   23.289 2448.840
  487.750    0.227    0.385   70.199   32.042 2321.770
  488.000    0.267    0.372   57.710   37.193 2253.930
  488.250    0.301    0.362   50.187   38.561 2194.560
  488.500    0.278    0.347   58.828   36.400 2234.530
  488.750    0.171    0.344   59.398   29.533 2418.300
  489.000    0.202    0.351   63.700   24.887 2365.260
  489.250    0.228    0.360   64.878   21.781 2320.670
  489.500    0.198    0.359   74.160   19.790 2371.180
  489.750    0.187    0.368   80.947   17.979 2390.060
  490.000    0.191    0.365   80.887   16.649 2383.510
  490.250    0.171    0.349   85.183   14.847 2417.150
  490.500    0.169    0.342   91.347   13.492 2421.190
  490.750    0.165    0.348   90.033   12.968 2427.340
  491.000    0.151    0.355   94.349   13.195 2452.540
  491.250    0.157    0.351   96.783   13.948 2441.730
  491.500    0.164    0.345   93.609   14.737 2428.880
  491.750    0.172    0.345  101.022   15.871 2416.030
  492.000    0.161    0.332   97.217   16.773 2434.860
  492.250    0.163    0.324   85.357   18.405 2430.440
  492.500    0.183    0.331   77.829   19.819 2396.440
  492.750    0.200    0.329   79.646   20.936 2368.740
  493.000    0.189    0.323   80.205   21.301 2387.570
  493.250    0.184    0.325   78.282   21.668 2395.870
  493.500    0.178    0.326   85.072   21.243 2406.250
  493.750    0.191    0.326   71.327   20.811 2382.800
