~VERSION INFORMATION
 VERS.                 2.0:   CWLS LOG ASCII STANDARD -VERSION 2.0
 WRAP.                  NO:   ONE LINE PER DEPTH STEP
~WELL INFORMATION BLOCK
#MNEM.UNIT           DATA                    DESCRIPTION OF MNEMONIC
#---------    -------------------            -------------------------------
# Generated from Intellog Unique Number	CN_94_101/WELL/5021
WELL.         11-24-099-14W4                 : Well_name    - WELL
LOC .         AA/11-24-099-14W4/0            : Location     - LOCATION
UWI .         AA/11-24-099-14W400            : Uwi          - UNIQUE WELL ID
ENTR.         TIM                            : Entered      - ENTERED BY
SRVC.         SCHLUMBERGER                   : Scn          - SERVICE COMPANY
DATE.         08/13/92                       : Date         - LOG DATE
STRT.M        370                            : top_depth    - START DEPTH
STOP.M        570                            : bot_depth    - STOP DEPTH
STEP.M        0.25                           : increment    - STEP LENGTH
 NULL. -999.2500:NULL Value
~CURVE INFORMATION BLOCK
#MNEM UNIT       ERCB CURVE CODE    CURVE DESCRIPTION
#-----------   ------------------   ----------------------------------
DEPT.M        00 001 00 00         : DEPTH        - DEPTH
GR  .API      00 310 00 00         : GR           - GAMMA RAY
ILD .OHMM     00 120 00 00         : RESD         - DEEP RESISTIVITY (DIL)
NPHI.V/V      00 330 00 00         : PHIN         - NEUTRON POROSITY (SANDSTONE)
DPHI.V/V      00 890 00 00         : PHID         - DENSITY POROSITY (SANDSTONE)
~PARAMETER INFORMATION
#MNEM.UNIT           DATA             DESCRIPTION OF MNEMONIC
#---------         -----------     ------------------------------
GL  .M        815.9                : gl           - GROUND LEVEL ELEVATION
EREF.M        819.1                : kb           - ELEVATION OF DEPTH REFERENCE
DATM.M        819.1                : datum        - DATUM ELEVATION
TDD .M        573                  : tdd          - TOTAL DEPTH DRILLER
RUN .         ONE                  : Run          - RUN NUMBER
ENG .         BILL                 : Engineer     - RECORDING ENGINEER
WIT .         JIM                  : Witness      - WITNESSED BY
MUD .         GEL                  : Mud_type     - MUD TYPE
MATR.         SANDSTONE            : Logunit      - NEUTRON MATRIX
TMAX.C        25                   : BHT          - MAXIMUM RECORDED TEMPERATURE
BHTD.M        573                  : BHTDEP       - MAXIMUM RECORDED TEMPERATURE
RMT .C        25                   : MDTP         - TEMPERATURE OF MUD
MUDD.KG/M     1090                 : MWT          - MUD DENSITY
NEUT.         1                    : NEUTRON      - NEUTRON TYPE
RESI.         0                    : RESIST       - RESISTIVITY TYPE
RM  .OHMM     4.6                  : RM           - RESISTIVITY OF MUD
RMC .OHMM     4.6                  : RMC          - RESISTIVITY OF MUD CAKE
RMF .OHMM     4.6                  : RMF          - RESISTIVITY OF MUD FILTRATE
SUFT.C        4                    : SUFT         - SURFACE TEMPERATURE
~A  DEPTH       GR     RESD     PHIN     PHID
# ...
  413.500  134.044    3.992    0.580    0.236
  413.750  135.256    3.782    0.588    0.227
  414.000  137.071    3.782    0.597    0.233
  414.250  140.699    3.571    0.597    0.247
  414.500  141.305    3.571    0.591    0.253
  414.750  141.912    3.571    0.581    0.258
  415.000  141.915    3.571    0.563    0.259
  415.250  140.711    3.571    0.539    0.251
  415.500  138.298    3.571    0.511    0.241
  415.750  135.887    3.571    0.499    0.243
  416.000  134.681    3.571    0.534    0.249
  416.250  131.665    3.571    0.508    0.261
  416.500  129.856    3.361    0.499    0.273
  416.750  126.236    3.151    0.511    0.275
  417.000  124.428    3.151    0.596    0.271
  417.250  124.431    3.151    0.600    0.275
  417.500  125.642    3.571    0.585    0.279
  417.750  125.042    3.782    0.558    0.282
  418.000  121.421    4.412    0.540    0.282
  418.250  115.989    5.252    0.522    0.278
  418.500  108.141    7.143    0.502    0.284
  418.750   93.046    8.613    0.472    0.290
  419.000   73.120    9.454    0.444    0.266
  419.250   70.708    9.664    0.429    0.169
  419.500   72.524    9.664    0.420    0.144
  419.750   74.941    9.454    0.403    0.181
  420.000   78.568    9.244    0.405    0.217
  420.250   80.384    8.824    0.415    0.259
  420.500   81.594    8.403    0.408    0.313
  420.750   85.222    7.773    0.412    0.318
  421.000   88.244    7.563    0.413    0.305
  421.250   90.060    6.933    0.412    0.313
  421.500   90.667    6.092    0.417    0.328
  421.750   97.313    5.252    0.435    0.310
  422.000  108.187    4.832    0.454    0.279
  422.250  119.061    4.202    0.482    0.252
  422.500  126.312    3.992    0.498    0.242
  422.750  127.523    3.992    0.491    0.237
  423.000  130.546    3.782    0.491    0.233
  423.250  131.758    3.782    0.500    0.238
  423.500  129.949    3.782    0.506    0.258
  423.750  129.348    3.782    0.513    0.273
  424.000  124.520    3.992    0.522    0.281
  424.250  122.712    3.992    0.527    0.288
  424.500  128.755    3.992    0.524    0.272
  424.750  136.005    3.992    0.519    0.242
  425.000  139.030    3.992    0.522    0.221
  425.250  139.637    3.992    0.528    0.213
  425.500  139.638    4.202    0.531    0.209
  425.750  139.643    4.202    0.510    0.221
  426.000  138.438    4.412    0.492    0.229
  426.250  137.837    4.412    0.496    0.234
  426.500  138.444    4.412    0.510    0.230
  426.750  139.655    4.202    0.490    0.227
  427.000  140.264    4.202    0.491    0.227
  427.250  140.869    3.992    0.516    0.226
  427.500  142.081    3.992    0.523    0.225
  427.750  142.688    3.782    0.558    0.222
  428.000  142.692    3.571    0.568    0.224
  428.250  142.695    3.571    0.517    0.230
  428.500  142.699    3.361    0.518    0.237
  428.750  143.305    3.361    0.527    0.248
  429.000  143.913    3.361    0.532    0.246
  429.250  144.519    3.361    0.537    0.240
  429.500  143.918    3.361    0.544    0.230
  429.750  143.318    3.361    0.545    0.236
  430.000  143.925    3.361    0.544    0.241
  430.250  145.136    3.151    0.550    0.240
  430.500  144.535    3.151    0.554    0.244
  430.750  142.729    3.151    0.557    0.247
  431.000  142.731    3.151    0.559    0.242
  431.250  144.546    3.151    0.576    0.239
  431.500  146.361    2.941    0.589    0.245
  431.750  146.364    2.941    0.604    0.252
  432.000  144.557    2.731    0.625    0.245
  432.250  143.351    2.731    0.625    0.232
  432.500  142.751    2.731    0.632    0.226
  432.750  142.755    2.731    0.632    0.228
  433.000  140.945    2.731    0.620    0.237
  433.250  135.513    2.731    0.621    0.244
  433.500  136.121    2.731    0.602    0.244
  433.750  139.144    2.731    0.609    0.244
  434.000  140.958    2.731    0.615    0.252
  434.250  138.546    2.731    0.620    0.261
  434.500  134.322    2.731    0.602    0.261
  434.750  131.910    2.731    0.585    0.256
  435.000  135.536    2.941    0.554    0.251
  435.250  140.976    3.151    0.552    0.254
  435.500  139.770    3.361    0.579    0.261
  435.750  136.755    3.571    0.593    0.261
  436.000  136.154    3.571    0.552    0.252
  436.250  136.156    3.571    0.516    0.236
  436.500  136.764    3.571    0.515    0.207
  436.750  137.371    3.571    0.521    0.166
  437.000  142.809    3.571    0.528    0.135
  437.250  142.813    3.571    0.539    0.163
  437.500  140.400    3.361    0.586    0.257
  437.750  138.592    3.151    0.603    0.249
  438.000  137.992    2.941    0.621    0.260
  438.250  137.995    2.731    0.610    0.272
  438.500  137.998    2.521    0.590    0.276
  438.750  138.606    2.311    0.596    0.267
  439.000  138.006    2.311    0.609    0.267
  439.250  137.404    2.311    0.622    0.272
  439.500  136.200    2.311    0.632    0.273
  439.750  134.391    2.311    0.629    0.273
  440.000  133.187    2.311    0.614    0.275
  440.250  135.002    2.101    0.595    0.273
  440.500  136.817    2.101    0.578    0.266
  440.750  140.444    2.101    0.580    0.257
  441.000  142.259    2.101    0.575    0.254
  441.250  141.658    2.101    0.568    0.260
  441.500  140.454    2.101    0.573    0.265
  441.750  140.457    2.101    0.582    0.267
  442.000  139.856    2.101    0.588    0.273
  442.250  136.236    2.101    0.580    0.275
  442.500  131.407    2.311    0.567    0.273
  442.750  122.956    2.521    0.568    0.265
  443.000  115.712    2.941    0.588    0.273
  443.250  107.864    3.571    0.593    0.278
  443.500  103.035    5.042    0.599    0.269
  443.750   95.188    5.672    0.540    0.252
  444.000   92.776    6.303    0.489    0.314
  444.250   93.986    6.723    0.438    0.335
  444.500   96.405    6.723    0.427    0.325
  444.750  100.636    6.933    0.433    0.316
  445.000  105.471    6.933    0.442    0.203
  445.250  112.722    6.723    0.468    0.151
  445.500  118.162    6.303    0.504    0.194
  445.750  120.581    5.672    0.516    0.222
  446.000  121.187    4.832    0.527    0.265
  446.250  121.795    4.202    0.522    0.250
  446.500  120.590    3.992    0.477    0.253
  446.750  118.781    3.782    0.462    0.259
  447.000  117.577    3.992    0.444    0.262
  447.250  118.788    4.412    0.451    0.257
  447.500  119.999    4.412    0.459    0.251
  447.750  123.626    4.622    0.479    0.253
  448.000  125.441    4.412    0.499    0.254
  448.250  120.613    4.202    0.504    0.255
  448.500  112.765    4.202    0.512    0.260
  448.750  104.917    4.202    0.531    0.266
  449.000   92.237    4.622    0.531    0.266
  449.250   93.450    5.672    0.436    0.262
  449.500   94.660    6.723    0.418    0.269
  449.750   95.267    7.563    0.467    0.280
  450.000   91.647    7.983    0.468    0.279
  450.250   88.630    7.983    0.441    0.275
  450.500   91.049    7.773    0.411    0.258
  450.750   96.488    7.353    0.402    0.250
  451.000  103.134    6.513    0.451    0.261
  451.250  110.989    5.672    0.483    0.270
  451.500  117.635    4.622    0.503    0.267
  451.750  121.866    3.992    0.519    0.263
  452.000  127.307    3.361    0.524    0.258
  452.250  130.329    3.361    0.520    0.254
  452.500  130.938    3.361    0.519    0.251
  452.750  130.335    3.361    0.525    0.251
  453.000  129.736    3.782    0.531    0.249
  453.250  129.738    3.992    0.534    0.249
  453.500  129.138    4.202    0.506    0.253
  453.750  129.141    4.202    0.499    0.254
  454.000  130.352    4.202    0.500    0.253
  454.250  131.563    3.992    0.498    0.250
  454.500  134.586    3.782    0.490    0.248
  454.750  137.005    3.782    0.499    0.244
  455.000  134.593    3.571    0.510    0.238
  455.250  130.972    3.361    0.562    0.232
  455.500  112.253    3.151    0.588    0.208
  455.750  107.425    2.731    0.456    0.150
  456.000  117.695    2.521    0.437    0.094
  456.250  129.777    2.521    0.532    0.094
  456.500  141.860    2.521    0.563    0.108
  456.750  141.258    2.521    0.531    0.150
