~VERSION INFORMATION
 VERS.                 2.0:   CWLS LOG ASCII STANDARD -VERSION 2.0
 WRAP.                  NO:   ONE LINE PER DEPTH STEP
~WELL INFORMATION BLOCK
#MNEM.UNIT           DATA                    DESCRIPTION OF MNEMONIC
#---------    -------------------            -------------------------------
# Generated from Intellog Unique Number	CC_80_83/WELL/2438
NULL.         -999.25                        : NULL_VALUE
WELL.         GULF RESDELN                   : Well_name    - WELL              
LOC .         14-36-082-07W4                 : Location     - LOCATION          
UWI .         AA/14-36-082-07W4/0            : Uwi          - UNIQUE WELL ID    
ENTR.         DW                             : Entered      - ENTERED BY        
SRVC.         SCHLUMBERGER                   : Scn          - SERVICE COMPANY   
DATE.         01 MAR 81                      : Date         - LOG DATE
STRT.M        160                            : top_depth    - START DEPTH       
STOP.M        419.794                        : bot_depth    - STOP DEPTH        
STEP.M        0.3                            : increment    - STEP LENGTH       
~CURVE INFORMATION BLOCK
#MNEM UNIT       ERCB CURVE CODE    CURVE DESCRIPTION
#-----------   ------------------   ----------------------------------
DEPT.M        00 001 00 00         : DEPTH        - DEPTH                       
DPHI.V/V      00 890 00 00         : PHID         - DENSITY POROSITY (LIMESTONE)
NPHI.V/V      00 330 00 00         : PHIN         - NEUTRON POROSITY (LIMESTONE)
GR  .API      00 310 00 00         : GR           - GAMMA RAY                   
ILD .OHMM     00 120 00 00         : RESD         - DEEP RESISTIVITY (DIL)      
~PARAMETER INFORMATION       
#MNEM.UNIT           DATA             DESCRIPTION OF MNEMONIC
#---------         -----------     ------------------------------
GL  .M        627.75               : gl           - GROUND LEVEL ELEVATION      
EREF.M        631.5                : kb           - ELEVATION OF DEPTH REFERENCE
DATM.M        631.5                : datum        - DATUM ELEVATION             
TDD .M        461                  : tdd          - TOTAL DEPTH DRILLER         
RUN .         ONE                  : Run          - RUN NUMBER                  
ENG .         BILL                 : Engineer     - RECORDING ENGINEER          
WIT .         JIM                  : Witness      - WITNESSED BY                
MUD .         GEL                  : Mud_type     - MUD TYPE                    
MATR.         LIMESTONE            : Logunit      - NEUTRON MATRIX              
TMAX.C        17.8                 : BHT          - MAXIMUM RECORDED TEMPERATURE
BHTD.M        461                  : BHTDEP       - MAXIMUM RECORDED TEMPERATURE
MATR.         1                    : LOGUNIT      - NEUTRON MATRIX              
RMT .C        25                   : MDTP         - TEMPERATURE OF MUD          
NEUT.         1                    : NEUTRON      - NEUTRON TYPE                
RESI.         0                    : RESIST       - RESISTIVITY TYPE            
RMC .OHMM     0.25                 : RMC          - RESISTIVITY OF MUD CAKE     
RMF .OHMM     0.25                 : RMF          - RESISTIVITY OF MUD FILTRATE 
SUFT.C        4                    : SUFT         - SURFACE TEMPERATURE         
~A  DEPTH     PHID     PHIN       GR     RESD
# ...
  264.401    0.253    0.507   95.511    4.252
  264.701    0.253    0.530   98.585    4.415
  265.001    0.275    0.541  100.427    4.584
  265.301    0.286    0.546   96.721    4.328
  265.601    0.274    0.540   88.084    4.085
  265.901    0.280    0.490   83.759    4.162
  266.201    0.311    0.470   82.518    4.489
  266.501    0.265    0.490   84.976    4.487
  266.801    0.267    0.506   83.736    4.317
  267.101    0.284    0.525   81.878    4.482
  267.401    0.303    0.541   85.570    4.928
  267.701    0.318    0.498   88.029    4.925
  268.000    0.284    0.519   85.555    4.391
  268.300    0.298    0.533   86.780    3.628
  268.600    0.275    0.540   86.155    3.055
  268.900    0.269    0.536   83.681    2.996
  269.200    0.297    0.520   81.824    3.171
  269.500    0.319    0.507   82.432    3.356
  269.800    0.314    0.505   82.425    3.760
  270.100    0.302    0.556   81.183    3.979
  270.400    0.326    0.576   79.944    3.828
  270.700    0.326    0.523   75.622    3.900
  271.000    0.312    0.468   67.599    4.627
  271.300    0.314    0.427   62.660   10.289
  271.600    0.292    0.407   58.953   12.441
  271.900    0.283    0.427   61.410   15.332
  272.200    0.335    0.440   60.169   17.180
  272.500    0.328    0.433   60.162   18.529
  272.800    0.327    0.433   63.237   18.170
  273.100    0.339    0.432   68.160   17.820
  273.400    0.342    0.432   70.003   17.810
  273.700    0.337    0.439   68.147   17.803
  274.000    0.345    0.446   63.207   18.136
  274.300    0.352    0.451   61.350   18.830
  274.600    0.348    0.432   58.259   19.184
  274.900    0.337    0.430   56.402   19.543
  275.200    0.326    0.419   55.778   19.532
  275.500    0.326    0.410   55.769   19.154
  275.800    0.337    0.446   55.760   19.143
  276.100    0.341    0.450   55.754   18.772
  276.400    0.333    0.445   53.282   18.764
  276.700    0.331    0.441   55.739   18.756
  277.000    0.336    0.435   58.197   18.394
  277.300    0.341    0.433   60.037   17.696
  277.600    0.348    0.438   60.030   17.354
  277.900    0.353    0.452   59.406   16.697
  278.200    0.354    0.464   60.631   16.375
  278.500    0.352    0.446   61.240   16.058
  278.800    0.339    0.433   58.767   16.051
  279.100    0.312    0.413   51.361   16.350
  279.400    0.266    0.382   48.888   16.974
  279.700    0.135    0.296   47.031   17.629
  280.000    0.070    0.182   44.556   21.727
  280.300    0.000    0.126   42.700   35.627
  280.600    0.000    0.113   40.842   44.751
  280.900    0.000    0.107   41.451   47.354
  281.200    0.000    0.105   41.442   46.439
  281.500    0.000    0.109   42.052   43.837
  281.800    0.000    0.155   45.742   41.383
  282.100    0.024    0.223   51.899   39.070
  282.400    0.119    0.286   61.138   31.670
  282.700    0.311    0.406   61.131   22.469
  283.000    0.330    0.418   59.890   18.214
  283.300    0.330    0.422   58.033   16.869
  283.600    0.332    0.440   60.492   16.544
  283.900    0.337    0.453   58.635   16.534
  284.200    0.339    0.468   58.010   16.528
  284.500    0.336    0.467   62.317   16.838
  284.800    0.335    0.452   60.460   17.479
  285.100    0.337    0.441   56.137   17.808
  285.400    0.342    0.450   60.445   17.801
  285.700    0.345    0.443   61.668   17.791
  286.000    0.341    0.434   60.430   18.124
  286.300    0.340    0.428   62.269   18.112
  286.600    0.342    0.423   62.263   17.765
  286.900    0.340    0.441   61.637   17.421
  287.200    0.329    0.458   59.779   17.084
  287.500    0.338    0.439   58.538   16.752
  287.800    0.361    0.437   57.916   16.430
  288.100    0.362    0.449   59.139   15.808
  288.400    0.349    0.461   59.132   15.504
  288.700    0.341    0.446   59.742   15.496
  289.000    0.339    0.451   60.349   15.486
  289.300    0.348    0.451   60.960   15.477
  289.600    0.341    0.445   59.102   15.473
  289.900    0.329    0.451   58.479   15.761
  290.200    0.314    0.461   59.087   15.753
  290.500    0.302    0.453   55.997   16.049
  290.800    0.330    0.447   55.989   16.664
  291.100    0.339    0.445   55.982   16.977
  291.400    0.339    0.426   59.672   17.292
  291.700    0.330    0.412   59.665   17.286
  292.000    0.348    0.435   59.039   17.276
  292.299    0.348    0.438   60.265   17.269
  292.599    0.333    0.437   61.490   16.932
  292.899    0.337    0.436   61.483   16.291
  293.199    0.349    0.431   59.626   16.287
  293.499    0.360    0.424   58.385   15.971
  293.799    0.355    0.426   57.142   15.365
  294.099    0.349    0.436   57.137   15.357
  294.399    0.355    0.441   58.976   15.059
  294.699    0.360    0.447   60.204   15.342
  294.999    0.357    0.444   60.194   15.336
  295.299    0.358    0.430   62.038   15.324
  295.599    0.353    0.425   66.344   15.319
  295.899    0.346    0.441   68.186   15.315
  296.199    0.346    0.455   66.945   15.016
  296.499    0.348    0.455   61.389   14.726
  296.799    0.349    0.452   61.998   14.441
  297.099    0.347    0.446   65.073   14.436
  297.399    0.343    0.443   65.064   14.156
  297.699    0.342    0.479   63.208   13.880
  297.999    0.333    0.475   63.816   13.610
  298.299    0.323    0.484   65.042   13.098
  298.599    0.323    0.506   63.800   12.601
  298.899    0.310    0.487   63.176   12.360
  299.199    0.317    0.443   65.635   11.890
  299.499    0.320    0.420   63.160   11.886
  299.799    0.287    0.404   59.454   12.108
  300.099    0.240    0.388   56.981   13.061
  300.399    0.229    0.409   62.521   16.095
  300.699    0.281    0.451   64.362   14.906
  300.999    0.326    0.453   62.504   13.546
  301.299    0.332    0.454   61.882   12.311
  301.599    0.327    0.452   66.188   10.976
  301.899    0.322    0.483   69.879    9.974
  302.199    0.310    0.507   73.571    8.562
  302.499    0.283    0.539   79.112    4.230
  302.799    0.304    0.535   83.418    3.429
  303.099    0.304    0.542   85.876    3.299
  303.399    0.281    0.540   87.719    3.298
  303.699    0.327    0.488   82.162    3.766
  303.999    0.308    0.452   80.305    4.913
  304.299    0.301    0.441   84.612    5.942
  304.599    0.248    0.470   90.769    6.786
  304.899    0.249    0.501   91.377    6.781
  305.199    0.275    0.515   88.286    6.651
  305.499    0.259    0.510   87.664    5.818
  305.799    0.282    0.528   88.273    5.187
  306.099    0.285    0.554   92.579    4.625
  306.399    0.311    0.576   95.655    3.895
  306.699    0.303    0.587   95.647    3.039
  306.999    0.302    0.580   94.405    2.659
  307.299    0.308    0.561   96.248    2.416
  307.599    0.295    0.541   93.773    2.324
  307.899    0.317    0.551   90.683    2.368
  308.199    0.329    0.540   89.442    2.459
  308.499    0.292    0.536   88.202    2.553
  308.799    0.289    0.532   88.195    2.972
  309.099    0.272    0.512   86.337    4.028
  309.399    0.291    0.481   86.329    4.689
  309.699    0.303    0.462   88.172    5.155
  309.999    0.261    0.497   91.862    5.998
  310.299    0.269    0.509   88.771    6.348
  310.599    0.265    0.497   89.380    6.468
  310.899    0.263    0.487   91.222    6.714
  311.199    0.238    0.473   90.597    6.841
  311.499    0.255    0.462   90.591    6.838
  311.799    0.278    0.453   85.034    6.966
  312.099    0.298    0.460   82.559    7.097
  312.399    0.307    0.473   83.170    7.229
  312.699    0.247    0.475   87.477    7.365
  312.999    0.275    0.450   90.551    7.503
  313.299    0.227    0.455   93.625    7.790
  313.599    0.245    0.445   92.384    8.896
  313.899    0.232    0.432   91.145   10.355
  314.199    0.234    0.432   89.286   10.959
  314.499    0.250    0.441   90.512   10.346
  314.799    0.260    0.452   93.586    9.224
  315.099    0.259    0.461   94.812    8.381
  315.399    0.233    0.467   94.187    7.473
  315.699    0.259    0.486   92.948    6.791
  315.999    0.267    0.477   91.089    6.534
  316.299    0.281    0.484   89.850    6.408
