~VERSION INFORMATION
 VERS.                 2.0:   CWLS LOG ASCII STANDARD -VERSION 2.0
 WRAP.                  NO:   ONE LINE PER DEPTH STEP
~WELL INFORMATION BLOCK
#MNEM.UNIT           DATA                    DESCRIPTION OF MNEMONIC
#---------    -------------------            -------------------------------
# Generated from Intellog Unique Number	CW_82_90/WELL/3435
WELL.         CDN SUP                        : Well_name    - WELL
LOC .         AA/10-02-090-24W4/0            : Location     - LOCATION
UWI .         AA/10-02-090-24W4/0            : Uwi          - UNIQUE WELL ID
ENTR.         MAX                            : Entered      - ENTERED BY
SRVC.         SCHLUMBERGER                   : Scn          - SERVICE COMPANY
STRT.M        173                            : top_depth    - START DEPTH
STOP.M        293                            : bot_depth    - STOP DEPTH
STEP.M        0.25                           : increment    - STEP LENGTH
 NULL. -999.2500:NULL Value
~CURVE INFORMATION BLOCK
#MNEM UNIT       ERCB CURVE CODE    CURVE DESCRIPTION
#-----------   ------------------   ----------------------------------
DEPT.M        00 001 00 00         : DEPTH        - DEPTH
ILD .OHMM     00 120 00 00         : RESD         - DEEP RESISTIVITY (DIL)
NPHI.V/V      00 330 00 00         : PHIN         - NEUTRON POROSITY (SANDSTONE)
DPHI.V/V      00 890 00 00         : PHID         - DENSITY POROSITY (SANDSTONE)
CALI.MM       00 280 01 00         : CAL          - CALIPER
GR  .API      00 310 00 00         : GR           - GAMMA RAY
~PARAMETER INFORMATION
#MNEM.UNIT           DATA             DESCRIPTION OF MNEMONIC
#---------         -----------     ------------------------------
GL  .M        512                  : gl           - GROUND LEVEL ELEVATION
EREF.M        515.5                : kb           - ELEVATION OF DEPTH REFERENCE
DATM.M        512                  : datum        - DATUM ELEVATION
TDD .M        320                  : tdd          - TOTAL DEPTH DRILLER
RUN .         ONE                  : Run          - RUN NUMBER
ENG .         BILL                 : Engineer     - RECORDING ENGINEER
WIT .         JIM                  : Witness      - WITNESSED BY
MUD .         GEL                  : Mud_type     - MUD TYPE
MATR.         SANDSTONE            : Logunit      - NEUTRON MATRIX
TMAX.C        16                   : BHT          - MAXIMUM RECORDED TEMPERATURE
BHTD.M        320                  : BHTDEP       - MAXIMUM RECORDED TEMPERATURE
MATR.         1                    : LOGUNIT      - NEUTRON MATRIX
RMT .C        16                   : MDTP         - TEMPERATURE OF MUD
NEUT.         1                    : NEUTRON      - NEUTRON TYPE
RESI.         0                    : RESIST       - RESISTIVITY TYPE
RMC .OHMM     2.61                 : RMC          - RESISTIVITY OF MUD CAKE
RMF .OHMM     2.61                 : RMF          - RESISTIVITY OF MUD FILTRATE
SUFT.C        -15                  : SUFT         - SURFACE TEMPERATURE
~A  DEPTH     RESD     PHIN     PHID      CAL       GR
# ...
  209.500    7.207    0.495    0.211  201.448   78.866
  209.750    7.897    0.481    0.191  208.493   77.038
  210.000    8.573    0.479    0.172  209.988   83.384
  210.250    9.054    0.498    0.184  207.951   78.227
  210.500    9.050    0.508    0.247  200.362   73.675
  210.750    8.252    0.483    0.273  197.821   71.239
  211.000    7.592    0.455    0.235  197.300   75.468
  211.250    8.168    0.439    0.206  196.272   86.354
  211.500    9.721    0.434    0.183  195.245   93.910
  211.750   11.051    0.440    0.263  194.722  105.404
  212.000   11.459    0.462    0.239  202.775  121.134
  212.250   11.141    0.479    0.244  202.747  136.863
  212.500   10.441    0.496    0.264  201.220  146.236
  212.750    9.696    0.498    0.249  201.203  132.906
  213.000    9.005    0.511    0.251  203.707  107.465
  213.250    8.286    0.542    0.253  204.693   95.648
  213.500    7.282    0.569    0.280  203.668   91.097
  213.750    5.945    0.570    0.269  202.138   88.358
  214.000    4.428    0.549    0.259  201.108   85.623
  214.250    3.209    0.543    0.264  202.602   82.283
  214.500    2.668    0.531    0.262  203.091   78.034
  214.750    2.618    0.516    0.266  200.545   75.297
  215.000    2.843    0.508    0.273  196.992   74.073
  215.250    3.956    0.499    0.273  194.955   73.762
  215.500    5.209    0.488    0.267  194.432   74.054
  215.750    7.248    0.483    0.261  194.418   74.949
  216.000    9.033    0.490    0.254  193.390   77.057
  216.250   10.458    0.488    0.246  196.903   79.770
  216.500   11.250    0.486    0.228  203.441   81.878
  216.750   11.664    0.486    0.212  204.429   82.773
  217.000   11.446    0.488    0.203  201.888   79.735
  217.250    9.433    0.469    0.189  200.358   75.790
  217.500    6.710    0.452    0.181  199.832   72.142
  217.750    5.185    0.429    0.142  199.312   70.317
  218.000    6.003    0.413    0.123  199.797   67.580
  218.250    8.126    0.384    0.113  199.776   63.937
  218.500   10.506    0.356    0.097  198.749   58.478
  218.750   12.854    0.301    0.058  198.223   54.532
  219.000   14.214    0.240    0.006  197.702   60.877
  219.250   17.713    0.229    0.003  197.684   67.526
  219.500   21.082    0.257    0.027  198.165   74.780
  219.750   20.123    0.341    0.093  198.655   88.693
  220.000   18.348    0.470    0.176  199.139   97.763
  220.250   15.120    0.476    0.170  199.120   94.422
  220.500   11.577    0.472    0.153  199.606   89.566
  220.750    6.081    0.475    0.163  200.092   88.344
  221.000    6.786    0.473    0.158  200.580   85.002
  221.250    7.785    0.468    0.151  200.557   79.543
  221.500    8.689    0.446    0.134  200.543   76.505
  221.750    9.520    0.420    0.105  200.524   85.878
  222.000   10.723    0.388    0.121  200.503   93.734
  222.250   11.967    0.413    0.200  199.978   94.029
  222.500   11.961    0.467    0.195  199.457   95.228
  222.750   10.804    0.479    0.187  199.433   94.610
  223.000    9.409    0.477    0.170  199.417   93.995
  223.250    7.683    0.476    0.188  199.398   92.773
  223.500    7.539    0.469    0.208  199.884   91.248
  223.750    8.336    0.453    0.202  200.370   90.930
  224.000    8.968    0.465    0.209  199.847   91.224
  224.250    9.559    0.480    0.204  199.830   91.212
  224.500    9.821    0.488    0.207  197.789   90.594
  224.750    9.907    0.462    0.191  197.766   89.070
  225.000   10.272    0.447    0.174  197.754   85.125
  225.250    9.716    0.431    0.164  196.222   85.417
  225.500    8.698    0.432    0.184  195.696   89.341
  225.750    7.929    0.443    0.244  194.671   94.476
  226.000    8.531    0.433    0.225  198.182   98.400
  226.250    9.261    0.430    0.196  197.151   95.663
  226.500    9.516    0.427    0.192  197.133   95.346
  226.750    9.511    0.438    0.217  196.110   94.730
  227.000    8.913    0.435    0.220  194.071   92.299
  227.250    8.667    0.428    0.219  193.548   86.537
  227.500    9.153    0.423    0.215  193.524   85.313
  227.750   10.121    0.428    0.202  195.021   85.909
  228.000   10.788    0.430    0.184  195.507   91.042
  228.250   11.291    0.435    0.177  194.982   85.886
  228.500   11.708    0.426    0.169  194.461   78.607
  228.750   11.808    0.439    0.214  196.463   83.744
  229.000   11.695    0.456    0.237  200.480   91.299
  229.250   12.240    0.460    0.207  203.486   96.738
  229.500   13.167    0.461    0.189  204.979   96.725
  229.750   12.115    0.462    0.173  204.960   94.899
  230.000   10.844    0.459    0.161  204.437   95.796
  230.250    9.887    0.451    0.154  203.916   94.270
  230.500    9.525    0.442    0.145  201.875   91.536
  230.750    9.433    0.408    0.127  200.852   90.919
  231.000    9.963    0.361    0.083  199.319   93.027
  231.250   11.430    0.348    0.091  198.791  103.913
  231.500   12.639    0.365    0.134  199.282  104.205
  231.750   12.987    0.462    0.179  202.795  100.861
  232.000   12.282    0.443    0.170  203.783   99.336
  232.250   11.406    0.428    0.155  203.762   99.629
  232.500    9.842    0.426    0.158  203.741   99.617
  232.750    8.729    0.437    0.164  203.727  100.513
  233.000    9.742    0.470    0.175  203.708  102.621
  233.250   10.384    0.470    0.179  202.676  101.703
  233.500   10.003    0.468    0.180  202.660  101.087
  233.750    9.289    0.474    0.167  202.139  101.984
  234.000    8.787    0.470    0.169  201.111  102.578
  234.250    8.311    0.466    0.176  200.081  101.052
  234.500    7.861    0.480    0.188  198.546   97.105
  234.750    7.644    0.460    0.190  198.021   94.370
  235.000    7.782    0.437    0.199  198.007   92.541
  235.250    8.219    0.419    0.186  197.986   89.806
  235.500    8.923    0.397    0.164  197.463   88.887
  235.750    9.868    0.357    0.095  197.444   90.995
  236.000   11.853    0.377    0.101  197.428   93.101
  236.250   13.598    0.400    0.202  197.407   94.604
  236.500   14.494    0.417    0.197  197.890   94.290
  236.750   12.854    0.410    0.205  197.876   94.580
  237.000   11.937    0.401    0.209  197.855   98.807
  237.250   12.153    0.389    0.202  197.836  101.521
  237.500   12.601    0.415    0.190  199.331  104.233
  237.750   12.479    0.418    0.185  201.331  102.404
  238.000   12.134    0.420    0.176  203.328  101.485
  238.250   11.583    0.443    0.183  203.311  100.568
  238.500   11.159    0.435    0.175  200.768   97.528
  238.750   10.750    0.426    0.191  200.242   97.517
  239.000   10.647    0.426    0.181  200.731   98.112
  239.250   10.839    0.440    0.177  200.712   99.310
  239.500   11.343    0.442    0.180  200.186  100.509
  239.750   11.762    0.440    0.182  200.170  100.801
  240.000   11.865    0.445    0.186  200.151  101.397
  240.250   11.223    0.456    0.176  200.130   99.266
  240.500   10.045    0.467    0.166  200.114   96.834
  240.750    8.509    0.443    0.147  199.588   93.795
  241.000    8.350    0.428    0.114  199.570   88.334
  241.250   10.030    0.395    0.098  199.549   94.074
  241.500   11.296    0.447    0.197  199.030  101.631
  241.750   10.113    0.482    0.193  198.505  110.699
  242.000    8.257    0.502    0.198  197.982  111.598
  242.250    7.124    0.528    0.210  197.963  105.531
  242.500    5.871    0.533    0.200  198.951  104.309
  242.750    4.578    0.518    0.193  198.935  102.177
  243.000    2.971    0.513    0.195  199.923   97.931
  243.250    3.316    0.507    0.195  201.420   93.379
  243.500    4.286    0.500    0.195  201.401   89.128
  243.750    5.244    0.485    0.192  200.876   91.840
  244.000    6.299    0.468    0.169  200.855   95.462
  244.250    7.779    0.450    0.155  200.841   97.571
  244.500    9.343    0.433    0.205  200.817   95.136
  244.750   10.331    0.457    0.190  200.799   92.402
  245.000    9.862    0.469    0.173  200.782   90.575
  245.250    9.243    0.465    0.159  201.268   92.378
  245.500    9.070    0.456    0.141  202.761   93.882
  245.750    9.758    0.465    0.192  203.249   94.174
