~VERSION INFORMATION
 VERS.                 2.0:   CWLS LOG ASCII STANDARD -VERSION 2.0
 WRAP.                  NO:   ONE LINE PER DEPTH STEP
~WELL INFORMATION BLOCK
#MNEM.UNIT           DATA                    DESCRIPTION OF MNEMONIC
#---------    -------------------            -------------------------------
# Generated from Intellog Unique Number	CX_WELLS/WELL/3925
WELL.         15-01-098-12W4                 : Well_name    - WELL
LOC .         AA/15-01-098-12W4/0            : Location     - LOCATION
UWI .         AA/15-01-098-12W400            : Uwi          - UNIQUE WELL ID
ENTR.         TIM                            : Entered      - ENTERED BY
SRVC.         SCHLUMBERGER                   : Scn          - SERVICE COMPANY
DATE.         08/11/92                       : Date         - LOG DATE
STRT.M        0                              : top_depth    - START DEPTH
STOP.M        120                            : bot_depth    - STOP DEPTH
STEP.M        0.25                           : increment    - STEP LENGTH
 NULL. -999.2500:NULL Value
~CURVE INFORMATION BLOCK
#MNEM UNIT       ERCB CURVE CODE    CURVE DESCRIPTION
#-----------   ------------------   ----------------------------------
DEPT.M        00 001 00 00         : DEPTH        - DEPTH
ILD .OHMM     00 120 00 00         : RESD         - DEEP RESISTIVITY (DIL)
GR  .API      00 310 00 00         : GR           - GAMMA RAY
NPHI.V/V      00 330 00 00         : PHIN         - NEUTRON POROSITY (SANDSTONE)
DPHI.V/V      00 890 00 00         : PHID         - DENSITY POROSITY (SANDSTONE)
~PARAMETER INFORMATION
#MNEM.UNIT           DATA             DESCRIPTION OF MNEMONIC
#---------         -----------     ------------------------------
GL  .M        362.5                : gl           - GROUND LEVEL ELEVATION
EREF.M        362.5                : kb           - ELEVATION OF DEPTH REFERENCE
DATM.M        362.5                : datum        - DATUM ELEVATION
TDD .M        137.6                : tdd          - TOTAL DEPTH DRILLER
RUN .         ONE                  : Run          - RUN NUMBER
ENG .         BILL                 : Engineer     - RECORDING ENGINEER
WIT .         JIM                  : Witness      - WITNESSED BY
MUD .         GEL                  : Mud_type     - MUD TYPE
MATR.         SANDSTONE            : Logunit      - NEUTRON MATRIX
TMAX.C        10                   : BHT          - MAXIMUM RECORDED TEMPERATURE
BHTD.M        137                  : BHTDEP       - MAXIMUM RECORDED TEMPERATURE
RMT .C        10                   : MDTP         - TEMPERATURE OF MUD
MUDD.KG/M     1090                 : MWT          - MUD DENSITY
NEUT.         1                    : NEUTRON      - NEUTRON TYPE
RESI.         0                    : RESIST       - RESISTIVITY TYPE
RM  .OHMM     13.1                 : RM           - RESISTIVITY OF MUD
RMC .OHMM     13.1                 : RMC          - RESISTIVITY OF MUD CAKE
RMF .OHMM     13.1                 : RMF          - RESISTIVITY OF MUD FILTRATE
SUFT.C        4                    : SUFT         - SURFACE TEMPERATURE
~A  DEPTH     RESD       GR     PHIN     PHID
    0.000   11.363   82.577    0.313    0.325
    0.250   11.700   83.852    0.320    0.325
    0.500   12.935   84.498    0.327    0.329
    0.750   14.305   84.549    0.340    0.334
    1.000   14.529   85.204    0.348    0.340
    1.250   14.149   86.488    0.357    0.348
    1.500   13.778   86.513    0.368    0.353
    1.750   13.408   86.539    0.378    0.365
    2.000   13.229   89.055    0.386    0.371
    2.250   12.882   89.719    0.393    0.379
    2.500   12.545   92.227    0.400    0.385
    2.750   12.377   97.235    0.407    0.393
    3.000   11.880   99.751    0.410    0.399
    3.250   11.565  101.018    0.417    0.403
    3.500   11.107  100.440    0.423    0.401
    3.750   10.963   97.983    0.432    0.401
    4.000   11.458  109.818    0.438    0.402
    4.250   11.803  114.818    0.446    0.400
    4.500   12.153  114.240    0.459    0.400
    4.750   12.344  111.170    0.486    0.402
    5.000   11.689  107.472    0.509    0.402
    5.250   11.371  103.161    0.533    0.366
    5.500   11.070  100.091    0.564    0.387
    5.750   11.569   95.781    0.592    0.391
    6.000   12.259  105.746    0.615    0.394
    6.250   12.803  114.469    0.622    0.395
    6.500   13.760  118.227    0.621    0.395
    6.750   14.376  118.270    0.598    0.396
    7.000   14.601  115.829    0.569    0.397
    7.250   14.213  113.364    0.581    0.398
    7.500   14.033  109.053    0.590    0.399
    7.750   13.666  104.130    0.583    0.400
    8.000   13.303   99.190    0.562    0.398
    8.250   12.950   93.638    0.543    0.393
    8.500   12.782   96.775    0.537    0.391
    8.750   12.447   97.430    0.544    0.387
    9.000   11.951   93.748    0.551    0.378
    9.250   11.791   91.291    0.566    0.374
    9.500   11.478   86.989    0.577    0.369
    9.750   11.178   84.531    0.587    0.370
   10.000   10.881   84.565    0.589    0.395
   10.250   10.596   85.220    0.591    0.402
   10.500   10.604   88.374    0.596    0.409
   10.750   10.181   90.883    0.599    0.410
   11.000    9.772   92.158    0.599    0.409
   11.250    9.644   91.571    0.602    0.408
   11.500    9.522   90.985    0.607    0.410
   11.750    9.402   94.122    0.612    0.410
   12.000    9.152   96.018    0.619    0.410
   12.250    8.912   92.949    0.617    0.407
   12.500    8.799   89.259    0.611    0.404
   12.750    8.812   86.189    0.603    0.401
   13.000    8.697   90.576    0.595    0.395
   13.250    8.712   89.981    0.590    0.388
   13.500    8.724   89.394    0.588    0.382
   13.750    8.614   98.118    0.594    0.387
   14.000    8.264  104.376    0.604    0.394
   14.250    7.932  106.281    0.611    0.398
   14.500    7.725  106.306    0.612    0.399
   14.750    7.627  105.711    0.615    0.402
   15.000    7.640  104.503    0.615    0.403
   15.250    7.650  104.537    0.610    0.404
   15.500    7.664  104.588    0.606    0.406
   15.750    7.561  103.993    0.613    0.406
   16.000    7.572  103.406    0.604    0.402
   16.250    7.270  105.294    0.581    0.396
   16.500    7.175  109.673    0.564    0.382
   16.750    7.185  115.301    0.547    0.368
   17.000    7.298  115.973    0.547    0.354
   17.250    7.517  114.128    0.554    0.355
   17.500    7.746  110.438    0.551    0.355
   17.750    7.757  106.119    0.528    0.350
   18.000    7.338  102.429    0.530    0.342
   18.250    6.847  103.092    0.555    0.340
   18.500    6.210  107.471    0.572    0.339
   18.750    6.048  108.746    0.583    0.336
   19.000    6.408  106.918    0.565    0.333
   19.250    6.601  103.848    0.549    0.330
   19.500    6.424  102.020    0.557    0.328
   19.750    5.829  102.054    0.564    0.327
   20.000    5.437  104.571    0.577    0.326
   20.250    5.602  104.001    0.580    0.326
   20.500    5.769  103.398    0.578    0.325
   20.750    5.945  104.673    0.577    0.322
   21.000    6.126  105.948    0.570    0.319
   21.250    6.217  108.482    0.565    0.315
   21.500    6.406  109.120    0.557    0.313
   21.750    6.601  110.395    0.535    0.311
   22.000    6.702  112.300    0.510    0.304
   22.250    6.709  115.437    0.480    0.300
   22.500    6.817  120.445    0.445    0.297
   22.750    6.451  124.195    0.405    0.293
   23.000    5.686  121.125    0.373    0.252
   23.250    5.085  114.952    0.402    0.290
   23.500    4.952  106.297    0.550    0.326
   23.750    5.028  101.374    0.596    0.366
   24.000    5.108  100.158    0.624    0.379
   24.250    4.903   98.338    0.620    0.380
   24.500    4.575   99.614    0.624    0.377
   24.750    4.517   99.648    0.632    0.375
   25.000    4.586   99.061    0.629    0.378
   25.250    4.724  100.336    0.625    0.378
   25.500    4.798   97.258    0.618    0.374
   25.750    4.737   92.327    0.602    0.371
   26.000    4.814   86.154    0.586    0.367
   26.250    4.957   82.464    0.569    0.357
   26.500    5.480   82.506    0.531    0.327
   26.750    5.809   87.497    0.501    0.335
   27.000    5.815   97.462    0.513    0.337
   27.250    5.582   95.634    0.530    0.340
   27.500    5.435   91.944    0.533    0.340
   27.750    5.758   95.090    0.507    0.337
   28.000    7.334   96.357    0.459    0.326
   28.250    8.341   93.296    0.436    0.301
   28.500    9.221   89.606    0.413    0.306
   28.750    8.976   85.287    0.437    0.315
   29.000    8.142   77.872    0.473    0.324
   29.250    6.977   76.053    0.514    0.332
   29.500    5.494   81.664    0.539    0.335
   29.750    4.915   99.086    0.565    0.332
   30.000    4.586  105.948    0.566    0.332
   30.250    4.463  106.602    0.546    0.329
   30.500    4.534  107.886    0.539    0.325
   30.750    4.540  107.291    0.553    0.323
   31.000    4.611  104.842    0.573    0.321
   31.250    4.816  103.643    0.556    0.320
   31.500    5.103  103.677    0.541    0.318
   31.750    5.332  109.297    0.556    0.317
   32.000    5.264  107.469    0.527    0.317
   32.250    5.198  105.012    0.538    0.319
   32.500    5.205  103.193    0.530    0.320
   32.750    5.288  107.571    0.524    0.322
   33.000    5.525  105.743    0.534    0.324
   33.250    6.110   99.579    0.544    0.326
   33.500    6.566   99.613    0.552    0.328
   33.750    6.302  103.362    0.556    0.330
   34.000    5.878  107.129    0.562    0.332
   34.250    5.485  104.672    0.570    0.335
   34.500    5.339   99.120    0.576    0.332
   34.750    5.349   97.912    0.569    0.328
   35.000    5.356  109.739    0.576    0.327
   35.250    5.286  111.635    0.594    0.332
   35.500    5.219  107.325    0.601    0.334
   35.750    5.153  105.505    0.590    0.336
   36.000    5.160  108.642    0.587    0.332
   36.250    5.241  108.047    0.588    0.327
   36.500    5.476  103.116    0.584    0.327
   36.750    5.802  106.253    0.577    0.328
   37.000    6.148  111.890    0.569    0.327
   37.250    6.244  111.304    0.551    0.319
   37.500    5.993  112.579    0.532    0.311
   37.750    5.836  113.234    0.514    0.313
   38.000    5.682  113.268    0.506    0.316
   38.250    5.611  114.543    0.512    0.318
   38.500    5.537  115.206    0.513    0.313
   38.750    5.093  113.982    0.495    0.313
   39.000    5.247  112.162    0.485    0.318
   39.250    5.408  114.050    0.490    0.320
   39.500    5.416  116.566    0.489    0.320
   39.750    5.656  117.238    0.476    0.312
   40.000    6.081  117.255    0.463    0.304
   40.250    6.444  117.289    0.451    0.300
   40.500    6.925  116.082    0.436    0.306
   40.750    6.553  110.530    0.427    0.313
   41.000    5.777  104.977    0.417    0.328
   41.250    5.168   96.942    0.432    0.333
   41.500    4.960   93.873    0.465    0.342
   41.750    5.036  108.803    0.489    0.347
   42.000    5.412  112.570    0.483    0.342
   42.250    5.737  113.845    0.478    0.309
   42.500    5.662  112.026    0.479    0.304
   42.750    5.358  113.301    0.490    0.290
   43.000    5.216  113.335    0.504    0.283
   43.250    5.452  113.990    0.503    0.303
