~VERSION INFORMATION
 VERS.                 2.0:   CWLS LOG ASCII STANDARD -VERSION 2.0
 WRAP.                  NO:   ONE LINE PER DEPTH STEP
~WELL INFORMATION BLOCK
#MNEM.UNIT           DATA                    DESCRIPTION OF MNEMONIC
#---------    -------------------            -------------------------------
# Generated from Intellog Unique Number	CC_80_83/WELL/2337
NULL.         -999.25                        : NULL_VALUE
WELL.         PEX PCEJU HOUSE OV             : Well_name    - WELL              
LOC .         10-08-081-13W4                 : Location     - LOCATION          
UWI .         AA/10-08-081-13W400            : Uwi          - UNIQUE WELL ID    
ENTR.         DW                             : Entered      - ENTERED BY        
SRVC.         DRESSER ATLAS                  : Scn          - SERVICE COMPANY   
DATE.         31 JAN 81                      : Date         - LOG DATE
STRT.M        225                            : top_depth    - START DEPTH       
STOP.M        474.891                        : bot_depth    - STOP DEPTH        
STEP.M        0.3                            : increment    - STEP LENGTH       
~CURVE INFORMATION BLOCK
#MNEM UNIT       ERCB CURVE CODE    CURVE DESCRIPTION
#-----------   ------------------   ----------------------------------
DEPT.M        00 001 00 00         : DEPTH        - DEPTH                       
DPHI.V/V      00 890 00 00         : PHID         - DENSITY POROSITY (LIMESTONE)
NPHI.V/V      00 330 00 00         : PHIN         - NEUTRON POROSITY (LIMESTONE)
GR  .API      00 310 00 00         : GR           - GAMMA RAY                   
ILD .OHMM     00 120 00 00         : RESD         - DEEP RESISTIVITY (DIL)      
~PARAMETER INFORMATION       
#MNEM.UNIT           DATA             DESCRIPTION OF MNEMONIC
#---------         -----------     ------------------------------
GL  .M        667.8                : gl           - GROUND LEVEL ELEVATION      
EREF.M        670.7                : kb           - ELEVATION OF DEPTH REFERENCE
DATM.M        670.7                : datum        - DATUM ELEVATION             
TDD .M        477                  : tdd          - TOTAL DEPTH DRILLER         
RUN .         ONE                  : Run          - RUN NUMBER                  
ENG .         BILL                 : Engineer     - RECORDING ENGINEER          
WIT .         JIM                  : Witness      - WITNESSED BY                
MUD .         GEL                  : Mud_type     - MUD TYPE                    
MATR.         LIMESTONE            : Logunit      - NEUTRON MATRIX              
TMAX.C        18                   : BHT          - MAXIMUM RECORDED TEMPERATURE
BHTD.M        4772                 : BHTDEP       - MAXIMUM RECORDED TEMPERATURE
MATR.         1                    : LOGUNIT      - NEUTRON MATRIX              
RMT .C        25                   : MDTP         - TEMPERATURE OF MUD          
NEUT.         1                    : NEUTRON      - NEUTRON TYPE                
RESI.         0                    : RESIST       - RESISTIVITY TYPE            
RMC .OHMM     0.25                 : RMC          - RESISTIVITY OF MUD CAKE     
RMF .OHMM     0.25                 : RMF          - RESISTIVITY OF MUD FILTRATE 
SUFT.C        4                    : SUFT         - SURFACE TEMPERATURE         
~A  DEPTH     PHID     PHIN       GR     RESD
# ...
  381.595    0.242    0.399   99.195    7.715
  381.895    0.263    0.450   91.612    7.430
  382.195    0.263    0.450   96.580    7.156
  382.495    0.272    0.431   95.284    6.895
  382.795    0.290    0.415  111.530    6.898
  383.095    0.306    0.420  113.342    7.037
  383.395    0.387    0.455  112.059    7.041
  383.695    0.269    0.476  101.981    7.323
  383.995    0.273    0.467  100.676    7.613
  384.295    0.261    0.478  104.383    7.765
  384.595    0.240    0.481  108.723    8.075
  384.895    0.233    0.471   96.130    8.079
  385.195    0.227    0.452   99.220    8.242
  385.495    0.238    0.418  104.172    8.248
  385.795    0.236    0.425  102.881    7.945
  386.095    0.253    0.416   95.924    7.949
  386.395    0.262    0.424   90.245    8.264
  386.695    0.256    0.407   92.703    8.593
  386.995    0.238    0.412   87.001    9.108
  387.295    0.111    0.398   83.192   10.419
  387.595    0.159    0.368   82.520   11.922
  387.895    0.180    0.359   93.753   12.878
  388.195    0.121    0.355   99.347   12.889
  388.495    0.059    0.288   90.517   11.066
  388.795    0.116    0.252   64.768    8.974
  389.095    0.178    0.326   76.002    8.643
  389.395    0.259    0.373   82.215    8.817
  389.695    0.254    0.431   90.320    9.168
  389.995    0.247    0.428   94.646    9.532
  390.295    0.162    0.415   83.323    9.181
  390.595    0.145    0.391   90.162    8.510
  390.895    0.202    0.389   94.499    7.741
  391.195    0.310    0.466   98.218    7.314
  391.495    0.313    0.462   80.610    6.912
  391.795    0.305    0.457   88.714    6.656
  392.095    0.305    0.458   92.425    6.789
  392.395    0.348    0.446   93.003    6.416
  392.695    0.392    0.508   91.071    6.062
  392.995    0.389    0.506  102.931    5.206
  393.295    0.386    0.483   95.351    4.470
  393.595    0.357    0.500   95.306    4.144
  393.895    0.342    0.516  115.945    4.228
  394.195    0.318    0.511  118.402    4.568
  394.495    0.329    0.491  118.347    5.126
  394.795    0.399    0.465  111.403    8.597
  395.095    0.405    0.477   98.817    9.650
  395.395    0.349    0.468   93.753   10.034
  395.695    0.169    0.444   92.447    9.665
  395.995    0.205    0.389   92.398    9.487
  396.295    0.312    0.374  104.257    8.630
  396.595    0.263    0.462   99.817    8.154
  396.895    0.253    0.498   96.637    8.160
  397.195    0.336    0.473   98.464    8.817
  397.495    0.338    0.450  101.549    8.992
  397.795    0.326    0.465   88.336    9.174
  398.095    0.255    0.470   97.692    9.178
  398.395    0.322    0.454  106.417    9.012
  398.695    0.300    0.485  103.851    8.846
  398.995    0.308    0.478  103.184    8.361
  399.294    0.328    0.458   98.104    8.365
  399.594    0.353    0.459   99.929    8.534
  399.894    0.346    0.650  102.748   10.253
  400.194    0.268    0.461  104.715   10.054
  400.494    0.223    0.430  102.308    9.134
  400.794    0.187    0.427  102.410    8.143
  401.094    0.279    0.458  110.042    6.854
  401.394    0.318    0.484  112.629    6.228
  401.694    0.311    0.484  116.482    4.857
  401.994    0.342    0.484  117.225    3.716
  402.294    0.345    0.490  116.056    3.189
  402.594    0.343    0.527  111.776    2.440
  402.894    0.341    0.558  116.257    2.259
  403.194    0.372    0.594   95.685    2.346
  403.494    0.388    0.550   98.281    2.732
  403.794    0.354    0.506  101.523    5.027
  404.094    0.333    0.476   79.062    5.853
  404.394    0.296    0.480   95.443    6.685
  404.694    0.295    0.470   84.899    7.493
  404.994    0.300    0.471   91.275    9.237
  405.294    0.322    0.462   96.991    8.886
  405.594    0.381    0.464   94.590    8.230
  405.894    0.363    0.450   90.923    6.297
  406.194    0.258    0.437   79.750    4.911
  406.494    0.260    0.440   87.361    4.294
  406.794    0.324    0.486   98.113    4.292
  407.094    0.333    0.480  100.729    4.373
  407.394    0.373    0.505  105.231    4.454
  407.694    0.360    0.484  106.549    4.204
  407.994    0.319    0.550   95.388    3.969
  408.294    0.323    0.552  103.626    3.818
  408.594    0.366    0.538  113.114    3.889
  408.894    0.357    0.462  102.565    3.962
  409.194    0.293    0.468  101.433    4.036
  409.494    0.333    0.515  107.779    4.034
  409.794    0.319    0.536  116.017    4.032
  410.094    0.304    0.502  124.883    4.108
  410.394    0.291    0.492  117.470    4.185
  410.694    0.289    0.574  106.911    4.262
  410.994    0.293    0.518  113.906    4.261
  411.294    0.362    0.506  126.523    4.259
  411.594    0.354    0.487  120.361    4.865
  411.894    0.321    0.465  134.238    6.113
  412.194    0.320    0.437  114.305    7.682
  412.494    0.228    0.390  103.740    8.775
  412.794    0.214    0.398   86.298   10.613
  413.094    0.353    0.444   91.414   12.123
  413.394    0.360    0.453   97.770   12.831
  413.694    0.319    0.456  104.133   12.580
  413.994    0.269    0.397   74.803   12.576
  414.294    0.266    0.385   74.910   11.870
  414.594    0.267    0.401   89.395   10.379
  414.894    0.304    0.433  102.646    9.797
  415.194    0.278    0.420  105.261   10.368
  415.494    0.262    0.408   83.430   11.619
  415.794    0.268    0.421   88.578   11.838
  416.094    0.260    0.396   94.317   11.172
  416.394    0.262    0.390   94.386   11.599
  416.694    0.257    0.411   90.085   12.046
  416.994    0.238    0.389   80.162   12.748
  417.294    0.214    0.396   77.751   13.493
  417.594    0.210    0.406   96.018   13.748
  417.894    0.218    0.422  123.683   15.407
  418.194    0.245    0.436  125.056   18.634
  418.494    0.282    0.414  115.111   21.696
  418.794    0.304    0.405  110.227   25.748
  419.094    0.288    0.395  106.550   31.145
  419.394    0.263    0.394   85.352   29.961
  419.694    0.200    0.382   96.097   28.274
  419.994    0.164    0.387   85.546   27.207
  420.294    0.266    0.398   85.032   24.719
  420.594    0.245    0.374   85.745   23.331
  420.894    0.226    0.362   96.480   24.226
  421.194    0.229    0.388   76.555   27.671
  421.494    0.246    0.396   78.531   33.473
  421.794    0.246    0.398   75.497   37.512
  422.094    0.252    0.418   78.084   36.087
  422.394    0.273    0.410   73.810   32.786
  422.694    0.263    0.403   78.301   27.599
  422.994    0.233    0.393   83.382   21.940
  423.294    0.205    0.382   95.385   19.933
  423.594    0.210    0.375  102.382   18.456
  423.893    0.219    0.367   86.199   18.449
  424.193    0.206    0.363   83.167   18.437
  424.493    0.200    0.398   85.771   19.514
  424.793    0.199    0.393   97.129   20.262
  425.093    0.243    0.380  103.507   21.042
  425.393    0.234    0.382   98.594   24.031
  425.693    0.222    0.403   94.916   26.427
  425.993    0.272    0.396   79.986   25.420
  426.293    0.255    0.389   87.597   23.542
  426.593    0.269    0.381   65.150   20.984
  426.893    0.255    0.371   77.159   19.066
  427.193    0.221    0.361   94.160   16.993
  427.493    0.279    0.368  105.530   14.861
  427.793    0.261    0.403   90.598   14.295
  428.093    0.252    0.424   86.948   14.290
  428.393    0.238    0.410   97.067   15.123
  428.693    0.225    0.417  106.551   16.312
  428.993    0.213    0.431  103.528   17.938
  429.293    0.211    0.416   96.745   20.103
  429.593    0.212    0.397   87.431   22.526
  429.893    0.227    0.397   92.545   23.845
  430.193    0.261    0.421   88.892   26.217
  430.493    0.264    0.408   87.730   28.282
  430.793    0.275    0.411   83.461   30.505
  431.093    0.275    0.433   77.916   29.350
  431.393    0.285    0.431   79.250   25.666
  431.693    0.285    0.440   75.586   21.604
  431.993    0.268    0.412   73.815   17.845
  432.293    0.243    0.394   82.677   14.184
  432.593    0.227    0.392   95.934   12.644
  432.893    0.214    0.386  120.467   12.165
  433.193    0.216    0.385  119.929   12.874
  433.493    0.238    0.409  123.792   14.704
