~VERSION INFORMATION
 VERS.                 2.0:   CWLS LOG ASCII STANDARD -VERSION 2.0
 WRAP.                  NO:   ONE LINE PER DEPTH STEP
~WELL INFORMATION BLOCK
#MNEM.UNIT           DATA                    DESCRIPTION OF MNEMONIC
#---------    -------------------            -------------------------------
# Generated from Intellog Unique Number	CN_94_101/WELL/1076
WELL.         11-33-094-06W4                 : Well_name    - WELL
LOC .         AA/11-33-094-06W4/0            : Location     - LOCATION
UWI .         AA/11-33-094-06W400            : Uwi          - UNIQUE WELL ID
ENTR.         JOETTE                         : Entered      - ENTERED BY
SRVC.         SCHLUMBERGER                   : Scn          - SERVICE COMPANY
DATE.         04/14/92                       : Date         - LOG DATE
STRT.M        100                            : top_depth    - START DEPTH
STOP.M        330                            : bot_depth    - STOP DEPTH
STEP.M        0.25                           : increment    - STEP LENGTH
 NULL. -999.2500:NULL Value
~CURVE INFORMATION BLOCK
#MNEM UNIT       ERCB CURVE CODE    CURVE DESCRIPTION
#-----------   ------------------   ----------------------------------
DEPT.M        00 001 00 00         : DEPTH        - DEPTH
ILD .OHMM     00 120 00 00         : RESD         - DEEP RESISTIVITY (DIL)
DPHI.V/V      00 890 00 00         : PHID         - DENSITY POROSITY (SANDSTONE)
NPHI.V/V      00 330 00 00         : PHIN         - NEUTRON POROSITY (SANDSTONE)
GR  .API      00 310 00 00         : GR           - GAMMA RAY
CALI.MM       00 280 01 00         : CAL          - CALIPER
~PARAMETER INFORMATION
#MNEM.UNIT           DATA             DESCRIPTION OF MNEMONIC
#---------         -----------     ------------------------------
GL  .M        597.57               : gl           - GROUND LEVEL ELEVATION
EREF.M        600.27               : kb           - ELEVATION OF DEPTH REFERENCE
DATM.M        600.27               : datum        - DATUM ELEVATION
TDD .M        335                  : tdd          - TOTAL DEPTH DRILLER
RUN .         ONE                  : Run          - RUN NUMBER
ENG .         BILL                 : Engineer     - RECORDING ENGINEER
WIT .         JIM                  : Witness      - WITNESSED BY
MUD .         GEL                  : Mud_type     - MUD TYPE
MATR.         SANDSTONE            : Logunit      - NEUTRON MATRIX
TMAX.C        16                   : BHT          - MAXIMUM RECORDED TEMPERATURE
BHTD.M        335                  : BHTDEP       - MAXIMUM RECORDED TEMPERATURE
RMT .C        19                   : MDTP         - TEMPERATURE OF MUD
MUDD.KG/M     1030                 : MWT          - MUD DENSITY
NEUT.         1                    : NEUTRON      - NEUTRON TYPE
RESI.         0                    : RESIST       - RESISTIVITY TYPE
RM  .OHMM     8.1                  : RM           - RESISTIVITY OF MUD
RMC .OHMM     8.1                  : RMC          - RESISTIVITY OF MUD CAKE
RMF .OHMM     8.1                  : RMF          - RESISTIVITY OF MUD FILTRATE
SUFT.C        4                    : SUFT         - SURFACE TEMPERATURE
~A  DEPTH     RESD     PHID     PHIN       GR      CAL
# ...
  173.000   26.708    0.315    0.390   70.213  169.374
  173.250   24.765    0.306    0.412   73.829  170.425
  173.500   22.543    0.260    0.412   79.236  171.475
  173.750   21.307    0.249    0.409   82.852  171.531
  174.000   21.758    0.262    0.429   84.080  169.596
  174.250   23.968    0.292    0.451   76.948  168.657
  174.500   25.903    0.303    0.439   74.593  167.717
  174.750   26.936    0.291    0.431   72.835  168.754
  175.000   26.969    0.287    0.436   71.077  170.828
  175.250   39.569    0.325    0.440   68.730  170.856
  175.500   45.287    0.318    0.434   65.173  168.921
  175.750   44.498    0.312    0.430   58.041  165.991
  176.000   39.726    0.345    0.419   51.506  166.047
  176.250   35.456    0.334    0.410   51.556  170.111
  176.500   29.890    0.319    0.409   53.961  171.148
  176.750   26.685    0.314    0.404   59.368  174.203
  177.000   25.716    0.311    0.420   64.784  173.263
  177.250   32.392    0.295    0.415   65.423  171.329
  177.500   35.683    0.274    0.400   63.673  170.389
  177.750   33.108    0.299    0.406   61.318  169.463
  178.000   34.439    0.311    0.405   59.552  168.496
  178.250   38.658    0.309    0.410   54.800  168.552
  178.500   41.779    0.322    0.422   44.683  168.621
  178.750   39.500    0.356    0.433   46.508  169.672
  179.000   35.275    0.327    0.402   53.706  170.723
  179.250   32.709    0.319    0.388   57.322  172.755
  179.500   29.765    0.317    0.410   62.133  172.811
  179.750   26.590    0.335    0.434   65.151  170.876
  180.000   25.139    0.332    0.433   59.214  169.950
  180.250   24.686    0.297    0.409   51.485  171.996
  180.500   24.248    0.287    0.406   53.907  174.042
  180.750   25.224    0.296    0.446   64.688  174.112
  181.000   27.252    0.319    0.463   71.895  171.196
  181.250   30.599    0.330    0.451   67.151  170.228
  181.500   31.840    0.314    0.431   60.019  168.308
  181.750   28.974    0.297    0.432   56.470  169.344
  182.000   32.533    0.315    0.436   57.101  172.400
  182.250   39.430    0.329    0.436   52.963  168.474
  182.500   36.574    0.327    0.446   49.413  166.540
  182.750   30.833    0.342    0.447   48.253  171.571
  183.000   27.527    0.336    0.412   51.860  174.598
  183.250   28.634    0.281    0.407   59.067  176.658
  183.500   32.771    0.294    0.424   63.272  173.729
  183.750   35.417    0.313    0.437   57.334  171.780
  184.000   37.553    0.328    0.446   51.994  166.860
  184.250   37.610    0.353    0.454   49.042  165.934
  184.500   34.874    0.360    0.419   45.509  167.966
  184.750   30.546    0.328    0.409   47.317  170.026
  185.000   28.341    0.319    0.403   49.739  170.082
  185.250   33.062    0.325    0.415   52.758  170.137
  185.500   37.839    0.343    0.421   51.597  170.193
  185.750   40.133    0.351    0.431   49.250  170.262
  186.000   35.819    0.362    0.427   48.687  170.304
  186.250   24.009    0.372    0.421   49.906  171.355
  186.500   22.263    0.372    0.417   53.522  172.420
  186.750   14.640    0.361    0.442   59.535  173.470
  187.000   12.346    0.349    0.443   65.539  176.512
  187.250   13.343    0.331    0.428   78.112  183.520
  187.500   14.694    0.279    0.498   96.066  189.546
  187.750   13.376    0.260    0.519   90.129  193.610
  188.000   11.719    0.269    0.485   83.594  189.657
  188.250   11.286    0.254    0.470   78.842  177.771
  188.500   12.673    0.258    0.457   83.661  177.841
  188.750   15.963    0.248    0.455   78.917  180.896
  189.000   19.347    0.248    0.448   70.591  180.951
  189.250   24.370    0.287    0.454   56.286  175.036
  189.500   26.837    0.326    0.430   51.551  171.111
  189.750   30.715    0.337    0.426   56.352  170.157
  190.000   35.164    0.323    0.500   59.380  169.218
  190.250   42.620    0.330    0.473   51.045  166.288
  190.500   53.685    0.359    0.447   46.302  165.348
  190.750   56.921    0.371    0.442   42.753  165.432
  191.000   58.072    0.365    0.431   39.203  165.474
  191.250   58.178    0.365    0.422   39.842  165.543
  191.500   58.231    0.381    0.425   40.473  165.571
  191.750   57.199    0.387    0.433   38.109  165.640
  192.000   56.185    0.382    0.441   39.934  165.696
  192.250   49.196    0.375    0.438   44.172  164.757
  192.500   42.274    0.368    0.428   44.189  164.812
  192.750   30.587    0.366    0.412   45.416  165.863
  193.000   26.790    0.330    0.402   51.421  169.885
  193.250   25.329    0.313    0.432   63.396  180.902
  193.500   25.857    0.279    0.449   70.595  184.952
  193.750   24.446    0.333    0.434   60.477  181.013
  194.000   21.818    0.331    0.412   50.966  166.141
  194.250   19.854    0.314    0.401   58.156  168.187
  194.500   17.061    0.301    0.414   70.737  171.228
  194.750   14.383    0.299    0.430   79.138  173.274
  195.000   12.601    0.297    0.441   75.589  173.330
  195.250   14.418    0.294    0.462   76.219  173.386
  195.500   16.501    0.288    0.456   75.647  173.441
  195.750   16.850    0.293    0.419   63.150  172.502
  196.000   15.329    0.297    0.394   62.586  171.576
  196.250   13.949    0.292    0.403   64.402  173.622
  196.500   13.439    0.280    0.412   71.004  176.649
  196.750   12.951    0.269    0.414   77.605  181.681
  197.000   11.792    0.272    0.431   85.418  185.717
  197.250   11.576    0.273    0.470   89.025  185.787
  197.500   11.156    0.268    0.491   82.491  184.861
  197.750   10.754    0.261    0.489   78.941  184.903
  198.000   10.363    0.254    0.459   79.572  184.972
  198.250   10.185    0.265    0.449   83.188  185.014
  198.500    9.999    0.285    0.440   83.818  186.065
  198.750    9.636    0.296    0.447   85.046  182.140
  199.000    9.286    0.272    0.485   91.050  182.195
  199.250    8.948    0.246    0.516   98.846  186.232
  199.500    8.458    0.211    0.533   94.700  190.268
  199.750    7.696    0.178    0.464   89.368  183.357
  200.000    7.004    0.153    0.421   95.372  185.403
  200.250    6.622    0.207    0.555  104.959  192.425
  200.500    6.027    0.243    0.544  110.366  194.471
  200.750    5.699    0.237    0.532  111.594  197.540
  201.000    5.707    0.241    0.531  111.627  199.572
  201.250    5.716    0.244    0.559  108.683  197.637
  201.500    5.719    0.257    0.606  109.911  196.712
  201.750    5.726    0.256    0.570  112.324  195.758
  202.000    5.959    0.241    0.551  112.963  195.828
  202.250    6.081    0.242    0.550  112.988  196.865
  202.500    6.206    0.244    0.588  111.239  196.934
  202.750    6.213    0.204    0.610  107.084  196.990
  203.000    6.105    0.142    0.576   99.355  196.064
  203.250    5.993    0.094    0.548   98.194  196.092
  203.500    5.455    0.148    0.595  108.984  197.143
  203.750    5.158    0.184    0.598  117.982  197.199
  204.000    4.876    0.219    0.595  113.230  197.254
  204.250    4.791    0.239    0.603  107.898  197.310
  204.500    4.797    0.252    0.610  105.535  197.379
  204.750    4.800    0.256    0.594  104.971  197.435
  205.000    4.807    0.268    0.576  106.207  197.477
  205.250    4.724    0.256    0.545  106.829  197.546
  205.500    4.728    0.251    0.558  105.071  197.602
  205.750    4.732    0.250    0.581  103.313  196.676
  206.000    4.738    0.256    0.587  102.152  196.746
  206.250    4.837    0.262    0.596  100.992  196.788
  206.500    5.128    0.262    0.595  100.436  196.829
  206.750    5.544    0.258    0.576   99.275  196.913
  207.000    6.111    0.258    0.561   97.509  196.941
  207.250    6.353    0.262    0.553  101.722  197.010
  207.500    6.736    0.271    0.576  101.158  197.052
  207.750    6.744    0.269    0.563   93.430  197.135
  208.000    6.752    0.264    0.536   91.075  197.163
  208.250    6.761    0.255    0.528   92.899  197.233
  208.500    6.639    0.254    0.556   94.724  195.298
  208.750    6.777    0.254    0.562   92.377  192.368
  209.000    7.186    0.257    0.575   89.425  189.452
  209.250    8.388    0.267    0.534   85.867  188.485
