~VERSION INFORMATION
 VERS.                 2.0:   CWLS LOG ASCII STANDARD -VERSION 2.0
 WRAP.                  NO:   ONE LINE PER DEPTH STEP
~WELL INFORMATION BLOCK
#MNEM.UNIT           DATA                    DESCRIPTION OF MNEMONIC
#---------    -------------------            -------------------------------
# Generated from Intellog Unique Number	CW_79_81/WELL/2479
WELL.         GULF HOOLE OV                  : Well_name    - WELL
LOC .         AA/11-01-080-23W4/0            : Location     - LOCATION
UWI .         AA/11-01-080-23W4/0            : Uwi          - UNIQUE WELL ID
ENTR.         MAX                            : Entered      - ENTERED BY
SRVC.         SCHLUMBERGER                   : Scn          - SERVICE COMPANY
STRT.M        215                            : top_depth    - START DEPTH
STOP.M        485                            : bot_depth    - STOP DEPTH
STEP.M        0.25                           : increment    - STEP LENGTH
 NULL. -999.2500:NULL Value
~CURVE INFORMATION BLOCK
#MNEM UNIT       ERCB CURVE CODE    CURVE DESCRIPTION
#-----------   ------------------   ----------------------------------
DEPT.M        00 001 00 00         : DEPTH        - DEPTH
ILD .OHMM     00 120 00 00         : RESD         - DEEP RESISTIVITY (DIL)
NPHI.V/V      00 330 00 00         : PHIN         - NEUTRON POROSITY (SANDSTONE)
DPHI.V/V      00 890 00 00         : PHID         - DENSITY POROSITY (SANDSTONE)
GR  .API      00 310 00 00         : GR           - GAMMA RAY
CALI.MM       00 280 01 00         : CAL          - CALIPER
~PARAMETER INFORMATION
#MNEM.UNIT           DATA             DESCRIPTION OF MNEMONIC
#---------         -----------     ------------------------------
GL  .M        583.2                : gl           - GROUND LEVEL ELEVATION
EREF.M        586.7                : kb           - ELEVATION OF DEPTH REFERENCE
DATM.M        583.2                : datum        - DATUM ELEVATION
TDD .M        490                  : tdd          - TOTAL DEPTH DRILLER
RUN .         ONE                  : Run          - RUN NUMBER
ENG .         BILL                 : Engineer     - RECORDING ENGINEER
WIT .         JIM                  : Witness      - WITNESSED BY
MUD .         GEL                  : Mud_type     - MUD TYPE
MATR.         SANDSTONE            : Logunit      - NEUTRON MATRIX
TMAX.C        29                   : BHT          - MAXIMUM RECORDED TEMPERATURE
BHTD.M        490                  : BHTDEP       - MAXIMUM RECORDED TEMPERATURE
MATR.         1                    : LOGUNIT      - NEUTRON MATRIX
RMT .C        17                   : MDTP         - TEMPERATURE OF MUD
NEUT.         1                    : NEUTRON      - NEUTRON TYPE
RESI.         0                    : RESIST       - RESISTIVITY TYPE
RMC .OHMM     8.12                 : RMC          - RESISTIVITY OF MUD CAKE
RMF .OHMM     7.56                 : RMF          - RESISTIVITY OF MUD FILTRATE
SUFT.C        15                   : SUFT         - SURFACE TEMPERATURE
~A  DEPTH     RESD     PHIN     PHID       GR      CAL
# ...
  288.000   12.224    0.461    0.312   62.359  248.875
  288.250   11.792    0.461    0.309   62.163  248.865
  288.500   11.802    0.451    0.305   62.207  248.505
  288.750   11.814    0.454    0.296   62.958  248.165
  289.000   11.889    0.463    0.295   63.347  247.839
  289.250   12.074    0.472    0.302   62.788  247.703
  289.500   12.309    0.474    0.310   61.877  247.857
  289.750   12.410    0.458    0.303   62.695  248.417
  290.000   12.410    0.450    0.291   64.222  248.889
  290.250   12.431    0.433    0.283   64.494  249.342
  290.500   12.442    0.434    0.275   64.593  249.809
  290.750   12.452    0.438    0.265   65.344  250.269
  291.000   12.251    0.441    0.262   66.924  250.623
  291.250   10.856    0.457    0.282   68.623  250.626
  291.500    8.547    0.499    0.299   67.427  250.265
  291.750    5.728    0.513    0.308   64.133  249.925
  292.000    5.033    0.517    0.315   62.092  249.297
  292.250    4.966    0.511    0.322   60.460  248.573
  292.500    5.476    0.497    0.331   58.051  248.044
  292.750    8.005    0.463    0.333   52.941  248.115
  293.000   10.143    0.435    0.331   50.993  248.187
  293.250   14.801    0.412    0.341   51.031  248.237
  293.500   18.425    0.403    0.344   51.425  248.887
  293.750   21.413    0.401    0.345   52.058  249.545
  294.000   25.000    0.403    0.349   52.928  250.007
  294.250   27.415    0.411    0.361   54.314  250.639
  294.500   27.654    0.425    0.367   55.105  251.530
  294.750   27.468    0.437    0.372   54.901  252.386
  295.000   27.135    0.433    0.367   54.515  253.242
  295.250   26.759    0.421    0.359   53.597  254.098
  295.500   26.486    0.415    0.353   52.269  254.854
  295.750   26.552    0.436    0.346   51.329  255.492
  296.000   26.780    0.464    0.346   52.352  256.384
  296.250   26.602    0.462    0.344   53.345  257.233
  296.500   26.574    0.459    0.344   53.440  258.687
  296.750   26.694    0.454    0.347   53.595  259.943
  297.000   26.918    0.450    0.350   53.752  260.599
  297.250   27.235    0.448    0.345   52.648  260.502
  297.500   27.666    0.460    0.338   51.700  259.734
  297.750   28.306    0.462    0.335   53.395  259.401
  298.000   28.648    0.454    0.331   55.810  259.364
  298.250   28.884    0.454    0.324   59.298  259.824
  298.500   29.067    0.461    0.318   62.012  261.076
  298.750   29.183    0.457    0.317   59.371  264.027
  299.000   29.659    0.467    0.319   56.684  266.571
  299.250   29.685    0.456    0.320   57.194  267.036
  299.500   29.873    0.449    0.317   57.707  266.596
  299.750   30.008    0.442    0.316   57.508  267.052
  300.000   30.033    0.434    0.317   56.834  268.705
  300.250   30.055    0.433    0.316   57.222  271.688
  300.500   30.055    0.448    0.313   58.992  278.356
  300.750   29.879    0.454    0.316   60.457  279.212
  301.000   30.021    0.448    0.323   59.606  275.899
  301.250   30.380    0.434    0.327   56.905  263.666
  301.500   30.913    0.420    0.324   53.727  247.770
  301.750   31.540    0.414    0.312   52.749  243.571
  302.000   31.090    0.433    0.300   54.771  244.043
  302.250   30.203    0.458    0.314   57.181  245.302
  302.500   29.671    0.468    0.327   59.417  245.064
  302.750   29.258    0.474    0.333   60.050  244.523
  303.000   28.854    0.477    0.331   59.791  244.875
  303.250   28.368    0.461    0.323   62.151  247.833
  303.500   27.956    0.441    0.318   65.416  250.384
  303.750   26.962    0.440    0.318   67.825  251.227
  304.000   26.442    0.425    0.316   72.028  252.382
  304.250   25.978    0.403    0.287   74.801  253.436
  304.500   25.526    0.374    0.236   75.134  254.091
  304.750   25.552    0.323    0.184   73.781  254.422
  305.000   26.579    0.279    0.126   71.585  255.733
  305.250   29.040    0.256    0.086   65.913  255.777
  305.500   31.910    0.233    0.059   60.595  255.542
  305.750   35.277    0.213    0.041   54.442  254.815
  306.000   38.718    0.199    0.031   48.530  253.885
  306.250   40.890    0.202    0.030   46.348  253.974
  306.500   41.241    0.233    0.030   47.127  256.118
  306.750   40.068    0.257    0.047   49.306  256.558
  307.000   38.053    0.263    0.086   51.663  256.715
  307.250   35.201    0.266    0.122   54.199  256.778
  307.500   31.891    0.286    0.151   57.032  257.140
  307.750   28.018    0.362    0.206   61.896  258.661
  308.000   25.395    0.467    0.304   69.370  259.972
  308.250   22.547    0.486    0.323   72.977  260.029
  308.500   20.977    0.481    0.326   76.048  260.382
  308.750   19.941    0.468    0.324   78.465  260.839
  309.000   19.203    0.457    0.320   77.610  261.197
  309.250   18.799    0.453    0.307   65.646  261.103
  309.500   18.814    0.454    0.289   52.050  260.349
  309.750   19.395    0.449    0.281   42.809  258.039
  310.000   20.649    0.444    0.288   38.917  256.899
  310.250   22.483    0.441    0.305   37.527  256.358
  310.500   24.785    0.440    0.322   37.091  256.125
  310.750   27.467    0.444    0.328   37.470  256.373
  311.000   28.134    0.458    0.329   38.005  257.272
  311.250   28.154    0.451    0.334   38.281  258.927
  311.500   27.552    0.454    0.337   38.375  259.671
  311.750   26.872    0.462    0.336   38.769  259.923
  312.000   26.449    0.467    0.335   39.344  259.686
  312.250   26.458    0.462    0.341   39.237  258.566
  312.500   26.502    0.465    0.350   38.533  258.632
  312.750   27.116    0.466    0.354   37.623  258.695
  313.000   27.138    0.464    0.354   37.596  258.465
  313.250   26.959    0.464    0.352   38.225  258.528
  313.500   26.782    0.463    0.352   38.977  259.080
  313.750   26.570    0.455    0.352   38.828  260.109
  314.000   26.388    0.445    0.350   37.876  261.007
  314.250   26.407    0.446    0.354   37.434  263.449
  314.500   26.283    0.457    0.351   37.712  264.399
  314.750   26.111    0.455    0.344   37.514  265.255
  315.000   25.983    0.442    0.337   36.717  266.615
  315.250   25.991    0.439    0.331   36.578  268.452
  315.500   26.033    0.433    0.327   38.112  269.330
  315.750   26.056    0.426    0.326   38.859  270.973
  316.000   25.930    0.442    0.325   38.536  272.918
  316.250   25.852    0.456    0.326   38.333  274.368
  316.500   25.823    0.456    0.330   38.963  275.224
  316.750   25.619    0.444    0.338   40.727  276.341
  317.000   25.443    0.451    0.338   41.010  277.646
  317.250   25.464    0.456    0.335   41.289  280.087
  317.500   25.345    0.446    0.335   40.673  281.637
  317.750   25.085    0.437    0.338   41.425  281.892
  318.000   24.689    0.432    0.345   43.366  281.354
  318.250   24.097    0.423    0.350   43.837  281.524
  318.500   23.747    0.423    0.338   43.624  281.996
  318.750   23.244    0.452    0.332   44.852  273.329
  319.000   22.500    0.462    0.331   47.147  261.093
  319.250   21.701    0.456    0.329   49.923  253.221
  319.500   20.807    0.444    0.324   52.523  251.399
  319.750   18.964    0.445    0.311   54.481  251.073
  320.000   16.190    0.444    0.297   55.752  251.145
  320.250   12.124    0.446    0.298   58.176  251.604
  320.500    9.935    0.448    0.305   60.054  251.766
  320.750    9.119    0.446    0.305   62.467  251.826
  321.000    9.191    0.444    0.297   65.598  251.886
  321.250    9.876    0.450    0.285   69.088  251.885
  321.500   10.936    0.445    0.280   70.862  251.537
  321.750   11.948    0.452    0.284   70.424  252.783
  322.000   13.198    0.454    0.288   71.594  253.440
  322.250   14.549    0.448    0.292   73.537  253.896
  322.500   15.585    0.438    0.289   75.655  254.747
  322.750   15.352    0.435    0.273   77.746  256.971
  323.000   14.235    0.448    0.256   78.532  257.862
  323.250   12.635    0.451    0.244   77.373  259.505
  323.500   11.690    0.452    0.241   76.576  260.260
  323.750   11.158    0.456    0.244   77.091  260.524
  324.000   10.863    0.461    0.250   78.916  260.691
  324.250   10.570    0.453    0.257   81.797  261.329
