~VERSION INFORMATION
 VERS.                 2.0:   CWLS LOG ASCII STANDARD -VERSION 2.0
 WRAP.                  NO:   ONE LINE PER DEPTH STEP
~WELL INFORMATION BLOCK
#MNEM.UNIT           DATA                    DESCRIPTION OF MNEMONIC
#---------    -------------------            -------------------------------
# Generated from Intellog Unique Number	CN_94_101/WELL/1068
WELL.         10-17-094-06W4                 : Well_name    - WELL
LOC .         AA/10-17-094-06W4/0            : Location     - LOCATION
UWI .         AA/10-17-094-06W400            : Uwi          - UNIQUE WELL ID
ENTR.         JOETTE                         : Entered      - ENTERED BY
SRVC.         SCHLUMBERGER                   : Scn          - SERVICE COMPANY
DATE.         04/10/92                       : Date         - LOG DATE
STRT.M        80                             : top_depth    - START DEPTH
STOP.M        285                            : bot_depth    - STOP DEPTH
STEP.M        0.25                           : increment    - STEP LENGTH
 NULL. -999.2500:NULL Value
~CURVE INFORMATION BLOCK
#MNEM UNIT       ERCB CURVE CODE    CURVE DESCRIPTION
#-----------   ------------------   ----------------------------------
DEPT.M        00 001 00 00         : DEPTH        - DEPTH
ILD .OHMM     00 120 00 00         : RESD         - DEEP RESISTIVITY (DIL)
DPHI.V/V      00 890 00 00         : PHID         - DENSITY POROSITY (SANDSTONE)
NPHI.V/V      00 330 00 00         : PHIN         - NEUTRON POROSITY (SANDSTONE)
GR  .API      00 310 00 00         : GR           - GAMMA RAY
CALI.MM       00 280 01 00         : CAL          - CALIPER
~PARAMETER INFORMATION
#MNEM.UNIT           DATA             DESCRIPTION OF MNEMONIC
#---------         -----------     ------------------------------
GL  .M        564.2                : gl           - GROUND LEVEL ELEVATION
EREF.M        566.9                : kb           - ELEVATION OF DEPTH REFERENCE
DATM.M        566.9                : datum        - DATUM ELEVATION
TDD .M        287                  : tdd          - TOTAL DEPTH DRILLER
RUN .         ONE                  : Run          - RUN NUMBER
ENG .         BILL                 : Engineer     - RECORDING ENGINEER
WIT .         JIM                  : Witness      - WITNESSED BY
MUD .         GEL                  : Mud_type     - MUD TYPE
MATR.         SANDSTONE            : Logunit      - NEUTRON MATRIX
TMAX.C        18                   : BHT          - MAXIMUM RECORDED TEMPERATURE
BHTD.M        287                  : BHTDEP       - MAXIMUM RECORDED TEMPERATURE
RMT .C        5                    : MDTP         - TEMPERATURE OF MUD
MUDD.KG/M     1                    : MWT          - MUD DENSITY
NEUT.         1                    : NEUTRON      - NEUTRON TYPE
RESI.         0                    : RESIST       - RESISTIVITY TYPE
RM  .OHMM     11.4                 : RM           - RESISTIVITY OF MUD
RMC .OHMM     11.4                 : RMC          - RESISTIVITY OF MUD CAKE
RMF .OHMM     11.4                 : RMF          - RESISTIVITY OF MUD FILTRATE
SUFT.C        4                    : SUFT         - SURFACE TEMPERATURE
~A  DEPTH     RESD     PHID     PHIN       GR      CAL
# ...
  189.500    9.816    0.241    0.479   94.096  179.933
  189.750    8.595    0.251    0.491   94.701  176.867
  190.000    7.383    0.251    0.487   94.697  175.841
  190.250    7.810    0.233    0.472   91.022  172.773
  190.500   11.174    0.175    0.443   89.181  171.744
  190.750   12.750    0.150    0.419   87.955  173.773
  191.000   15.104    0.159    0.401   84.893  174.783
  191.250   15.677    0.189    0.408   81.218  174.775
  191.500   15.374    0.256    0.430   83.659  175.783
  191.750   14.518    0.276    0.458   87.930  176.795
  192.000   13.199    0.263    0.471   88.537  176.785
  192.250   11.130    0.254    0.451   89.141  176.771
  192.500   10.312    0.244    0.461   89.139  176.767
  192.750    9.925    0.255    0.487   90.356  182.866
  193.000    8.689    0.266    0.501   92.796  182.857
  193.250    7.609    0.259    0.509   92.178  182.850
  193.500    6.176    0.261    0.512   90.339  179.779
  193.750    5.616    0.267    0.502   92.777  178.755
  194.000    5.720    0.261    0.487   90.936  175.687
  194.250    6.525    0.262    0.468   88.487  175.677
  194.500    7.033    0.241    0.480   91.538  176.689
  194.750    7.027    0.264    0.518   98.257  181.772
  195.000    6.390    0.288    0.548  101.308  183.803
  195.250    5.596    0.283    0.567  101.301  183.794
  195.500    4.718    0.286    0.558  100.686  183.784
  195.750    3.830    0.294    0.559  100.680  183.784
  196.000    3.291    0.306    0.573  100.062  181.725
  196.250    3.227    0.296    0.570   99.445  180.697
  196.500    3.165    0.282    0.559   97.605  179.669
  196.750    3.223    0.262    0.546   95.765  179.659
  197.000    3.409    0.245    0.538   94.537  180.667
  197.250    3.744    0.234    0.524   93.310  182.693
  197.500    4.272    0.239    0.498   93.914  183.707
  197.750    5.060    0.244    0.468   94.521  182.679
  198.000    5.882    0.244    0.457   93.902  178.594
  198.250    6.462    0.251    0.469   92.675  175.528
  198.500    7.511    0.264    0.475   90.222  173.478
  198.750    8.567    0.268    0.479   88.994  172.450
  199.000    9.234    0.263    0.482   88.377  173.462
  199.250    8.719    0.265    0.469   91.428  177.528
  199.500    8.392    0.277    0.459   93.869  180.571
  199.750    7.776    0.266    0.450   93.252  180.566
  200.000    7.626    0.233    0.422   88.967  177.498
  200.250    8.378    0.185    0.400   83.459  175.448
  200.500   11.544    0.074    0.353   76.729  174.424
  200.750   16.211    0.011    0.263   69.998  175.432
  201.000   21.511    0.055    0.211   74.884  176.439
  201.250   20.697    0.125    0.324   81.603  177.446
  201.500   18.820    0.222    0.359   88.322  177.441
  201.750   17.440    0.256    0.439   91.985  178.449
  202.000   15.860    0.245    0.453   91.368  179.458
  202.250   13.372    0.241    0.445   91.359  180.465
  202.500   11.063    0.243    0.459   90.741  181.480
  202.750    9.327    0.246    0.472   90.737  182.489
  203.000    7.716    0.249    0.471   90.733  182.480
  203.250    7.150    0.236    0.455   90.115  183.489
  203.500    6.752    0.236    0.449   90.107  183.478
  203.750    6.495    0.241    0.452   90.716  183.468
  204.000    6.493    0.234    0.444   91.321  183.461
  204.250    6.613    0.234    0.448   91.926  183.450
  204.500    6.733    0.220    0.463   93.756  183.443
  204.750    6.730    0.208    0.487   96.807  183.431
  205.000    6.599    0.242    0.466   99.246  183.424
  205.250    6.474    0.216    0.442   99.238  183.412
  205.500    6.349    0.197    0.428   98.013  183.403
  205.750    6.714    0.206    0.424   94.337  183.393
  206.000    7.236    0.221    0.465   93.111  183.382
  206.250    6.964    0.245    0.490   96.162  183.372
  206.500    6.455    0.248    0.508   99.823  183.365
  206.750    5.650    0.259    0.508  101.650  182.337
  207.000    5.137    0.269    0.515  102.256  181.309
  207.250    4.852    0.274    0.519  101.639  180.280
  207.500    4.411    0.271    0.513   99.797  182.309
  207.750    4.166    0.259    0.498   98.572  184.337
  208.000    4.163    0.252    0.475   96.732  184.326
  208.250    4.161    0.250    0.479   99.782  184.316
  208.500    4.238    0.254    0.503  100.388  182.269
  208.750    4.235    0.250    0.534   97.325  181.241
  209.000    4.314    0.250    0.529   96.097  181.234
  209.250    4.311    0.251    0.515   98.535  181.222
  209.500    4.391    0.238    0.502   99.752  181.215
  209.750    4.388    0.243    0.491  100.361  181.206
  210.000    4.385    0.248    0.498  100.965  182.213
  210.250    4.382    0.241    0.507  101.570  183.220
  210.500    4.380    0.239    0.497  100.956  183.208
  210.750    4.460    0.241    0.488   96.671  183.204
  211.000    4.458    0.243    0.475   98.496  183.192
  211.250    4.539    0.236    0.468  100.323  183.183
  211.500    4.539    0.226    0.477  100.929  183.176
  211.750    5.174    0.221    0.478  100.926  182.147
  212.000    5.173    0.217    0.458  102.142  182.138
  212.250    5.682    0.203    0.446  103.970  181.110
  212.500    6.359    0.226    0.451  104.577  181.096
  212.750    6.854    0.228    0.444  101.515  181.089
  213.000    7.388    0.238    0.433   97.841  181.082
  213.250    7.963    0.246    0.429   94.779  181.072
  213.500    8.583    0.236    0.424   91.715  181.058
  213.750    8.743    0.221    0.419   89.875  181.054
  214.000    9.073    0.218    0.416   91.704  182.061
  214.250    9.069    0.221    0.439   93.534  183.068
  214.500    8.402    0.227    0.449   95.974  183.059
  214.750    8.086    0.217    0.434   96.578  183.047
  215.000    8.392    0.221    0.420   97.182  183.042
  215.250    8.876    0.221    0.426   97.177  182.012
  215.500    9.390    0.222    0.424   95.334  180.986
  215.750   10.120    0.237    0.423   94.107  179.955
  216.000    9.924    0.237    0.432   93.493  178.929
  216.250    9.196    0.235    0.446   93.484  177.901
  216.500    8.522    0.254    0.459   92.869  176.870
  216.750    7.460    0.273    0.468   92.865  176.863
  217.000    4.073    0.290    0.485   91.635  176.854
  217.250    3.124    0.294    0.555   91.018  176.842
  217.500    2.841    0.288    0.548   91.012  177.849
  217.750    2.893    0.285    0.548   93.452  177.845
  218.000    2.891    0.278    0.549   95.893  177.833
  218.250    2.945    0.278    0.557   96.499  178.842
  218.500    3.057    0.269    0.544   94.048  179.850
  218.750    3.295    0.255    0.489   92.208  180.862
  219.000    3.758    0.241    0.470   94.648  181.871
  219.250    4.052    0.238    0.475   96.475  183.900
  219.500    4.709    0.244    0.482   94.634  186.947
  219.750    4.980    0.243    0.475   92.184  188.973
  220.000    5.169    0.252    0.461   92.789  193.040
  220.250    5.069    0.249    0.474   93.395  194.051
  220.500    4.787    0.255    0.485   93.390  192.002
  220.750    4.695    0.259    0.474   92.773  189.955
  221.000    5.355    0.249    0.464   91.545  189.945
  221.250    5.558    0.234    0.459   90.928  192.990
  221.500    5.660    0.240    0.488   92.755  194.005
  221.750    5.657    0.259    0.522   95.195  195.014
  222.000    5.548    0.272    0.541   96.412  195.005
  222.250    5.043    0.267    0.533   95.794  193.977
  222.500    4.854    0.266    0.532   94.568  190.910
  222.750    4.672    0.265    0.532   92.727  186.823
  223.000    4.496    0.256    0.536   92.112  186.814
  223.250    4.578    0.260    0.528   91.495  187.819
  223.500    4.576    0.250    0.514   91.487  189.852
  223.750    4.749    0.238    0.497   91.481  191.880
  224.000    4.838    0.276    0.506   92.698  199.001
  224.250    4.926    0.275    0.513   93.913  194.918
  224.500    4.923    0.266    0.523   96.355  186.757
  224.750    4.562    0.257    0.531   98.184  183.691
  225.000    4.071    0.253    0.536  101.235  181.644
  225.250    3.564    0.261    0.534  103.064  178.578
  225.500    3.495    0.261    0.535  102.446  176.531
  225.750    3.839    0.264    0.545  100.606  177.538
