~VERSION INFORMATION
 VERS.                 2.0:   CWLS LOG ASCII STANDARD -VERSION 2.0
 WRAP.                  NO:   ONE LINE PER DEPTH STEP
~WELL INFORMATION BLOCK
#MNEM.UNIT           DATA                    DESCRIPTION OF MNEMONIC
#---------    -------------------            -------------------------------
# Generated from Intellog Unique Number	CC_84_87/WELL/2328
NULL.         -999.25                        : NULL_VALUE
WELL.         TEXACO HANG ST OV              : Well_name    - WELL              
LOC .         11-15-085-12W4                 : Location     - LOCATION          
UWI .         AA/11-15-085-12W400            : Uwi          - UNIQUE WELL ID    
ENTR.         RJA                            : Entered      - ENTERED BY        
SRVC.         SCHLUMBERGER                   : Scn          - SERVICE COMPANY   
DATE.         07 FEB 81                      : Date         - LOG DATE
STRT.M        40                             : top_depth    - START DEPTH       
STOP.M        255.102                        : bot_depth    - STOP DEPTH        
STEP.M        0.3                            : increment    - STEP LENGTH       
~CURVE INFORMATION BLOCK
#MNEM UNIT       ERCB CURVE CODE    CURVE DESCRIPTION
#-----------   ------------------   ----------------------------------
DEPT.M        00 001 00 00         : DEPTH        - DEPTH                       
DPHI.V/V      00 890 00 00         : PHID         - DENSITY POROSITY (LIMESTONE)
NPHI.V/V      00 330 00 00         : PHIN         - NEUTRON POROSITY (LIMESTONE)
GR  .API      00 310 00 00         : GR           - GAMMA RAY                   
ILD .OHMM     00 120 00 00         : RESD         - DEEP RESISTIVITY (DIL)      
~PARAMETER INFORMATION       
#MNEM.UNIT           DATA             DESCRIPTION OF MNEMONIC
#---------         -----------     ------------------------------
GL  .M        531                  : gl           - GROUND LEVEL ELEVATION      
EREF.M        534                  : kb           - ELEVATION OF DEPTH REFERENCE
DATM.M        534                  : datum        - DATUM ELEVATION             
TDD .M        255                  : tdd          - TOTAL DEPTH DRILLER         
RUN .         ONE                  : Run          - RUN NUMBER                  
ENG .         BILL                 : Engineer     - RECORDING ENGINEER          
WIT .         JIM                  : Witness      - WITNESSED BY                
MUD .         GEL                  : Mud_type     - MUD TYPE                    
MATR.         LIMESTONE            : Logunit      - NEUTRON MATRIX              
TMAX.C        15                   : BHT          - MAXIMUM RECORDED TEMPERATURE
BHTD.M        255                  : BHTDEP       - MAXIMUM RECORDED TEMPERATURE
MATR.         1                    : LOGUNIT      - NEUTRON MATRIX              
RMT .C        25                   : MDTP         - TEMPERATURE OF MUD          
NEUT.         1                    : NEUTRON      - NEUTRON TYPE                
RESI.         0                    : RESIST       - RESISTIVITY TYPE            
RMC .OHMM     0.25                 : RMC          - RESISTIVITY OF MUD CAKE     
RMF .OHMM     0.25                 : RMF          - RESISTIVITY OF MUD FILTRATE 
SUFT.C        15                   : SUFT         - SURFACE TEMPERATURE         
~A  DEPTH     PHID     PHIN       GR     RESD
   40.000    0.326    0.580   99.221    3.628
   40.300    0.341    0.562  101.530    3.610
   40.600    0.322    0.581  103.898    3.593
   40.900    0.305    0.602  106.329    3.507
   41.200    0.304    0.603  105.666    3.497
   41.500    0.318    0.582  103.573    3.514
   41.800    0.325    0.547  102.289    3.524
   42.100    0.301    0.541   99.209    3.541
   42.400    0.321    0.584  101.766    3.523
   42.700    0.299    0.611  101.098    3.492
   43.000    0.306    0.631   97.771    3.475
   43.300    0.331    0.580   95.495    3.473
   43.600    0.319    0.556   93.652    3.462
   43.900    0.302    0.595   94.909    3.458
   44.200    0.326    0.591   97.773    3.435
   44.500    0.334    0.589   98.224    3.438
   44.800    0.321    0.600   98.672    3.481
   45.100    0.315    0.559   99.801    3.505
   45.400    0.308    0.529   99.386    3.487
   45.700    0.307    0.565   97.049    3.483
   46.000    0.289    0.599   92.975    3.478
   46.300    0.275    0.607   97.884    3.423
   46.600    0.278    0.563   98.458    3.329
   46.900    0.287    0.566   96.802    3.289
   47.200    0.279    0.568   97.130    3.526
   47.500    0.266    0.544   96.772    4.041
   47.800    0.273    0.553   92.082    4.274
   48.100    0.261    0.544   89.063    4.311
   48.400    0.281    0.556   89.639    4.138
   48.700    0.286    0.541   90.396    3.964
   49.000    0.277    0.562   90.100    3.789
   49.300    0.269    0.562   89.561    3.807
   49.600    0.281    0.543   88.399    4.397
   49.900    0.271    0.368   82.841    6.120
   50.200    0.279    0.336   69.602    7.700
   50.500    0.275    0.363   49.178    9.543
   50.800    0.322    0.422   35.507    7.787
   51.100    0.434    0.510   42.215    6.629
   51.400    0.443    0.519   50.218    5.653
   51.700    0.321    0.392   59.709    6.141
   52.000    0.229    0.306   45.359    7.450
   52.300    0.195    0.392   41.906    8.474
   52.600    0.255    0.446   45.514    8.118
   52.900    0.276    0.492   58.599    4.903
   53.200    0.312    0.549   74.592    3.301
   53.500    0.324    0.549   89.349    2.683
   53.800    0.323    0.560   96.177    2.483
   54.100    0.320    0.545   97.374    2.424
   54.400    0.323    0.542   97.201    2.440
   54.700    0.314    0.602   98.454    2.518
   55.000    0.292    0.601   92.278    2.638
   55.300    0.291    0.586   91.798    2.760
   55.600    0.306    0.578   99.064    2.952
   55.900    0.309    0.566  100.627    3.220
   56.200    0.289    0.542   99.774    3.478
   56.500    0.287    0.562   98.242    3.645
   56.800    0.288    0.573   93.984    3.761
   57.100    0.298    0.546   94.682    3.722
   57.400    0.262    0.521   97.421    3.732
   57.700    0.262    0.521   97.007    3.864
   58.000    0.279    0.509   96.218    3.899
   58.300    0.287    0.531   98.276    3.807
   58.600    0.261    0.577   99.039    3.504
   58.900    0.291    0.590  100.909    3.182
   59.200    0.274    0.578  103.589    3.053
   59.500    0.265    0.560  101.189    3.206
   59.800    0.263    0.552  100.090    3.716
   60.100    0.258    0.540  100.787    4.006
   60.400    0.244    0.532   98.078    4.189
   60.700    0.257    0.524   99.951    4.266
   61.000    0.260    0.518   96.561    4.110
   61.300    0.252    0.508   94.842    3.958
   61.600    0.242    0.511   91.330    3.994
   61.900    0.264    0.505   89.985    4.192
   62.200    0.281    0.518   92.228    4.615
   62.500    0.240    0.421   90.322    5.633
   62.800    0.230    0.328   76.342    8.208
   63.100    0.262    0.329   57.840   14.612
   63.400    0.329    0.363   49.371   23.024
   63.700    0.313    0.387   49.885   29.695
   64.000    0.352    0.397   55.103   25.079
   64.300    0.351    0.419   55.552   21.592
   64.600    0.341    0.433   54.640   18.835
   64.900    0.327    0.387   54.094   16.781
   65.200    0.308    0.396   55.164   15.479
   65.500    0.304    0.405   62.552   13.792
   65.800    0.290    0.419   67.282   12.958
   66.100    0.267    0.414   66.981   12.386
   66.400    0.269    0.390   63.404   12.216
   66.700    0.267    0.406   71.723   12.039
   67.000    0.242    0.421   74.771   12.210
   67.300    0.250    0.422   74.601   12.792
   67.600    0.247    0.419   79.263   13.505
   67.900    0.279    0.423   75.192   13.289
   68.200    0.269    0.424   73.532   12.857
   68.500    0.233    0.449   78.070   11.629
   68.800    0.211    0.454   86.022   10.361
   69.100    0.244    0.430   88.568    9.179
   69.400    0.231    0.451   92.178    8.257
   69.700    0.269    0.450   92.687    7.555
   70.000    0.292    0.467   90.103    7.365
   70.300    0.286    0.483   85.041    7.526
   70.600    0.292    0.479   82.521    8.052
   70.900    0.286    0.472   81.046    9.072
   71.200    0.284    0.476   78.897   10.636
   71.500    0.309    0.482   77.610   11.578
   71.800    0.278    0.470   72.859   11.262
   72.100    0.299    0.470   71.200   10.325
   72.400    0.262    0.486   74.872    9.575
   72.700    0.262    0.462   74.392    9.530
   73.000    0.276    0.477   70.883   10.274
   73.300    0.292    0.516   70.212   11.953
   73.600    0.286    0.439   74.132   14.425
   73.900    0.300    0.435   74.767   18.710
   74.200    0.340    0.436   67.102   25.994
   74.500    0.327    0.423   62.533   34.106
   74.800    0.286    0.436   66.825   34.929
   75.100    0.266    0.430   63.123   28.074
   75.400    0.288    0.414   54.346   19.156
   75.700    0.302    0.423   52.874   10.046
   76.000    0.322    0.436   61.812    6.724
   76.300    0.269    0.503   70.376    4.923
   76.600    0.238    0.540   77.761    4.411
   76.900    0.278    0.548   87.560    4.226
   77.200    0.308    0.557   96.122    5.031
   77.500    0.324    0.559   95.273    6.513
   77.800    0.354    0.525   84.761    8.226
   78.100    0.362    0.430   77.098   10.469
   78.400    0.330    0.419   74.261   12.801
   78.700    0.302    0.436   75.577   13.060
   79.000    0.265    0.422   81.049   12.176
   79.300    0.266    0.459   85.582   11.293
   79.600    0.228    0.470   89.129   10.883
   79.900    0.269    0.435   89.208   10.706
   80.200    0.260    0.451   89.469   10.754
   80.500    0.228    0.472   91.967   10.890
   80.800    0.236    0.460   92.728   11.234
   81.100    0.273    0.435   92.990   11.465
   81.400    0.241    0.435   92.138   11.630
   81.700    0.250    0.430   89.425   12.347
   82.000    0.276    0.450   83.443   14.173
   82.300    0.303    0.437   79.430   15.840
   82.600    0.312    0.439   76.409   16.262
   82.900    0.293    0.434   74.997   16.524
   83.200    0.297    0.434   76.127   16.041
   83.500    0.308    0.451   81.970   15.512
   83.800    0.308    0.424   82.231   15.058
   84.100    0.302    0.441   76.672   15.074
   84.400    0.300    0.466   71.671   15.116
   84.700    0.310    0.444   70.570   15.479
   85.000    0.314    0.426   70.588   16.030
   85.300    0.285    0.440   74.938   16.761
   85.600    0.291    0.433   71.925   17.232
   85.900    0.277    0.437   65.993   17.480
   86.200    0.294    0.422   65.326   17.528
   86.500    0.304    0.402   68.194   17.313
   86.800    0.303    0.414   69.196   16.840
   87.100    0.303    0.427   69.708   16.634
   87.400    0.308    0.415   76.109   16.463
   87.700    0.312    0.426   78.351   15.650
   88.000    0.333    0.446   74.959   14.102
   88.300    0.249    0.456   76.832   12.784
   88.600    0.245    0.459   85.458   11.722
   88.900    0.252    0.442   89.065   11.401
   89.200    0.275    0.440   89.328   11.695
   89.500    0.266    0.434   88.418   12.723
   89.800    0.277    0.445   89.241   13.111
   90.100    0.273    0.432   87.895   13.817
   90.400    0.297    0.401   82.894   13.801
   90.700    0.283    0.424   78.075   13.817
   91.000    0.262    0.421   79.887   14.477
   91.300    0.289    0.420   74.267   15.909
   91.600    0.310    0.463   69.330   18.823
   91.900    0.298    0.474   70.459   21.772
