~VERSION INFORMATION
 VERS.                 2.0:   CWLS LOG ASCII STANDARD -VERSION 2.0
 WRAP.                  NO:   ONE LINE PER DEPTH STEP
~WELL INFORMATION BLOCK
#MNEM.UNIT           DATA                    DESCRIPTION OF MNEMONIC
#---------    -------------------            -------------------------------
# Generated from Intellog Unique Number	CN_94_101/WELL/3589
WELL.         11-24-096-12W4                 : Well_name    - WELL
LOC .         AA/11-24-096-12W4/0            : Location     - LOCATION
UWI .         AA/11-24-096-12W400            : Uwi          - UNIQUE WELL ID
ENTR.         JOETTE                         : Entered      - ENTERED BY
SRVC.         SCHLUMBERGER                   : Scn          - SERVICE COMPANY
DATE.         07/31/92                       : Date         - LOG DATE
STRT.F        30                             : top_depth    - START DEPTH
STOP.F        409.757                        : bot_depth    - STOP DEPTH
STEP.F        0.8202                         : increment    - STEP LENGTH
 NULL. -999.2500:NULL Value
~CURVE INFORMATION BLOCK
#MNEM UNIT       ERCB CURVE CODE    CURVE DESCRIPTION
#-----------   ------------------   ----------------------------------
DEPT.F        00 001 00 00         : DEPTH        - DEPTH
ILD .OHMM     00 120 00 00         : RESD         - DEEP RESISTIVITY (DIL)
GR  .API      00 310 00 00         : GR           - GAMMA RAY
DPHI.V/V      00 890 00 00         : PHID         - DENSITY POROSITY (SANDSTONE)
~PARAMETER INFORMATION
#MNEM.UNIT           DATA             DESCRIPTION OF MNEMONIC
#---------         -----------     ------------------------------
GL  .M        313.9                : gl           - GROUND LEVEL ELEVATION
EREF.M        313.9                : kb           - ELEVATION OF DEPTH REFERENCE
DATM.M        313.9                : datum        - DATUM ELEVATION
TDD .M        125                  : tdd          - TOTAL DEPTH DRILLER
RUN .         ONE                  : Run          - RUN NUMBER
ENG .         BILL                 : Engineer     - RECORDING ENGINEER
WIT .         JIM                  : Witness      - WITNESSED BY
MUD .         GEL                  : Mud_type     - MUD TYPE
MATR.         SANDSTONE            : Logunit      - NEUTRON MATRIX
TMAX.C        15                   : BHT          - MAXIMUM RECORDED TEMPERATURE
BHTD.M        125                  : BHTDEP       - MAXIMUM RECORDED TEMPERATURE
RMT .C        4.44444              : MDTP         - TEMPERATURE OF MUD
MUDD.KG/M     1004                 : MWT          - MUD DENSITY
NEUT.         1                    : NEUTRON      - NEUTRON TYPE
RESI.         0                    : RESIST       - RESISTIVITY TYPE
RM  .OHMM     2.58                 : RM           - RESISTIVITY OF MUD
RMC .OHMM     2.58                 : RMC          - RESISTIVITY OF MUD CAKE
RMF .OHMM     2.58                 : RMF          - RESISTIVITY OF MUD FILTRATE
SUFT.C        4                    : SUFT         - SURFACE TEMPERATURE
~A  DEPTH     RESD       GR     PHID
# ...
  207.986   87.575   41.984    0.292
  208.806  158.771   32.133    0.277
  209.626  252.809   29.796    0.293
  210.446  340.567   29.844    0.320
  211.266  374.267   31.078    0.331
  212.087  426.698   25.193    0.337
  212.907  543.718   22.077    0.333
  213.727  643.519   22.136    0.324
  214.547  681.453   22.183    0.319
  215.367  682.355   23.022    0.321
  216.188  634.418   23.069    0.318
  217.008  557.752   21.139    0.318
  217.828  378.372   21.187    0.308
  218.648   66.267   39.042    0.278
  219.469   19.876   59.282    0.261
  220.289   12.064   66.064    0.156
  221.109   12.537   75.626    0.133
  221.929   15.686   72.905    0.147
  222.749   16.927   74.522    0.164
  223.570   16.322   79.315    0.154
  224.390   14.354   86.888    0.154
  225.210   12.624   74.665    0.162
  226.030   23.751   58.882    0.175
  226.850   37.124   40.726    0.197
  227.671   56.961   32.469    0.249
  228.491   72.582   28.154    0.313
  229.311  147.072   31.378    0.326
  230.131  103.507   32.623    0.324
  230.951   79.949   48.093    0.280
  231.772   56.285   49.351    0.212
  232.592   27.869   52.155    0.177
  233.412   34.849   49.830    0.156
  234.232   47.824   50.272    0.167
  235.052   42.059   66.162    0.178
  235.873   22.421   67.012    0.169
  236.693   14.123   68.234    0.162
  237.513   14.950   68.293    0.169
  238.333   15.536   78.227    0.169
  239.154   14.995   85.010    0.137
  239.974   14.198   87.825    0.131
  240.794   12.728   88.280    0.113
  241.614   11.407   87.153    0.112
  242.434   10.797   85.199    0.154
  243.255    9.676   80.501    0.181
  244.075   11.028   69.464    0.218
  244.895   25.919   45.772    0.255
  245.715   46.991   28.802    0.281
  246.535  116.759   28.466    0.317
  247.356  228.050   29.700    0.307
  248.176  204.310   30.143    0.303
  248.996  182.982   26.619    0.314
  249.816  208.616   24.294    0.308
  250.636  302.768   26.331    0.309
  251.457  303.168   24.413    0.314
  252.277  372.248   22.866    0.317
  253.097  474.492   22.135    0.335
  253.917  571.906   21.799    0.336
  254.738  652.025   23.416    0.327
  255.558  532.432   22.684    0.318
  256.378  495.028   21.126    0.313
  257.198  619.404   18.405    0.313
  258.018  719.393   22.024    0.303
  258.839  515.942   26.038    0.291
  259.659   76.474   28.446    0.259
  260.479   27.610   32.855    0.222
  261.299   16.451   40.021    0.190
  262.119   10.955   68.577    0.178
  262.940   11.814   74.557    0.154
  263.760   12.051   73.825    0.153
  264.580   12.765   69.906    0.183
  265.400   14.549   62.835    0.191
  266.220   17.220   55.764    0.203
  267.041   11.046   62.535    0.211
  267.861   10.462   70.503    0.188
  268.681   10.476   77.681    0.171
  269.501   10.686   80.101    0.164
  270.322   10.707   76.194    0.175
  271.142   10.721   70.309    0.165
  271.962   10.736   74.311    0.172
  272.782    9.978   81.105    0.201
  273.602   11.376   76.395    0.161
  274.423   11.189   71.685    0.175
  275.243   10.400   67.383    0.192
  276.063   10.608   65.453    0.171
  276.883   10.427   64.709    0.175
  277.703   10.636   65.152    0.173
  278.524   10.455   71.539    0.146
  279.344   10.871   76.751    0.156
  280.164   11.505   76.007    0.172
  280.984   12.875   73.670    0.167
  281.804   13.885   69.763    0.157
  282.625   12.211   69.822    0.138
  283.445   10.541   71.044    0.114
  284.265   10.965   74.267    0.087
  285.085   11.604   73.907    0.128
  285.906   11.615   75.165    0.153
  286.726   11.001   78.364    0.154
  287.546   10.814   82.774    0.143
  288.366   20.726   72.527    0.160
  289.186   34.249   51.196    0.174
  290.007   45.290   36.611    0.190
  290.827   51.635   37.845    0.258
  291.647   35.028   43.034    0.291
  292.467   22.071   49.816    0.293
  293.287   20.514   37.987    0.252
  294.108   42.345   24.577    0.200
  294.928   95.900   28.987    0.299
  295.748  158.470   32.198    0.321
  296.568  117.908   39.376    0.284
  297.388   16.846   49.717    0.250
  298.209   47.658   52.137    0.223
  299.029  102.092   32.004    0.204
  299.849  125.355   23.340    0.264
  300.669  188.802   24.597    0.306
  301.490  240.580   25.040    0.335
  302.310  330.267   24.692    0.305
  303.130   75.010   23.553    0.297
  303.950   90.410   24.379    0.286
  304.770   92.224   27.998    0.294
  305.591   60.286   25.277    0.303
  306.411   47.436   24.150    0.296
  307.231   63.903   27.361    0.298
  308.051   75.608   30.560    0.298
  308.871   45.891   33.388    0.283
  309.692   45.108   33.435    0.283
  310.512   46.043   36.658    0.283
  311.332   39.735   34.321    0.286
  312.152   30.118   51.002    0.289
  312.972   17.291   36.812    0.230
  313.793   18.996   34.092    0.228
  314.613   31.978   34.139    0.258
  315.433   37.152   35.756    0.268
  316.253   29.224   40.957    0.292
  317.073   22.158   48.925    0.294
  317.894   15.891   47.391    0.282
  318.714   15.620   41.495    0.250
  319.534   22.670   30.062    0.219
  320.354   26.822   24.177    0.226
  321.175   32.934   23.050    0.237
  321.995   52.457   22.690    0.262
  322.815   54.493   22.761    0.269
  323.635   79.112   22.797    0.291
  324.455   88.509   23.635    0.262
  325.276  200.449   23.695    0.278
  326.096  216.166   23.742    0.299
  326.916  216.452   23.789    0.273
  327.736  246.856   23.441    0.278
  328.556  217.096   22.698    0.269
  329.377  124.600   22.745    0.252
  330.197  103.650   24.770    0.246
  331.017   24.430   31.157    0.240
  331.837   13.520   39.904    0.333
  332.657   14.575   36.788    0.325
  333.478   20.009   28.543    0.319
  334.298   25.505   29.776    0.323
  335.118   29.612   28.242    0.300
  335.938   46.285   26.300    0.244
  336.759   51.799   24.766    0.215
  337.579   45.570   25.628    0.208
  338.399   52.943   24.094    0.205
  339.219   58.144   22.547    0.205
  340.039   67.530   20.234    0.200
  340.860   78.431   18.688    0.202
  341.680  105.691   17.944    0.208
  342.500  184.639   17.991    0.196
  343.320  226.710   18.446    0.272
  344.140  206.912   19.680    0.275
  344.961  142.993   20.914    0.251
  345.781  106.428   22.148    0.245
  346.601  102.689   22.195    0.233
  347.421   65.894   23.034    0.229
  348.241   26.590   25.849    0.223
  349.062   32.049   32.631    0.199
  349.882   22.985   39.413    0.249
  350.702   18.776   31.947    0.291
  351.522   23.925   30.796    0.312
  352.343   36.696   32.054    0.324
  353.163   45.916   34.462    0.314
  353.983   41.136   37.301    0.309
  354.803   36.879   34.964    0.310
  355.623   36.225   32.232    0.317
  356.444   33.680   29.127    0.311
  357.264   32.497   28.767    0.313
  358.084   32.540   29.617    0.318
  358.904   34.447   30.456    0.318
  359.724   38.589   31.702    0.318
  360.545   41.601   31.737    0.311
  361.365   41.656   31.808    0.304
  362.185   40.193   31.868    0.300
  363.005   36.671   32.287    0.304
  363.825   27.813   32.730    0.309
  364.646   25.851   33.184    0.301
  365.466   28.409   31.638    0.303
  366.286   30.636   30.511    0.289
  367.106   29.570   30.558    0.303
  367.927   27.484   33.374    0.312
  368.747   24.631   33.422    0.311
  369.567   20.483   31.887    0.318
  370.387   14.965   32.330    0.323
  371.207   10.934   30.017    0.321
  372.028    9.265   28.878    0.314
  372.848    7.708   31.286    0.319
  373.668    8.012   32.148    0.318
  374.488    8.175   31.009    0.308
  375.308    8.186   30.254    0.312
  376.129    7.899   29.115    0.320
  376.949    7.346   29.162    0.317
  377.769    6.956   30.420    0.305
  378.589    6.711   30.851    0.301
  379.409    6.476   31.689    0.300
  380.230    6.729   32.923    0.294
  381.050    6.993   34.169    0.291
  381.870    7.543   36.193    0.291
  382.690    7.839   38.218    0.286
  383.510    7.424   40.638    0.280
  384.331    7.030   40.709    0.279
  385.151    7.444   39.942    0.317
