~VERSION INFORMATION
 VERS.                 2.0:   CWLS LOG ASCII STANDARD -VERSION 2.0
 WRAP.                  NO:   ONE LINE PER DEPTH STEP
~WELL INFORMATION BLOCK
#MNEM.UNIT           DATA                    DESCRIPTION OF MNEMONIC
#---------    -------------------            -------------------------------
# Generated from Intellog Unique Number	CX_WELLS/WELL/3859
WELL.         BAYSEL CORE                    : Well_name    - WELL
LOC .         AA/12-30-087-10W4/0            : Location     - LOCATION
UWI .         AA/12-30-087-10W400            : Uwi          - UNIQUE WELL ID
ENTR.         T                              : Entered      - ENTERED BY
SRVC.         SCHLUMBERGER                   : Scn          - SERVICE COMPANY
STRT.F        50                             : top_depth    - START DEPTH
STOP.F        510.138                        : bot_depth    - STOP DEPTH
STEP.F        0.8202                         : increment    - STEP LENGTH
 NULL. -999.2500:NULL Value
~CURVE INFORMATION BLOCK
#MNEM UNIT       ERCB CURVE CODE    CURVE DESCRIPTION
#-----------   ------------------   ----------------------------------
DEPT.F        00 001 00 00         : DEPTH        - DEPTH
GR  .API      00 310 00 00         : GR           - GAMMA RAY
NPHI.V/V      00 330 00 00         : PHIN         - NEUTRON POROSITY (SANDSTONE)
ILD .OHMM     00 120 00 00         : RESD         - DEEP RESISTIVITY (DIL)
~PARAMETER INFORMATION
#MNEM.UNIT           DATA             DESCRIPTION OF MNEMONIC
#---------         -----------     ------------------------------
GL  .F        1371                 : gl           - GROUND LEVEL ELEVATION
EREF.F        1371                 : kb           - ELEVATION OF DEPTH REFERENCE
DATM.F        1371                 : datum        - DATUM ELEVATION
TDD .F        521                  : tdd          - TOTAL DEPTH DRILLER
RUN .         ONE                  : Run          - RUN NUMBER
ENG .         BILL                 : Engineer     - RECORDING ENGINEER
WIT .         JIM                  : Witness      - WITNESSED BY
MUD .         GEL                  : Mud_type     - MUD TYPE
MATR.         SANDSTONE            : Logunit      - NEUTRON MATRIX
TMAX.F        53                   : BHT          - MAXIMUM RECORDED TEMPERATURE
BHTD.F        521                  : BHTDEP       - MAXIMUM RECORDED TEMPERATURE
MATR.         1                    : LOGUNIT      - NEUTRON MATRIX
RMT .F        77                   : MDTP         - TEMPERATURE OF MUD
NEUT.         1                    : NEUTRON      - NEUTRON TYPE
RESI.         0                    : RESIST       - RESISTIVITY TYPE
RMC .OHMM     7.5                  : RMC          - RESISTIVITY OF MUD CAKE
RMF .OHMM     7.5                  : RMF          - RESISTIVITY OF MUD FILTRATE
SUFT.F        32                   : SUFT         - SURFACE TEMPERATURE
~A  DEPTH       GR     PHIN     RESD
# ...
  405.971   76.576    0.348   33.652
  406.791   72.007    0.348   33.115
  407.612   69.199    0.350   32.936
  408.432   67.449    0.354   33.294
  409.252   66.051    0.369   34.012
  410.072   65.713    0.366   34.191
  410.892   65.725    0.359   35.625
  411.713   65.030    0.354   39.747
  412.533   60.110    0.351   44.047
  413.353   59.773    0.342   47.094
  414.173   60.487    0.338   47.453
  414.993   61.556    0.345   46.378
  415.814   55.221    0.351   47.453
  416.634   51.359    0.357   48.887
  417.454   65.822    0.357   50.321
  418.274   68.654    0.354   52.292
  419.094   72.193    0.349   46.738
  419.915   62.686    0.339   42.617
  420.735   57.764    0.324   42.796
  421.555   56.366    0.329   46.022
  422.375   53.911    0.357   49.785
  423.196   50.049    0.367   54.086
  424.016   47.590    0.365   61.433
  424.836   45.843    0.367   67.884
  425.656   44.795    0.377   73.081
  426.476   43.397    0.393   67.168
  427.297   37.417    0.387   61.972
  428.117   44.129    0.359   57.314
  428.937   47.313    0.342   55.701
  429.757   51.558    0.302   61.436
  430.577   54.034    0.273   63.586
  431.398   52.636    0.257   98.528
  432.218   44.545    0.320   98.349
  433.038   42.792    0.361   97.095
  433.858   40.692    0.396   96.558
  434.678   41.056    0.406   96.558
  435.499   41.075    0.407   95.842
  436.319   41.433    0.404   94.588
  437.139   42.855    0.403   93.513
  437.959   47.801    0.403   93.872
  438.780   53.100    0.406   93.872
  439.600   56.640    0.407   93.514
  440.420   53.480    0.410   93.335
  441.240   50.320    0.410   92.798
  442.060   57.734    0.343   91.902
  442.881   62.328    0.293   91.544
  443.701   54.236    0.077   93.157
  444.521   45.434    0.145   94.770
  445.341   39.806    0.177   95.846
  446.161   35.589    0.211   91.187
  446.982   34.544    0.244   72.552
  447.802   36.318    0.342   51.767
  448.622   38.797    0.339   46.391
  449.442   45.154    0.342   39.045
  450.262   46.934    0.344   28.294
  451.083   44.123    0.350   23.815
  451.903   40.963    0.351   18.798
  452.723   38.514    0.363   17.365
  453.543   37.815    0.376   16.469
  454.364   37.827    0.383   16.111
  455.184   37.839    0.388   16.111
  456.004   39.617    0.389   16.112
  456.824   41.036    0.383   16.112
  457.644   41.051    0.368   16.112
  458.465   40.002    0.354   15.396
  459.285   37.204    0.340   14.680
  460.105   36.505    0.377   14.859
  460.925   36.171    0.393   15.755
  461.745   36.177    0.392   16.831
  462.566   35.839    0.381   18.265
  463.386   35.499    0.354   19.878
  464.206   37.270    0.351   22.566
  465.026   38.340    0.353   27.046
  465.846   37.999    0.361   29.196
  466.667   36.957    0.364   28.122
  467.487   38.734    0.368   30.093
  468.307   40.506    0.377   33.319
  469.127   48.627    0.410   38.336
  469.948   51.456    0.427   34.215
  470.768   54.288    0.437   26.331
  471.588   47.251    0.429   21.135
  472.408   44.798    0.419   26.691
  473.228   39.876    0.412   33.500
  474.049   38.478    0.410   44.610
  474.869   37.436    0.407   54.286
  475.689   37.096    0.404   60.379
  476.509   36.752    0.400   66.113
  477.329   35.713    0.395   74.535
  478.150   35.719    0.392   79.911
  478.970   35.731    0.392   70.952
  479.790   38.213    0.400   64.144
  480.610   44.925    0.401   57.872
  481.430   46.344    0.388   41.567
  482.251   46.007    0.379   26.694
  483.071   43.901    0.401   17.019
  483.891   40.388    0.397   12.539
  484.711   37.231    0.386   12.181
  485.531   35.132    0.383   12.361
  486.352   34.433    0.386   12.361
  487.172   35.150    0.391   12.541
  487.992   35.162    0.398   12.720
  488.812   35.882    0.407   13.079
  489.633   36.948    0.413   13.438
  490.453   39.783    0.420   14.155
  491.273   41.910    0.414   15.051
  492.093   45.094    0.410   16.127
  492.913   50.041    0.404   16.664
  493.734   56.044    0.408   17.561
  494.554   63.814    0.415   16.844
  495.374   65.944    0.421   15.769
  496.194   66.308    0.428   14.874
  497.014   58.211    0.428   14.157
  497.835   50.824    0.431   12.724
  498.655   43.784    0.433   11.829
  499.475   39.566    0.425   11.112
  500.295   37.816    0.373   11.292
  501.115   39.238    0.198   12.009
  501.936   42.070    0.239   12.726
  502.756   45.254    0.270   13.980
  503.576   48.438    0.286   15.414
  504.396   54.093    0.289   15.235
  505.217   56.572    0.280   14.877
  506.037   57.994    0.283   14.878
  506.857   62.235    0.296   15.057
  507.677   65.419    0.303   15.416
  508.497   68.962    0.309   15.595
  509.318   70.734    0.317   15.596
  510.138   71.803    0.321   15.775
