~VERSION INFORMATION
 VERS.                 2.0:   CWLS LOG ASCII STANDARD -VERSION 2.0
 WRAP.                  NO:   ONE LINE PER DEPTH STEP
~WELL INFORMATION BLOCK
#MNEM.UNIT           DATA                    DESCRIPTION OF MNEMONIC
#---------    -------------------            -------------------------------
# Generated from Intellog Unique Number	CN_91_93/WELL/2890
WELL.         10-29-092-16W4                 : Well_name    - WELL
LOC .         AA/10-29-092-16W4/0            : Location     - LOCATION
UWI .         AA/10-29-092-16W400            : Uwi          - UNIQUE WELL ID
ENTR.         JOETTE                         : Entered      - ENTERED BY
SRVC.         SCHLUMBERGER                   : Scn          - SERVICE COMPANY
DATE.         03/31/92                       : Date         - LOG DATE
STRT.F        220                            : top_depth    - START DEPTH
STOP.F        780.203                        : bot_depth    - STOP DEPTH
STEP.F        0.82                           : increment    - STEP LENGTH
 NULL. -999.2500:NULL Value
~CURVE INFORMATION BLOCK
#MNEM UNIT       ERCB CURVE CODE    CURVE DESCRIPTION
#-----------   ------------------   ----------------------------------
DEPT.F        00 001 00 00         : DEPTH        - DEPTH
CALI.IN       00 280 01 00         : CAL          - CALIPER
GR  .API      00 310 00 00         : GR           - GAMMA RAY
NPHI.V/V      00 330 00 00         : PHIN         - NEUTRON POROSITY (SANDSTONE)
DPHI.V/V      00 890 00 00         : PHID         - DENSITY POROSITY (SANDSTONE)
ILD .OHMM     00 120 00 00         : RESD         - DEEP RESISTIVITY (DIL)
~PARAMETER INFORMATION
#MNEM.UNIT           DATA             DESCRIPTION OF MNEMONIC
#---------         -----------     ------------------------------
GL  .M        490.21               : gl           - GROUND LEVEL ELEVATION
EREF.M        493.319              : kb           - ELEVATION OF DEPTH REFERENCE
DATM.M        493.319              : datum        - DATUM ELEVATION
TDD .M        246.888              : tdd          - TOTAL DEPTH DRILLER
RUN .         ONE                  : Run          - RUN NUMBER
ENG .         BILL                 : Engineer     - RECORDING ENGINEER
WIT .         JIM                  : Witness      - WITNESSED BY
MUD .         GEL                  : Mud_type     - MUD TYPE
MATR.         SANDSTONE            : Logunit      - NEUTRON MATRIX
TMAX.F        82                   : BHT          - MAXIMUM RECORDED TEMPERATURE
BHTD.F        810                  : BHTDEP       - MAXIMUM RECORDED TEMPERATURE
RMT .F        60                   : MDTP         - TEMPERATURE OF MUD
MUDD.LB/G     8.6                  : MWT          - MUD DENSITY
NEUT.         1                    : NEUTRON      - NEUTRON TYPE
RESI.         0                    : RESIST       - RESISTIVITY TYPE
RM  .OHMM     0.81                 : RM           - RESISTIVITY OF MUD
RMC .OHMM     0.81                 : RMC          - RESISTIVITY OF MUD CAKE
RMF .OHMM     0.81                 : RMF          - RESISTIVITY OF MUD FILTRATE
SUFT.F        39.2                 : SUFT         - SURFACE TEMPERATURE
~A  DEPTH      CAL       GR     PHIN     PHID     RESD
# ...
  579.252    6.296  119.987    0.511    0.194    7.366
  580.072    6.297  118.780    0.515    0.180    8.883
  580.892    6.298  118.797    0.517    0.173    8.883
  581.713    6.300  118.818    0.506    0.181    8.090
  582.533    6.302  118.834    0.493    0.193    7.648
  583.353    6.303  119.472    0.492    0.191    7.367
  584.173    6.305  121.344    0.486    0.170    8.399
  584.993    6.305  124.455    0.481    0.202    9.756
  585.814    6.307  122.632    0.477    0.198   12.214
  586.634    6.309  118.947    0.485    0.162   14.729
  587.454    6.310  112.805    0.491    0.136   12.680
  588.274    6.312  115.289    0.486    0.106   10.516
  589.094    6.354  117.777    0.483    0.086    8.886
  589.915    6.356  118.416    0.478    0.175    9.758
  590.735    6.357  116.587    0.464    0.193   10.130
  591.555    6.358  114.758    0.473    0.190    9.225
  592.375    6.319  116.013    0.482    0.182    7.942
  593.196    6.320  114.184    0.473    0.172    7.370
  594.016    6.322  115.439    0.461    0.117    6.587
  594.836    6.323  119.161    0.474    0.148    5.887
  595.656    6.325  118.566    0.491    0.176    5.262
  596.476    6.326  111.185    0.518    0.185    4.975
  597.297    6.328  102.571    0.512    0.200    5.779
  598.117    6.329   95.191    0.471    0.225    9.227
  598.937    6.372   92.133    0.443    0.196    7.371
  599.757    6.373   90.299    0.454    0.164    7.653
  600.577    6.374   78.600    0.464    0.229   11.553
  601.398    6.376   68.135    0.475    0.270   15.298
  602.218    6.377   62.605    0.474    0.285   21.428
  603.038    6.379   58.309    0.461    0.281   27.849
  603.858    6.381   58.330    0.447    0.274   33.584
  604.678    6.382   58.357    0.451    0.266   41.264
  605.499    6.383   55.906    0.462    0.256   49.760
  606.319    6.385   51.615    0.473    0.247   51.660
  607.139    6.386   51.019    0.468    0.277   50.703
  607.959    6.388   52.891    0.462    0.287   55.679
  608.780    6.389   53.530    0.459    0.277   60.011
  609.600    6.349   54.785    0.455    0.267   54.650
  610.420    6.310   56.657    0.452    0.271   42.846
  611.240    6.311   58.529    0.449    0.261   33.592
  612.060    6.313   59.172    0.443    0.240   27.341
  612.881    6.314   59.188    0.447    0.227   20.265
  613.701    6.274   60.444    0.456    0.234    6.716
  614.521    6.276   65.400    0.472    0.272    3.360
  615.341    6.277   71.590    0.500    0.306    3.976
  616.161    6.279   67.293    0.529    0.321    7.949
  616.982    6.239   58.679    0.563    0.264   11.559
  617.802    6.241   58.700    0.508    0.274    8.567
  618.622    6.201   61.806    0.409    0.280   12.934
  619.442    6.203   64.917    0.372    0.269   15.891
  620.262    6.204   60.615    0.358    0.293   19.894
  621.083    6.164   58.169    0.372    0.311   21.044
  621.903    6.165   58.813    0.376    0.152   34.239
  622.723    6.167   58.228    0.366    0.121   35.546
  623.543    6.169   57.006    0.357    0.099   20.656
  624.364    6.129   55.793    0.325    0.091   17.453
  625.184    6.130   57.048    0.264    0.122   12.003
  626.004    6.131   55.836    0.300    0.150   12.230
  626.824    6.092   55.858    0.315    0.177   18.121
  627.644    6.094   55.879    0.354    0.211   19.899
  628.465    6.095   54.061    0.405    0.250   23.552
  629.285    6.138   54.077    0.453    0.275   22.266
  630.105    6.139   52.865    0.455    0.281   17.787
  630.925    6.182   55.354    0.455    0.273   17.457
  631.745    6.183   57.837    0.454    0.277   20.661
  632.566    6.185   57.242    0.452    0.274   26.853
  633.386    6.186   56.646    0.452    0.271   34.252
  634.206    6.187   58.524    0.463    0.272   39.049
  635.026    6.189   59.162    0.466    0.263   24.456
  635.846    6.191   59.800    0.487    0.268   23.121
  636.667    6.192   61.055    0.482    0.278   25.390
  637.487    6.193   60.465    0.468    0.270   28.946
  638.307    6.195   59.870    0.466    0.256   34.905
  639.127    6.196   57.419    0.474    0.244   57.865
  639.948    6.198   49.421    0.479    0.254   75.204
  640.768    6.199   42.657    0.476    0.285  153.175
  641.588    6.201   40.212    0.473    0.298  195.384
  642.408    6.202   37.766    0.468    0.293  244.602
  643.228    6.204   33.469    0.455    0.286  268.611
  644.049    6.205   27.322    0.429    0.280  268.619
  644.869    6.206   21.792    0.417    0.282  263.644
  645.689    6.166   24.281    0.405    0.292  240.095
  646.509    6.168   28.620    0.400    0.298  222.778
  647.329    6.169   32.960    0.410    0.295  206.712
  648.150    6.171   35.449    0.407    0.287  199.121
  648.970    6.131   36.704    0.402    0.286  174.671
  649.790    6.132   36.725    0.408    0.289  120.125
  650.610    6.135   36.135    0.426    0.281  103.421
  651.430    6.136   37.396    0.430    0.278  111.465
  652.251    6.096   39.268    0.423    0.287   92.438
  653.071    6.098   41.140    0.417    0.290   49.840
  653.891    6.099   43.623    0.413    0.278   27.380
  654.711    6.101   51.663    0.419    0.273   27.381
  655.531    6.102   58.476    0.429    0.273   31.805
  656.352    6.104   61.581    0.441    0.268   22.286
  657.172    6.105   64.682    0.455    0.262   14.490
  657.992    6.106   72.727    0.462    0.247   12.244
  658.812    6.108   78.300    0.459    0.239   13.699
  659.633    6.109   73.387    0.453    0.238   20.681
  660.453    6.111   61.072    0.439    0.248   32.411
  661.273    6.112   49.990    0.427    0.269   54.745
  662.093    6.154   40.142    0.426    0.282   95.997
  662.913    6.156   32.761    0.433    0.276  101.545
  663.734    6.157   35.867    0.439    0.275   76.687
  664.554    6.159   38.973    0.444    0.280   61.260
  665.374    6.160   45.168    0.447    0.286   48.028
  666.194    6.203   48.268    0.453    0.292   39.091
  667.014    6.205   53.847    0.460    0.291   37.656
  667.835    6.247   55.096    0.467    0.285   46.267
  668.655    6.249   57.585    0.473    0.278   52.747
  669.475    6.291   57.612    0.472    0.272   53.745
  670.295    6.334   57.011    0.469    0.281   53.747
  671.115    6.335   56.421    0.470    0.287   52.751
  671.936    6.336   55.826    0.465    0.278   48.947
  672.756    6.338   55.847    0.453    0.273   39.100
  673.576    6.339   57.108    0.459    0.288   24.950
  674.396    6.341   56.513    0.463    0.304   26.891
  675.217    6.301   56.534    0.447    0.295   27.918
  676.037    6.302   59.023    0.442    0.280   24.489
  676.857    6.304   61.506    0.450    0.283   21.482
  677.677    6.305   63.378    0.454    0.285   22.302
  678.497    6.307   62.783    0.455    0.279   21.890
  679.318    6.308   65.272    0.455    0.268   16.531
  680.138    6.310   71.462    0.454    0.258   11.584
  680.958    6.311   79.507    0.451    0.246    8.427
  681.778    6.313   77.678    0.466    0.242    9.254
  682.598    6.314   72.765    0.480    0.253   11.803
  683.419    6.316   69.085    0.482    0.251   20.314
  684.239    6.317   65.417    0.493    0.256   27.408
  685.059    6.278   64.194    0.500    0.262   18.849
  685.879    6.279   64.832    0.469    0.273   17.820
  686.699    6.280   69.788    0.433    0.268   20.700
  687.520    6.241   75.978    0.404    0.264   24.499
  688.340    6.242   76.622    0.401    0.258   25.434
  689.160    6.243   72.937    0.401    0.244   34.317
  689.980    6.245   66.790    0.407    0.246   54.798
  690.801    6.247   61.260    0.418    0.256   79.685
  691.621    6.248   55.730    0.437    0.269  137.138
  692.441    6.250   55.134    0.431    0.284  264.067
  693.261    6.251   53.922    0.414    0.293  129.655
  694.081    6.253   47.775    0.418    0.289   81.200
  694.902    6.254   50.881    0.411    0.289   48.985
  695.722    6.255   57.071    0.400    0.295   50.855
  696.542    6.257   65.733    0.410    0.282   59.072
  697.362    6.258   68.222    0.438    0.279   72.582
  698.182    6.260   60.842    0.446    0.284   64.872
