~VERSION INFORMATION
 VERS.                 2.0:   CWLS LOG ASCII STANDARD -VERSION 2.0
 WRAP.                  NO:   ONE LINE PER DEPTH STEP
~WELL INFORMATION BLOCK
#MNEM.UNIT           DATA                    DESCRIPTION OF MNEMONIC
#---------    -------------------            -------------------------------
# Generated from Intellog Unique Number	CS_73_76/WELL/3242
WELL.         10-26-076-06W4                 : Well_name    - WELL
LOC .         AA/10-26-076-06W4/0            : Location     - LOCATION
UWI .         AA/10-26-076-06W4/0            : Uwi          - UNIQUE WELL ID
ENTR.         SP                             : Entered      - ENTERED BY
SRVC.         SCHLUMBERGER                   : Scn          - SERVICE COMPANY
STRT.M        145                            : top_depth    - START DEPTH
STOP.M        385                            : bot_depth    - STOP DEPTH
STEP.M        0.25                           : increment    - STEP LENGTH
 NULL. -999.2500:NULL Value
~CURVE INFORMATION BLOCK
#MNEM UNIT       ERCB CURVE CODE    CURVE DESCRIPTION
#-----------   ------------------   ----------------------------------
DEPT.M        00 001 00 00         : DEPTH        - DEPTH
ILD .OHMM     00 120 00 00         : RESD         - DEEP RESISTIVITY (DIL)
DPHI.V/V      00 890 00 00         : PHID         - DENSITY POROSITY (LIMESTONE)
NPHI.V/V      00 330 00 00         : PHIN         - NEUTRON POROSITY (LIMESTONE)
GR  .API      00 310 00 00         : GR           - GAMMA RAY
~PARAMETER INFORMATION
#MNEM.UNIT           DATA             DESCRIPTION OF MNEMONIC
#---------         -----------     ------------------------------
GL  .M        557                  : gl           - GROUND LEVEL ELEVATION
EREF.M        560.67               : kb           - ELEVATION OF DEPTH REFERENCE
DATM.M        557                  : datum        - DATUM ELEVATION
TDD .M        385                  : tdd          - TOTAL DEPTH DRILLER
RUN .         ONE                  : Run          - RUN NUMBER
ENG .         BILL                 : Engineer     - RECORDING ENGINEER
WIT .         JIM                  : Witness      - WITNESSED BY
MUD .         GEL                  : Mud_type     - MUD TYPE
MATR.         LIMESTONE            : Logunit      - NEUTRON MATRIX
TMAX.C        21                   : BHT          - MAXIMUM RECORDED TEMPERATURE
BHTD.M        385                  : BHTDEP       - MAXIMUM RECORDED TEMPERATURE
MATR.         1                    : LOGUNIT      - NEUTRON MATRIX
RMT .C        25                   : MDTP         - TEMPERATURE OF MUD
NEUT.         1                    : NEUTRON      - NEUTRON TYPE
RESI.         0                    : RESIST       - RESISTIVITY TYPE
RMC .OHMM     0.25                 : RMC          - RESISTIVITY OF MUD CAKE
RMF .OHMM     0.25                 : RMF          - RESISTIVITY OF MUD FILTRATE
SUFT.C        15                   : SUFT         - SURFACE TEMPERATURE
~A  DEPTH     RESD     PHID     PHIN       GR
# ...
  275.500   13.724    0.325    0.405   49.420
  275.750   13.728    0.334    0.416   48.814
  276.000   13.477    0.333    0.437   51.261
  276.250   13.232    0.306    0.408   53.095
  276.500   12.990    0.292    0.396   54.321
  276.750   12.517    0.302    0.391   55.546
  277.000   12.290    0.319    0.392   54.941
  277.250   12.292    0.330    0.401   52.508
  277.500   12.529    0.320    0.409   53.123
  277.750   12.770    0.320    0.424   53.740
  278.000   13.015    0.319    0.449   51.916
  278.250   12.541    0.178    0.434   48.873
  278.500   11.641    0.174    0.272   54.368
  278.750   11.428    0.231    0.326   56.811
  279.000   10.808    0.293    0.393   59.256
  279.250   10.611    0.315    0.414   58.655
  279.500   10.417    0.325    0.431   56.830
  279.750   10.038    0.331    0.440   56.227
  280.000    9.671    0.332    0.442   56.231
  280.250    9.146    0.324    0.456   58.676
  280.500    8.489    0.304    0.452   58.682
  280.750    7.879    0.286    0.441   61.736
  281.000    7.178    0.265    0.469   70.889
  281.250    6.787    0.249    0.489   78.823
  281.500    6.541    0.255    0.468   81.877
  281.750    6.542    0.258    0.451   84.930
  282.000    6.423    0.261    0.450   83.110
  282.250    6.189    0.276    0.457   81.285
  282.500    5.964    0.263    0.490   81.292
  282.750    5.639    0.249    0.510   83.127
  283.000    5.234    0.241    0.515   84.960
  283.250    4.858    0.241    0.481   86.186
  283.500    4.860    0.245    0.460   86.191
  283.750    5.240    0.251    0.486  144.124
  284.000    5.648    0.266    0.487  151.446
  284.250    6.442    0.285    0.458  152.063
  284.500    6.689    0.285    0.426  142.312
  284.750    7.348    0.272    0.498  131.342
  285.000    8.539    0.267    0.485  110.007
  285.250    9.033    0.275    0.425   89.282
  285.500   10.302    0.302    0.401   81.362
  285.750   11.531    0.322    0.404   75.880
  286.000   12.432    0.329    0.427   70.398
  286.250   12.909    0.335    0.447   66.134
  286.500   13.157    0.273    0.390   56.995
  286.750   12.679    0.227    0.284   51.512
  287.000   11.990    0.098    0.228   50.299
  287.250   11.552    0.091    0.394   57.012
  287.500   10.524    0.309    0.476   66.773
  287.750    9.587    0.325    0.486   65.562
  288.000    9.411    0.316    0.480   64.346
  288.250    9.069    0.315    0.466   65.572
  288.500    8.903    0.313    0.453   71.070
  288.750    9.077    0.297    0.466   72.903
  289.000    9.079    0.293    0.478   74.736
  289.250    9.082    0.315    0.488   69.254
  289.500    9.085    0.315    0.481   67.430
  289.750    9.088    0.309    0.477   71.096
  290.000    9.091    0.313    0.463   72.320
  290.250    8.924    0.313    0.462   67.449
  290.500    8.762    0.323    0.490   62.577
  290.750    8.763    0.331    0.508   65.024
  291.000    8.444    0.331    0.481   66.857
  291.250    7.985    0.294    0.462   69.911
  291.500    7.552    0.266    0.446   79.064
  291.750    7.554    0.248    0.451   80.288
  292.000    7.416    0.235    0.468   78.465
  292.250    7.282    0.228    0.474   75.424
  292.500    7.149    0.224    0.473   74.209
  292.750    7.150    0.221    0.472   77.874
  293.000    7.154    0.216    0.457   78.489
  293.250    7.291    0.207    0.478   77.276
  293.500    7.293    0.201    0.485   77.891
  293.750    7.295    0.201    0.478   80.335
  294.000    7.297    0.217    0.462   82.170
  294.250    7.437    0.227    0.466   82.177
  294.500    7.580    0.225    0.479   81.573
  294.750    7.726    0.222    0.461   82.800
  295.000    7.876    0.218    0.447   83.414
  295.250    8.027    0.215    0.441   83.420
  295.500    8.029    0.213    0.448   81.596
  295.750    8.031    0.221    0.467   77.334
  296.000    8.035    0.223    0.470   77.342
  296.250    7.742    0.240    0.448   78.567
  296.500    7.459    0.255    0.438   79.790
  296.750    7.055    0.245    0.446   81.626
  297.000    6.797    0.243    0.465   84.681
  297.250    6.549    0.246    0.460   85.906
  297.500    6.311    0.262    0.441   82.864
  297.750    5.968    0.262    0.433   81.040
  298.000    4.951    0.234    0.439   82.266
  298.250    4.031    0.208    0.466   81.053
  298.500    3.161    0.221    0.461   78.009
  298.750    2.826    0.238    0.442   78.626
  299.000    2.623    0.237    0.432   81.681
  299.250    2.481    0.253    0.466   81.076
  299.500    2.436    0.397    0.547   76.814
  299.750    2.482    0.392    0.577   72.552
  300.000    2.483    0.328    0.556   75.911
  300.250    2.531    0.290    0.556   76.523
  300.500    2.580    0.264    0.558   74.100
  300.750    2.629    0.269    0.560   71.069
  301.000    2.630    0.297    0.582   68.038
  301.250    2.681    0.355    0.569   72.296
  301.500    2.681    0.360    0.567   75.944
  301.750    2.632    0.313    0.562   80.201
  302.000    2.683    0.308    0.542   82.027
  302.250    3.003    0.304    0.546   82.640
  302.500    3.691    0.298    0.578   80.216
  302.750    4.054    0.293    0.563   77.185
  303.000    4.800    0.280    0.525   75.975
  303.250    5.078    0.270    0.467   76.588
  303.500    5.578    0.219    0.450   77.808
  303.750    6.244    0.226    0.467   79.028
  304.000    6.606    0.260    0.476   79.641
  304.250    6.733    0.257    0.462   79.038
  304.500    6.735    0.230    0.435   79.651
  304.750    6.369    0.198    0.398   81.478
  305.000    5.802    0.178    0.391   83.913
  305.250    5.188    0.169    0.392   85.741
  305.500    4.906    0.185    0.426   84.531
  305.750    4.816    0.203    0.502   82.107
  306.000    4.729    0.287    0.495   88.187
  306.250    4.642    0.239    0.490   91.227
  306.500    4.643    0.227    0.474   89.410
  306.750    4.475    0.218    0.465   84.558
  307.000    4.393    0.214    0.464   83.955
  307.250    4.313    0.240    0.454   86.391
  307.500    4.234    0.246    0.441   88.825
  307.750    4.080    0.239    0.442   89.439
  308.000    3.932    0.234    0.457   91.266
  308.250    3.860    0.228    0.500   93.701
  308.500    3.861    0.229    0.501   94.312
  308.750    3.862    0.234    0.500   93.103
  309.000    3.863    0.221    0.490   90.679
  309.250    3.793    0.216    0.486   90.077
  309.500    3.866    0.221    0.484   89.474
  309.750    3.867    0.220    0.508   88.873
  310.000    3.941    0.225    0.518   89.487
  310.250    4.495    0.245    0.525   89.493
  310.500    5.125    0.241    0.541   89.497
  310.750    5.736    0.233    0.518   87.073
  311.000    7.184    0.246    0.490   82.828
  311.250    8.192    0.258    0.480   77.974
  311.500    9.342    0.246    0.459   70.085
  311.750   10.072    0.238    0.427   65.839
  312.000   10.460    0.227    0.365   62.808
  312.250   10.269    0.271    0.324   60.991
  312.500   10.082    0.286    0.322   64.641
  312.750   10.275    0.292    0.337   68.896
  313.000   10.278    0.295    0.370   70.724
  313.250   10.091    0.252    0.373   65.871
  313.500    8.854    0.243    0.366   60.411
  313.750    7.209    0.248    0.368   64.061
  314.000    5.980    0.258    0.379   67.709
  314.250    5.982    0.277    0.412   71.358
  314.500    6.696    0.275    0.434   71.363
  314.750    7.218    0.269    0.454   63.474
  315.000    7.637    0.287    0.461   56.799
  315.250    6.957    0.296    0.428   54.982
  315.500    5.158    0.310    0.414   59.846
  315.750    5.258    0.299    0.413   64.102
  316.000    6.224    0.289    0.445   78.683
  316.250    7.794    0.277    0.528   85.975
  316.500   10.519    0.278    0.495   83.552
  316.750   13.934    0.289    0.457   63.516
  317.000   15.022    0.302    0.308   50.161
  317.250   14.206    0.311    0.249   39.844
  317.500    9.958    0.322    0.203   39.242
  317.750    8.902    0.310    0.242   42.891
  318.000    8.741    0.305    0.286   45.932
  318.250    8.908    0.301    0.324   49.583
  318.500    9.426    0.294    0.375   51.409
  318.750   10.163    0.292    0.390   50.807
