~VERSION INFORMATION
 VERS.                 2.0:   CWLS LOG ASCII STANDARD -VERSION 2.0
 WRAP.                  NO:   ONE LINE PER DEPTH STEP
~WELL INFORMATION BLOCK
#MNEM.UNIT           DATA                    DESCRIPTION OF MNEMONIC
#---------    -------------------            -------------------------------
# Generated from Intellog Unique Number	CN_91_93/WELL/3639
WELL.         10-08-093-17W4                 : Well_name    - WELL
LOC .         AA/10-08-093-17W4/0            : Location     - LOCATION
UWI .         AA/10-08-093-17W400            : Uwi          - UNIQUE WELL ID
ENTR.         JOETTE                         : Entered      - ENTERED BY
SRVC.         SCHLUMBERGER                   : Scn          - SERVICE COMPANY
DATE.         03/20/92                       : Date         - LOG DATE
STRT.M        75                             : top_depth    - START DEPTH
STOP.M        255                            : bot_depth    - STOP DEPTH
STEP.M        0.25                           : increment    - STEP LENGTH
 NULL. -999.2500:NULL Value
~CURVE INFORMATION BLOCK
#MNEM UNIT       ERCB CURVE CODE    CURVE DESCRIPTION
#-----------   ------------------   ----------------------------------
DEPT.M        00 001 00 00         : DEPTH        - DEPTH
CALI.MM       00 280 01 00         : CAL          - CALIPER
GR  .API      00 310 00 00         : GR           - GAMMA RAY
NPHI.V/V      00 330 00 00         : PHIN         - NEUTRON POROSITY (SANDSTONE)
DPHI.V/V      00 890 00 00         : PHID         - DENSITY POROSITY (SANDSTONE)
ILD .OHMM     00 120 00 00         : RESD         - DEEP RESISTIVITY (DIL)
~PARAMETER INFORMATION
#MNEM.UNIT           DATA             DESCRIPTION OF MNEMONIC
#---------         -----------     ------------------------------
GL  .M        506.3                : gl           - GROUND LEVEL ELEVATION
EREF.M        509.95               : kb           - ELEVATION OF DEPTH REFERENCE
DATM.M        509.95               : datum        - DATUM ELEVATION
TDD .M        262                  : tdd          - TOTAL DEPTH DRILLER
RUN .         ONE                  : Run          - RUN NUMBER
ENG .         BILL                 : Engineer     - RECORDING ENGINEER
WIT .         JIM                  : Witness      - WITNESSED BY
MUD .         GEL                  : Mud_type     - MUD TYPE
MATR.         SANDSTONE            : Logunit      - NEUTRON MATRIX
TMAX.C        21                   : BHT          - MAXIMUM RECORDED TEMPERATURE
BHTD.M        262                  : BHTDEP       - MAXIMUM RECORDED TEMPERATURE
RMT .C        17.5                 : MDTP         - TEMPERATURE OF MUD
MUDD.KG/M     1130                 : MWT          - MUD DENSITY
NEUT.         1                    : NEUTRON      - NEUTRON TYPE
RESI.         0                    : RESIST       - RESISTIVITY TYPE
RM  .OHMM     9.4                  : RM           - RESISTIVITY OF MUD
RMC .OHMM     9.4                  : RMC          - RESISTIVITY OF MUD CAKE
RMF .OHMM     9.4                  : RMF          - RESISTIVITY OF MUD FILTRATE
SUFT.C        4                    : SUFT         - SURFACE TEMPERATURE
~A  DEPTH      CAL       GR     PHIN     PHID     RESD
# ...
  111.500  230.093  129.117    0.554    0.262    4.444
  111.750  229.074  130.878    0.537    0.268    4.528
  112.000  229.033  130.266    0.573    0.262    4.612
  112.250  229.013  127.870    0.575    0.256    4.606
  112.500  228.979  126.663    0.567    0.254    4.507
  112.750  229.951  127.242    0.564    0.263    4.409
  113.000  229.910  129.011    0.574    0.286    4.405
  113.250  230.882  130.185    0.639    0.283    4.311
  113.500  230.861  128.979    0.637    0.279    4.217
  113.750  231.826  124.206    0.615    0.273    4.211
  114.000  233.776  124.190    0.593    0.264    4.203
  114.250  234.734  128.339    0.561    0.272    4.196
  114.500  234.721  129.513    0.566    0.285    4.193
  114.750  235.672  127.116    0.567    0.274    4.185
  115.000  235.652  123.525    0.538    0.276    4.180
  115.250  236.616  121.125    0.516    0.281    4.345
  115.500  236.596  119.323    0.500    0.280    4.340
  115.750  237.561  118.117    0.488    0.274    4.603
  116.000  237.534  115.125    0.483    0.262    4.692
  116.250  237.500  114.514    0.484    0.254    4.978
  116.500  236.474  116.283    0.488    0.257    5.174
  116.750  235.462  118.052    0.494    0.264    5.488
  117.000  232.446  117.436    0.506    0.271    5.594
  117.250  230.449  116.833    0.522    0.267    5.816
  117.500  226.454  115.627    0.515    0.273    6.171
  117.750  223.452  115.015    0.527    0.268    6.684
  118.000  224.417  116.189    0.537    0.256    7.236
  118.250  224.389  117.958    0.534    0.224    7.521
  118.500  218.411  123.893    0.543    0.149    7.513
  118.750  211.435  130.423    0.591    0.207    7.205
  119.000  218.357  133.379    0.608    0.256    6.635
  119.250  226.265  131.581    0.621    0.285    5.521
  119.500  230.205  126.792    0.624    0.299    4.881
  119.750  233.147  126.189    0.622    0.293    4.496
  120.000  234.119  124.379    0.629    0.282    4.226
  120.250  235.070  123.776    0.646    0.276    3.970
  120.500  237.026  123.759    0.642    0.278    3.730
  120.750  242.951  123.148    0.648    0.287    3.578
  121.000  242.923  121.346    0.659    0.300    3.431
  121.250  241.905  120.140    0.674    0.310    3.289
  121.500  241.878  121.314    0.688    0.308    3.153
  121.750  242.842  123.670    0.674    0.303    3.088
  122.000  243.800  124.848    0.655    0.300    3.020
  122.250  243.787  126.022    0.641    0.315    3.016
  122.500  244.752  125.407    0.630    0.324    3.013
  122.750  240.750  124.804    0.614    0.294    3.006
  123.000  238.746  124.188    0.602    0.296    3.004
  123.250  237.721  124.172    0.587    0.308    3.121
  123.500  236.709  124.743    0.592    0.307    3.118
  123.750  235.690  125.326    0.599    0.303    3.241
  124.000  233.679  125.313    0.598    0.312    3.305
  124.250  227.687  124.702    0.601    0.306    3.366
  124.500  226.668  121.710    0.602    0.292    3.428
  124.750  226.641  116.338    0.576    0.281    3.496
  125.000  224.631  109.181    0.516    0.268    3.861
  125.250  219.651  104.994    0.488    0.267    4.181
  125.500  209.706  101.412    0.470    0.253    4.714
  125.750  203.721   97.821    0.452    0.210    5.644
  126.000  199.726   93.639    0.423    0.146    6.366
  126.250  195.732   92.428    0.408    0.151   10.537
  126.500  191.744   94.792    0.431    0.260   11.409
  126.750  189.733   97.756    0.460    0.284   12.861
  127.000  200.617  104.881    0.481    0.279   13.368
  127.250  210.508  109.030    0.500    0.263   13.081
  127.500  216.432  111.990    0.518    0.252   12.549
  127.750  224.333  115.544    0.520    0.235   10.655
  128.000  228.273  117.309    0.511    0.240    9.428
  128.250  229.238  116.698    0.501    0.249    8.332
  128.500  229.204  113.710    0.490    0.265    7.993
  128.750  229.184  108.338    0.481    0.288    7.822
  129.000  225.190  102.962    0.473    0.308    8.815
  129.250  215.237  100.569    0.468    0.316    9.739
  129.500  208.274   99.359    0.480    0.303   10.129
  129.750  206.263  101.128    0.502    0.304   10.959
  130.000  211.189  102.893    0.527    0.308   11.170
  130.250  213.152  101.091    0.531    0.296   11.386
  130.500  214.110  100.480    0.507    0.282   11.602
  130.750  211.108  101.650    0.488    0.261   11.585
  131.000  205.136  102.832    0.461    0.226   11.800
  131.250  199.145  106.981    0.478    0.257   12.028
  131.500  203.092  111.127    0.476    0.262   13.022
  131.750  211.991  110.515    0.489    0.247   14.099
  132.000  218.900  112.884    0.489    0.265   13.791
  132.250  218.880  116.438    0.478    0.240   12.966
  132.500  213.887  116.418    0.489    0.241   11.702
  132.750  209.899  116.997    0.515    0.248   10.139
  133.000  210.864  120.555    0.513    0.246    9.151
  133.250  216.788  124.705    0.480    0.232    8.596
  133.500  221.707  125.879    0.471    0.229    8.082
  133.750  222.678  124.077    0.481    0.235    7.592
  134.000  222.658  121.676    0.497    0.245    7.283
  134.250  222.631  121.660    0.521    0.245    7.273
  134.500  219.628  124.024    0.542    0.240    7.405
  134.750  216.626  124.008    0.572    0.230    7.397
  135.000  215.600  122.798    0.594    0.218    7.241
  135.250  216.565  120.401    0.590    0.203    6.402
  135.500  217.530  113.843    0.516    0.175    5.329
  135.750  215.512  106.090    0.349    0.133    5.109
  136.000  203.590   92.981    0.396    0.079    5.420
  136.250  192.652   97.131    0.443    0.205    5.751
  136.500  202.544  106.636    0.489    0.250    5.979
  136.750  213.427  117.927    0.508    0.228    6.217
  137.000  223.312  119.696    0.501    0.203    6.333
  137.250  218.332  113.729    0.430    0.179    6.199
  137.500  211.362  111.923    0.402    0.168    5.826
  137.750  199.433  111.907    0.423    0.223    5.587
  138.000  201.390  110.106    0.436    0.226    6.172
  138.250  213.265  106.511    0.405    0.221    7.248
  138.500  208.278  106.502    0.405    0.187   10.623
  138.750  194.352   99.940    0.424    0.203   11.275
  139.000  203.258   99.924    0.439    0.238   12.457
  139.250  211.166  103.478    0.424    0.263   12.684
  139.500  218.082  104.652    0.419    0.256   12.168
  139.750  217.056  105.223    0.448    0.246   11.439
  140.000  216.044  105.215    0.459    0.240    9.331
  140.250  216.010  105.790    0.451    0.248    7.765
  140.500  217.967  108.154    0.423    0.262    7.593
  140.750  218.939  104.571    0.412    0.272    8.919
  141.000  217.913   99.195    0.404    0.247   13.078
  141.250  213.925   98.579    0.410    0.241   13.876
  141.500  198.029  100.353    0.420    0.255   14.716
  141.750  192.044  104.502    0.449    0.283   14.123
  142.000  194.992  109.842    0.501    0.262    9.032
  142.250  202.907  114.586    0.512    0.258    8.662
  142.500  216.765  115.157    0.551    0.266    7.664
  142.750  216.738  114.554    0.566    0.265    6.643
  143.000  210.747  111.562    0.534    0.282    5.417
  143.250  200.808  102.619    0.503    0.288    4.887
  143.500  194.830   99.032    0.399    0.290    5.739
  143.750  194.796   96.632    0.397    0.308    8.944
  144.000  199.735   97.211    0.413    0.319   15.102
  144.250  205.652   98.980    0.424    0.272   16.357
  144.500  209.599  101.943    0.426    0.260   16.327
  144.750  213.540  106.093    0.430    0.253   14.736
  145.000  216.475  112.027    0.471    0.274   13.038
  145.250  217.446  117.363    0.488    0.272    7.845
  145.500  222.378  118.541    0.483    0.264    7.528
  145.750  226.319  116.732    0.468    0.263    6.518
  146.000  231.251  116.120    0.468    0.265    6.253
  146.250  232.216  117.294    0.482    0.269    5.998
  146.500  233.174  118.468    0.495    0.273    5.752
  146.750  233.153  118.452    0.509    0.274    5.514
  147.000  233.133  118.440    0.519    0.264    5.398
  147.250  231.109  116.039    0.511    0.264    5.390
  147.500  231.089  116.622    0.499    0.269    5.492
  147.750  229.064  120.176    0.498    0.261    5.594
