~VERSION INFORMATION
 VERS.                 2.0:   CWLS LOG ASCII STANDARD -VERSION 2.0
 WRAP.                  NO:   ONE LINE PER DEPTH STEP
~WELL INFORMATION BLOCK
#MNEM.UNIT           DATA                    DESCRIPTION OF MNEMONIC
#---------    -------------------            -------------------------------
# Generated from Intellog Unique Number	CC_84_87/WELL/2324
NULL.         -999.25                        : NULL_VALUE
WELL.         PEX PCEJ HANGST OV             : Well_name    - WELL
LOC .         11-07-084-08W4                 : Location     - LOCATION          
UWI .         AA/11-07-084-08W4/0            : Uwi          - UNIQUE WELL ID    
ENTR.         RJA                            : Entered      - ENTERED BY        
SRVC.         DRESSER ATLAS                  : Scn          - SERVICE COMPANY   
DATE.         30 JAN 80                      : Date         - LOG DATE
STRT.M        250                            : top_depth    - START DEPTH       
STOP.M        537.089                        : bot_depth    - STOP DEPTH        
STEP.M        0.3                            : increment    - STEP LENGTH       
~CURVE INFORMATION BLOCK
#MNEM UNIT       ERCB CURVE CODE    CURVE DESCRIPTION
#-----------   ------------------   ----------------------------------
DEPT.M        00 001 00 00         : DEPTH        - DEPTH                       
DPHI.V/V      00 890 00 00         : PHID         - DENSITY POROSITY (LIMESTONE)
NPHI.V/V      00 330 00 00         : PHIN         - NEUTRON POROSITY (LIMESTONE)
GR  .API      00 310 00 00         : GR           - GAMMA RAY                   
ILD .OHMM     00 120 00 00         : RESD         - DEEP RESISTIVITY (DIL)      
~PARAMETER INFORMATION       
#MNEM.UNIT           DATA             DESCRIPTION OF MNEMONIC
#---------         -----------     ------------------------------
GL  .M        272.32               : gl           - GROUND LEVEL ELEVATION      
EREF.M        730.92               : kb           - ELEVATION OF DEPTH REFERENCE
DATM.M        730.92               : datum        - DATUM ELEVATION             
TDD .M        541                  : tdd          - TOTAL DEPTH DRILLER         
RUN .         ONE                  : Run          - RUN NUMBER                  
ENG .         BILL                 : Engineer     - RECORDING ENGINEER          
WIT .         JIM                  : Witness      - WITNESSED BY                
MUD .         GEL                  : Mud_type     - MUD TYPE                    
MATR.         LIMESTONE            : Logunit      - NEUTRON MATRIX              
TMAX.C        20                   : BHT          - MAXIMUM RECORDED TEMPERATURE
BHTD.M        541                  : BHTDEP       - MAXIMUM RECORDED TEMPERATURE
MATR.         1                    : LOGUNIT      - NEUTRON MATRIX              
RMT .C        25                   : MDTP         - TEMPERATURE OF MUD          
NEUT.         1                    : NEUTRON      - NEUTRON TYPE                
RESI.         0                    : RESIST       - RESISTIVITY TYPE            
RMC .OHMM     0.25                 : RMC          - RESISTIVITY OF MUD CAKE     
RMF .OHMM     0.25                 : RMF          - RESISTIVITY OF MUD FILTRATE 
SUFT.C        15                   : SUFT         - SURFACE TEMPERATURE         
~A  DEPTH     PHID     PHIN       GR     RESD
  250.000    0.246    0.513  128.069    4.047
  250.300    0.247    0.571  137.333    4.039
  250.600    0.244    0.594  133.351    4.206
  250.900    0.244    0.572  135.961    4.191
  251.200    0.246    0.582  133.625    4.129
  251.500    0.247    0.569  134.834    4.060
  251.800    0.250    0.586  124.748    3.841
  252.100    0.253    0.584  148.356    3.654
  252.400    0.252    0.545  142.116    3.573
  252.700    0.244    0.583  136.181    3.534
  253.000    0.244    0.598  122.310    3.586
  253.300    0.252    0.579  129.743    3.673
  253.600    0.260    0.557  131.069    3.693
  253.900    0.267    0.544  133.804    3.686
  254.200    0.264    0.535  131.773    3.666
  254.500    0.253    0.562  128.036    3.659
  254.800    0.255    0.597  128.083    3.782
  255.100    0.262    0.576  125.747    3.852
  255.400    0.264    0.537  125.918    3.859
  255.700    0.254    0.575  118.757    3.880
  256.000    0.239    0.559  123.812    3.916
  256.300    0.244    0.553  129.294    4.018
  256.600    0.255    0.577  115.483    4.063
  256.900    0.265    0.623  121.207    4.055
  257.200    0.264    0.632  123.390    3.995
  257.500    0.264    0.593  129.358    3.843
  257.800    0.263    0.566  116.829    3.793
  258.100    0.267    0.584  119.561    3.676
  258.400    0.277    0.606  110.696    3.529
  258.700    0.281    0.618  107.874    3.529
  259.000    0.269    0.592  112.985    3.574
  259.300    0.261    0.577  108.454    3.489
  259.600    0.259    0.576  115.034    3.258
  259.900    0.260    0.596  123.625    3.210
  260.200    0.263    0.571  120.499    3.117
  260.500    0.275    0.544  115.601    3.048
  260.800    0.286    0.578  111.984    2.992
  261.100    0.292    0.557  115.633    2.899
  261.400    0.315    0.567  108.110    2.815
  261.700    0.319    0.560  115.178    2.722
  262.000    0.292    0.573  124.866    2.633
  262.300    0.287    0.563  119.971    2.542
  262.600    0.305    0.542  110.861    2.482
  262.900    0.340    0.525  109.195    2.702
  263.200    0.347    0.537  107.963    3.280
  263.500    0.146    0.440   91.101    3.739
  263.800    0.264    0.334   63.250    3.974
  264.100    0.267    0.423  106.149    3.952
  264.400    0.262    0.562  112.117    3.725
  264.700    0.254    0.552  101.482    3.434
  265.000    0.241    0.543  110.012    3.556
  265.300    0.216    0.524  114.393    4.025
  265.600    0.155    0.485  103.087    4.606
  265.900    0.212    0.545  118.881    4.761
  266.200    0.239    0.564  124.360    4.796
  266.500    0.248    0.536  119.220    4.940
  266.800    0.229    0.517  113.895    5.059
  267.100    0.217    0.516  122.609    4.902
  267.400    0.225    0.474  125.892    4.621
  267.700    0.236    0.491  114.035    4.395
  268.000    0.245    0.560  117.805    4.355
  268.300    0.219    0.519  109.793    4.387
  268.600    0.213    0.512  110.207    4.758
  268.900    0.219    0.516  120.751    4.955
  269.200    0.241    0.541  121.470    4.873
  269.500    0.260    0.564  121.516    4.593
  269.799    0.270    0.578  111.796    4.517
  270.099    0.271    0.620  112.514    4.393
  270.399    0.264    0.587  109.327    4.483
  270.699    0.257    0.554  120.726    4.835
  270.999    0.265    0.530  116.929    5.073
  271.299    0.255    0.536  112.886    4.888
  271.599    0.261    0.496  102.737    4.633
  271.899    0.278    0.468  105.775    4.719
  272.199    0.315    0.463  106.188    5.761
  272.499    0.297    0.429   89.021    8.260
  272.799    0.217    0.348   76.310   11.975
  273.099    0.265    0.375   88.382   16.333
  273.399    0.271    0.377   98.805   16.853
  273.699    0.278    0.414   92.931   14.536
  273.999    0.278    0.399   87.361   14.242
  274.299    0.284    0.356   82.156   15.620
  274.599    0.301    0.352   77.017   18.685
  274.899    0.302    0.365   74.010   20.836
  275.199    0.293    0.385   70.516   22.185
  275.499    0.292    0.390   79.048   22.266
  275.799    0.298    0.391   85.627   19.635
  276.099    0.286    0.392   83.597   14.554
  276.399    0.271    0.428   96.891   12.233
  276.699    0.240    0.452  107.194   11.854
  276.999    0.240    0.401  116.395   12.276
  277.299    0.245    0.409  107.652   12.975
  277.599    0.240    0.400   99.153   13.290
  277.899    0.225    0.403  104.753   13.142
  278.199    0.225    0.417  104.924   13.288
  278.499    0.228    0.396  109.854   13.460
  278.799    0.224    0.398  110.202   13.459
  279.099    0.221    0.392  113.976   13.383
  279.399    0.223    0.439  107.246   13.186
  279.699    0.220    0.440  111.077   12.613
  279.999    0.224    0.431  111.611   12.177
  280.299    0.243    0.421  104.335   11.821
  280.599    0.263    0.421  104.321   11.690
  280.899    0.297    0.433  105.954   12.727
  281.199    0.384    0.435  110.394   16.062
  281.499    0.353    0.418  102.506   24.252
  281.799    0.285    0.392   90.406   33.139
  282.099    0.288    0.364   79.037   48.758
  282.399    0.292    0.362   71.391   57.152
  282.699    0.291    0.363   65.396   50.400
  282.999    0.279    0.375   63.550   44.036
  283.299    0.258    0.363   78.124   40.445
  283.599    0.165    0.349   96.362   37.146
  283.899    0.260    0.343   81.147   35.011
  284.199    0.290    0.372   99.263   35.398
  284.499    0.296    0.376  105.413   37.206
  284.799    0.287    0.385  103.752   37.688
  285.099    0.269    0.358   90.186   37.340
  285.399    0.253    0.388   79.245   34.805
  285.699    0.239    0.405   84.481   33.108
  285.999    0.287    0.415   90.265   33.973
  286.299    0.297    0.429   81.705   32.618
  286.599    0.301    0.418   80.531   30.686
  286.899    0.301    0.386   85.766   33.716
  287.199    0.295    0.363   78.732   38.583
  287.499    0.297    0.342   79.571   41.694
  287.799    0.299    0.362   80.412   40.551
  288.099    0.309    0.377   88.333   37.797
  288.399    0.315    0.381   81.114   38.358
  288.699    0.295    0.395   63.946   44.384
  288.999    0.301    0.373   60.637   51.452
  289.299    0.301    0.385   69.535   55.191
  289.599    0.293    0.394   65.857   56.634
  289.899    0.292    0.397   68.710   55.799
  290.199    0.293    0.396   78.343   52.883
  290.499    0.288    0.410   87.485   50.867
  290.799    0.287    0.379  104.930   49.018
  291.099    0.295    0.369  106.442   48.833
  291.399    0.297    0.380  100.751   48.921
  291.699    0.298    0.394  103.299   44.435
  291.999    0.298    0.379  100.904   40.285
  292.299    0.289    0.388   92.649   38.394
  292.599    0.291    0.389   92.757   34.938
  292.899    0.288    0.395   94.633   31.793
  293.199    0.276    0.408   97.855   29.800
  293.499    0.265    0.387   97.596   27.319
  293.799    0.257    0.396  101.243   23.519
  294.099    0.256    0.408  103.794   21.285
  294.398    0.254    0.405  109.517   19.084
  294.698    0.255    0.431  109.505   16.249
  294.998    0.258    0.439  122.614   13.582
  295.298    0.272    0.455  128.216   12.991
  295.598    0.284    0.453  113.061   15.284
  295.898    0.287    0.401  100.412   15.626
  296.198    0.273    0.402  104.121   13.502
  296.498    0.168    0.444  125.044   11.120
  296.798    0.173    0.501  127.774    9.770
  297.098    0.196    0.506  130.264    8.091
  297.398    0.217    0.535  144.474    6.838
  297.698    0.221    0.520  142.565    5.812
  297.998    0.224    0.504  136.754    5.298
  298.298    0.238    0.475  139.486    5.288
  298.598    0.288    0.446  123.723    6.199
  298.898    0.301    0.421   91.356    8.013
  299.198    0.302    0.345   83.649   11.944
  299.498    0.297    0.347   87.174   19.706
  299.798    0.292    0.355   93.815   37.140
  300.098    0.290    0.371  103.262   43.214
  300.398    0.292    0.381   82.981   50.934
  300.698    0.290    0.372   88.278   50.650
  300.998    0.280    0.354   77.947   42.648
  301.298    0.277    0.357   85.440   37.471
  301.598    0.275    0.382   93.119   33.847
  301.898    0.274    0.369   90.479   31.902
