~VERSION INFORMATION
 VERS.                 2.0:   CWLS LOG ASCII STANDARD -VERSION 2.0
 WRAP.                  NO:   ONE LINE PER DEPTH STEP
~WELL INFORMATION BLOCK
#MNEM.UNIT           DATA                    DESCRIPTION OF MNEMONIC
#---------    -------------------            -------------------------------
# Generated from Intellog Unique Number	CN_94_101/WELL/5039
WELL.         14-07-097-09W4                 : Well_name    - WELL
LOC .         AA/14-07-097-09W4/0            : Location     - LOCATION
UWI .         AA/14-07-097-09W400            : Uwi          - UNIQUE WELL ID
ENTR.         JOETTE                         : Entered      - ENTERED BY
SRVC.         SCHLUMBERGER                   : Scn          - SERVICE COMPANY
DATE.         08/11/92                       : Date         - LOG DATE
STRT.M        62.5                           : top_depth    - START DEPTH
STOP.M        175                            : bot_depth    - STOP DEPTH
STEP.M        0.25                           : increment    - STEP LENGTH
 NULL. -999.2500:NULL Value
~CURVE INFORMATION BLOCK
#MNEM UNIT       ERCB CURVE CODE    CURVE DESCRIPTION
#-----------   ------------------   ----------------------------------
DEPT.M        00 001 00 00         : DEPTH        - DEPTH
DPHI.V/V      00 890 00 00         : PHID         - DENSITY POROSITY (SANDSTONE)
NPHI.V/V      00 330 00 00         : PHIN         - NEUTRON POROSITY (SANDSTONE)
ILD .OHMM     00 120 00 00         : RESD         - DEEP RESISTIVITY (DIL)
GR  .API      00 310 00 00         : GR           - GAMMA RAY
~PARAMETER INFORMATION
#MNEM.UNIT           DATA             DESCRIPTION OF MNEMONIC
#---------         -----------     ------------------------------
GL  .M        330.5                : gl           - GROUND LEVEL ELEVATION
EREF.M        330.5                : kb           - ELEVATION OF DEPTH REFERENCE
DATM.M        330.5                : datum        - DATUM ELEVATION
TDD .M        177                  : tdd          - TOTAL DEPTH DRILLER
RUN .         ONE                  : Run          - RUN NUMBER
ENG .         BILL                 : Engineer     - RECORDING ENGINEER
WIT .         JIM                  : Witness      - WITNESSED BY
MUD .         GEL                  : Mud_type     - MUD TYPE
MATR.         SANDSTONE            : Logunit      - NEUTRON MATRIX
TMAX.C        0                    : BHT          - MAXIMUM RECORDED TEMPERATURE
BHTD.M        177                  : BHTDEP       - MAXIMUM RECORDED TEMPERATURE
RMT .C        0                    : MDTP         - TEMPERATURE OF MUD
MUDD.KG/M     0                    : MWT          - MUD DENSITY
NEUT.         1                    : NEUTRON      - NEUTRON TYPE
RESI.         0                    : RESIST       - RESISTIVITY TYPE
RM  .OHMM     0                    : RM           - RESISTIVITY OF MUD
RMC .OHMM     0                    : RMC          - RESISTIVITY OF MUD CAKE
RMF .OHMM     0                    : RMF          - RESISTIVITY OF MUD FILTRATE
SUFT.C        4                    : SUFT         - SURFACE TEMPERATURE
~A  DEPTH     PHID     PHIN     RESD       GR
# ...
  149.500    0.329    0.476   12.617   35.331
  149.750    0.309    0.474   12.989   30.444
  150.000    0.295    0.472   13.566   23.108
  150.250    0.291    0.468   13.965   26.177
  150.500    0.311    0.465   14.173   21.901
  150.750    0.306    0.463   14.177   30.477
  151.000    0.299    0.460   14.182   26.201
  151.250    0.301    0.469   13.985   22.539
  151.500    0.303    0.467   13.790   33.561
  151.750    0.300    0.462   13.794   13.988
  152.000    0.315    0.461   13.800   17.056
  152.250    0.333    0.460   13.804   25.019
  152.500    0.326    0.462   13.808   13.401
  152.750    0.314    0.471   13.814   14.021
  153.000    0.309    0.475   13.620   14.029
  153.250    0.322    0.472   12.681   17.709
  153.500    0.324    0.475   12.505   26.896
  153.750    0.318    0.476   12.689   20.785
  154.000    0.302    0.476   12.694   40.987
  154.250    0.296    0.470   12.338   36.101
  154.500    0.292    0.468   12.702   37.334
  154.750    0.293    0.468   13.654   28.162
  155.000    0.321    0.471   14.259   22.664
  155.250    0.318    0.483   14.892   21.448
  155.500    0.302    0.483   15.331   48.381
  155.750    0.279    0.473   15.558   50.225
  156.000    0.254    0.459   16.017   75.935
  156.250    0.257    0.444   16.022  104.704
  156.500    0.271    0.444   16.495   50.862
  156.750    0.277    0.446   16.500   40.467
  157.000    0.277    0.442   16.506   45.372
  157.250    0.268    0.439   16.512   43.545
  157.500    0.258    0.425   16.282   44.164
  157.750    0.267    0.426   15.377   52.128
  158.000    0.271    0.435   14.112   55.196
  158.250    0.260    0.447   14.322   56.428
  158.500    0.254    0.454   14.743   88.869
  158.750    0.267    0.447   15.848   62.564
  159.000    0.270    0.456   15.403   53.393
  159.250    0.263    0.454   14.548   54.013
  159.500    0.247    0.434   13.545   48.515
  159.750    0.263    0.439   11.404   50.359
  160.000    0.274    0.462   10.617   35.681
  160.250    0.279    0.497   11.914   44.868
  160.500    0.266    0.487   12.623   68.130
  160.750    0.265    0.485   12.810   53.451
  161.000    0.268    0.486   12.999   38.773
  161.250    0.287    0.485   13.383   27.154
  161.500    0.303    0.483   13.581   17.985
  161.750    0.304    0.479   13.982   37.574
  162.000    0.308    0.477   14.190   52.881
  162.250    0.301    0.482   14.194   52.278
  162.500    0.297    0.485   14.199   32.092
  162.750    0.278    0.471   14.001   19.862
  163.000    0.290    0.485   13.806   19.258
  163.250    0.310    0.480   13.614   37.625
  163.500    0.306    0.487   13.618   32.737
  163.750    0.299    0.479   13.622   37.029
  164.000    0.282    0.463   14.024   32.754
  164.250    0.282    0.456   15.513   26.642
  164.500    0.313    0.475   14.237   33.994
  164.750    0.325    0.496   13.256   34.614
  165.000    0.336    0.502   13.071   43.191
  165.250    0.343    0.507   13.074   42.587
  165.500    0.316    0.502   13.655   32.192
  165.750    0.329    0.492   13.660   39.544
  166.000    0.325    0.484   13.469   40.776
  166.250    0.333    0.486   13.473   34.053
  166.500    0.325    0.489   13.478   34.061
  166.750    0.308    0.485   13.483   16.325
  167.000    0.303    0.480   13.488   20.616
  167.250    0.299    0.475   13.110   26.742
  167.500    0.279    0.473   12.206   35.318
  167.750    0.268    0.473   10.276   41.446
  168.000    0.253    0.476    8.652   42.678
  168.250    0.207    0.479    6.131  110.000
  168.500    0.152    0.522   17.253   88.590
  168.750    0.152    0.517   17.012   70.240
  169.000    0.149    0.465   17.515   50.666
  169.250    0.145    0.427   19.653   37.824
  169.500    0.147    0.291   20.234   22.534
  169.750    0.149    0.265   17.787    9.079
  170.000    0.150    0.283   16.091   28.669
  170.250    0.148    0.306   15.197   23.783
  170.500    0.145    0.302   14.352   24.404
  170.750    0.143    0.298   13.172   10.337
  171.000    0.144    0.302   12.088   18.302
  171.250    0.147    0.311   11.254   18.922
  171.500    0.152    0.348   11.097   15.258
  171.750    0.156    0.358   13.190    7.310
  172.000    0.153    0.328   13.975   12.214
  172.250    0.149    0.291   14.182    9.775
  172.500    0.148    0.283   14.187    3.663
  172.750    0.148    0.316   14.396    1.224
  173.000    0.144    0.319   14.402   20.202
  173.250    0.144    0.293   14.407   11.032
  173.500    0.153    0.269   14.411   11.041
  173.750    0.147    0.274   14.210    9.825
  174.000    0.146    0.280   13.813   14.118
  174.250    0.149    0.286   13.620   13.514
  174.500    0.149    0.307   13.050   17.806
  174.750    0.148    0.314   11.977   25.156
  175.000    0.148    0.319   11.476   40.463
