~VERSION INFORMATION
 VERS.                 2.0:   CWLS LOG ASCII STANDARD -VERSION 2.0
 WRAP.                  NO:   ONE LINE PER DEPTH STEP
~WELL INFORMATION BLOCK
#MNEM.UNIT           DATA                    DESCRIPTION OF MNEMONIC
#---------    -------------------            -------------------------------
# Generated from Intellog Unique Number	CN_94_101/WELL/5040
WELL.         14-14-101-14W4                 : Well_name    - WELL
LOC .         AA/14-14-101-14W4/0            : Location     - LOCATION
UWI .         AA/14-14-101-14W400            : Uwi          - UNIQUE WELL ID
ENTR.         TIM                            : Entered      - ENTERED BY
SRVC.         SCHLUMBERGER                   : Scn          - SERVICE COMPANY
DATE.         08/17/92                       : Date         - LOG DATE
STRT.M        304.8                          : top_depth    - START DEPTH
STOP.M        502.8                          : bot_depth    - STOP DEPTH
STEP.M        0.25                           : increment    - STEP LENGTH
NULL. -999.2500:NULL Value
~CURVE INFORMATION BLOCK
#MNEM UNIT       ERCB CURVE CODE    CURVE DESCRIPTION
#-----------   ------------------   ----------------------------------
DEPT.M        00 001 00 00         : DEPTH        - DEPTH
GR  .API      00 310 00 00         : GR           - GAMMA RAY
ILD .OHMM     00 120 00 00         : RESD         - DEEP RESISTIVITY (DIL)
NPHI.V/V      00 330 00 00         : PHIN         - NEUTRON POROSITY (SANDSTONE)
~PARAMETER INFORMATION
#MNEM.UNIT           DATA             DESCRIPTION OF MNEMONIC
#---------         -----------     ------------------------------
GL  .M        726.643              : gl           - GROUND LEVEL ELEVATION
EREF.M        729.996              : kb           - ELEVATION OF DEPTH REFERENCE
DATM.M        729.996              : datum        - DATUM ELEVATION
TDD .M        507.187              : tdd          - TOTAL DEPTH DRILLER
RUN .         ONE                  : Run          - RUN NUMBER
ENG .         BILL                 : Engineer     - RECORDING ENGINEER
WIT .         JIM                  : Witness      - WITNESSED BY
MUD .         GEL                  : Mud_type     - MUD TYPE
MATR.         SANDSTONE            : Logunit      - NEUTRON MATRIX
TMAX.C        19.4444              : BHT          - MAXIMUM RECORDED TEMPERATURE
BHTD.M        507.187              : BHTDEP       - MAXIMUM RECORDED TEMPERATURE
RMT .C        12.2222              : MDTP         - TEMPERATURE OF MUD
MUDD.KG/M     0                    : MWT          - MUD DENSITY
NEUT.         1                    : NEUTRON      - NEUTRON TYPE
RESI.         0                    : RESIST       - RESISTIVITY TYPE
RM  .OHMM     9.5                  : RM           - RESISTIVITY OF MUD
RMC .OHMM     5                    : RMC          - RESISTIVITY OF MUD CAKE
RMF .OHMM     10                   : RMF          - RESISTIVITY OF MUD FILTRATE
SUFT.C        4                    : SUFT         - SURFACE TEMPERATURE
~A  DEPTH       GR     RESD     PHIN
# ...
  467.550   49.167    9.791    0.302
  467.800   47.606   11.220    0.302
  468.050   47.580   11.888    0.298
  468.300   48.725   10.977    0.298
  468.550   50.247   10.134    0.296
  468.800   51.774    8.998    0.289
  469.050   53.690    7.681    0.286
  469.300   55.603    6.303    0.285
  469.550   58.287    5.709    0.288
  469.800   61.353    4.778    0.293
  470.050   63.265    4.326    0.294
  470.300   65.559    3.840    0.293
  470.550   66.314    3.689    0.292
  470.800   65.143    3.405    0.289
  471.050   62.424    3.144    0.288
  471.300   60.087    3.080    0.284
  471.550   59.684    2.900    0.278
  471.800   59.277    2.841    0.275
  472.050   60.031    2.727    0.264
  472.300   61.172    2.619    0.266
  472.550   62.698    2.565    0.276
  472.800   64.225    2.513    0.286
  473.050   64.203    2.413    0.314
  473.300   63.032    2.364    0.320
  473.550   63.397    2.270    0.321
  473.800   64.147    2.223    0.318
  474.050   64.906    2.220    0.311
  474.300   66.432    2.217    0.307
  474.550   68.726    2.216    0.312
  474.800   69.481    2.213    0.318
  475.050   69.845    2.168    0.319
  475.300   70.223    2.165    0.315
  475.550   71.359    2.162    0.312
  475.800   72.885    2.160    0.307
  476.050   74.412    2.157    0.305
  476.300   76.710    2.196    0.298
  476.550   80.938    2.195    0.294
  476.800   82.846    2.236    0.289
  477.050   84.758    2.277    0.288
  477.300   84.359    2.319    0.288
  477.550   81.255    2.363    0.292
  477.800   76.984    2.407    0.296
  478.050   75.423    2.550    0.298
  478.300   74.248    2.701    0.304
  478.550   75.774    2.806    0.312
  478.800   78.077    2.972    0.323
  479.050   79.217    3.212    0.336
  479.300   76.490    3.470    0.352
  479.550   75.320    3.823    0.354
  479.800   72.982    4.052    0.355
  480.050   71.426    4.552    0.355
  480.300   66.387    4.920    0.351
  480.550   62.897    5.527    0.338
  480.800   58.635    5.971    0.320
  481.050   56.302    6.206    0.309
  481.300   57.438    6.199    0.308
  481.550   58.579    6.068    0.309
  481.800   58.947    5.830    0.311
  482.050   57.768    5.487    0.309
  482.300   56.589    5.270    0.307
  482.550   55.804    4.964    0.303
  482.800   55.397    4.675    0.301
  483.050   53.836    4.232    0.300
  483.300   51.889    3.986    0.298
  483.550   50.324    3.538    0.297
  483.800   49.535    3.204    0.297
  484.050   49.908    2.681    0.299
  484.300   50.272    2.477    0.300
  484.550   50.645    2.156    0.301
  484.800   52.549    1.841    0.304
  485.050   52.926    1.602    0.305
  485.300   54.066    1.340    0.305
  485.550   57.904    1.263    0.305
  485.800   62.128    1.143    0.305
  486.050   65.202    1.077    0.306
  486.300   66.343    0.994    0.303
  486.550   65.939    0.955    0.302
  486.800   63.988    0.882    0.302
  487.050   61.660    0.864    0.302
  487.300   57.389    0.829    0.302
  487.550   55.828    0.765    0.298
  487.800   54.271    0.735    0.295
  488.050   52.325    0.706    0.295
  488.300   50.373    0.678    0.295
  488.550   48.813    0.664    0.296
  488.800   47.252    0.651    0.296
  489.050   45.301    0.637    0.297
  489.300   44.511    0.612    0.300
  489.550   43.718    0.611    0.300
  489.800   43.319    0.587    0.301
  490.050   43.302    0.564    0.303
  490.300   43.276    0.552    0.304
  490.550   43.268    0.562    0.311
  490.800   42.860    0.573    0.326
  491.050   42.067    0.572    0.339
  491.300   41.664    0.571    0.349
  491.550   43.194    0.571    0.351
  491.800   45.107    0.559    0.352
  492.050   47.791    0.558    0.350
  492.300   51.247    0.592    0.346
  492.550   55.856    0.705    0.335
  492.800   61.632    0.824    0.323
  493.050   73.578    0.945    0.312
  493.300   81.279    1.126    0.303
  493.550   86.665    1.290    0.300
  493.800   88.963    1.449    0.301
  494.050   92.029    1.506    0.304
  494.300   93.169    1.627    0.307
  494.550   93.538    1.724    0.310
  494.800   93.907    1.756    0.315
  495.050   94.275    1.823    0.320
  495.300   94.254    1.858    0.317
  495.550   93.847    1.893    0.315
  495.800   93.057    1.890    0.313
  496.050   92.268    1.888    0.309
  496.300   91.098    1.850    0.307
  496.550   89.142    1.741    0.302
  496.800   85.656    1.672    0.295
  497.050   78.306    1.606    0.291
  497.300   73.272    1.483    0.286
  497.550   68.234    1.424    0.285
  497.800   68.217    1.368    0.288
  498.050   69.357    1.313    0.290
  498.300   70.879    1.287    0.291
  498.550   72.410    1.235    0.291
  498.800   74.318    1.210    0.290
  499.050   73.525    1.185    0.289
  499.300   73.126    1.161    0.294
  499.550   71.561    1.137    0.296
  499.800   70.004    1.070    0.297
  500.050   67.281    1.028    0.297
  500.300   67.264    1.007    0.294
  500.550   71.102    1.006    0.285
  500.800   73.018    1.025    0.279
  501.050   76.088    1.044    0.275
  501.300   79.544    1.084    0.273
  501.550   83.772    1.171    0.267
  501.800   86.070    1.266    0.257
  502.050   91.456    1.367    0.240
  502.300   96.456    1.478    0.229
  502.550  103.385    1.694    0.223
  502.800  106.836    1.979    0.220
