~VERSION INFORMATION
 VERS.                 2.0:   CWLS LOG ASCII STANDARD -VERSION 2.0
 WRAP.                  NO:   ONE LINE PER DEPTH STEP
~WELL INFORMATION BLOCK
#MNEM.UNIT           DATA                    DESCRIPTION OF MNEMONIC
#---------    -------------------            -------------------------------
# Generated from Intellog Unique Number	CN_94_101/WELL/5036
WELL.         13-29-097-12W4                 : Well_name    - WELL
LOC .         AA/13-29-097-12W4/0            : Location     - LOCATION
UWI .         AA/13-29-097-12W400            : Uwi          - UNIQUE WELL ID
ENTR.         JOETTE                         : Entered      - ENTERED BY
SRVC.         SCHLUMBERGER                   : Scn          - SERVICE COMPANY
DATE.         08/17/92                       : Date         - LOG DATE
STRT.M        25                             : top_depth    - START DEPTH
STOP.M        205                            : bot_depth    - STOP DEPTH
STEP.M        0.25                           : increment    - STEP LENGTH
 NULL. -999.2500:NULL Value
~CURVE INFORMATION BLOCK
#MNEM UNIT       ERCB CURVE CODE    CURVE DESCRIPTION
#-----------   ------------------   ----------------------------------
DEPT.M        00 001 00 00         : DEPTH        - DEPTH
ILD .OHMM     00 120 00 00         : RESD         - DEEP RESISTIVITY (DIL)
GR  .API      00 310 00 00         : GR           - GAMMA RAY
NPHI.V/V      00 330 00 00         : PHIN         - NEUTRON POROSITY (SANDSTONE)
DPHI.V/V      00 890 00 00         : PHID         - DENSITY POROSITY (SANDSTONE)
~PARAMETER INFORMATION
#MNEM.UNIT           DATA             DESCRIPTION OF MNEMONIC
#---------         -----------     ------------------------------
GL  .M        448.3                : gl           - GROUND LEVEL ELEVATION
EREF.M        448.3                : kb           - ELEVATION OF DEPTH REFERENCE
DATM.M        448.3                : datum        - DATUM ELEVATION
TDD .M        215                  : tdd          - TOTAL DEPTH DRILLER
RUN .         ONE                  : Run          - RUN NUMBER
ENG .         BILL                 : Engineer     - RECORDING ENGINEER
WIT .         JIM                  : Witness      - WITNESSED BY
MUD .         GEL                  : Mud_type     - MUD TYPE
MATR.         SANDSTONE            : Logunit      - NEUTRON MATRIX
TMAX.C        17                   : BHT          - MAXIMUM RECORDED TEMPERATURE
BHTD.M        215                  : BHTDEP       - MAXIMUM RECORDED TEMPERATURE
RMT .C        17                   : MDTP         - TEMPERATURE OF MUD
MUDD.KG/M     1030                 : MWT          - MUD DENSITY
NEUT.         1                    : NEUTRON      - NEUTRON TYPE
RESI.         0                    : RESIST       - RESISTIVITY TYPE
RM  .OHMM     16.5                 : RM           - RESISTIVITY OF MUD
RMC .OHMM     16.5                 : RMC          - RESISTIVITY OF MUD CAKE
RMF .OHMM     16.5                 : RMF          - RESISTIVITY OF MUD FILTRATE
SUFT.C        4                    : SUFT         - SURFACE TEMPERATURE
~A  DEPTH     RESD       GR     PHIN     PHID
# ...
   68.500    9.336  110.499    0.492    0.323
   68.750    9.136  106.311    0.488    0.315
   69.000    8.731  101.520    0.481    0.312
   69.250    8.532  100.342    0.466    0.317
   69.500    8.955  102.783    0.449    0.321
   69.750    9.584  104.012    0.454    0.318
   70.000   10.425  102.226    0.469    0.311
   70.250   10.849   98.639    0.527    0.302
   70.500   10.857   95.060    0.536    0.303
   70.750   10.867   97.493    0.524    0.320
   71.000   10.668   96.315    0.515    0.313
   71.250   10.261   93.927    0.498    0.315
   71.500    9.438   92.755    0.480    0.318
   71.750    8.614   94.587    0.485    0.323
   72.000    7.999   99.435    0.471    0.331
   72.250    7.176  103.669    0.463    0.330
   72.500    5.733  111.521    0.445    0.320
   72.750    5.120  118.169    0.454    0.322
   73.000    5.124  120.603    0.466    0.354
   73.250    4.925  118.829    0.550    0.366
   73.500    5.558  117.049    0.531    0.359
   73.750    5.980  117.677    0.516    0.360
   74.000    7.861  117.101    0.522    0.357
   74.250    8.073  114.725    0.521    0.332
   74.500    8.289  113.534    0.516    0.338
   74.750    7.676  110.563    0.525    0.341
   75.000    6.648  109.378    0.540    0.329
   75.250    6.029  108.200    0.557    0.329
   75.500    5.414  108.226    0.556    0.324
   75.750    4.591  108.847    0.533    0.324
   76.000    4.184  110.083    0.486    0.309
   76.250    3.985  114.919    0.506    0.268
   76.500    3.995  126.998    0.531    0.234
   76.750    4.001  129.426    0.533    0.222
   77.000    4.221  125.237    0.577    0.292
   77.250    4.225  122.855    0.539    0.309
   77.500    4.443  122.881    0.520    0.309
   77.750    4.453  130.131    0.524    0.293
   78.000    4.458  136.779    0.572    0.299
   78.250    4.468  136.209    0.569    0.308
   78.500    4.684  133.219    0.574    0.303
   78.750    4.904  129.632    0.594    0.307
   79.000    4.908  125.444    0.540    0.316
   79.250    5.333  120.654    0.517    0.341
   79.500    5.549  115.863    0.516    0.357
   79.750    5.555  113.481    0.505    0.376
   80.000    5.773  123.146    0.502    0.318
   80.250    5.780  122.570    0.507    0.326
   80.500    5.995  121.385    0.529    0.326
   80.750    7.042  119.003    0.555    0.316
   81.000    9.335  117.825    0.555    0.311
   81.250    9.758  114.245    0.556    0.303
   81.500    9.766  111.856    0.565    0.274
   81.750    9.359  105.260    0.568    0.262
   82.000    8.539   99.272    0.529    0.271
   82.250    7.924  101.699    0.417    0.283
   82.500    7.099  107.752    0.408    0.289
   82.750    5.864  110.179    0.440    0.279
   83.000    5.456  113.215    0.542    0.288
   83.250    5.257  113.843    0.555    0.315
   83.500    5.265  112.671    0.554    0.313
   83.750    5.273  113.901    0.538    0.300
   84.000    5.284  118.135    0.534    0.306
   84.250    5.084  123.585    0.552    0.308
   84.500    5.092  125.417    0.550    0.310
   84.750    5.306  124.835    0.515    0.304
   85.000    5.524  120.646    0.505    0.289
   85.250    5.532  116.464    0.520    0.295
   85.500    5.746  114.678    0.536    0.307
   85.750    7.003  114.710    0.539    0.305
   86.000    7.009  114.742    0.520    0.301
   86.250    6.394  115.357    0.502    0.300
   86.500    5.779  117.804    0.501    0.297
   86.750    5.164  119.034    0.507    0.300
   87.000    5.380  120.859    0.516    0.297
   87.250    5.808  125.708    0.518    0.307
   87.500    6.020  126.938    0.521    0.321
   87.750    6.235  126.957    0.526    0.327
   88.000    6.038  125.177    0.527    0.321
   88.250    5.629  122.199    0.528    0.322
   88.500    5.429  120.419    0.541    0.333
   88.750    5.022  122.251    0.563    0.354
   89.000    4.823  122.879    0.577    0.340
   89.250    4.831  124.704    0.568    0.337
   89.500    4.841  136.771    0.558    0.332
   89.750    4.847  145.827    0.550    0.324
   90.000    4.856  152.481    0.552    0.268
   90.250    4.656  150.099    0.560    0.236
   90.500    4.043  147.717    0.563    0.249
   90.750    4.051  145.943    0.566    0.257
   91.000    4.060  149.581    0.558    0.249
   91.250    3.653  152.611    0.576    0.237
   91.500    3.245  156.249    0.603    0.226
   91.750    3.254  156.274    0.586    0.276
   92.000    3.887  153.892    0.592    0.267
   92.250    4.103  149.102    0.602    0.271
   92.500    3.903  150.934    0.601    0.281
   92.750    3.706  152.772    0.554    0.285
   93.000    3.712  154.610    0.535    0.292
   93.250    3.722  155.225    0.570    0.297
   93.500    3.726  154.649    0.583    0.297
   93.750    4.362  152.267    0.591    0.298
   94.000    4.573  148.085    0.577    0.293
   94.250    4.999  144.492    0.571    0.279
   94.500    5.423  139.100    0.578    0.282
   94.750    5.846  134.918    0.566    0.277
   95.000    6.272  132.529    0.514    0.278
   95.250    6.484  128.341    0.494    0.284
   95.500    7.115  124.755    0.472    0.279
   95.750    7.958  119.964    0.438    0.264
   96.000    8.381  119.388    0.420    0.283
   96.250    9.013  126.638    0.430    0.266
   96.500    9.436  127.266    0.443    0.242
   96.750    9.652  123.078    0.448    0.226
   97.000    9.453  117.084    0.440    0.207
   97.250    9.047  114.106    0.437    0.214
   97.500    8.844  115.938    0.447    0.196
   97.750    8.437  117.168    0.461    0.200
   98.000    8.447  117.193    0.462    0.230
   98.250    8.871  116.015    0.476    0.252
   98.500    9.292  117.245    0.495    0.272
   98.750    9.510  119.673    0.470    0.285
   99.000    9.518  118.494    0.477    0.298
   99.250    9.524  122.132    0.487    0.272
   99.500    9.740  124.573    0.487    0.271
   99.750    9.748  123.395    0.460    0.274
  100.000   10.172  122.812    0.456    0.278
  100.250   10.388  119.828    0.451    0.272
  100.500   10.606  116.850    0.446    0.249
  100.750   10.406  115.063    0.447    0.252
  101.000    9.999  112.681    0.445    0.262
  101.250    9.384  110.299    0.442    0.268
  101.500    8.977  115.147    0.445    0.255
  101.750    9.816  112.765    0.447    0.243
  102.000   10.863  113.995    0.453    0.248
  102.250   11.704  117.024    0.454    0.244
  102.500   11.502  112.234    0.440    0.236
  102.750   10.682  106.842    0.410    0.240
  103.000    9.652  108.674    0.406    0.249
  103.250    8.827  111.710    0.415    0.262
  103.500    7.381  118.358    0.439    0.275
  103.750    5.938  125.614    0.459    0.265
  104.000    4.700  128.055    0.467    0.257
  104.250    5.539  125.672    0.475    0.267
  104.500    8.037  123.284    0.466    0.275
  104.750   10.122  118.493    0.458    0.275
  105.000    9.925  113.703    0.448    0.267
  105.250    9.516  114.331    0.448    0.259
  105.500    8.485  116.765    0.448    0.267
  105.750    6.836  118.597    0.452    0.266
  106.000    6.425  119.827    0.463    0.273
  106.250    6.018  122.267    0.499    0.278
  106.500    6.238  127.103    0.518    0.289
  106.750    6.450  133.155    0.538    0.287
  107.000    7.498  131.375    0.552    0.264
  107.250    8.545  130.190    0.549    0.260
  107.500   10.214  127.808    0.547    0.269
  107.750   11.886  126.630    0.533    0.274
  108.000   12.100  125.452    0.522    0.268
  108.250   10.655  124.875    0.522    0.269
  108.500    8.171  120.085    0.495    0.271
  108.750    6.102  114.097    0.446    0.271
  109.000    4.449  117.127    0.386    0.289
  109.250    4.044  123.173    0.466    0.305
  109.500    4.883  126.215    0.546    0.309
  109.750    6.550  124.435    0.576    0.300
  110.000    6.974  125.658    0.591    0.302
  110.250    5.944  122.072    0.552    0.306
  110.500    3.875  117.288    0.510    0.300
  110.750    2.434  123.930    0.492    0.300
  111.000    2.232  136.003    0.496    0.315
  111.250    2.446  138.437    0.525    0.285
  111.500    3.287  136.656    0.558    0.289
  111.750    4.539  139.090    0.583    0.301
