~VERSION INFORMATION
 VERS.                 2.0:   CWLS LOG ASCII STANDARD -VERSION 2.0
 WRAP.                  NO:   ONE LINE PER DEPTH STEP
~WELL INFORMATION BLOCK
#MNEM.UNIT           DATA                    DESCRIPTION OF MNEMONIC
#---------    -------------------            -------------------------------
# Generated from Intellog Unique Number	CN_94_101/WELL/5009
WELL.         10-30-097-07W4                 : Well_name    - WELL
LOC .         AA/10-30-097-07W4/0            : Location     - LOCATION
UWI .         AA/10-30-097-07W400            : Uwi          - UNIQUE WELL ID
ENTR.         T                              : Entered      - ENTERED BY
SRVC.         SCHLUMBERGER                   : Scn          - SERVICE COMPANY
DATE.         08/11/92                       : Date         - LOG DATE
STRT.M        0                              : top_depth    - START DEPTH
STOP.M        110                            : bot_depth    - STOP DEPTH
STEP.M        0.25                           : increment    - STEP LENGTH
 NULL. -999.2500:NULL Value
~CURVE INFORMATION BLOCK
#MNEM UNIT       ERCB CURVE CODE    CURVE DESCRIPTION
#-----------   ------------------   ----------------------------------
DEPT.M        00 001 00 00         : DEPTH        - DEPTH
DPHI.V/V      00 890 00 00         : PHID         - DENSITY POROSITY (SANDSTONE)
NPHI.V/V      00 330 00 00         : PHIN         - NEUTRON POROSITY (SANDSTONE)
ILD .OHMM     00 120 00 00         : RESD         - DEEP RESISTIVITY (DIL)
GR  .API      00 310 00 00         : GR           - GAMMA RAY
~PARAMETER INFORMATION
#MNEM.UNIT           DATA             DESCRIPTION OF MNEMONIC
#---------         -----------     ------------------------------
GL  .M        299.6                : gl           - GROUND LEVEL ELEVATION
EREF.M        299.6                : kb           - ELEVATION OF DEPTH REFERENCE
DATM.M        299.6                : datum        - DATUM ELEVATION
TDD .M        115.2                : tdd          - TOTAL DEPTH DRILLER
RUN .         ONE                  : Run          - RUN NUMBER
ENG .         BILL                 : Engineer     - RECORDING ENGINEER
WIT .         JIM                  : Witness      - WITNESSED BY
MUD .         GEL                  : Mud_type     - MUD TYPE
MATR.         SANDSTONE            : Logunit      - NEUTRON MATRIX
TMAX.C        14.2                 : BHT          - MAXIMUM RECORDED TEMPERATURE
BHTD.M        115                  : BHTDEP       - MAXIMUM RECORDED TEMPERATURE
RMT .C        14.5                 : MDTP         - TEMPERATURE OF MUD
MUDD.KG/M     1022                 : MWT          - MUD DENSITY
NEUT.         1                    : NEUTRON      - NEUTRON TYPE
RESI.         0                    : RESIST       - RESISTIVITY TYPE
RM  .OHMM     14.6                 : RM           - RESISTIVITY OF MUD
RMC .OHMM     7.81                 : RMC          - RESISTIVITY OF MUD CAKE
RMF .OHMM     11.3                 : RMF          - RESISTIVITY OF MUD FILTRATE
SUFT.C        4                    : SUFT         - SURFACE TEMPERATURE
~A  DEPTH     PHID     PHIN     RESD       GR
# ...
   43.500    0.359    0.595  625.386  128.945
   43.750    0.368    0.581  542.209  135.783
   44.000    0.375    0.564  470.231  141.960
   44.250    0.347    0.564  548.502  141.909
   44.500    0.271    0.594  503.343  143.719
   44.750    0.276    0.621  461.903  135.474
   45.000    0.296    0.631  423.996  139.823
   45.250    0.301    0.587  378.248  156.665
   45.500    0.308    0.553  417.087  158.475
   45.750    0.313    0.511  576.562  147.759
   46.000    0.171    0.517 2540.030  120.742
   46.250    0.179    0.538 4725.320  103.745
   46.500    0.181    0.562 5063.900   82.991
   46.750    0.184    0.575 4917.150   82.296
   47.000    0.154    0.593 5124.140   81.601
   47.250    0.155    0.604 5047.890   79.653
   47.500    0.147    0.601 4971.350   77.706
   47.750    0.134    0.601 5036.280   80.768
   48.000    0.106    0.615 4888.930   80.700
   48.250    0.102    0.631 4748.620   83.136
   48.500    0.100    0.638 1467.440   88.078
   48.750    0.113    0.638  479.838   94.272
   49.000    0.137    0.601  253.726  126.180
   49.250    0.175    0.598  341.067  150.555
   49.500    0.205    0.603  751.727  105.357
   49.750    0.261    0.609 1230.790   91.492
   50.000    0.383    0.608 1178.350   86.413
   50.250    0.107    0.595 1112.650   94.486
   50.500    0.119    0.598  911.926   95.670
   50.750    0.138    0.604  639.652   93.722
   51.000    0.162    0.614  509.652  109.329
   51.250    0.172    0.608  406.072  121.160
   51.500    0.164    0.608  314.439  133.635
   51.750    0.154    0.605  268.871  143.553
   52.000    0.153    0.586  239.861  141.640
   52.250    0.163    0.525  232.910  138.439
   52.500    0.172    0.541  219.733  138.371
   52.750    0.180    0.571  204.570  145.818
   53.000    0.178    0.578  182.498  153.265
   53.250    0.184    0.522  158.271  161.964
   53.500    0.199    0.549  153.640  163.148
   53.750    0.208    0.572  157.862  159.305
   54.000    0.216    0.599  155.468  154.242
   54.250    0.227    0.630  148.845  148.537
   54.500    0.236    0.655  140.505  155.984
   54.750    0.248    0.674  128.937  160.909
   55.000    0.200    0.654  108.705  156.473
   55.250    0.226    0.645   87.820  148.888
   55.500    0.232    0.656  506.157  133.771
   55.750    0.249    0.656 1753.770  113.643
   56.000    0.258    0.658 2913.940  102.927
   56.250    0.270    0.639 4639.340   94.072
   56.500    0.280    0.504 5411.570   89.619
   56.750    0.281    0.391 5036.690   81.408
   57.000    0.290    0.393 5030.900   72.554
   57.250    0.299    0.398 5096.610   79.375
   57.500    0.305    0.400 4678.350   82.420
   57.750    0.312    0.405 3423.600   81.725
   58.000    0.319    0.408 2436.280   84.823
   58.250    0.318    0.413 1757.860  108.571
   58.500    0.321    0.419 1101.560  139.835
   58.750    0.330    0.429  375.793  152.902
   59.000    0.334    0.448  201.537  147.214
   59.250    0.323    0.584  708.236  123.328
   59.500    0.318    0.620  838.119  116.370
   59.750    0.324    0.753  813.598  104.384
   60.000    0.333    0.787  757.454   93.668
   60.250    0.346    0.670  502.109   86.675
   60.500    0.361    0.552  429.345   91.634
   60.750    0.372    0.481  292.765   96.593
   61.000    0.383    0.459  229.992  104.666
   61.250    0.400    0.477  175.645  139.706
   61.500    0.419    0.511  239.398  159.036
   61.750    0.448    0.511  263.979  159.610
   62.000    0.466    0.555  282.893  159.542
   62.250    0.413    0.693  316.379  158.220
   62.500    0.350    0.734  294.547  156.273
   62.750    0.354    0.738  248.329  153.072
   63.000    0.269    0.706  186.935  153.004
   63.250    0.181    0.610  157.602  152.935
   63.500    0.204    0.579  155.212  153.492
   63.750    0.245    0.650  152.859  154.676
   64.000    0.465    0.691  154.856  156.469
   64.250    0.547    0.741  168.361  158.280
   64.500    0.567    0.766  165.760  158.837
   64.750    0.538    0.797  158.699  158.142
   65.000    0.477    0.756  154.144  158.073
   65.250    0.253    0.685  147.578  158.631
   65.500    0.245    0.661  149.462  159.189
   65.750    0.226    0.641  160.263  158.494
   66.000    0.194    0.607  184.370  157.798
   66.250    0.173    0.601  203.301  157.121
   66.500    0.151    0.592  221.032  155.799
   66.750    0.126    0.579  233.546  155.696
   67.000    0.133    0.572  243.377  155.627
   67.250    0.157    0.570  246.556  157.438
   67.500    0.182    0.579  232.808  158.656
   67.750    0.185    0.569  210.643  159.179
   68.000    0.193    0.558  180.066  157.858
   68.250    0.195    0.548  143.470  156.536
   68.500    0.192    0.532  115.938  155.198
   68.750    0.184    0.534  103.369  154.537
   69.000    0.175    0.543  100.374  154.468
   69.250    0.168    0.550  100.229  155.635
   69.500    0.158    0.585  101.597  157.445
   69.750    0.147    0.613  102.894  159.256
   70.000    0.141    0.640  102.776  159.813
   70.250    0.148    0.665  102.687  159.744
   70.500    0.155    0.671   99.712  159.049
   70.750    0.153    0.677   96.794  157.102
   71.000    0.145    0.689   95.354  154.511
   71.250    0.144    0.709   92.591  153.206
   71.500    0.149    0.686  100.637  152.511
   71.750    0.153    0.663  162.599  152.443
   72.000    0.164    0.664  203.605  151.730
   72.250    0.277    0.762  230.946  151.696
   72.500    0.400    0.804  265.684  151.610
   72.750    0.462    0.827  297.133  152.168
   73.000    0.495    0.853  327.643  152.725
   73.250    0.333    0.871  341.435  153.266
   73.500    0.145    0.836  336.161  151.961
   73.750    0.169    0.662  326.419  142.498
   74.000    0.199    0.527  330.778  121.117
   74.250    0.273    0.510  339.866  130.443
   74.500    0.305    0.496  354.173  140.413
   74.750    0.324    0.489  363.904  124.043
   75.000    0.232    0.499  373.902  118.963
   75.250    0.259    0.508  384.175  137.684
   75.500    0.264    0.512  389.081  139.512
   75.750    0.271    0.515  388.633  131.893
   76.000    0.271    0.519  388.186  131.215
   76.250    0.270    0.519  376.937  126.136
   76.500    0.278    0.520  355.817  120.430
   76.750    0.290    0.518  326.522  118.465
   77.000    0.299    0.507  291.292  125.929
   77.250    0.303    0.491  242.139  139.640
   77.500    0.306    0.477  192.928  151.488
   77.750    0.308    0.477  174.560  160.188
   78.000    0.278    0.512  206.573  160.119
   78.250    0.219    0.544  234.312  158.154
   78.500    0.162    0.569  218.017  157.459
   78.750    0.135    0.576  168.869  159.286
   79.000    0.139    0.585  175.926  162.976
   79.250    0.143    0.585  202.448  162.246
   79.500    0.155    0.579  220.167  160.942
   79.750    0.159    0.577  264.174  159.621
   80.000    0.136    0.571  291.383  157.047
   80.250    0.147    0.561  299.303  155.743
   80.500    0.163    0.538  330.130  153.169
   80.750    0.172    0.524  407.587  147.446
   81.000    0.185    0.525  475.431  141.114
   81.250    0.208    0.526  495.586  125.996
   81.500    0.287    0.525  495.016  114.010
   81.750    0.328    0.521  501.482  113.315
   82.000    0.352    0.492  515.112  117.022
   82.250    0.363    0.494  544.276  123.842
   82.500    0.359    0.507  559.391  123.147
   82.750    0.359    0.486  558.908  117.442
   83.000    0.363    0.496  566.208  125.515
   83.250    0.352    0.509  565.557  124.820
   83.500    0.346    0.499  556.982  120.994
   83.750    0.375    0.486  556.341  116.541
   84.000    0.385    0.490  540.063  110.174
   84.250    0.393    0.495  524.564  111.375
   84.500    0.395    0.494  516.610  115.065
   84.750    0.387    0.487  501.640  120.024
   85.000    0.359    0.486  494.033  124.965
   85.250    0.352    0.493  479.441  126.149
   85.500    0.337    0.483  472.307  126.707
   85.750    0.335    0.491  465.146  133.528
   86.000    0.334    0.501  464.610  140.348
   86.250    0.328    0.516  432.425  137.774
   86.500    0.318    0.524  385.657  131.442
   86.750    0.301    0.524  364.153  134.505
