~VERSION INFORMATION
 VERS.                 2.0:   CWLS LOG ASCII STANDARD -VERSION 2.0
 WRAP.                  NO:   ONE LINE PER DEPTH STEP
~WELL INFORMATION BLOCK
#MNEM.UNIT           DATA                    DESCRIPTION OF MNEMONIC
#---------    -------------------            -------------------------------
# Generated from Intellog Unique Number	CC_80_83/WELL/2347
NULL.         -999.25                        : NULL_VALUE
WELL.         ARCO ACI MCMURRAY OV           : Well_name    - WELL
LOC .         10-11-080-11W4                 : Location     - LOCATION          
UWI .         AA/10-11-080-11W400            : Uwi          - UNIQUE WELL ID    
ENTR.         DW                             : Entered      - ENTERED BY        
SRVC.         SCHLUMBERGER                   : Scn          - SERVICE COMPANY   
DATE.         05 FEB 76                      : Date         - LOG DATE
STRT.M        249.936                        : top_depth    - START DEPTH       
STOP.M        474.885                        : bot_depth    - STOP DEPTH        
STEP.M        0.305                          : increment    - STEP LENGTH       
~CURVE INFORMATION BLOCK
#MNEM UNIT       ERCB CURVE CODE    CURVE DESCRIPTION
#-----------   ------------------   ----------------------------------
DEPT.M        00 001 00 00         : DEPTH        - DEPTH                       
RHOB.KG/M3    00 350 00 00         : DENS         - BULK DENSITY                
GR  .API      00 310 00 00         : GR           - GAMMA RAY                   
NPHI.V/V      00 330 00 00         : PHIN         - NEUTRON POROSITY (LIMESTONE)
ILD .OHMM     00 120 00 00         : RESD         - DEEP RESISTIVITY (DIL)      
~PARAMETER INFORMATION       
#MNEM.UNIT           DATA             DESCRIPTION OF MNEMONIC
#---------         -----------     ------------------------------
GL  .M        686.105              : gl           - GROUND LEVEL ELEVATION      
EREF.M        689.153              : kb           - ELEVATION OF DEPTH REFERENCE
DATM.M        689.153              : datum        - DATUM ELEVATION             
TDD .M        474.878              : tdd          - TOTAL DEPTH DRILLER         
RUN .         ONE                  : Run          - RUN NUMBER                  
ENG .         BILL                 : Engineer     - RECORDING ENGINEER          
WIT .         JIM                  : Witness      - WITNESSED BY                
MUD .         GEL                  : Mud_type     - MUD TYPE                    
MATR.         LIMESTONE            : Logunit      - NEUTRON MATRIX              
TMAX.C        21.1111              : BHT          - MAXIMUM RECORDED TEMPERATURE
BHTD.M        474.878              : BHTDEP       - MAXIMUM RECORDED TEMPERATURE
MATR.         1                    : LOGUNIT      - NEUTRON MATRIX              
RMT .C        25                   : MDTP         - TEMPERATURE OF MUD          
NEUT.         0                    : NEUTRON      - NEUTRON TYPE                
RESI.         0                    : RESIST       - RESISTIVITY TYPE            
RMC .OHMM     0.25                 : RMC          - RESISTIVITY OF MUD CAKE     
RMF .OHMM     0.25                 : RMF          - RESISTIVITY OF MUD FILTRATE 
SUFT.C        15                   : SUFT         - SURFACE TEMPERATURE         
~A  DEPTH     DENS       GR     PHIN     RESD
# ...
  409.046 2317.360   81.775    0.382    7.082
  409.351 2341.640   82.391    0.377    7.083
  409.656 2345.710   83.622    0.372    6.824
  409.961 2337.670   86.068    0.367    6.699
  410.266 2335.690   93.385    0.353    6.576
  410.570 2323.620   97.050    0.344    6.701
  410.875 2331.730   94.019    0.343    6.702
  411.180 2289.370   89.769    0.376    6.457
  411.485 2210.670   86.127    0.390    5.882
  411.790 2245.030   84.920    0.390    5.162
  412.094 2291.510   84.323    0.394    4.205
  412.399 2235.010   84.944    0.397    3.119
  412.704 2196.690   83.738    0.407    2.402
  413.009 2136.160   82.534    0.418    2.031
  413.314 2190.730   80.718    0.447    1.783
  413.618 2200.850   78.295    0.436    1.750
  413.923 2206.950   75.264    0.432    1.886
  414.228 2192.860   75.277    0.431    2.149
  414.533 2227.220   78.332    0.425    3.008
  414.838 2259.560   80.169    0.395    3.981
  415.142 2273.730   81.399    0.370    4.537
  415.447 2277.820   83.237    0.358    5.893
  415.752 2273.810   82.031    0.346    6.972
  416.057 2292.020   76.563    0.323    7.238
  416.362 2338.500   76.575    0.306    7.239
  416.667 2401.120   78.415    0.293    6.846
  416.971 2328.480   83.297    0.288    4.541
  417.276 2294.210   88.179    0.291    3.912
  417.581 2288.190   89.406    0.312    3.840
  417.886 2282.160   86.983    0.354    3.912
  418.191 2280.180   83.345    0.363    4.377
  418.495 2340.790   82.136    0.363    4.630
  418.800 2322.660   80.933    0.352    4.717
  419.105 2270.210   83.990    0.343    4.718
  419.410 2270.240   85.218    0.351    4.379
  419.715 2280.390   83.402    0.399    3.916
  420.019 2282.440   80.979    0.412    3.437
  420.324 2274.400   84.643    0.417    3.250
  420.629 2270.400   87.092    0.416    3.250
  420.934 2274.480   87.709    0.403    3.251
  421.239 2286.630   86.504    0.393    3.375
  421.543 2296.770   82.867    0.391    3.439
  421.848 2296.810   85.311    0.390    3.706
  422.153 2274.640   88.977    0.393    3.994
  422.458 2250.450   90.816    0.390    4.385
  422.763 2250.480   91.433    0.382    4.553
  423.068 2276.770   92.664    0.372    4.816
  423.372 2274.800   90.241    0.361    4.907
  423.677 2295.020   87.816    0.350    5.000
  423.982 2396.020   84.785    0.339    5.191
  424.287 2291.060   82.970    0.345    5.491
  424.592 2287.070   86.026    0.347    5.595
  424.896 2301.250   87.254    0.339    5.918
  425.201 2293.200   81.787    0.331    6.260
  425.506 2271.040   64.754    0.299    6.622
  425.811 2258.960   61.113    0.293    6.874
  426.116 2220.640   70.867    0.299    7.272
  426.420 2222.710   76.966    0.303    7.409
  426.725 2228.790   76.367    0.300    7.550
  427.030 2232.870   73.336    0.298    7.551
  427.335 2253.110   74.564    0.295    7.275
  427.640 2257.170   70.924    0.304    7.010
  427.944 2255.200   71.546    0.312    6.754
  428.249 2255.230   73.382    0.315    6.630
  428.554 2224.990   78.874    0.319    6.756
  428.859 2216.950   81.928    0.319    6.884
  429.164 2396.680   84.985    0.316    6.757
  429.469 2424.990   88.649    0.311    6.511
  429.773 2324.080   95.357    0.310    6.512
  430.078 2241.340   99.630    0.321    6.513
  430.383 2281.760  100.859    0.347    6.761
  430.688 2308.050   99.045    0.344    7.152
  430.993 2334.330  100.887    0.328    7.707
  431.297 2340.430  102.113    0.319    8.784
  431.602 2306.140  100.298    0.319    9.827
  431.907 2215.330   96.657    0.322   13.249
  432.212 2279.970   89.364    0.318   15.100
  432.517 2316.360   77.201    0.301   20.360
  432.821 2271.970   57.125    0.279   23.642
  433.126 2215.480   55.312    0.272   24.545
  433.431 2150.910   55.931    0.291   23.648
  433.736 2136.820   56.550    0.302   19.624
  434.041 2201.470   58.389    0.300   15.113
  434.345 2268.130   69.967    0.293   13.263
  434.650 2391.340   76.676    0.291   11.640
  434.955 2435.790   80.341    0.287   11.008
  435.260 2349.010   80.960    0.286   11.428
  435.565 2300.600   78.540    0.288   12.785
  435.870 2302.660   75.505    0.290   13.273
  436.174 2290.580   70.646    0.286   14.039
  436.479 2290.620   63.963    0.286   14.850
  436.784 2260.370   59.103    0.294   16.003
  437.089 2181.670   50.595    0.293   18.584
  437.394 2197.870   53.039    0.286   21.181
  437.698 2228.190   59.748    0.286   22.826
  438.003 2242.360   66.457    0.287   22.829
  438.308 2127.320   67.076    0.285   20.035
  438.613 2214.170   66.482    0.277   16.319
  438.918 2315.160   67.709    0.272   15.723
  439.222 2327.320   77.462    0.272   15.148
  439.527 2184.010   75.646    0.283   13.545
  439.832 2177.990   66.527    0.278   11.888
  440.137 2278.980   64.104    0.272   10.630
  440.442 2321.420   66.551    0.270   10.241
  440.746 2200.310   65.348    0.283    9.506
  441.051 2222.570   62.316    0.298    9.507
  441.356 2244.810   62.933    0.290   11.896
  441.661 2236.780   67.817    0.282   15.451
  441.966 2208.550   54.435    0.278   21.624
  442.271 2135.900   44.708    0.281   24.647
  442.575 2176.330   49.590    0.292   25.589
  442.880 2174.340   55.691    0.296   23.312
  443.185 2212.740   61.789    0.300   17.953
  443.490 2283.450   66.668    0.306   13.825
  443.795 2303.690   73.986    0.322   11.052
  444.099 2293.620   75.214    0.340    9.700
  444.404 2002.920   60.009    0.506    7.754
  444.709 2029.210   59.410    0.540    6.434
  445.014 2132.220   71.597    0.516    5.753
  445.319 2330.120   96.568    0.470    5.544
  445.623 2386.690  102.057    0.386    5.864
  445.928 2406.930  100.853    0.341    6.438
  446.233 2318.130   94.168    0.325    6.810
  446.538 2297.980   92.354    0.324    7.762
  446.843 2296.010   94.801    0.329    8.058
  447.147 2289.980   97.252    0.336    8.684
  447.452 2271.850   96.653    0.338    9.015
  447.757 2261.790   91.793    0.329    9.017
  448.062 2277.980   91.803    0.315    9.361
  448.367 2282.060   93.033    0.299    9.902
  448.672 2302.290   92.435    0.290   10.280
  448.976 2328.580   84.534    0.274   10.673
  449.281 2336.690   71.154    0.269   10.674
  449.586 2352.890   76.647    0.271   10.284
  449.891 2361.000   80.919    0.275    9.546
  450.196 2316.620   83.366    0.284    9.197
  450.500 2346.950   82.770    0.287    9.372
  450.805 2332.850   79.740    0.282    9.730
  451.110 2296.550   77.921    0.281   10.101
  451.415 2474.270   74.889    0.283   10.102
  451.720 2510.650   71.248    0.281   10.104
  452.024 2308.780   72.477    0.258    9.918
  452.329 2296.720   76.141    0.232    9.556
  452.634 2294.730   77.980    0.277    9.381
  452.939 2319.000   75.556    0.304    9.558
  453.244 2333.170   78.004    0.304    9.384
  453.548 2339.260   82.276    0.304    9.211
  453.853 2333.250   87.159    0.305    8.874
  454.158 2343.390   88.995    0.307    8.712
  454.463 2353.520   87.794    0.309    8.552
  454.768 2347.500   85.977    0.307    8.714
  455.073 2309.180   81.726    0.304    8.879
  455.377 2307.200   79.303    0.301    9.048
  455.682 2315.320   82.360    0.298    9.049
  455.987 2315.350   84.199    0.295    9.221
  456.292 2323.470   86.037    0.301    9.573
  456.597 2323.510   87.267    0.312    9.755
  456.901 2315.470   86.061    0.313   10.318
  457.206 2226.720   67.675    0.305   10.460
  457.511 2267.170   70.105    0.306   10.269
  457.816 2301.560   81.689    0.318    9.712
  458.121 2396.660   91.441    0.318    8.848
  458.425 2398.660   91.430    0.314    8.367
  458.730 2400.640   86.537    0.310    7.914
  459.035 2406.680   86.524    0.311    7.210
  459.340 2404.620   93.227    0.322    6.950
  459.645 2386.370   96.264    0.323    6.823
  459.949 2337.750   94.423    0.317    7.090
  460.254 2299.250   94.412    0.312    7.228
  460.559 2276.950   94.403    0.307    7.231
  460.864 2307.280   92.558    0.306    7.235
  461.169 2386.200   90.715    0.308    7.240
  461.474 2400.330   92.536    0.314    7.244
  461.778 2416.480   94.355    0.319    7.113
