~VERSION INFORMATION
 VERS.                 2.0:   CWLS LOG ASCII STANDARD -VERSION 2.0
 WRAP.                  NO:   ONE LINE PER DEPTH STEP
~WELL INFORMATION BLOCK
#MNEM.UNIT           DATA                    DESCRIPTION OF MNEMONIC
#---------    -------------------            -------------------------------
# Generated from Intellog Unique Number	CC_84_87/WELL/2300
NULL.         -999.25                        : NULL_VALUE
WELL.         PEX PCEJ HANGST OV             : Well_name    - WELL              
LOC .         10-09-084-11W4                 : Location     - LOCATION          
UWI .         AA/10-09-084-11W400            : Uwi          - UNIQUE WELL ID    
ENTR.         JHS                            : Entered      - ENTERED BY        
SRVC.         DRESSER ATLAS                  : Scn          - SERVICE COMPANY   
DATE.         05 MAR 80                      : Date         - LOG DATE
STRT.M        125                            : top_depth    - START DEPTH       
STOP.M        366.797                        : bot_depth    - STOP DEPTH        
STEP.M        0.3                            : increment    - STEP LENGTH       
~CURVE INFORMATION BLOCK
#MNEM UNIT       ERCB CURVE CODE    CURVE DESCRIPTION
#-----------   ------------------   ----------------------------------
DEPT.M        00 001 00 00         : DEPTH        - DEPTH                       
DPHI.V/V      00 890 00 00         : PHID         - DENSITY POROSITY (LIMESTONE)
NPHI.V/V      00 330 00 00         : PHIN         - NEUTRON POROSITY (LIMESTONE)
GR  .API      00 310 00 00         : GR           - GAMMA RAY                   
ILD .OHMM     00 120 00 00         : RESD         - DEEP RESISTIVITY (DIL)      
~PARAMETER INFORMATION       
#MNEM.UNIT           DATA             DESCRIPTION OF MNEMONIC
#---------         -----------     ------------------------------
GL  .M        603.7                : gl           - GROUND LEVEL ELEVATION      
EREF.M        607.35               : kb           - ELEVATION OF DEPTH REFERENCE
DATM.M        607.35               : datum        - DATUM ELEVATION             
TDD .M        376                  : tdd          - TOTAL DEPTH DRILLER         
RUN .         ONE                  : Run          - RUN NUMBER                  
ENG .         BILL                 : Engineer     - RECORDING ENGINEER          
WIT .         JIM                  : Witness      - WITNESSED BY                
MUD .         GEL                  : Mud_type     - MUD TYPE                    
MATR.         LIMESTONE            : Logunit      - NEUTRON MATRIX              
TMAX.C        60                   : BHT          - MAXIMUM RECORDED TEMPERATURE
BHTD.M        376                  : BHTDEP       - MAXIMUM RECORDED TEMPERATURE
MATR.         1                    : LOGUNIT      - NEUTRON MATRIX              
RMT .C        25                   : MDTP         - TEMPERATURE OF MUD          
NEUT.         1                    : NEUTRON      - NEUTRON TYPE                
RESI.         0                    : RESIST       - RESISTIVITY TYPE            
RMC .OHMM     0.25                 : RMC          - RESISTIVITY OF MUD CAKE     
RMF .OHMM     0.25                 : RMF          - RESISTIVITY OF MUD FILTRATE 
SUFT.C        15                   : SUFT         - SURFACE TEMPERATURE         
~A  DEPTH     PHID     PHIN       GR     RESD
  125.000    0.247    0.458  102.835    3.981
  125.300    0.247    0.458  101.576    3.981
  125.600    0.240    0.458  102.151    3.981
  125.900    0.234    0.455   94.159    3.907
  126.200    0.240    0.470   97.795    3.981
  126.500    0.240    0.485  100.210    3.981
  126.800    0.234    0.476   97.725    4.056
  127.100    0.232    0.492   95.238    4.133
  127.400    0.233    0.456   89.696    4.290
  127.700    0.230    0.460   98.230    4.622
  128.000    0.227    0.440   96.358    4.798
  128.300    0.224    0.421   95.709    4.889
  128.600    0.231    0.454   89.554    4.798
  128.900    0.246    0.449   92.579    4.537
  129.200    0.249    0.438   91.320    4.290
  129.500    0.254    0.447   99.850    3.981
  129.800    0.258    0.422   96.142    3.764
  130.100    0.258    0.413   97.332    3.429
  130.400    0.262    0.390   97.296    3.242
  130.700    0.262    0.415   97.262    3.182
  131.000    0.260    0.406   97.840    3.365
  131.300    0.258    0.352   95.963    3.835
  131.600    0.260    0.317   61.651    5.075
  131.900    0.251    0.272   45.091    7.372
  132.200    0.244    0.277   26.688   10.709
  132.500    0.257    0.296   26.654   14.436
  132.800    0.221    0.298   36.412   15.556
  133.100    0.193    0.281   39.438   11.539
  133.400    0.254    0.298   39.402    6.349
  133.700    0.246    0.398   82.216    4.537
  134.000    0.235    0.476   99.929    3.695
  134.300    0.238    0.466   93.775    2.898
  134.600    0.239    0.447   88.839    2.741
  134.900    0.235    0.448   86.964    2.792
  135.200    0.233    0.452   87.543    3.009
  135.500    0.234    0.449   89.957    3.303
  135.800    0.240    0.457   93.596    3.559
  136.100    0.239    0.441   91.113    3.695
  136.400    0.228    0.397   88.626    3.981
  136.700    0.222    0.418   89.815    4.290
  137.000    0.226    0.422   94.679    4.537
  137.300    0.237    0.413   92.804    4.622
  137.600    0.231    0.411   96.441    4.622
  137.900    0.222    0.385  104.973    4.537
  138.200    0.228    0.396   98.817    4.453
  138.500    0.225    0.420   97.560    4.290
  138.800    0.218    0.443   96.301    4.210
  139.100    0.216    0.433  102.999    4.133
  139.400    0.215    0.427  101.125    4.133
  139.700    0.217    0.423  101.704    4.210
  140.000    0.219    0.410   95.544    4.371
  140.300    0.220    0.419   96.733    4.453
  140.600    0.213    0.416   91.188    4.537
  140.900    0.208    0.408   92.380    4.537
  141.200    0.210    0.415   91.731    4.622
  141.500    0.215    0.424   93.531    4.622
  141.800    0.222    0.425  100.840    4.537
  142.100    0.227    0.420   91.625    4.453
  142.400    0.227    0.410   88.529    4.537
  142.700    0.208    0.397   94.003    4.537
  143.000    0.192    0.384   99.471    4.622
  143.300    0.171    0.373   93.928    4.889
  143.600    0.166    0.353   81.041    5.783
  143.900    0.231    0.314   57.133    7.235
  144.200    0.246    0.337   57.093    9.223
  144.500    0.240    0.350   68.080   11.325
  144.800    0.247    0.349   72.942   12.668
  145.100    0.256    0.334   70.456   12.668
  145.400    0.264    0.330   68.585   12.668
  145.700    0.273    0.345   74.057   13.650
  146.000    0.274    0.342   69.739   14.709
  146.300    0.272    0.333   68.479   14.986
  146.600    0.267    0.338   77.009   14.709
  146.900    0.266    0.360   76.363   14.709
  147.200    0.270    0.375   79.388   15.268
  147.500    0.279    0.369   73.234   15.849
  147.800    0.300    0.359   69.524   15.849
  148.100    0.300    0.345   52.963   14.986
  148.400    0.327    0.343   65.165   13.650
  148.700    0.302    0.348   75.540   11.978
  149.000    0.265    0.356   81.623   11.325
  149.300    0.270    0.337   75.467   11.756
  149.600    0.276    0.332   68.691   13.150
  149.900    0.279    0.346   64.989   15.268
  150.200    0.290    0.352   61.281   16.452
  150.500    0.300    0.360   68.591   17.727
  150.800    0.300    0.370   60.600   18.749
  151.100    0.289    0.363   64.844   20.203
  151.400    0.278    0.381   72.766   20.971
  151.700    0.249    0.368   67.838   19.102
  152.000    0.223    0.356   67.186   15.268
  152.300    0.221    0.372   66.540   12.907
  152.600    0.257    0.377   73.849   12.204
  152.900    0.287    0.385   81.775   12.204
  153.200    0.370    0.406   73.782   12.434
  153.500    0.422    0.456   76.806   12.668
  153.800    0.292    0.401  106.151   12.668
  154.100    0.287    0.367  103.668   11.978
  154.400    0.286    0.381   97.510   11.539
  154.700    0.282    0.375  102.986   11.116
  155.000    0.273    0.357  104.783   11.539
  155.300    0.270    0.330   94.956   13.650
  155.600    0.276    0.308   64.927   16.452
  155.900    0.278    0.300   53.873   20.583
  156.200    0.272    0.300   40.980   26.732
  156.500    0.268    0.316   46.456   28.804
  156.800    0.268    0.313   46.416   28.272
  157.100    0.267    0.321   48.834   26.732
  157.400    0.261    0.318   54.917   23.899
  157.700    0.244    0.334   68.963   20.203
  158.000    0.215    0.350   86.067   16.452
  158.300    0.197    0.361   94.602   13.398
  158.600    0.198    0.368   97.012   11.539
  158.900    0.209    0.361   93.911   10.709
  159.200    0.218    0.361   95.718   10.316
  159.500    0.215    0.366   94.459   10.709
  159.800    0.218    0.355   90.136   11.116
  160.100    0.224    0.358   88.264   11.325
  160.400    0.234    0.352   80.272   11.756
  160.700    0.246    0.346   77.177   12.668
  161.000    0.241    0.350   81.423   13.650
  161.300    0.245    0.346   82.615   14.709
  161.600    0.262    0.340   67.276   16.452
  161.900    0.283    0.330   62.341   17.400
  162.200    0.277    0.340   65.368   18.062
  162.500    0.261    0.347   63.492   18.062
  162.800    0.262    0.350   67.130   17.727
  163.100    0.260    0.359   71.995   17.078
  163.400    0.250    0.348   84.810   15.849
  163.700    0.237    0.358   80.492   15.268
  164.000    0.227    0.373   74.947   14.436
  164.300    0.224    0.366   71.852   13.907
  164.600    0.232    0.338   79.161   13.650
  164.900    0.230    0.336   82.185   13.150
  165.200    0.237    0.334   88.883   13.150
  165.500    0.261    0.348   70.484   13.150
  165.800    0.267    0.340   67.388   13.650
  166.100    0.268    0.347   79.596   13.907
  166.400    0.272    0.359   67.319   14.169
  166.700    0.269    0.352   76.464   13.907
  167.000    0.269    0.361   76.427   13.398
  167.300    0.260    0.363   82.513   12.907
  167.600    0.256    0.360   80.642   12.668
  167.900    0.256    0.359   80.605   12.434
  168.200    0.270    0.363   80.571   12.434
  168.500    0.281    0.357   83.592   12.668
  168.800    0.276    0.361   79.269   12.907
  169.100    0.266    0.359   82.914   13.150
  169.400    0.248    0.359   85.939   12.907
  169.700    0.256    0.372   87.734   12.907
  170.000    0.257    0.372   85.867   12.434
  170.300    0.244    0.381   86.442   11.978
  170.600    0.160    0.392  102.323   11.325
  170.900    0.165    0.399  101.674   10.511
  171.200    0.139    0.406  112.045    9.754
  171.500    0.133    0.396  109.558    8.245
  171.800    0.140    0.383  113.199    7.372
  172.100    0.155    0.373  104.590    6.841
  172.400    0.175    0.382  111.290    6.715
  172.700    0.193    0.404  113.704    6.232
  173.000    0.189    0.395  118.565    5.783
  173.300    0.205    0.409  118.526    5.268
  173.600    0.219    0.406  117.880    4.798
  173.900    0.233    0.383  115.397    4.453
  174.201    0.244    0.365  109.241    4.371
  174.501    0.257    0.341   95.128    4.798
  174.801    0.271    0.321  102.436    6.003
  175.101    0.288    0.313  120.764    7.652
  175.401    0.285    0.330   98.079   13.398
  175.701    0.283    0.348   78.458   19.462
  176.001    0.289    0.346   71.686   21.366
  176.301    0.288    0.353   80.220   21.366
  176.601    0.279    0.331   85.695   20.203
  176.901    0.282    0.339   86.267   19.462
