~VERSION INFORMATION
 VERS.                 2.0:   CWLS LOG ASCII STANDARD -VERSION 2.0
 WRAP.                  NO:   ONE LINE PER DEPTH STEP
~WELL INFORMATION BLOCK
#MNEM.UNIT           DATA                    DESCRIPTION OF MNEMONIC
#---------    -------------------            -------------------------------
# Generated from Intellog Unique Number	CN_91_93/WELL/1163
WELL.         10-36-091-09W4                 : Well_name    - WELL
LOC .         AA/10-36-091-09W4/0            : Location     - LOCATION
UWI .         AA/10-36-091-09W400            : Uwi          - UNIQUE WELL ID
ENTR.         JOETTE                         : Entered      - ENTERED BY
SRVC.         SCHLUMBERGER                   : Scn          - SERVICE COMPANY
DATE.         01/22/92                       : Date         - LOG DATE
STRT.F        50                             : top_depth    - START DEPTH
STOP.F        479.79                         : bot_depth    - STOP DEPTH
STEP.F        0.8202                         : increment    - STEP LENGTH
 NULL. -999.2500:NULL Value
~CURVE INFORMATION BLOCK
#MNEM UNIT       ERCB CURVE CODE    CURVE DESCRIPTION
#-----------   ------------------   ----------------------------------
DEPT.F        00 001 00 00         : DEPTH        - DEPTH
CALI.IN       00 280 01 00         : CAL          - CALIPER
GR  .API      00 310 00 00         : GR           - GAMMA RAY
NPHI.V/V      00 330 00 00         : PHIN         - NEUTRON POROSITY (SANDSTONE)
ILD .OHMM     00 120 00 00         : RESD         - DEEP RESISTIVITY (DIL)
~PARAMETER INFORMATION
#MNEM.UNIT           DATA             DESCRIPTION OF MNEMONIC
#---------         -----------     ------------------------------
GL  .M        370.637              : gl           - GROUND LEVEL ELEVATION
EREF.M        372.161              : kb           - ELEVATION OF DEPTH REFERENCE
DATM.M        372.161              : datum        - DATUM ELEVATION
TDD .M        148.133              : tdd          - TOTAL DEPTH DRILLER
RUN .         ONE                  : Run          - RUN NUMBER
ENG .         BILL                 : Engineer     - RECORDING ENGINEER
WIT .         JIM                  : Witness      - WITNESSED BY
MUD .         GEL                  : Mud_type     - MUD TYPE
MATR.         SANDSTONE            : Logunit      - NEUTRON MATRIX
TMAX.F        48                   : BHT          - MAXIMUM RECORDED TEMPERATURE
BHTD.F        486                  : BHTDEP       - MAXIMUM RECORDED TEMPERATURE
RMT .F        47                   : MDTP         - TEMPERATURE OF MUD
MUDD.LB/G     9.16666              : MWT          - MUD DENSITY
NEUT.         1                    : NEUTRON      - NEUTRON TYPE
RESI.         0                    : RESIST       - RESISTIVITY TYPE
RM  .OHMM     9.8                  : RM           - RESISTIVITY OF MUD
RMC .OHMM     9.8                  : RMC          - RESISTIVITY OF MUD CAKE
RMF .OHMM     9.8                  : RMF          - RESISTIVITY OF MUD FILTRATE
SUFT.F        39.2                 : SUFT         - SURFACE TEMPERATURE
~A  DEPTH      CAL       GR     PHIN     RESD
# ...
  335.433    8.268   22.723    0.318 2309.110
  336.253    8.227   21.235    0.307 2109.920
  337.073    8.226   20.532    0.300 1808.580
  337.894    8.225   22.935    0.300 1467.650
  338.714    8.224   22.616    0.299 1148.440
  339.534    8.223   22.297    0.340  805.095
  340.354    8.222   26.971    0.349  915.949
  341.175    8.221   39.730    0.362  884.173
  341.995    8.180   55.577    0.378  996.640
  342.815    8.179   64.878    0.376  944.661
  343.635    8.178   69.969    0.368  955.111
  344.455    8.177   68.882    0.367  973.099
  345.276    8.176   67.411    0.365  991.956
  346.096    8.136   68.244    0.337   18.041
  346.916    8.134   68.677    0.328   19.607
  347.736    8.134   69.559    0.318   22.923
  348.556    8.133   69.592    0.321   28.312
  349.377    8.132   70.425    0.332   26.595
  350.197    8.091   73.180    0.356   23.638
  351.017    8.090   71.708    0.350   17.194
  351.837    8.089   66.779    0.344   17.527
  352.657    8.088   63.404    0.346   22.659
  353.478    8.047   66.910    0.352   21.870
  354.298    8.046   65.823    0.358   16.199
  355.118    8.045   64.752    0.364   15.781
  355.938    8.044   65.585    0.349   15.654
  356.759    8.043   66.418    0.341   16.405
  357.579    8.042   65.715    0.332   17.031
  358.399    8.041   64.244    0.331   16.442
  359.219    8.041   60.468    0.331   16.442
  360.039    8.040   57.059    0.324   17.095
  360.860    8.039   49.058    0.319   16.194
  361.680    8.038   39.887    0.318  110.285
  362.500    8.037   29.564    0.321  272.626
  363.320    8.035   35.392    0.333  205.655
  364.140    8.035   42.003    0.333  150.944
  364.961    8.034   55.930    0.334   38.416
  365.781    7.953   61.774    0.334   24.140
  366.601    7.873   62.239    0.328   20.318
  367.421    7.793   59.599    0.316   17.737
  368.241    7.712   55.807    0.326   21.315
  369.062    7.671   45.884    0.339   36.904
  369.882    7.670   38.634    0.350   36.608
  370.702    7.748   34.074    0.357   49.990
  371.522    7.748   32.602    0.362  162.506
  372.343    7.826   44.992    0.352   89.877
  373.163    7.865   56.598    0.345   54.453
  373.983    7.904   46.676    0.354  113.174
  374.803    7.982   41.346    0.366  132.332
  375.623    7.981   34.481    0.378  127.707
  376.444    8.059   29.936    0.378  129.033
  377.264    8.098   30.002    0.362  152.239
  378.084    8.097   27.378    0.347  202.275
  378.904    8.136   23.602    0.340 1047.530
  379.724    8.174   22.531    0.355 1293.630
  380.545    8.173   23.348    0.367  544.006
  381.365    8.212   24.565    0.379  329.632
  382.185    8.211   26.952    0.390  229.015
  383.005    8.250   31.259    0.399  132.577
  383.825    8.249   35.933    0.396   58.356
  384.646    8.248   46.771    0.387   21.397
  385.466    8.207   56.072    0.376   20.281
  386.286    8.206   46.901    0.370  115.068
  387.106    8.166   36.194    0.363  129.705
  387.927    8.085   30.113    0.357  129.844
  388.747    8.084   27.121    0.386   60.932
  389.567    8.044   32.164    0.403   29.925
  390.387    8.082   43.786    0.428   12.132
  391.207    8.121   53.855    0.558    7.694
  392.028    8.160   64.692    0.540    5.911
  392.848    8.238   73.225    0.511    6.424
  393.668    8.316   81.757    0.520    5.978
  394.488    8.434   75.676    0.542    5.316
  395.308    8.473   68.042    0.559    5.570
  396.129    8.551   60.809    0.568    7.606
  396.949    8.630   56.632    0.564    8.732
  397.769    8.708   59.787    0.563    8.504
  398.589    8.787   65.614    0.559    8.210
  399.409    8.825   76.468    0.479    8.841
  400.230    8.864   83.464    0.454    9.348
  401.050    8.903   88.138    0.439    7.518
  401.870    8.942   87.051    0.426    6.870
  402.690    8.941   85.580    0.414    6.108
  403.510    8.940   85.277    0.421    4.779
  404.331    8.899   85.743    0.427    4.287
  405.151    8.819   86.977    0.425    3.847
  405.971    8.699   87.393    0.423    3.922
  406.791    8.380   89.395    0.431    4.341
  407.612    8.220   91.013    0.440    5.715
  408.432    8.179   90.310    0.448    6.326
  409.252    8.179   86.902    0.425    5.676
  410.072    8.257   83.878    0.413    5.530
  410.892    8.296   77.028    0.426    5.954
  411.713    8.334   71.699    0.526    7.984
  412.533    8.373   63.297    0.514    7.777
  413.353    8.372   64.147    0.469    7.506
  414.173    8.331   66.133    0.424    7.515
  414.993    8.251   67.367    0.396    7.523
  415.814    8.211   68.200    0.407    7.129
  416.634    8.130   69.834    0.404    4.319
  417.454    8.089   70.635    0.415    3.806
  418.274    8.088   71.853    0.435    3.809
  419.094    8.087   71.934    0.447    4.102
  419.915    8.126   69.294    0.443    4.667
  420.735    8.125   57.050    0.437    4.803
  421.555    8.045   44.423    0.429    4.593
  422.375    7.806   41.815    0.420   40.761
  423.195    7.527   44.185    0.392  136.182
  424.016    7.129   49.628    0.346   73.956
  424.836    6.731   55.088    0.312    9.934
  425.656    6.492   57.090    0.180    6.415
  426.476    6.491   58.708    0.192    9.254
  427.297    6.648   60.678    0.228    9.968
  428.117    6.727   65.352    0.251    9.275
  428.937    6.924   67.355    0.270    7.665
  429.757    7.003   64.731    0.285    7.816
  430.577    7.121   61.322    0.288    9.564
  431.398    7.239   61.388    0.268   10.206
  432.218    7.278   73.394    0.270    8.669
  433.038    7.316   81.158    0.323    7.431
  433.858    7.355   82.392    0.332    7.859
  434.678    7.354   79.367    0.327    7.585
  435.499    7.353   76.359    0.316    7.949
  436.319    7.352   81.802    0.304    7.742
  437.139    7.312   85.725    0.301    7.337
  437.959    7.311   83.102    0.315    7.019
  438.780    7.270   79.325    0.335    7.354
  439.600    7.269   76.301    0.343    6.969
  440.420    7.228   71.757    0.346    6.427
  441.240    7.227   69.917    0.348   10.249
  442.060    7.226   79.586    0.340   16.645
  442.881    7.186   89.655    0.323   16.068
  443.701    7.185   92.442    0.310    6.818
  444.521    7.184   88.265    0.299    7.211
  445.341    7.182   85.241    0.299    7.351
  446.161    7.181   84.938    0.319    8.212
  446.982    7.141   86.556    0.344    8.296
  447.802    7.100   85.837    0.338    7.720
  448.622    7.059   83.981    0.318    8.016
  449.442    7.019   87.120    0.310    8.634
  450.262    7.018   87.969    0.326    8.035
  451.083    7.017   84.945    0.331    7.900
  451.903    7.015   80.400    0.331    8.585
  452.723    7.015   81.234    0.329    8.438
  453.543    6.974   84.004    0.330    7.853
  454.364    6.973   83.301    0.334    7.442
  455.184    6.972   81.045    0.331    8.163
  456.004    6.971   75.348    0.323    9.370
  456.824    6.970   69.251    0.315   10.184
  457.644    6.969   60.081    0.300    9.652
  458.465    6.968   46.685    0.291    9.233
  459.285    6.967   35.978    0.286    9.074
  460.105    6.966   33.370    0.318   11.208
  460.925    6.965   43.807    0.363   15.026
  461.745    6.964   70.043    0.386    7.448
  462.566    7.003   79.744    0.396    4.723
  463.386    7.002   75.183    0.392    5.041
  464.206    7.001   76.016    0.381    6.169
  465.026    7.000   71.472    0.357    7.619
  465.846    6.999   67.311    0.324    7.222
  466.667    6.998   68.913    0.327    8.442
  467.487    6.997   74.373    0.330    7.576
  468.307    6.996   72.918    0.313    6.493
  469.127    6.995   71.430    0.310    6.866
  469.948    6.994   69.206    0.329   10.086
  470.768    6.993   69.272    0.355   19.310
  471.588    6.992   69.705    0.369   14.565
  472.408    6.991   69.386    0.371  166.930
  473.228    6.990   67.162    0.367  164.064
  474.049    6.949   66.059    0.360  144.536
  474.869    6.949   65.356    0.346  126.210
  475.689    6.908   65.421    0.328  118.524
  476.509    6.867   65.502    0.320  112.313
  477.329    6.866   65.567    0.317  106.441
