~VERSION INFORMATION
 VERS.                 2.0:   CWLS LOG ASCII STANDARD -VERSION 2.0
 WRAP.                  NO:   ONE LINE PER DEPTH STEP
~WELL INFORMATION BLOCK
#MNEM.UNIT           DATA                    DESCRIPTION OF MNEMONIC
#---------    -------------------            -------------------------------
# Generated from Intellog Unique Number	CX_WELLS/WELL/3772
WELL.         REGENT HORSE                   : Well_name    - WELL
LOC .         AA/11-05-086-12W4/0            : Location     - LOCATION
UWI .         AA/11-05-086-12W400            : Uwi          - UNIQUE WELL ID
ENTR.         T                              : Entered      - ENTERED BY
SRVC.         SCHLUMBERGER                   : Scn          - SERVICE COMPANY
STRT.F        200                            : top_depth    - START DEPTH
STOP.F        710.171                        : bot_depth    - STOP DEPTH
STEP.F        0.82                           : increment    - STEP LENGTH
 NULL. -999.2500:NULL Value
~CURVE INFORMATION BLOCK
#MNEM UNIT       ERCB CURVE CODE    CURVE DESCRIPTION
#-----------   ------------------   ----------------------------------
DEPT.F        00 001 00 00         : DEPTH        - DEPTH
GR  .API      00 310 00 00         : GR           - GAMMA RAY
NPHI.V/V      00 330 00 00         : PHIN         - NEUTRON POROSITY (SANDSTONE)
ILD .OHMM     00 120 00 00         : RESD         - DEEP RESISTIVITY (DIL)
~PARAMETER INFORMATION
#MNEM.UNIT           DATA             DESCRIPTION OF MNEMONIC
#---------         -----------     ------------------------------
GL  .F        1663                 : gl           - GROUND LEVEL ELEVATION
EREF.F        1663                 : kb           - ELEVATION OF DEPTH REFERENCE
DATM.F        1663                 : datum        - DATUM ELEVATION
TDD .F        706                  : tdd          - TOTAL DEPTH DRILLER
RUN .         ONE                  : Run          - RUN NUMBER
ENG .         BILL                 : Engineer     - RECORDING ENGINEER
WIT .         JIM                  : Witness      - WITNESSED BY
MUD .         GEL                  : Mud_type     - MUD TYPE
MATR.         SANDSTONE            : Logunit      - NEUTRON MATRIX
TMAX.F        56                   : BHT          - MAXIMUM RECORDED TEMPERATURE
BHTD.F        706                  : BHTDEP       - MAXIMUM RECORDED TEMPERATURE
MATR.         1                    : LOGUNIT      - NEUTRON MATRIX
RMT .F        44                   : MDTP         - TEMPERATURE OF MUD
NEUT.         1                    : NEUTRON      - NEUTRON TYPE
RESI.         11                   : RESIST       - RESISTIVITY TYPE
RMC .OHMM     8.6                  : RMC          - RESISTIVITY OF MUD CAKE
RMF .OHMM     8.6                  : RMF          - RESISTIVITY OF MUD FILTRATE
SUFT.F        39.2                 : SUFT         - SURFACE TEMPERATURE
~A  DEPTH       GR     PHIN     RESD
# ...
  555.971   40.070    0.351   12.639
  556.791   39.721    0.347   13.225
  557.612   41.115    0.347   13.958
  558.432   48.432    0.346   12.133
  559.252   56.098    0.346   11.405
  560.072   56.794    0.346   11.991
  560.892   53.658    0.346   11.116
  561.713   52.265    0.344    8.853
  562.533   51.219    0.373    7.395
  563.353   58.537    0.398    6.812
  564.173   60.279    0.412    6.376
  564.993   59.930    0.416    6.524
  565.814   59.930    0.421    6.818
  566.634   58.537    0.424    7.038
  567.454   57.491    0.416    7.114
  568.274   57.143    0.410    7.115
  569.094   57.491    0.417    7.117
  569.915   57.491    0.424    7.265
  570.735   57.840    0.427    7.486
  571.555   58.188    0.416    7.488
  572.375   59.930    0.400    7.344
  573.196   63.415    0.386    7.492
  574.016   60.627    0.375    7.348
  574.836   56.446    0.385    7.276
  575.656   51.219    0.413    6.913
  576.476   54.704    0.427    6.841
  577.297   59.582    0.439    7.501
  578.117   64.460    0.437    8.452
  578.937   55.052    0.378   13.933
  579.757   50.174    0.299   14.373
  580.577   45.645    0.283   14.156
  581.398   42.509    0.285   13.719
  582.218   42.857    0.298   12.991
  583.038   44.948    0.317   12.847
  583.858   46.690    0.325   12.557
  584.678   47.038    0.335   12.339
  585.499   45.296    0.343   12.121
  586.319   36.934    0.335   13.292
  587.139   31.359    0.288   14.170
  587.959   27.875    0.240   14.172
  588.780   21.254    0.243   14.174
  589.600   17.422    0.245   15.637
  590.420   15.331    0.250   16.735
  591.240   15.331    0.256   19.366
  592.060   15.679    0.259   20.683
  592.881   16.725    0.263   21.415
  593.701   18.119    0.272   22.220
  594.521   19.861    0.272   24.268
  595.341   21.951    0.276   26.242
  596.161   23.345    0.285   28.362
  596.982   25.087    0.293   35.304
  597.802   26.481    0.303   34.794
  598.622   28.223    0.313   32.751
  599.442   28.920    0.312   28.224
  600.262   30.314    0.314   22.674
  601.083   31.359    0.315   21.945
  601.903   32.753    0.327   19.536
  602.723   35.889    0.342   13.986
  603.543   46.690    0.355   13.769
  604.364   62.718    0.328   15.232
  605.184   61.672    0.277   16.549
  606.004   59.582    0.252   18.596
  606.824   57.143    0.227   18.963
  607.644   49.129    0.209   20.499
  608.465   41.115    0.194   22.619
  609.285   37.631    0.179   27.881
  610.105   31.011    0.181   31.608
  610.925   24.739    0.201   33.655
  611.745   23.345    0.210   34.826
  612.566   21.254    0.219   35.851
  613.386   15.331    0.230   36.145
  614.206   11.847    0.228   36.219
  615.026   13.937    0.222   36.221
  615.846   14.286    0.213   36.223
  616.667   14.634    0.205   35.860
  617.487   15.331    0.208   27.972
  618.307   15.679    0.214   24.103
  619.127   17.073    0.214   26.223
  619.948   18.467    0.201   28.854
  620.768   20.209    0.184   30.901
  621.588   19.512    0.185   33.606
  622.408   18.467    0.196   34.631
  623.228   17.073    0.203   35.072
  624.049   16.028    0.211   35.000
  624.869   16.725    0.212   34.052
  625.689   48.781    0.214   32.155
  626.509   62.369    0.269   32.157
  627.329   53.658    0.307   32.743
  628.150   47.387    0.334   33.402
  628.970   45.296    0.318   33.915
  629.790   43.206    0.307   32.018
  630.610   40.418    0.301   30.997
  631.430   37.631    0.293   28.296
  632.251   39.373    0.283   24.426
  633.071   41.115    0.289   23.113
  633.891   44.251    0.298   23.407
  634.711   47.038    0.306   25.162
  635.531   46.342    0.296   27.867
  636.352   44.599    0.290   29.549
  637.172   43.902    0.288   31.450
  637.992   41.812    0.301   24.877
  638.812   40.767    0.311   21.884
  639.633   40.070    0.309   21.229
  640.453   42.160    0.295   20.135
  641.273   38.676    0.291   19.698
  642.093   33.798    0.285   19.189
  642.913   33.101    0.278   18.460
  643.734   34.843    0.274   17.951
  644.554   39.024    0.280   17.880
  645.374   44.948    0.287   19.854
  646.194   53.310    0.295   22.851
  647.014   46.342    0.300   23.218
  647.835   38.676    0.291   23.658
  648.655   31.011    0.271   24.317
  649.475   27.526    0.252   24.611
  650.295   25.087    0.229   22.714
  651.115   23.345    0.215   22.277
  651.936   22.997    0.219   21.403
  652.756   25.784    0.246   21.258
  653.576   28.571    0.272   20.822
  654.396   31.359    0.278   18.705
  655.217   29.268    0.285   16.005
  656.037   26.481    0.281   13.158
  656.857   24.042    0.286   10.237
  657.677   31.359    0.297    8.413
  658.497   52.613    0.310    4.251
  659.318   51.568    0.308    4.618
  660.138   50.174    0.307   22.736
  660.958   42.857    0.310   20.547
  661.778   41.463    0.326   18.795
  662.598   38.328    0.321   17.044
  663.419   40.070    0.313   16.681
  664.239   47.038    0.313   15.879
  665.059   52.613    0.326   15.442
  665.879   54.007    0.337   15.883
  666.699   52.265    0.342   16.688
  667.520   50.174    0.330   17.712
  668.340   48.432    0.308   18.810
  669.160   45.296    0.303   19.688
  669.980   41.812    0.315   22.686
  670.801   39.721    0.329   24.075
  671.621   36.934    0.332   26.268
  672.441   35.540    0.332   30.726
  673.261   43.554    0.332   27.879
  674.081   43.902    0.327   25.325
  674.902   40.418    0.321   23.938
  675.722   34.843    0.302   21.968
  676.542   26.132    0.277   19.632
  677.362   22.997    0.265   20.146
  678.182   29.268    0.275   20.148
  679.003   29.268    0.269   20.806
  679.823   25.436    0.257   22.780
  680.643   24.042    0.264   27.677
  681.463   33.450    0.303   29.797
  682.283   43.206    0.313   29.872
  683.104   41.115    0.318   23.957
  683.924   40.767    0.314   22.425
  684.744   40.767    0.310   21.039
  685.564   40.070    0.303   19.653
  686.385   35.192    0.290   18.194
  687.205   28.223    0.280   17.391
  688.025   24.390    0.269   15.859
  688.845   21.254    0.258   13.670
  689.665   19.512    0.245   12.722
  690.486   18.467    0.236   11.993
  691.306   17.770    0.248   11.995
  692.126   18.815    0.268   12.290
  692.946   21.951    0.293   12.437
  693.766   25.087    0.304   15.507
  694.587   32.753    0.269   24.421
  695.407   32.753    0.224   27.199
  696.227   32.404    0.192   30.195
  697.047   33.101    0.164   21.505
  697.867   33.798    0.238   19.023
  698.688   33.798    0.279   17.929
  699.508   33.101    0.304   17.565
  700.328   32.753    0.317   18.079
  701.148   33.101    0.325   18.008
  701.969   33.798    0.342   17.790
  702.789   34.146    0.343   17.939
  703.609   34.146    0.338   17.941
  704.429   34.495    0.334   17.869
  705.249   34.843    0.330   17.944
  706.070   35.540    0.324   17.946
  706.890   36.237    0.318   17.948
  707.710   36.585    0.315   17.877
  708.530   37.979    0.310   17.878
  709.350   39.373    0.305   17.807
  710.171   43.554    0.303   17.736
