~VERSION INFORMATION
 VERS.                 2.0:   CWLS LOG ASCII STANDARD -VERSION 2.0
 WRAP.                  NO:   ONE LINE PER DEPTH STEP
~WELL INFORMATION BLOCK
#MNEM.UNIT           DATA                    DESCRIPTION OF MNEMONIC
#---------    -------------------            -------------------------------
# Generated from Intellog Unique Number	CC_80_83/WELL/2417
NULL.         -999.25                        : NULL_VALUE
WELL.         ARCO ACI MCMURRAY              : Well_name    - WELL
LOC .         11-29-082-10W4                 : Location     - LOCATION          
UWI .         AA/11-29-082-10W400            : Uwi          - UNIQUE WELL ID    
ENTR.         DW                             : Entered      - ENTERED BY        
SRVC.         DRESSER ATLAS                  : Scn          - SERVICE COMPANY   
DATE.         27 FEB 76                      : Date         - LOG DATE
STRT.M        252.984                        : top_depth    - START DEPTH       
STOP.M        481.591                        : bot_depth    - STOP DEPTH        
STEP.M        0.305                          : increment    - STEP LENGTH       
~CURVE INFORMATION BLOCK
#MNEM UNIT       ERCB CURVE CODE    CURVE DESCRIPTION
#-----------   ------------------   ----------------------------------
DEPT.M        00 001 00 00         : DEPTH        - DEPTH                       
NPHI.V/V      00 330 00 00         : PHIN         - NEUTRON POROSITY (LIMESTONE)
GR  .API      00 310 00 00         : GR           - GAMMA RAY                   
RHOB.KG/M3    00 350 00 00         : DENS         - BULK DENSITY                
ILD .OHMM     00 120 00 00         : RESD         - DEEP RESISTIVITY (DIL)      
~PARAMETER INFORMATION       
#MNEM.UNIT           DATA             DESCRIPTION OF MNEMONIC
#---------         -----------     ------------------------------
GL  .M        710.794              : gl           - GROUND LEVEL ELEVATION      
EREF.M        713.842              : kb           - ELEVATION OF DEPTH REFERENCE
DATM.M        713.842              : datum        - DATUM ELEVATION             
TDD .M        484.022              : tdd          - TOTAL DEPTH DRILLER         
RUN .         ONE                  : Run          - RUN NUMBER                  
ENG .         BILL                 : Engineer     - RECORDING ENGINEER          
WIT .         JIM                  : Witness      - WITNESSED BY                
MUD .         GEL                  : Mud_type     - MUD TYPE                    
MATR.         LIMESTONE            : Logunit      - NEUTRON MATRIX              
TMAX.C        23.3333              : BHT          - MAXIMUM RECORDED TEMPERATURE
BHTD.M        484.022              : BHTDEP       - MAXIMUM RECORDED TEMPERATURE
MATR.         1                    : LOGUNIT      - NEUTRON MATRIX              
RMT .C        25                   : MDTP         - TEMPERATURE OF MUD          
NEUT.         0                    : NEUTRON      - NEUTRON TYPE                
RESI.         0                    : RESIST       - RESISTIVITY TYPE            
RMC .OHMM     0.25                 : RMC          - RESISTIVITY OF MUD CAKE     
RMF .OHMM     0.25                 : RMF          - RESISTIVITY OF MUD FILTRATE 
SUFT.C        15                   : SUFT         - SURFACE TEMPERATURE         
~A  DEPTH     PHIN       GR     DENS     RESD
# ...
  306.021    0.330  121.065 2256.930   15.131
  306.326    0.331  123.478 2287.280   13.529
  306.630    0.334  125.288 2323.710   10.225
  306.935    0.340  128.909 2352.030    7.874
  307.240    0.353  135.552 2352.000    6.782
  307.545    0.354  136.151 2317.560    6.178
  307.850    0.351  130.704 2289.180    6.178
  308.154    0.348  124.045 2283.080    6.534
  308.459    0.346  122.226 2349.880    7.309
  308.764    0.344  121.010 2400.480    8.176
  309.069    0.342  121.005 2473.350    9.318
  309.374    0.339  123.417 2449.030    9.673
  309.678    0.332  127.038 2260.690    9.673
  309.983    0.329  127.031 2246.480    9.319
  310.288    0.324  124.003 2246.450    9.495
  310.593    0.306  119.763 2246.440   10.232
  310.898    0.301  116.736 2248.440   11.662
  311.202    0.307  110.683 2218.040   12.803
  311.507    0.315  102.213 2175.490   14.591
  311.812    0.318   99.788 2199.760   15.724
  312.117    0.324   98.571 2209.870   16.021
  312.422    0.324   98.567 2199.720   16.324
  312.727    0.322   97.955 2177.420   16.325
  313.031    0.318   97.341 2171.310   15.728
  313.336    0.315   97.337 2181.410   15.728
  313.641    0.312   99.144 2193.540   15.438
  313.946    0.312  100.348 2191.490   15.439
  314.251    0.312   99.734 2173.240   16.028
  314.555    0.312   99.731 2132.720   16.330
  314.860    0.311  100.330 2120.540   16.029
  315.165    0.306   99.718 2122.550   16.030
  315.470    0.304   99.710 2156.940   15.735
  315.775    0.303   99.703 2191.340   15.444
  316.079    0.303   99.094 2191.320   15.445
  316.384    0.305   97.274 2179.140   15.446
  316.689    0.308   99.082 2171.010   15.447
  316.994    0.314  100.285 2173.020   16.035
  317.299    0.321  100.883 2168.950   15.740
  317.603    0.323  101.482 2156.770   15.164
  317.908    0.322  102.081 2150.680   14.884
  318.213    0.315  101.467 2187.090   14.885
  318.518    0.314  100.857 2201.250   14.610
  318.823    0.314  100.247 2209.320   14.611
  319.128    0.316  100.240 2199.170   14.612
  319.432    0.325   99.631 2182.950   14.888
  319.737    0.326   99.624 2172.800   15.747
  320.042    0.321  100.826 2170.740   16.044
  320.347    0.316  103.845 2174.780   16.045
  320.652    0.315  106.257 2211.200   15.749
  320.956    0.316  106.856 2184.850   14.346
  321.261    0.319  105.638 2154.450   14.082
  321.566    0.318  104.421 2144.300   15.175
  321.871    0.313  103.208 2150.350   17.952
  322.176    0.306  100.179 2476.350   23.316
  322.480    0.283   95.940 2644.390   28.103
  322.785    0.182   92.911 2660.560   33.247
  323.090    0.084   91.092 2658.510   34.514
  323.395    0.050   90.479 2660.520   32.636
  323.700    0.049   90.473 2680.740   30.289
  324.004    0.041   90.468 2700.960   27.591
  324.309    0.035   90.460 2711.070   25.607
  324.614    0.037   91.061 2717.120   22.471
  324.919    0.051   92.867 2595.600   20.091
  325.224    0.075   94.674 2206.780   19.721
  325.529    0.252   95.272 2174.360   22.059
  325.833    0.294   95.269 2431.500   22.900
  326.138    0.265   93.448 2654.220   24.221
  326.443    0.096   92.230 2672.420   23.773
  326.748    0.092   92.831 2603.550   20.862
  327.053    0.205   97.659 2326.110   16.676
  327.357    0.300   99.467 2123.580   14.634
  327.662    0.322   99.462 2137.730   13.838
  327.967    0.325   98.244 2166.060   13.583
  328.272    0.325   98.239 2172.110   13.839
  328.577    0.328   97.628 2180.180   13.840
  328.881    0.324   97.019 2190.280   14.102
  329.186    0.322   97.613 2196.320   14.368
  329.491    0.319   96.400 2196.310   14.369
  329.796    0.323   97.000 2182.100   13.843
  330.101    0.327   97.599 2165.880   13.588
  330.405    0.329   96.380 2163.830   13.337
  330.710    0.328   96.980 2151.660   13.338
  331.015    0.325   97.579 2141.510   13.338
  331.320    0.321   99.384 2137.440   13.591
  331.625    0.319   99.983 2145.520   13.591
  331.930    0.318   99.374 2153.590   13.593
  332.234    0.324   98.761 2153.570   13.593
  332.539    0.321   98.757 2179.860   13.594
  332.844    0.322   99.353 2159.590   13.595
  333.149    0.321  101.162 2189.940   13.595
  333.454    0.318  102.367 2206.110   13.345
  333.758    0.317  104.777 2200.010   13.345
  334.063    0.319  105.377 2173.660   13.346
  334.368    0.323  105.975 2163.520   13.347
  334.673    0.322  105.365 2189.820   13.856
  334.978    0.315  105.357 2218.140   14.117
  335.282    0.312  106.561 2226.210   14.655
  335.587    0.310  108.968 2250.490   14.656
  335.892    0.317  110.172 2295.020   13.859
  336.197    0.315  110.168 2412.440   12.862
  336.502    0.306  110.161 2323.320   10.873
  336.806    0.303  110.157 2220.020    9.542
  337.111    0.310  112.570 2240.250    9.366
  337.416    0.335  115.584 2252.370    9.723
  337.721    0.340  115.580 2234.120   11.081
  338.026    0.335  112.550 2213.840   12.166
  338.331    0.329  109.520 2195.580   12.629
  338.635    0.327  108.911 2191.520   12.630
  338.940    0.329  110.110 2193.520   11.505
  339.245    0.328  110.710 2203.610   11.084
  339.550    0.325  110.706 2205.630   11.506
  339.855    0.322  110.093 2191.420   11.945
  340.159    0.320  109.483 2179.250   12.400
  340.464    0.320  109.478 2199.470   12.872
  340.769    0.321  108.863 2213.630   12.873
  341.074    0.323  109.463 2229.800   12.636
  341.379    0.325  109.458 2250.030   12.402
  341.683    0.324  109.453 2247.980   11.728
  341.988    0.322  108.840 2203.400   10.884
  342.293    0.322  109.440 2170.970    9.915
  342.598    0.325  111.852 2166.900    9.552
  342.903    0.327  112.447 2221.550    9.552
  343.207    0.326  112.443 2225.580   10.103
  343.512    0.321  110.622 2211.380   10.294
  343.817    0.320  108.801 2221.480   10.489
  344.122    0.321  108.192 2229.560   10.489
  344.427    0.324  110.000 2227.510   10.490
  344.732    0.326  111.808 2229.500    9.919
  345.036    0.329  113.009 2211.250    9.736
  345.341    0.326  113.005 2180.850    9.380
  345.646    0.324  111.186 2170.710    9.207
  345.951    0.325  112.388 2170.680    9.207
  346.256    0.331  114.191 2194.960    9.038
  346.560    0.336  114.187 2225.310    8.871
  346.865    0.335  115.996 2241.480    8.546
  347.170    0.334  119.012 2257.650    7.785
  347.475    0.336  122.030 2275.850    7.225
  347.780    0.331  125.047 2285.960    6.706
  348.084    0.326  126.250 2279.850    6.582
  348.389    0.324  124.430 2279.830    6.224
  348.694    0.326  124.423 2281.830    5.670
  348.999    0.329  124.417 2306.110    4.285
  349.304    0.330  125.619 2326.330    4.052
  349.608    0.334  128.029 2326.310    4.206
  349.913    0.337  129.235 2338.430    4.618
  350.218    0.339  131.647 2340.430    4.705
  350.523    0.335  130.430 2326.230    4.619
  350.828    0.328  126.798 2301.910    4.207
  351.133    0.324  124.374 2291.760    3.557
  351.437    0.326  127.992 2307.940    3.301
  351.742    0.336  131.010 2338.290    3.180
  352.047    0.345  135.840 2342.300    3.180
  352.352    0.346  138.857 2332.160    3.180
  352.657    0.346  141.267 2281.510    3.181
  352.961    0.344  141.264 2273.380    3.181
  353.266    0.335  140.048 2273.360    3.122
  353.571    0.331  137.620 2283.460    2.952
  353.876    0.335  136.406 2287.490    2.792
  354.181    0.345  135.191 2295.560    2.404
  354.485    0.359  134.581 2301.610    2.190
  354.790    0.369  135.179 2301.580    2.033
  355.095    0.376  134.569 2299.540    1.958
  355.400    0.378  135.168 2295.460    1.959
  355.705    0.378  135.765 2291.390    1.996
  356.009    0.374  135.156 2283.270    2.111
  356.314    0.369  134.542 2275.130    2.232
  356.619    0.362  133.932 2275.120    2.691
  356.924    0.357  133.324 2256.870    3.909
  357.229    0.355  130.293 2220.400    4.455
  357.534    0.350  127.264 2256.810    4.624
  357.838    0.347  123.628 2266.910    4.455
  358.143    0.345  122.413 2240.570    3.983
  358.448    0.347  122.408 2244.580    3.984
  358.753    0.355  123.610 2248.620    4.293
