~VERSION INFORMATION
 VERS.                 2.0:   CWLS LOG ASCII STANDARD -VERSION 2.0
 WRAP.                  NO:   ONE LINE PER DEPTH STEP
~WELL INFORMATION BLOCK
#MNEM.UNIT           DATA                    DESCRIPTION OF MNEMONIC
#---------    -------------------            -------------------------------
# Generated from Intellog Unique Number	CC_80_83/WELL/2401
NULL.         -999.25                        : NULL_VALUE
WELL.         DOME BUTTES NEWBY OV           : Well_name    - WELL              
LOC .         11-19-081-05W4                 : Location     - LOCATION          
UWI .         AA/11-19-081-05W4/0            : Uwi          - UNIQUE WELL ID    
ENTR.         DW                             : Entered      - ENTERED BY        
SRVC.         SCHLUMBERGER                   : Scn          - SERVICE COMPANY   
DATE.         07 MAR 81                      : Date         - LOG DATE
STRT.M        100                            : top_depth    - START DEPTH       
STOP.M        300.1                          : bot_depth    - STOP DEPTH        
STEP.M        0.3                            : increment    - STEP LENGTH       
~CURVE INFORMATION BLOCK
#MNEM UNIT       ERCB CURVE CODE    CURVE DESCRIPTION
#-----------   ------------------   ----------------------------------
DEPT.M        00 001 00 00         : DEPTH        - DEPTH                       
ILD .OHMM     00 120 00 00         : RESD         - DEEP RESISTIVITY (DIL)      
GR  .API      00 310 00 00         : GR           - GAMMA RAY                   
NPHI.V/V      00 330 00 00         : PHIN         - NEUTRON POROSITY (LIMESTONE)
DPHI.V/V      00 890 00 00         : PHID         - DENSITY POROSITY (LIMESTONE)
~PARAMETER INFORMATION       
#MNEM.UNIT           DATA             DESCRIPTION OF MNEMONIC
#---------         -----------     ------------------------------
GL  .M        487                  : gl           - GROUND LEVEL ELEVATION      
EREF.M        491.5                : kb           - ELEVATION OF DEPTH REFERENCE
DATM.M        491.5                : datum        - DATUM ELEVATION             
TDD .M        305                  : tdd          - TOTAL DEPTH DRILLER         
RUN .         ONE                  : Run          - RUN NUMBER                  
ENG .         BILL                 : Engineer     - RECORDING ENGINEER          
WIT .         JIM                  : Witness      - WITNESSED BY                
MUD .         GEL                  : Mud_type     - MUD TYPE                    
MATR.         LIMESTONE            : Logunit      - NEUTRON MATRIX              
TMAX.C        20                   : BHT          - MAXIMUM RECORDED TEMPERATURE
BHTD.M        305                  : BHTDEP       - MAXIMUM RECORDED TEMPERATURE
MATR.         1                    : LOGUNIT      - NEUTRON MATRIX              
RMT .C        25                   : MDTP         - TEMPERATURE OF MUD          
NEUT.         1                    : NEUTRON      - NEUTRON TYPE                
RESI.         0                    : RESIST       - RESISTIVITY TYPE            
RMC .OHMM     0.25                 : RMC          - RESISTIVITY OF MUD CAKE     
RMF .OHMM     0.25                 : RMF          - RESISTIVITY OF MUD FILTRATE 
SUFT.C        4                    : SUFT         - SURFACE TEMPERATURE         
~A  DEPTH     RESD       GR     PHIN     PHID
# ...
  152.201   17.175   60.382    0.402    0.329
  152.501   16.829   62.175    0.417    0.329
  152.801   16.181   66.441    0.427    0.338
  153.101   16.159   65.755    0.410    0.338
  153.401   16.140   61.371    0.413    0.339
  153.701   16.434   63.169    0.394    0.330
  154.001   16.726   64.959    0.395    0.330
  154.301   16.702   64.898    0.420    0.347
  154.601   16.691   62.364    0.428    0.345
  154.901   16.672   66.005    0.427    0.341
  155.201   16.338   67.796    0.423    0.350
  155.501   16.011   65.270    0.416    0.343
  155.801   15.983   64.591    0.405    0.330
  156.101   15.972   64.524    0.396    0.322
  156.401   15.645   61.376    0.400    0.337
  156.701   15.633   60.079    0.419    0.351
  157.001   15.609   61.872    0.415    0.336
  157.301   15.590   66.755    0.419    0.334
  157.601   15.578   67.918    0.409    0.340
  157.901   15.848   66.006    0.406    0.344
  158.201   15.840   65.338    0.406    0.349
  158.501   15.821   65.279    0.406    0.355
  158.801   15.498   69.541    0.415    0.343
  159.101   15.484   67.625    0.424    0.342
  159.401   15.466   60.766    0.452    0.351
  159.701   15.448   66.257    0.452    0.366
  160.001   15.139   66.203    0.446    0.353
  160.301   14.546   59.970    0.442    0.342
  160.601   14.537   56.816    0.434    0.340
  160.901   14.240   64.165    0.436    0.319
  161.201   14.230   70.899    0.439    0.328
  161.501   14.483   66.520    0.430    0.339
  161.801   14.743   57.812    0.410    0.318
  162.101   15.006   66.395    0.441    0.316
  162.401   14.988   71.277    0.434    0.338
  162.701   14.972   66.274    0.402    0.338
  163.001   14.960   65.596    0.422    0.325
  163.301   14.378   66.768    0.435    0.327
  163.601   14.640   64.228    0.414    0.334
  163.901   15.188   67.883    0.413    0.351
  164.201   16.060   64.113    0.426    0.348
  164.501   16.358   62.194    0.445    0.339
  164.801   16.335   59.666    0.463    0.347
  165.101   15.412   60.214    0.404    0.339
  165.401   14.816   60.163    0.401    0.346
  165.701   14.513   60.714    0.439    0.362
  166.001   14.501   64.975    0.454    0.336
  166.301   14.765   68.625    0.435    0.330
  166.601   14.739   72.275    0.435    0.313
  166.901   15.011   70.975    0.457    0.333
  167.201   15.576   67.211    0.444    0.335
  167.501   16.164   65.291    0.412    0.329
  167.801   15.840   62.759    0.446    0.304
  168.101   14.937   69.476    0.409    0.214
  168.401   14.360   70.049    0.333    0.244
  168.701   14.343   63.815    0.398    0.291
  169.001   14.881   71.775    0.432    0.331
  169.301   15.150   72.956    0.435    0.337
  169.601   15.136   64.864    0.431    0.321
  169.901   14.835   61.097    0.405    0.325
  170.201   14.530   59.806    0.405    0.340
  170.501   13.975   67.773    0.412    0.339
  170.801   12.215   71.419    0.425    0.337
  171.101   11.744   68.880    0.437    0.339
  171.401   12.416   66.967    0.452    0.339
  171.701   13.134   69.382    0.466    0.345
  172.001   14.158   69.314    0.473    0.350
  172.301   14.690   63.691    0.463    0.351
  172.601   14.125   65.488    0.450    0.346
  172.901   13.583   69.740    0.460    0.348
  173.201   13.824   70.928    0.422    0.346
  173.501   13.812   70.867    0.423    0.329
  173.801   12.783   70.805    0.453    0.326
  174.101   11.385   72.591    0.463    0.338
  174.401    9.046   75.006    0.449    0.348
  174.701    6.170   72.476    0.449    0.345
  175.001    4.130   70.555    0.439    0.335
  175.301    3.541   77.293    0.427    0.314
  175.601    2.867   92.058    0.478    0.259
  175.901    2.506   97.550    0.496    0.310
  176.201    2.364  104.285    0.511    0.322
  176.501    2.272  104.222    0.514    0.302
  176.801    2.313   99.222    0.544    0.306
  177.101    2.356  109.041    0.583    0.334
  177.401    2.539  108.354    0.605    0.335
  177.701    2.686  101.512    0.619    0.315
  178.001    2.895  102.063    0.624    0.319
  178.301    3.242  108.182    0.612    0.305
  178.601    3.631  112.438    0.602    0.268
  178.901    4.144  112.375    0.537    0.267
  179.201    4.914  112.313    0.569    0.289
  179.501    5.609  108.557    0.582    0.327
  179.801    6.280   99.843    0.478    0.249
  180.101    6.518  101.015    0.476    0.250
  180.401    7.162  102.193    0.490    0.266
  180.701    8.330  100.896    0.472    0.285
  181.001    9.154   92.180    0.485    0.281
  181.301   10.252   96.443    0.505    0.260
  181.601   11.264   95.771    0.458    0.261
  181.901   11.035   81.504    0.458    0.282
  182.201   10.411   82.062    0.426    0.309
  182.501    9.451   86.327    0.424    0.321
  182.801    8.917   90.587    0.458    0.302
  183.101    8.094   95.466    0.482    0.298
  183.401    8.244   99.723    0.451    0.299
  183.701    8.718  104.597    0.472    0.276
  184.001    9.577  106.400    0.491    0.270
  184.301   10.128  106.336    0.515    0.262
  184.601   10.510  100.719    0.534    0.251
  184.901   10.500   98.183    0.438    0.242
  185.201    9.900  101.215    0.425    0.230
  185.501    9.339  113.503    0.433    0.227
  185.801    8.646  109.120    0.421    0.247
  186.101    8.311  105.975    0.419    0.256
  186.401    8.144  103.433    0.439    0.254
  186.701    7.830   99.055    0.499    0.248
  187.001    6.977   97.141    0.469    0.248
  187.301    6.335  102.023    0.455    0.254
  187.601    6.699  119.257    0.447    0.249
  187.901    7.222  118.576    0.463    0.237
  188.201    7.933  102.453    0.471    0.222
  188.501    8.555   99.919    0.451    0.223
  188.801    9.398   98.013    0.436    0.250
  189.101    9.568   94.244    0.428    0.264
  189.401    8.854   89.855    0.423    0.274
  189.701    7.170   90.413    0.461    0.283
  190.001    6.032   94.676    0.460    0.283
  190.301    5.173   99.554    0.427    0.269
  190.601    4.608  101.343    0.429    0.240
  190.901    4.515  105.614    0.503    0.243
  191.201    4.596  110.493    0.535    0.245
  191.501    4.679  110.427    0.563    0.271
  191.801    4.675  104.807    0.560    0.291
  192.101    4.850  101.033    0.493    0.280
  192.401    5.229  100.979    0.471    0.238
  192.701    5.856  110.189    0.491    0.234
  193.001    7.078  106.416    0.517    0.238
  193.301    8.078   93.385    0.496    0.300
  193.601    7.476   84.682    0.473    0.326
  193.901    5.298   83.999    0.462    0.327
  194.201    4.052   90.736    0.428    0.312
  194.501    3.970   96.843    0.415    0.282
  194.801    4.447  106.668    0.467    0.291
  195.101    5.172  102.904    0.534    0.294
  195.401    5.683   97.901    0.579    0.323
  195.701    6.244   92.284    0.582    0.317
  196.001    8.304   90.982    0.454    0.293
  196.301    9.122   92.777    0.449    0.287
  196.601    8.126   79.748    0.495    0.231
  196.901    6.335   68.569    0.519    0.106
  197.201    5.537   82.096    0.484    0.138
  197.501    5.636   93.145    0.350    0.231
  197.801    5.849   98.025    0.424    0.261
  198.101    6.185   97.969    0.491    0.306
  198.401    6.668   99.761    0.526    0.337
  198.701    6.918   96.611    0.511    0.284
  199.001    7.044   99.641    0.417    0.227
  199.301    7.034  107.608    0.433    0.221
  199.601    7.296  100.752    0.470    0.210
  199.901    7.432   99.453    0.464    0.207
  200.201    7.859  103.715    0.452    0.255
  200.501    8.312  104.256    0.478    0.265
  200.801    8.960  106.054    0.478    0.254
  201.101    9.122  106.613    0.435    0.217
  201.401    8.937  105.326    0.413    0.227
  201.701    8.116  101.559    0.409    0.260
  202.001    5.863  103.949    0.434    0.242
  202.301    4.154  103.903    0.431    0.227
  202.601    3.117  101.366    0.412    0.227
  202.901    2.524   92.048    0.440    0.284
  203.201    2.380   85.801    0.489    0.276
  203.501    2.332   83.282    0.543    0.316
  203.801    2.374   80.741    0.538    0.364
  204.101    2.418   81.922    0.532    0.393
