~VERSION INFORMATION
 VERS.                 2.0:   CWLS LOG ASCII STANDARD -VERSION 2.0
 WRAP.                  NO:   ONE LINE PER DEPTH STEP
~WELL INFORMATION BLOCK
#MNEM.UNIT           DATA                    DESCRIPTION OF MNEMONIC
#---------    -------------------            -------------------------------
# Generated from Intellog Unique Number	CS_77_79/WELL/964
WELL.         PEX PCEJ LEISMER OV            : Well_name    - WELL
LOC .         AA/10-26-079-08W4/0            : Location     - LOCATION
UWI .         AA/10-26-079-08W4/0            : Uwi          - UNIQUE WELL ID
ENTR.         JHS                            : Entered      - ENTERED BY
SRVC.         SCHLUMBERGER                   : Scn          - SERVICE COMPANY
STRT.M        175                            : top_depth    - START DEPTH
STOP.M        400                            : bot_depth    - STOP DEPTH
STEP.M        0.25                           : increment    - STEP LENGTH
 NULL. -999.2500:NULL Value
~CURVE INFORMATION BLOCK
#MNEM UNIT       ERCB CURVE CODE    CURVE DESCRIPTION
#-----------   ------------------   ----------------------------------
DEPT.M        00 001 00 00         : DEPTH        - DEPTH
DPHI.V/V      00 890 00 00         : PHID         - DENSITY POROSITY (LIMESTONE)
NPHI.V/V      00 330 00 00         : PHIN         - NEUTRON POROSITY (LIMESTONE)
GR  .API      00 310 00 00         : GR           - GAMMA RAY
ILD .OHMM     00 120 00 00         : RESD         - DEEP RESISTIVITY (DIL)
RHOB.KG/M3    00 350 00 00         : DENS         - BULK DENSITY
~PARAMETER INFORMATION
#MNEM.UNIT           DATA             DESCRIPTION OF MNEMONIC
#---------         -----------     ------------------------------
GL  .M        614.8                : gl           - GROUND LEVEL ELEVATION
EREF.M        618.45               : kb           - ELEVATION OF DEPTH REFERENCE
DATM.M        618.45               : datum        - DATUM ELEVATION
TDD .M        407.6                : tdd          - TOTAL DEPTH DRILLER
RUN .         ONE                  : Run          - RUN NUMBER
ENG .         BILL                 : Engineer     - RECORDING ENGINEER
WIT .         JIM                  : Witness      - WITNESSED BY
MUD .         GEL                  : Mud_type     - MUD TYPE
MATR.         LIMESTONE            : Logunit      - NEUTRON MATRIX
TMAX.C        19                   : BHT          - MAXIMUM RECORDED TEMPERATURE
BHTD.M        407.6                : BHTDEP       - MAXIMUM RECORDED TEMPERATURE
MATR.         1                    : LOGUNIT      - NEUTRON MATRIX
RMT .C        25                   : MDTP         - TEMPERATURE OF MUD
NEUT.         1                    : NEUTRON      - NEUTRON TYPE
RESI.         0                    : RESIST       - RESISTIVITY TYPE
RMC .OHMM     0.25                 : RMC          - RESISTIVITY OF MUD CAKE
RMF .OHMM     0.25                 : RMF          - RESISTIVITY OF MUD FILTRATE
SUFT.C        15                   : SUFT         - SURFACE TEMPERATURE
~A  DEPTH     PHID     PHIN       GR     RESD     DENS
# ...
  248.000    0.311    0.339   64.347   22.995    0.000
  248.250    0.321    0.343   61.855   22.566    0.000
  248.500    0.324    0.353   63.704   22.565    0.000
  248.750    0.327    0.363   66.791   22.563    0.000
  249.000    0.329    0.356   67.402   22.562    0.000
  249.250    0.332    0.344   65.532   22.560    0.000
  249.500    0.334    0.333   61.182   21.728    0.000
  249.750    0.334    0.342   66.749   21.322    0.000
  250.000    0.326    0.357   75.416   20.924    0.000
  250.250    0.315    0.358   80.363   20.534    0.000
  250.500    0.317    0.366   77.253   20.532    0.000
  250.750    0.323    0.366   74.143   20.532    0.000
  251.000    0.323    0.362   71.033   20.530    0.000
  251.250    0.326    0.369   71.021   20.528    0.000
  251.500    0.323    0.371   69.152   20.528    0.000
  251.750    0.321    0.358   74.719   20.145    0.000
  252.000    0.325    0.353   79.663   20.143    0.000
  252.250    0.324    0.352   77.795   20.142    0.000
  252.500    0.322    0.364   77.782   20.141    0.000
  252.750    0.324    0.372   75.914   20.140    0.000
  253.000    0.324    0.373   72.185   19.764    0.000
  253.250    0.316    0.367   69.071   19.395    0.000
  253.500    0.313    0.386   68.443   19.033    0.000
  253.750    0.313    0.383   69.050   18.678    0.000
  254.000    0.324    0.378   68.421   18.677    0.000
  254.250    0.329    0.386   70.271   18.675    0.000
  254.500    0.324    0.377   69.020   18.675    0.000
  254.750    0.319    0.370   75.207   18.673    0.000
  255.000    0.319    0.361   77.056   18.672    0.000
  255.250    0.321    0.367   73.325   18.671    0.000
  255.500    0.326    0.377   67.736   18.669    0.000
  255.750    0.326    0.368   63.386   19.023    0.000
  256.000    0.325    0.371   67.713   19.021    0.000
  256.250    0.329    0.358   67.703   19.020    0.000
  256.500    0.335    0.363   68.930   18.666    0.000
  256.750    0.330    0.371   65.819   18.664    0.000
  257.000    0.326    0.360   66.429   17.976    0.000
  257.250    0.326    0.360   65.179   17.312    0.000
  257.500    0.330    0.363   65.787   16.989    0.000
  257.750    0.333    0.349   64.537   16.987    0.000
  258.000    0.330    0.325   70.723   16.987    0.000
  258.250    0.326    0.297   71.952   17.636    0.000
  258.500    0.328    0.272   68.224   19.370    0.000
  258.750    0.328    0.245   68.833   22.088    0.000
  259.000    0.320    0.213   69.440   26.152    0.000
  259.250    0.158    0.167   65.709   33.378    0.000
  259.500    0.051    0.136   60.742   37.355    0.000
  259.750    0.055    0.123   53.292   37.352    0.000
  260.000    0.062    0.137   48.321   31.544    0.000
  260.250    0.072    0.218   48.310   25.658    0.000
  260.500    0.083    0.238   56.978   21.668    0.000
  260.750    0.244    0.273   65.024   18.645    0.000
  261.000    0.282    0.312   71.212   17.624    0.000
  261.250    0.312    0.385   77.400   16.348    0.000
  261.500    0.313    0.380   79.867   16.043    0.000
  261.750    0.311    0.364   79.237   15.451    0.000
  262.000    0.308    0.360   76.744   14.066    0.000
  262.250    0.305    0.356   76.736   12.104    0.000
  262.500    0.297    0.344   79.201    9.306    0.000
  262.750    0.288    0.382   82.912    7.290    0.000
  263.000    0.275    0.390   91.579    6.157    0.000
  263.250    0.261    0.418   97.147    5.605    0.000
  263.500    0.256    0.412  107.053    5.398    0.000
  263.750    0.262    0.404  108.897    5.398    0.000
  264.000    0.258    0.401  107.651    5.604    0.000
  264.250    0.250    0.412  104.538    5.710    0.000
  264.500    0.257    0.407  110.727    5.709    0.000
  264.750    0.270    0.397  106.994    5.499    0.000
  265.000    0.268    0.418  104.508    5.197    0.000
  265.250    0.273    0.416  108.214    5.005    0.000
  265.500    0.267    0.444  110.063    4.731    0.000
  265.750    0.257    0.446  108.813    4.731    0.000
  266.000    0.263    0.427  103.222    4.911    0.000
  266.250    0.301    0.411  101.972    5.294    0.000
  266.500    0.289    0.403   99.480    6.151    0.000
  266.750    0.293    0.376   92.653    7.562    0.000
  267.000    0.294    0.365   86.444    9.295    0.000
  267.250    0.296    0.363   83.330   12.089    0.000
  267.500    0.301    0.372   83.943   14.860    0.000
  267.750    0.308    0.363   83.930   14.311    0.000
  268.000    0.315    0.367   83.301   13.029    0.000
  268.250    0.314    0.392   86.389   10.400    0.000
  268.500    0.295    0.378   89.477    8.620    0.000
  268.750    0.288    0.365   88.844    7.144    0.000
  269.000    0.287    0.412   90.694    5.921    0.000
  269.250    0.281    0.407   95.642    5.390    0.000
  269.500    0.289    0.385   99.968    5.000    0.000
  269.750    0.324    0.373   95.621    5.390    0.000
  270.000    0.286    0.407   99.949    5.809    0.000
  270.250    0.248    0.430  103.655    5.809    0.000
  270.500    0.237    0.400  116.041    5.701    0.000
  270.750    0.230    0.395  122.848    5.594    0.000
  271.000    0.233    0.415  122.835    5.388    0.000
  271.250    0.244    0.432  121.586    5.189    0.000
  271.500    0.260    0.415  117.857    5.092    0.000
  271.750    0.265    0.420  118.466    4.904    0.000
  272.000    0.260    0.446  114.736    4.813    0.000
  272.250    0.258    0.427  112.245    4.464    0.000
  272.500    0.261    0.416  113.475    4.220    0.000
  272.750    0.276    0.437  116.560    3.914    0.000
  273.000    0.290    0.464  115.311    3.841    0.000
  273.250    0.304    0.473  108.482    3.563    0.000
  273.500    0.296    0.486  107.850    3.497    0.000
  273.750    0.287    0.501  110.940    3.496    0.000
  274.000    0.280    0.491  111.547    3.562    0.000
  274.250    0.271    0.456  111.537    3.769    0.000
  274.500    0.264    0.474  111.527    3.840    0.000
  274.750    0.276    0.474  115.235    3.839    0.000
  275.000    0.301    0.490  109.644    3.912    0.000
  275.250    0.361    0.507  110.874    4.061    0.000
  275.500    0.391    0.496  110.241    4.378    0.000
  275.750    0.392    0.482  106.513    4.631    0.000
  276.000    0.350    0.455  102.782    4.808    0.000
  276.250    0.351    0.436   97.814    4.718    0.000
  276.500    0.371    0.445   97.802    4.460    0.000
  276.750    0.380    0.456  107.706    4.295    0.000
  277.000    0.356    0.466  110.796    3.984    0.000
  277.250    0.365    0.481  109.543    3.696    0.000
  277.500    0.377    0.469  102.717    3.493    0.000
  277.750    0.383    0.503  104.564    3.428    0.000
  278.000    0.409    0.520  103.934    3.559    0.000
  278.250    0.391    0.473   99.583    3.695    0.000
  278.500    0.385    0.465   97.712    3.983    0.000
  278.750    0.423    0.476  100.180    4.457    0.000
  279.000    0.483    0.479  100.169    5.083    0.000
  279.250    0.315    0.439   97.061    5.796    0.000
  279.500    0.259    0.422   95.191    6.610    0.000
  279.750    0.253    0.414   93.321    6.734    0.000
  280.000    0.280    0.417   98.888    6.486    0.000
  280.250    0.332    0.396  103.836    6.247    0.000
  280.500    0.389    0.407  100.105    5.794    0.000
  280.750    0.343    0.429   95.756    5.580    0.000
  281.000    0.285    0.439   92.645    5.580    0.000
  281.250    0.305    0.419  100.071    5.903    0.000
  281.500    0.268    0.426   99.441    6.363    0.000
  281.750    0.234    0.391   97.571    6.606    0.000
  282.000    0.241    0.371  100.037    6.731    0.000
  282.250    0.253    0.370   98.786    6.858    0.000
  282.500    0.269    0.383  101.257    7.119    0.000
  282.750    0.245    0.408  101.866    7.391    0.000
  283.000    0.234    0.391   94.418    7.819    0.000
  283.250    0.249    0.367   90.067    8.428    0.000
  283.500    0.247    0.368   90.056    9.085    0.000
  283.750    0.245    0.369   95.004    9.611    0.000
  284.000    0.245    0.369   97.472    9.978    0.000
  284.250    0.252    0.367   93.742   10.359    0.000
