~VERSION INFORMATION
 VERS.                 2.0:   CWLS LOG ASCII STANDARD -VERSION 2.0
 WRAP.                  NO:   ONE LINE PER DEPTH STEP
~WELL INFORMATION BLOCK
#MNEM.UNIT           DATA                    DESCRIPTION OF MNEMONIC
#---------    -------------------            -------------------------------
# Generated from Intellog Unique Number	CX_WELLS/WELL/3772
WELL.         REGENT HORSE                   : Well_name    - WELL
LOC .         AA/11-05-086-12W4/0            : Location     - LOCATION
UWI .         AA/11-05-086-12W400            : Uwi          - UNIQUE WELL ID
ENTR.         T                              : Entered      - ENTERED BY
SRVC.         SCHLUMBERGER                   : Scn          - SERVICE COMPANY
STRT.F        200                            : top_depth    - START DEPTH
STOP.F        710.171                        : bot_depth    - STOP DEPTH
STEP.F        0.82                           : increment    - STEP LENGTH
 NULL. -999.2500:NULL Value
~CURVE INFORMATION BLOCK
#MNEM UNIT       ERCB CURVE CODE    CURVE DESCRIPTION
#-----------   ------------------   ----------------------------------
DEPT.F        00 001 00 00         : DEPTH        - DEPTH
GR  .API      00 310 00 00         : GR           - GAMMA RAY
NPHI.V/V      00 330 00 00         : PHIN         - NEUTRON POROSITY (SANDSTONE)
ILD .OHMM     00 120 00 00         : RESD         - DEEP RESISTIVITY (DIL)
~PARAMETER INFORMATION
#MNEM.UNIT           DATA             DESCRIPTION OF MNEMONIC
#---------         -----------     ------------------------------
GL  .F        1663                 : gl           - GROUND LEVEL ELEVATION
EREF.F        1663                 : kb           - ELEVATION OF DEPTH REFERENCE
DATM.F        1663                 : datum        - DATUM ELEVATION
TDD .F        706                  : tdd          - TOTAL DEPTH DRILLER
RUN .         ONE                  : Run          - RUN NUMBER
ENG .         BILL                 : Engineer     - RECORDING ENGINEER
WIT .         JIM                  : Witness      - WITNESSED BY
MUD .         GEL                  : Mud_type     - MUD TYPE
MATR.         SANDSTONE            : Logunit      - NEUTRON MATRIX
TMAX.F        56                   : BHT          - MAXIMUM RECORDED TEMPERATURE
BHTD.F        706                  : BHTDEP       - MAXIMUM RECORDED TEMPERATURE
MATR.         1                    : LOGUNIT      - NEUTRON MATRIX
RMT .F        44                   : MDTP         - TEMPERATURE OF MUD
NEUT.         1                    : NEUTRON      - NEUTRON TYPE
RESI.         11                   : RESIST       - RESISTIVITY TYPE
RMC .OHMM     8.6                  : RMC          - RESISTIVITY OF MUD CAKE
RMF .OHMM     8.6                  : RMF          - RESISTIVITY OF MUD FILTRATE
SUFT.F        39.2                 : SUFT         - SURFACE TEMPERATURE
~A  DEPTH       GR     PHIN     RESD
  200.000   33.798    0.367   20.016
  200.820   35.889    0.372   20.310
  201.640   37.631    0.375   17.828
  202.461   39.373    0.377   15.273
  203.281   41.812    0.375   14.618
  204.101   43.902    0.375   13.451
  204.921   44.948    0.379   13.234
  205.741   44.251    0.385   13.235
  206.562   41.812    0.388   13.164
  207.382   40.070    0.385   12.801
  208.202   39.373    0.382   12.437
  209.022   40.418    0.380   12.366
  209.843   43.206    0.384   13.975
  210.663   45.296    0.381   14.488
  211.483   44.599    0.374   13.760
  212.303   44.599    0.372   12.959
  213.123   46.342    0.384   12.741
  213.944   48.084    0.430   12.304
  214.764   51.568    0.430   10.918
  215.584   52.265    0.409    9.605
  216.404   50.523    0.402    8.511
  217.224   48.084    0.396    7.783
  218.045   45.645    0.389    9.830
  218.865   42.160    0.384   11.512
  219.685   38.676    0.377   14.508
  220.505   35.540    0.368   21.523
  221.325   32.753    0.356   24.885
  222.146   30.662    0.342   27.006
  222.966   29.268    0.335   28.176
  223.786   27.875    0.346   29.347
  224.606   27.178    0.340   30.371
  225.427   27.178    0.332   31.761
  226.247   27.526    0.339   32.128
  227.067   28.223    0.354   32.203
  227.887   30.314    0.358   32.863
  228.707   32.056    0.354   33.449
  229.528   31.359    0.360   33.597
  230.348   30.662    0.365   33.745
  231.168   30.314    0.372   34.040
  231.988   30.662    0.380   34.114
  232.808   31.707    0.388   34.042
  233.629   32.056    0.360   33.241
  234.449   30.662    0.352   31.416
  235.269   29.617    0.338   30.396
  236.089   27.526    0.338   31.055
  236.909   27.178    0.341   32.006
  237.730   27.875    0.343   32.812
  238.550   27.875    0.340   33.544
  239.370   26.481    0.344   33.912
  240.190   25.087    0.347   33.913
  241.010   23.693    0.349   33.916
  241.831   23.693    0.346   33.698
  242.651   25.087    0.340   32.093
  243.471   24.390    0.335   31.657
  244.291   24.042    0.321   31.294
  245.112   23.345    0.311   31.294
  245.932   26.481    0.301   31.808
  246.752   31.011    0.324   32.394
  247.572   33.798    0.360   31.885
  248.392   31.359    0.371   31.375
  249.213   28.920    0.354   30.939
  250.033   24.739    0.334   30.648
  250.853   25.087    0.279   30.212
  251.673   29.617    0.347   29.921
  252.493   33.101    0.373   30.142
  253.314   31.707    0.364   30.071
  254.134   28.223    0.352   30.219
  254.954   25.784    0.351   30.586
  255.774   26.132    0.354   31.173
  256.594   28.571    0.356   31.905
  257.415   32.056    0.351   32.711
  258.235   34.495    0.349   32.493
  259.055   36.934    0.351   32.130
  259.875   39.373    0.352   31.547
  260.696   40.418    0.356   30.818
  261.516   42.160    0.362   29.798
  262.336   43.554    0.364   29.873
  263.156   42.160    0.370   29.510
  263.976   34.495    0.373   29.438
  264.797   32.753    0.378   29.440
  265.617   32.404    0.371   28.711
  266.437   35.540    0.363   27.106
  267.257   38.676    0.356   26.085
  268.077   38.676    0.350   25.430
  268.898   39.373    0.376   25.358
  269.718   41.463    0.387   25.068
  270.538   45.296    0.399   22.294
  271.358   48.432    0.410   21.200
  272.178   51.568    0.413   19.448
  272.999   57.491    0.417   18.866
  273.819   55.749    0.419   17.407
  274.639   52.962    0.419   15.729
  275.459   55.749    0.419   12.955
  276.280   59.930    0.416   13.176
  277.100   62.718    0.416   14.200
  277.920   63.415    0.426   14.202
  278.740   65.157    0.433   13.912
  279.560   65.854    0.440   13.621
  280.381   67.944    0.440   13.039
  281.201   69.338    0.440   12.675
  282.021   70.035    0.439   12.166
  282.841   70.035    0.438   12.022
  283.661   70.383    0.437   12.096
  284.482   71.777    0.439   12.318
  285.302   72.125    0.448   12.465
  286.122   72.125    0.459   12.613
  286.942   71.777    0.453   12.980
  287.762   71.429    0.445   12.764
  288.583   71.080    0.446   12.546
  289.403   71.429    0.449   11.890
  290.223   71.777    0.452   11.454
  291.043   71.777    0.451   11.602
  291.864   72.822    0.445   11.677
  292.684   74.564    0.444   11.606
  293.504   78.397    0.449   11.607
  294.324   86.063    0.457   11.537
  295.144   92.683    0.459   11.392
  295.965   90.592    0.451   11.175
  296.785   87.805    0.445   10.738
  297.605   88.153    0.441   10.375
  298.425   89.895    0.443   10.230
  299.245   91.638    0.455   10.379
  300.066   93.031    0.458   10.454
  300.886   93.728    0.458   10.528
  301.706   93.728    0.455   10.604
  302.526   94.077    0.454   10.605
  303.346   94.425    0.454   10.607
  304.167   95.122    0.455   10.609
  304.987   95.819    0.459   10.611
  305.807   95.122    0.463   10.540
  306.627   93.380    0.464   10.615
  307.448   91.289    0.455   10.617
  308.268   88.502    0.453   10.618
  309.088   88.850    0.461   10.547
  309.908   87.805    0.469   10.184
  310.728   87.805    0.477    9.747
  311.549   87.457    0.479    9.164
  312.369   87.457    0.475    8.802
  313.189   87.108    0.469    8.657
  314.009   86.411    0.462    8.659
  314.829   85.714    0.468    8.733
  315.650   85.714    0.473    8.589
  316.470   86.411    0.471    8.153
  317.290   86.063    0.465    7.935
  318.110   85.714    0.455    8.157
  318.930   85.017    0.449    8.232
  319.751   84.669    0.453    8.380
  320.571   83.972    0.459    8.528
  321.391   83.275    0.464    8.822
  322.211   81.533    0.458    9.116
  323.031   79.791    0.445    9.556
  323.852   76.655    0.437   10.069
  324.672   71.777    0.432   10.436
  325.492   70.035    0.427   12.045
  326.312   71.777    0.424   12.705
  327.133   71.777    0.416   12.195
  327.953   69.686    0.409   11.685
  328.773   67.247    0.400   11.468
  329.593   65.854    0.394   12.200
  330.413   64.460    0.384   13.006
  331.234   62.718    0.381   13.446
  332.054   59.233    0.408   13.740
  332.874   57.491    0.409   14.107
  333.694   56.098    0.383   14.547
  334.514   53.310    0.257   14.988
  335.335   50.523    0.218   15.355
  336.155   51.568    0.227   15.210
  336.975   54.007    0.272   15.066
  337.795   56.446    0.305   15.579
  338.615   57.840    0.349   15.947
  339.436   58.537    0.393   16.022
  340.256   60.279    0.433   15.658
  341.076   62.718    0.430   14.345
  341.896   64.112    0.408   12.886
  342.717   64.808    0.403   12.595
  343.537   63.415    0.391   12.232
  344.357   61.672    0.394   13.475
  345.177   62.021    0.405   14.354
  345.997   64.808    0.411   14.867
  346.818   67.944    0.419   13.262
  347.638   70.732    0.419   12.387
  348.458   71.429    0.411   10.928
  349.278   68.293    0.405    9.980
  350.098   65.854    0.414   10.347
  350.919   63.415    0.422   12.321
  351.739   63.763    0.417   14.442
  352.559   64.460    0.417   14.591
  353.379   65.157    0.413   14.373
  354.199   64.808    0.412   14.010
  355.020   67.596    0.409   13.792
  355.840   70.383    0.407   13.575
  356.660   72.822    0.441   13.211
  357.480   75.261    0.448   11.752
  358.301   75.958    0.456   10.220
  359.121   75.958    0.464    9.857
  359.941   75.958    0.469    8.471
  360.761   76.307    0.471    8.108
  361.581   76.307    0.463    7.890
  362.402   74.913    0.453    7.745
  363.222   73.519    0.418    8.478
  364.042   71.777    0.403    8.991
  364.862   68.990    0.386    9.650
  365.682   66.550    0.373   10.455
  366.503   66.550    0.374   11.480
  367.323   67.247    0.399   11.993
  368.143   68.990    0.424   10.023
  368.963   73.519    0.436    8.272
  369.783   78.049    0.448    7.617
  370.604   77.352    0.461    7.253
  371.424   75.958    0.471    7.108
  372.244   75.261    0.460    7.257
  373.064   73.868    0.444    7.478
  373.885   73.171    0.430    7.772
  374.705   70.732    0.418    8.139
  375.525   69.338    0.398    8.505
  376.345   66.899    0.378    8.580
  377.165   64.808    0.363    9.313
