~VERSION INFORMATION
 VERS.                 2.0:   CWLS LOG ASCII STANDARD -VERSION 2.0
 WRAP.                  NO:   ONE LINE PER DEPTH STEP
~WELL INFORMATION BLOCK
#MNEM.UNIT           DATA                    DESCRIPTION OF MNEMONIC
#---------    -------------------            -------------------------------
# Generated from Intellog Unique Number	CN_91_93/WELL/2882
WELL.         10-11-092-17W4                 : Well_name    - WELL
LOC .         AA/10-11-092-17W4/0            : Location     - LOCATION
UWI .         AA/10-11-092-17W400            : Uwi          - UNIQUE WELL ID
ENTR.         JOETTE                         : Entered      - ENTERED BY
SRVC.         SCHLUMBERGER                   : Scn          - SERVICE COMPANY
DATE.         03/31/92                       : Date         - LOG DATE
STRT.M        30                             : top_depth    - START DEPTH
STOP.M        260                            : bot_depth    - STOP DEPTH
STEP.M        0.25                           : increment    - STEP LENGTH
 NULL. -999.2500:NULL Value
~CURVE INFORMATION BLOCK
#MNEM UNIT       ERCB CURVE CODE    CURVE DESCRIPTION
#-----------   ------------------   ----------------------------------
DEPT.M        00 001 00 00         : DEPTH        - DEPTH
CALI.MM       00 280 01 00         : CAL          - CALIPER
GR  .API      00 310 00 00         : GR           - GAMMA RAY
NPHI.V/V      00 330 00 00         : PHIN         - NEUTRON POROSITY (SANDSTONE)
DPHI.V/V      00 890 00 00         : PHID         - DENSITY POROSITY (SANDSTONE)
ILD .OHMM     00 120 00 00         : RESD         - DEEP RESISTIVITY (DIL)
~PARAMETER INFORMATION
#MNEM.UNIT           DATA             DESCRIPTION OF MNEMONIC
#---------         -----------     ------------------------------
GL  .M        502.2                : gl           - GROUND LEVEL ELEVATION
EREF.M        505.87               : kb           - ELEVATION OF DEPTH REFERENCE
DATM.M        505.87               : datum        - DATUM ELEVATION
TDD .M        263.3                : tdd          - TOTAL DEPTH DRILLER
RUN .         ONE                  : Run          - RUN NUMBER
ENG .         BILL                 : Engineer     - RECORDING ENGINEER
WIT .         JIM                  : Witness      - WITNESSED BY
MUD .         GEL                  : Mud_type     - MUD TYPE
MATR.         SANDSTONE            : Logunit      - NEUTRON MATRIX
TMAX.C        22                   : BHT          - MAXIMUM RECORDED TEMPERATURE
BHTD.M        263.3                : BHTDEP       - MAXIMUM RECORDED TEMPERATURE
RMT .C        22                   : MDTP         - TEMPERATURE OF MUD
MUDD.KG/M     1100                 : MWT          - MUD DENSITY
NEUT.         1                    : NEUTRON      - NEUTRON TYPE
RESI.         0                    : RESIST       - RESISTIVITY TYPE
RM  .OHMM     11.7                 : RM           - RESISTIVITY OF MUD
RMC .OHMM     11.7                 : RMC          - RESISTIVITY OF MUD CAKE
RMF .OHMM     11.7                 : RMF          - RESISTIVITY OF MUD FILTRATE
SUFT.C        4                    : SUFT         - SURFACE TEMPERATURE
~A  DEPTH      CAL       GR     PHIN     PHID     RESD
# ...
  103.000  213.013   81.849    0.548    0.239    4.747
  103.250  212.953   81.831    0.549    0.232    4.573
  103.500  212.908   81.795    0.554    0.230    4.487
  103.750  213.836   81.768    0.572    0.236    4.401
  104.000  213.791   83.501    0.589    0.236    4.398
  104.250  214.734   84.668    0.587    0.233    4.479
  104.500  214.689   85.225    0.578    0.238    4.732
  104.750  215.632   84.615    0.563    0.241    4.909
  105.000  217.518   83.393    0.535    0.243    5.584
  105.250  218.476   82.181    0.520    0.246    6.353
  105.500  218.431   80.367    0.495    0.251    6.838
  105.750  218.386   79.155    0.472    0.242    7.634
  106.000  218.341   75.563    0.465    0.234    7.774
  106.250  218.296   73.749    0.455    0.230    7.772
  106.500  216.261   73.129    0.443    0.239    7.212
  106.750  214.210   73.695    0.442    0.247    6.570
  107.000  212.205   74.844    0.465    0.254    6.211
  107.250  208.209   74.826    0.494    0.258    6.094
  107.500  203.225   72.420    0.540    0.260    6.092
  107.750  190.324   67.642    0.551    0.250    6.556
  108.000  181.374   63.467    0.542    0.231    7.459
  108.250  177.363   59.875    0.509    0.221    9.310
  108.500  177.333   60.441    0.470    0.197   11.407
  108.750  178.245   63.970    0.412    0.131   12.975
  109.000  179.203   67.499    0.357    0.114   12.499
  109.250  183.110   71.621    0.312    0.147   10.972
  109.500  192.928   75.141    0.401    0.190    9.634
  109.750  197.807   76.892    0.438    0.221    7.855
  110.000  194.813   76.272    0.552    0.254    6.403
  110.250  191.790   72.671    0.546    0.264    6.642
  110.500  187.779   69.681    0.534    0.274    8.443
  110.750  184.771   67.274    0.514    0.313   10.345
  111.000  182.750   66.062    0.496    0.324   13.153
  111.250  180.730   63.646    0.473    0.318   16.116
  111.500  179.652   62.443    0.453    0.274   17.025
  111.750  180.610   61.231    0.437    0.246   14.674
  112.000  181.568   60.009    0.432    0.229   12.188
  112.250  188.423   59.399    0.424    0.209    9.399
  112.500  193.317   61.742    0.381    0.191    7.663
  112.750  200.171   70.004    0.374    0.185    6.727
  113.000  204.062   74.117    0.426    0.245    6.244
  113.250  205.005   72.913    0.465    0.255    5.903
  113.500  205.963   73.470    0.499    0.253    5.684
  113.750  206.876   76.407    0.509    0.259    5.578
  114.000  207.834   76.954    0.502    0.253    5.471
  114.250  207.789   76.344    0.487    0.242    5.572
  114.500  208.702   75.724    0.472    0.251    5.996
  114.750  209.660   76.281    0.475    0.259    5.774
  115.000  212.563   79.801    0.461    0.256    5.666
  115.250  213.491   79.783    0.486    0.245    5.456
  115.500  213.446   79.154    0.494    0.250    5.454
  115.750  213.401   76.164    0.493    0.252    5.870
  116.000  212.339   71.979    0.478    0.244    6.930
  116.250  211.306   69.582    0.482    0.239    7.598
  116.500  210.258   67.768    0.489    0.235    8.178
  116.750  208.238   67.732    0.490    0.233    9.835
  117.000  207.205   68.307    0.479    0.257   11.612
  117.250  206.172   68.271    0.455    0.260   14.494
  117.500  205.140   68.235    0.440    0.246   15.889
  117.750  205.095   68.217    0.427    0.210   14.745
  118.000  205.050   69.357    0.384    0.182   13.190
  118.250  205.005   70.525    0.355    0.154    9.985
  118.500  204.930   74.054    0.402    0.153    7.992
  118.750  205.873   77.583    0.471    0.148    6.163
  119.000  205.843   81.696    0.498    0.156    5.214
  119.250  206.756   84.632    0.499    0.174    4.839
  119.500  206.711   85.189    0.503    0.217    4.660
  119.750  206.681   83.375    0.511    0.217    4.659
  120.000  206.621   84.542    0.518    0.198    4.831
  120.250  206.561   86.886    0.533    0.185    5.104
  120.500  206.516   85.072    0.536    0.146    5.102
  120.750  206.457   82.674    0.508    0.131    4.913
  121.000  206.427   80.860    0.474    0.109    4.732
  121.250  203.403   86.168    0.491    0.093    4.557
  121.500  203.343   90.289    0.526    0.124    4.472
  121.750  204.301   92.040    0.534    0.172    4.637
  122.000  204.241   90.217    0.534    0.170    4.722
  122.250  206.172   88.421    0.506    0.187    4.632
  122.500  207.100   84.237    0.487    0.185    4.545
  122.750  207.055   81.839    0.497    0.158    4.297
  123.000  207.983   71.135    0.521    0.158    4.294
  123.250  208.911   63.996    0.561    0.175    4.886
  123.500  208.866   54.477    0.569    0.170    6.212
  123.750  209.824   50.302    0.575    0.117    7.334
  124.000  209.764   50.849    0.523    0.067    9.154
  124.250  208.731   53.795    0.338    0.017   12.078
  124.500  182.989   57.324    0.259    0.049   12.757
  124.750  187.883   63.224    0.305    0.048   12.519
  125.000  195.740   69.115    0.313    0.100   11.405
  125.250  199.632   74.422    0.416    0.118   10.390
  125.500  198.569   77.951    0.409    0.217   10.386
  125.750  196.563   80.887    0.392    0.214   12.034
  126.000  192.552   81.444    0.394    0.221   12.484
  126.250  190.547   79.028    0.399    0.219   12.948
  126.500  186.536   77.816    0.408    0.204   13.934
  126.750  182.510   76.020    0.410    0.203   14.998
  127.000  181.492   73.613    0.413    0.205   17.383
  127.250  180.444   71.216    0.380    0.199   20.148
  127.500  181.402   68.225    0.369    0.187   23.781
  127.750  182.300   64.624    0.341    0.163   22.072
  128.000  182.255   65.199    0.326    0.124   20.873
  128.250  182.225   69.312    0.303    0.034   17.985
  128.500  185.144   74.026    0.322    0.085   16.386
  128.750  193.001   74.583    0.420    0.137   14.928
  129.000  202.834   73.371    0.451    0.178   14.380
  129.250  214.643   72.150    0.458    0.215   12.856
  129.500  222.485   72.132    0.445    0.221   12.155
  129.750  226.376   73.865    0.423    0.223   11.707
  130.000  227.334   73.847    0.420    0.228   11.489
  130.250  229.220   73.811    0.422    0.208   11.483
  130.500  230.178   74.368    0.431    0.191   11.690
  130.750  230.148   74.350    0.459    0.195   12.349
  131.000  230.088   73.721    0.477    0.190   12.811
  131.250  228.038   74.870    0.454    0.158   13.039
  131.500  227.020   76.038    0.448    0.141   13.035
  131.750  226.975   76.594    0.433    0.130   12.553
  132.000  224.954   74.188    0.421    0.234   12.088
  132.250  220.943   73.577    0.412    0.237   12.540
  132.500  214.972   75.319    0.402    0.244   14.268
  132.750  202.056   75.283    0.389    0.210   16.843
  133.000  199.062   74.673    0.373    0.175   18.468
  133.250  197.027   73.451    0.362    0.154   19.509
  133.500  196.982   72.239    0.371    0.150   19.142
  133.750  197.910   71.611    0.386    0.186   19.132
  134.000  197.850   72.760    0.394    0.214   18.425
  134.250  197.820   73.918    0.393    0.229   17.743
  134.500  198.748   75.068    0.390    0.224   18.406
  134.750  199.661   75.633    0.388    0.213   19.811
  135.000  200.619   75.023    0.383    0.202   20.921
  135.250  200.589   73.209    0.382    0.186   20.915
  135.500  201.517   73.775    0.389    0.174   20.907
  135.750  201.457   75.517    0.395    0.205   20.887
  136.000  202.400   74.888    0.400    0.216   20.497
  136.250  202.355   74.861    0.410    0.227   19.742
  136.500  202.280   74.843    0.415    0.239   19.015
  136.750  203.223   74.798    0.409    0.245   17.646
  137.000  203.193   75.364    0.399    0.231   16.993
  137.250  203.148   77.106    0.395    0.222   16.987
  137.500  204.076   76.487    0.403    0.227   17.296
  137.750  205.019   75.876    0.415    0.232   19.308
  138.000  204.974   74.655    0.425    0.222   20.027
  138.250  207.877   74.610    0.416    0.210   20.772
  138.500  208.820   74.592    0.403    0.184   21.544
  138.750  211.724   76.325    0.389    0.174   21.537
  139.000  215.615   76.909    0.393    0.167   20.360
  139.250  217.560   79.836    0.424    0.201   17.877
