~VERSION INFORMATION
 VERS.                 2.0:   CWLS LOG ASCII STANDARD -VERSION 2.0
 WRAP.                  NO:   ONE LINE PER DEPTH STEP
~WELL INFORMATION BLOCK
#MNEM.UNIT           DATA                    DESCRIPTION OF MNEMONIC
#---------    -------------------            -------------------------------
# Generated from Intellog Unique Number	CN_91_93/WELL/2967
WELL.         10-08-092-15W4                 : Well_name    - WELL
LOC .         AA/10-08-092-15W4/0            : Location     - LOCATION
UWI .         AA/10-08-092-15W400            : Uwi          - UNIQUE WELL ID
ENTR.         JOETTE                         : Entered      - ENTERED BY
SRVC.         SCHLUMBERGER                   : Scn          - SERVICE COMPANY
DATE.         04/07/92                       : Date         - LOG DATE
STRT.F        250                            : top_depth    - START DEPTH
STOP.F        629.757                        : bot_depth    - STOP DEPTH
STEP.F        0.82                           : increment    - STEP LENGTH
 NULL. -999.2500:NULL Value
~CURVE INFORMATION BLOCK
#MNEM UNIT       ERCB CURVE CODE    CURVE DESCRIPTION
#-----------   ------------------   ----------------------------------
DEPT.F        00 001 00 00         : DEPTH        - DEPTH
CALI.IN       00 280 01 00         : CAL          - CALIPER
GR  .API      00 310 00 00         : GR           - GAMMA RAY
NPHI.V/V      00 330 00 00         : PHIN         - NEUTRON POROSITY (SANDSTONE)
DPHI.V/V      00 890 00 00         : PHID         - DENSITY POROSITY (SANDSTONE)
ILD .OHMM     00 120 00 00         : RESD         - DEEP RESISTIVITY (DIL)
~PARAMETER INFORMATION
#MNEM.UNIT           DATA             DESCRIPTION OF MNEMONIC
#---------         -----------     ------------------------------
GL  .M        466.283              : gl           - GROUND LEVEL ELEVATION
EREF.M        468.569              : kb           - ELEVATION OF DEPTH REFERENCE
DATM.M        468.569              : datum        - DATUM ELEVATION
TDD .M        201.168              : tdd          - TOTAL DEPTH DRILLER
RUN .         ONE                  : Run          - RUN NUMBER
ENG .         BILL                 : Engineer     - RECORDING ENGINEER
WIT .         JIM                  : Witness      - WITNESSED BY
MUD .         GEL                  : Mud_type     - MUD TYPE
MATR.         SANDSTONE            : Logunit      - NEUTRON MATRIX
TMAX.F        65                   : BHT          - MAXIMUM RECORDED TEMPERATURE
BHTD.F        660                  : BHTDEP       - MAXIMUM RECORDED TEMPERATURE
RMT .F        59                   : MDTP         - TEMPERATURE OF MUD
MUDD.LB/G     1.15                 : MWT          - MUD DENSITY
NEUT.         1                    : NEUTRON      - NEUTRON TYPE
RESI.         0                    : RESIST       - RESISTIVITY TYPE
RM  .OHMM     0.59                 : RM           - RESISTIVITY OF MUD
RMC .OHMM     0.59                 : RMC          - RESISTIVITY OF MUD CAKE
RMF .OHMM     0.59                 : RMF          - RESISTIVITY OF MUD FILTRATE
SUFT.F        39.2                 : SUFT         - SURFACE TEMPERATURE
~A  DEPTH      CAL       GR     PHIN     PHID     RESD
  250.000    7.241  118.990    0.478    0.245    3.325
  250.820    7.244  121.115    0.486    0.240    3.210
  251.640    7.167  117.282    0.494    0.253    3.072
  252.461    7.011  110.481    0.505    0.263    3.078
  253.281    7.053  105.463    0.521    0.255    3.353
  254.101    7.036  101.928    0.527    0.266    4.527
  254.921    6.979   98.100    0.534    0.278    4.663
  255.741    6.783   97.846    0.541    0.238    5.129
  256.562    7.044   96.988    0.537    0.230    5.141
  257.382    7.443   93.755    0.529    0.264    5.008
  258.202    6.811   96.772    0.525    0.247    4.837
  259.022    6.873   98.004    0.522    0.231    4.713
  259.843    6.935   96.848    0.520    0.246    4.593
  260.663    6.918   94.508    0.520    0.264    4.558
  261.483    6.980   87.404    0.521    0.265    4.876
  262.303    7.181   80.305    0.525    0.294    6.341
  263.123    7.144   75.590    0.533    0.255    8.883
  263.944    7.067   76.813    0.461    0.226   10.426
  264.764    7.169   71.201    0.454    0.191   13.436
  265.584    6.993   64.994    0.481    0.108   15.624
  266.404    6.678   71.872    0.511    0.139   14.803
  267.224    6.661   75.479    0.509    0.253   11.327
  268.045    7.060   84.741    0.523    0.252    9.248
  268.865    7.122   90.435    0.530    0.235    7.623
  269.685    7.303   94.334    0.535    0.247    6.402
  270.505    7.286   96.459    0.542    0.251    5.954
  271.325    6.991   95.016    0.552    0.257    5.288
  272.146    6.954   90.291    0.560    0.263    5.009
  272.966    7.076   81.997    0.559    0.268    4.973
  273.786    6.979   76.980    0.566    0.239    8.090
  274.606    6.803   73.747    0.566    0.207    9.059
  275.427    6.726   72.596    0.563    0.171    9.163
  276.247    6.650   82.151    0.562    0.219    7.347
  277.067    6.890   96.473    0.565    0.226    6.224
  277.887    6.972  103.054    0.565    0.241    5.477
  278.707    7.034  106.364    0.558    0.258    4.955
  279.528    7.215  103.731    0.563    0.281    4.785
  280.348    7.416  103.476    0.558    0.300    4.750
  281.168    7.657  102.915    0.561    0.305    4.673
  281.988    7.481  101.759    0.566    0.266    4.386
  282.808    7.206  100.310    0.575    0.262    4.313
  283.629    7.148  100.056    0.563    0.229    4.403
  284.449    7.191   99.207    0.542    0.244    4.581
  285.269    7.293   96.267    0.519    0.227    4.810
  286.089    7.256   98.085    0.509    0.224    5.001
  286.909    7.278  101.692    0.511    0.240    4.739
  287.730    6.983  104.416    0.516    0.274    4.286
  288.550    7.065  106.541    0.521    0.255    3.988
  289.370    7.048  108.061    0.526    0.240    4.267
  290.190    6.951  106.311    0.532    0.240    4.435
  291.010    7.033  103.975    0.541    0.244    4.832
  291.831    7.095  103.418    0.539    0.245    4.889
  292.651    6.939  105.246    0.538    0.119    4.764
  293.471    6.961  107.663    0.543    0.087    5.001
  294.291    7.023  111.860    0.548    0.135    4.610
  295.112    6.828  126.773    0.551    0.212    4.209
  295.932    7.168  128.898    0.554    0.182    3.501
  296.752    7.111  128.936    0.559    0.178    2.860
  297.572    7.093  126.888    0.574    0.193    2.787
  298.392    7.076  124.250    0.558    0.219    3.180
  299.213    7.079  123.098    0.548    0.205    3.246
  300.033    7.141  122.244    0.542    0.196    3.164
  300.853    7.084  125.262    0.533    0.185    3.201
  301.673    7.067  124.700    0.536    0.202    3.147
  302.493    7.050  122.662    0.542    0.210    2.795
  303.314    7.012  121.803    0.544    0.212    3.405
  304.134    6.975  111.730    0.513    0.218    3.962
  304.954    6.938   98.381    0.439    0.225    4.196
  305.774    6.881   92.174    0.419    0.229    5.716
  306.594    6.765   84.178    0.412    0.210    8.158
  307.415    6.629   77.079    0.421    0.185   10.036
  308.235    6.592   72.364    0.474    0.238   10.338
  309.055    6.614   73.294    0.483    0.291    9.982
  309.875    6.696   73.927    0.476    0.275    9.287
  310.696    6.679   73.966    0.473    0.264   10.117
  311.516    6.642   74.594    0.469    0.268   10.046
  312.336    6.704   76.422    0.457    0.264    8.836
  313.156    6.726   78.844    0.406    0.251    7.919
  313.976    6.768   77.697    0.441    0.257    9.742
  314.797    6.791   78.925    0.441    0.239    9.757
  315.617    6.734   76.877    0.387    0.225   11.241
  316.437    6.697   75.721    0.406    0.135   13.571
  317.257    6.699   76.354    0.441    0.168   14.118
  318.077    6.682   74.018    0.458    0.258   13.376
  318.898    6.665   75.241    0.451    0.248   12.103
  319.718    6.707   86.585    0.450    0.236   11.364
  320.538    6.749   95.545    0.471    0.210   10.568
  321.358    7.168  100.946    0.481    0.177    9.740
  322.178    7.547  101.282    0.486    0.192    9.145
  322.999    7.729  102.213    0.488    0.198    8.664
  323.819    7.592  103.143    0.489    0.192    8.685
  324.639    7.297  101.104    0.479    0.190    8.949
  325.459    7.062  100.538    0.476    0.172    9.305
  326.280    7.124  100.879    0.485    0.179    9.238
  327.100    7.266  101.512    0.504    0.193    8.754
  327.920    7.288  104.524    0.491    0.170    8.857
  328.740    7.330  104.865    0.477    0.175    8.709
  329.560    7.373  102.817    0.467    0.184    8.333
  330.381    7.316   97.794    0.459    0.224    8.507
  331.201    7.060   90.998    0.469    0.229    8.933
  332.021    6.924   92.816    0.472    0.236    9.204
  332.841    6.947   97.324    0.466    0.212    9.307
  333.661    6.949   97.655    0.457    0.214    8.660
  334.482    6.873   96.211    0.455    0.201    8.282
  335.302    6.716   95.055    0.459    0.158    8.777
  336.122    6.679   93.612    0.449    0.225    9.477
  336.942    6.682   92.456    0.446    0.238    9.404
  337.762    6.664   93.093    0.451    0.248    8.589
  338.583    6.726   95.511    0.453    0.228    8.142
  339.403    6.828   97.031    0.456    0.208    8.387
  340.223    7.030  102.428    0.458    0.227    8.405
  341.043    7.032  100.984    0.470    0.242    8.188
  341.864    6.916   97.444    0.463    0.245    7.984
  342.684    6.898   96.293    0.451    0.239    7.851
  343.504    6.901   94.551    0.452    0.245    7.509
  344.324    6.943   91.913    0.468    0.228    7.051
  345.144    7.124   93.443    0.446    0.219    7.002
  345.965    7.186   95.271    0.450    0.229    7.080
  346.785    7.228   93.520    0.486    0.251    6.836
  347.605    6.973   93.261    0.478    0.254    6.722
  348.425    6.916   94.191    0.462    0.243    7.189
  349.245    6.879   95.117    0.448    0.199    7.835
  350.066    6.842  100.508    0.455    0.175    8.148
  350.886    6.845  101.146    0.471    0.164    8.241
  351.706    6.907  102.379    0.485    0.208    8.182
  352.526    7.187  105.689    0.470    0.205    7.752
  353.346    7.408  109.300    0.461    0.188    7.347
  354.167    7.509  109.339    0.462    0.213    7.029
  354.987    7.175  107.583    0.469    0.231    6.660
  355.807    7.336  102.868    0.474    0.194    7.126
  356.627    7.755  101.712    0.487    0.189    6.627
  357.448    7.837  100.268    0.518    0.219    6.106
  358.268    7.542   97.328    0.509    0.236    5.895
  359.088    7.109   92.608    0.467    0.206    8.814
  359.908    6.754   87.888    0.446    0.111   10.840
  360.728    6.836   91.198    0.455    0.182   10.472
  361.549    6.959   94.210    0.442    0.147    9.736
  362.369    6.861   97.822    0.432    0.143    7.734
  363.189    6.824  104.997    0.435    0.239    6.864
  364.009    6.906  110.983    0.442    0.257    5.107
  364.829    7.384  113.703    0.451    0.263    3.398
  365.650    7.665  111.962    0.453    0.246    2.552
  366.470    7.786  112.302    0.460    0.238    2.351
  367.290    7.888  112.331    0.469    0.244    2.760
  368.110    7.732  111.477    0.479    0.201    3.977
  368.930    7.159  113.300    0.484    0.180    5.219
