~VERSION INFORMATION
 VERS.                 2.0:   CWLS LOG ASCII STANDARD -VERSION 2.0
 WRAP.                  NO:   ONE LINE PER DEPTH STEP
~WELL INFORMATION BLOCK
#MNEM.UNIT           DATA                    DESCRIPTION OF MNEMONIC
#---------    -------------------            -------------------------------
# Generated from Intellog Unique Number	CC_80_83/WELL/2382
NULL.         -999.25                        : NULL_VALUE
WELL.         PEX PCEJ CHARD OV              : Well_name    - WELL
LOC .         10-29-080-08W4                 : Location     - LOCATION          
UWI .         AA/10-29-080-08W400             : Uwi          - UNIQUE WELL ID    
ENTR.         DW                             : Entered      - ENTERED BY        
SRVC.         SCHLUMBERGER                   : Scn          - SERVICE COMPANY   
DATE.         05 FEB 80                      : Date         - LOG DATE
STRT.M        260                            : top_depth    - START DEPTH       
STOP.M        448.092                        : bot_depth    - STOP DEPTH        
STEP.M        0.3                            : increment    - STEP LENGTH       
~CURVE INFORMATION BLOCK
#MNEM UNIT       ERCB CURVE CODE    CURVE DESCRIPTION
#-----------   ------------------   ----------------------------------
DEPT.M        00 001 00 00         : DEPTH        - DEPTH                       
DPHI.V/V      00 890 00 00         : PHID         - DENSITY POROSITY (LIMESTONE)
NPHI.V/V      00 330 00 00         : PHIN         - NEUTRON POROSITY (LIMESTONE)
GR  .API      00 310 00 00         : GR           - GAMMA RAY                   
ILD .OHMM     00 120 00 00         : RESD         - DEEP RESISTIVITY (DIL)      
~PARAMETER INFORMATION       
#MNEM.UNIT           DATA             DESCRIPTION OF MNEMONIC
#---------         -----------     ------------------------------
GL  .M        702.53               : gl           - GROUND LEVEL ELEVATION      
EREF.M        706.18               : kb           - ELEVATION OF DEPTH REFERENCE
DATM.M        706.18               : datum        - DATUM ELEVATION             
TDD .M        456                  : tdd          - TOTAL DEPTH DRILLER         
RUN .         ONE                  : Run          - RUN NUMBER                  
ENG .         BILL                 : Engineer     - RECORDING ENGINEER          
WIT .         JIM                  : Witness      - WITNESSED BY                
MUD .         GEL                  : Mud_type     - MUD TYPE                    
MATR.         LIMESTONE            : Logunit      - NEUTRON MATRIX              
TMAX.C        18                   : BHT          - MAXIMUM RECORDED TEMPERATURE
BHTD.M        456                  : BHTDEP       - MAXIMUM RECORDED TEMPERATURE
MATR.         1                    : LOGUNIT      - NEUTRON MATRIX              
RMT .C        25                   : MDTP         - TEMPERATURE OF MUD          
NEUT.         1                    : NEUTRON      - NEUTRON TYPE                
RESI.         0                    : RESIST       - RESISTIVITY TYPE            
RMC .OHMM     0.25                 : RMC          - RESISTIVITY OF MUD CAKE     
RMF .OHMM     0.25                 : RMF          - RESISTIVITY OF MUD FILTRATE 
SUFT.C        15                   : SUFT         - SURFACE TEMPERATURE         
~A  DEPTH     PHID     PHIN       GR     RESD
# ...
  364.396    0.231    0.463   99.243    7.776
  364.696    0.234    0.473   94.269    7.485
  364.996    0.239    0.471   94.897    7.071
  365.296    0.250    0.472   99.265    6.554
  365.596    0.256    0.491   96.783    5.741
  365.896    0.260    0.501  100.527    5.321
  366.196    0.255    0.511  104.895    5.219
  366.496    0.245    0.526  106.146    5.217
  366.796    0.251    0.516  101.795    5.313
  367.096    0.269    0.498   89.971    5.513
  367.396    0.275    0.526   88.733    5.617
  367.696    0.270    0.518   88.120    5.721
  367.996    0.266    0.497   94.975    5.827
  368.296    0.267    0.478   88.134    6.047
  368.596    0.278    0.495   85.029    6.276
  368.896    0.301    0.516   85.659    6.274
  369.196    0.312    0.545   87.536    6.270
  369.496    0.322    0.540   85.051    6.150
  369.796    0.302    0.543   92.531    6.146
  370.096    0.259    0.545  103.749    6.261
  370.396    0.247    0.544  103.758    6.258
  370.695    0.240    0.546  101.273    6.023
  370.995    0.258    0.539   99.414    5.276
  371.295    0.294    0.544  102.535    4.799
  371.595    0.312    0.568  101.299    4.449
  371.895    0.314    0.598  105.041    4.046
  372.195    0.306    0.587  118.748    3.751
  372.495    0.312    0.593  119.380    3.679
  372.795    0.330    0.584  108.178    3.891
  373.095    0.341    0.577  121.887    4.355
  373.395    0.328    0.588  124.384    5.061
  373.695    0.274    0.567  116.297    6.343
  373.995    0.254    0.554  111.322    7.655
  374.295    0.244    0.533  102.613    8.407
  374.595    0.238    0.541  103.243    8.724
  374.895    0.263    0.525   97.025    8.559
  375.195    0.254    0.507  102.014    8.237
  375.495    0.249    0.493  107.003    7.780
  375.795    0.258    0.502   99.537    7.348
  376.095    0.277    0.529  103.282    7.072
  376.395    0.288    0.545  109.517    6.808
  376.695    0.259    0.556  112.638    6.677
  376.995    0.254    0.574  113.268    6.549
  377.295    0.282    0.595  108.295    6.424
  377.595    0.318    0.602  110.794    6.068
  377.895    0.329    0.607   99.594    5.520
  378.195    0.334    0.587   98.977    4.400
  378.495    0.336    0.602  102.099    3.712
  378.795    0.320    0.611  107.712    3.015
  379.095    0.297    0.621  115.814    2.641
  379.395    0.294    0.632  121.428    2.313
  379.695    0.326    0.638  114.586    2.227
  379.995    0.348    0.649  111.479    2.225
  380.295    0.384    0.662  113.354    2.538
  380.595    0.285    0.672  115.853    3.121
  380.895    0.260    0.572  109.012    4.062
  381.195    0.255    0.513  107.774    5.187
  381.495    0.255    0.487  105.913    5.806
  381.795    0.261    0.467  108.412    6.621
  382.095    0.266    0.457  104.062    7.135
  382.395    0.277    0.441  107.807    7.407
  382.695    0.287    0.459  109.059    7.687
  382.995    0.293    0.441  100.971    7.830
  383.295    0.293    0.435   99.733    7.826
  383.595    0.292    0.462  102.856    7.677
  383.895    0.292    0.455  107.222    7.389
  384.195    0.260    0.475  109.098    7.248
  384.495    0.224    0.472  101.632    7.811
  384.795    0.220    0.451   97.904    8.262
  385.095    0.212    0.436   95.422    8.575
  385.395    0.200    0.433  110.997    8.570
  385.695    0.204    0.429  114.121    8.095
  385.995    0.223    0.439  110.391    7.503
  386.295    0.236    0.458  107.908    7.087
  386.595    0.240    0.494  104.180    6.694
  386.895    0.252    0.512  101.695    6.322
  387.195    0.279    0.527  101.081    6.319
  387.495    0.314    0.528  105.446    6.436
  387.795    0.344    0.530  108.569    6.937
  388.095    0.353    0.509  110.444    7.620
  388.395    0.234    0.463  109.830    8.369
  388.695    0.241    0.431  104.234    9.019
  388.995    0.257    0.414   99.881    9.361
  389.295    0.261    0.418  103.006    9.356
  389.595    0.264    0.414  100.520    9.177
  389.895    0.268    0.409   91.810    8.834
  390.195    0.262    0.407   96.800    8.343
  390.495    0.261    0.417   98.054    7.733
  390.795    0.291    0.447   94.323    7.304
  391.095    0.329    0.458  105.540    6.900
  391.395    0.343    0.515  109.286    6.394
  391.695    0.273    0.493  103.068    6.273
  391.995    0.258    0.473   99.960    6.270
  392.295    0.252    0.457   96.231    6.506
  392.595    0.270    0.462  106.202    6.628
  392.895    0.317    0.488  108.079    6.624
  393.195    0.364    0.491  108.710    6.376
  393.495    0.346    0.496  101.867    6.494
  393.795    0.308    0.456   92.534    6.869
  394.095    0.283    0.432   88.184    7.834
  394.395    0.279    0.416   81.963    8.444
  394.695    0.267    0.420   85.086    8.440
  394.995    0.265    0.438   91.323    8.277
  395.294    0.263    0.430   92.576    7.967
  395.594    0.263    0.429   91.337    7.246
  395.894    0.268    0.459   89.475    6.717
  396.194    0.296    0.453   93.221    5.996
  396.494    0.377    0.495   95.099    5.352
  396.794    0.397    0.535   95.104    4.868
  397.094    0.403    0.543   99.472    4.775
  397.394    0.296    0.511  100.101    5.146
  397.694    0.273    0.457   96.995    5.869
  397.994    0.308    0.425   78.320    6.446
  398.294    0.312    0.398   83.310    8.389
  398.594    0.287    0.383   76.469    9.214
  398.894    0.104    0.362   69.627    9.931
  399.194    0.117    0.303   65.275   10.113
  399.494    0.172    0.293   69.020   10.110
  399.794    0.221    0.340   74.009    9.549
  400.094    0.275    0.388   80.244    8.208
  400.394    0.270    0.422   69.665    7.189
  400.694    0.265    0.422   76.524    6.919
  400.994    0.255    0.427   83.381    7.181
  401.294    0.239    0.410   85.879    7.595
  401.594    0.069    0.331   74.679    8.342
  401.894    0.076    0.283   68.460    8.991
  402.194    0.153    0.283   72.203    9.333
  402.494    0.236    0.369   84.666    9.328
  402.794    0.239    0.502   95.882    8.485
  403.094    0.243    0.520  103.985    7.293
  403.394    0.259    0.501  107.729    6.634
  403.694    0.265    0.494  101.510    6.033
  403.994    0.269    0.486  105.254    5.918
  404.294    0.276    0.519  107.131    5.916
  404.594    0.283    0.536  106.515    6.140
  404.894    0.270    0.536  108.391    6.618
  405.194    0.244    0.508  110.890    7.268
  405.494    0.221    0.493  104.673    7.983
  405.794    0.219    0.454  101.564    8.286
  406.094    0.214    0.457   99.705    7.825
  406.394    0.221    0.459  102.204    7.254
  406.694    0.257    0.482  105.325    6.118
  406.994    0.281    0.514  100.975    5.461
  407.294    0.289    0.541   97.245    4.436
  407.594    0.297    0.586   94.761    3.406
  407.894    0.305    0.601   96.017    2.766
  408.194    0.315    0.607   93.531    2.378
  408.494    0.328    0.614   98.522    2.163
  408.794    0.347    0.633   92.924    2.043
  409.094    0.349    0.643   91.687    2.004
  409.394    0.328    0.650   99.169    2.160
  409.694    0.231    0.609  103.534    2.656
  409.994    0.234    0.557  103.543    3.392
  410.294    0.228    0.456   97.945    4.017
  410.594    0.215    0.438   92.349    5.034
  410.894    0.207    0.422  103.566    5.852
  411.194    0.185    0.413  106.064    7.473
  411.494    0.164    0.411   99.223    7.756
  411.794    0.191    0.409   96.740    6.419
  412.094    0.226    0.415  102.351    5.624
  412.394    0.245    0.545  103.604    4.926
  412.694    0.253    0.525  111.708    4.396
  412.994    0.256    0.521  114.206    3.999
  413.294    0.250    0.552  103.005    3.849
  413.594    0.250    0.538  115.468    3.636
  413.894    0.251    0.529  109.249    3.434
  414.194    0.250    0.540  104.275    3.368
  414.494    0.252    0.529  107.395    3.242
  414.794    0.258    0.588  110.516    3.180
  415.094    0.261    0.559  111.147    3.300
  415.394    0.254    0.540  108.664    3.490
  415.694    0.248    0.523  113.657    3.624
  415.994    0.252    0.506  114.284    4.132
  416.294    0.248    0.515  116.783    4.539
