~Version : LASO    vs 4.00
VERS.                2.00:   CWLS Log ASCII Standard -VERSION 2.0
WRAP.                  NO:
~Well Information Block
#MNEM.UNIT       Data                        Description of Mnemonic
#----.----      -------------------------- : -----------------------------
STRT.M             3.0000:
STOP.M           202.0000:
STEP.M             0.1250:
NULL.           -999.2500:
COMP.  MOBILOIL CANADA             :COMPANY
WELL.  MOBIL CLARKE OV 10-26       :WELL
FLD.   CLARKE                      :FIELD
LOC.   10-26-090-07W4              :LOCATION
CTRY.  CANADA                      :COUNTRY
PROV.  ALBERTA                     :PROVINCE
SRVC.  DRESSER ATLAS               :SERVICE COMPANY
DATE.  31-JAN-81                   :LOG DATE
UWI.   AA/10-26-090-07W400         :UNIQUE WELL ID
~Parameter Information Block
#MNEM.UNIT       Data                        Description of Mnemonic
#----.----      -------------------------- : -----------------------------
RUN .                   1                 : Run Number
GL  .M           456.0000                 : Ground Level Elevation
DREF.                  KB                 : Depth Reference
EREF.M           456.0000                 : Elevation of Depth Reference
TDL .M           201.0000                 : Total Depth Logger
TDD .M           203.0000                 : Total Depth Driller
CSGL.M            13.0000                 : Casing Bottom Logger
CSGD.M            12.0000                 : Casing Bottom Driller
CSGS.MM          219.0000                 : Casing Size
CSGW.KG/M          0.0000                 : Casing Weight
BHT .DEGC         18.0000                 : Bottom Hole Temperature
BS  .MM          171.4000                 : Bit Size
DFD .              9.7000                 : Mud Weight (Density)
DFV .             85.0000                 : Mud Viscosity
RM  .OHMM          4.0000                 : Mud Resistivity
RMT .DEGC         18.0000                 : Mud Resistivity Temperature
RMF .OHMM          6.2000                 : Mud Filtrate Resistivity
RMFT.DEGC         12.0000                 : RMF Temperature
RMC .OHMM         11.6000                 : Mud Cake Resistivity
RMCT.DEGC         12.0000                 : RMC Temperature
~Curve Information Block
#MNEM.UNIT        API CODE    Curve Description
#---------    ------------    -------------------------------------------
DEPT.M                    :   DEPTH
CALI.MM       42 280  1  1:   3 DENSITY CALIPER
DPHI.V/V                  :   DPHI
DT  .US/M     60 520 42  1:   2 SONIC INTERVAL TRANSIT TIME (COMPENSATED)
GR  .GAPI     42 310  1  1:   4 GAMMA RAY
LLD .Ohmm                 :   LLD
NPHI.V/V      42 890  3  1:   5 NEUTRON POROSITY (SANDSTONE)
RHOB.K/M3     42 350  1  1:   6 BULK DENSITY
~A  Depth           CALI        DPHI          DT          GR         LLD        NPHI        RHOB
# ...
13.3750         210.0250      0.2710    198.3200     47.3700   -999.2500      0.3931   2078.2000
13.5000         214.6250      0.2832    197.3200     45.3450   -999.2500      0.4009   2116.7000
13.6250         220.7500      0.3988    192.9200     46.4550   -999.2500      0.4069   2138.7000
13.7500         224.7500      0.4052     97.5600     46.8150   -999.2500      0.4219   2113.0000
13.8750         224.1250      0.4110     97.5600     48.2850   -999.2500      0.4208   2040.2000
14.0000         227.8000      0.4157     99.2800     51.0600   -999.2500      0.4073   1934.3000
14.1250         227.8000      0.4144     99.2800     51.2400   -999.2500      0.3953   1875.0000
14.2500         220.7500      0.4091     99.2800     48.4800   -999.2500      0.3852   1925.2000
14.3750         227.8000      0.4494     99.2800     45.3450   -999.2500      0.3882   2039.0000
14.5000         233.9250      0.4564     99.5200     45.1650   -999.2500      0.3964   1999.9000
14.6250         237.0000      0.4109     99.5200     44.6100   -999.2500      0.4013   1907.4000
14.7500         239.7500      0.3997     99.5200     45.5250   -999.2500      0.3964   1824.2000
14.8750         245.5750      0.4296     99.7600     46.9950   -999.2500      0.3882   1826.6001
15.0000         256.0000      0.4528    100.0000     49.7700    399.8768      0.3747   1835.2000
15.1250         260.2750      0.4836    100.7600     52.7100    396.2086      0.3571   1846.2000
15.2500         239.7500      0.5022    500.2400     52.9050    392.2960      0.3552   1935.6001
15.3750         231.4750      0.4648    500.2400     48.6600    392.1398      0.3552   2099.0000
15.5000         233.0250      0.4355    500.2400     45.5250    393.1900      0.3530   2218.8999
15.6250         234.8500      0.3382    500.0000     46.4550    400.3727      0.3488   2276.3999
15.7500         235.4750      0.2779    500.2400     44.9700    407.2427      0.3560   2303.3999
15.8750         237.0000      0.2464    500.2400     47.3700    415.5397      0.3593   2313.2000
16.0000         238.2250      0.2292    500.2400     47.5500    421.3447      0.3631   2316.2000
16.1250         240.9750      0.2188    500.2400     49.2150    421.2958      0.3578   2326.0000
16.2500         240.6750      0.2112    500.2400     49.7700    424.0797      0.3657   2331.5000
16.3750         239.7500      0.2045    500.2400     49.7700    423.5855      0.3638   2327.2000
16.5000         238.5250      0.1990    500.2400     49.0350    416.6122      0.3548   2324.8000
16.6250         237.9250      0.1976    500.0000     49.9500    406.5010      0.3500   2326.0000
16.7500         238.2250      0.1963    500.2400     51.4200    400.6905      0.3507   2328.5000
16.8750         238.2250      0.1962    500.2400     55.4850    395.3232      0.3541   2323.0000
17.0000         238.2250      0.1984    500.2400     58.6050    389.4441      0.3567   2315.6001
17.1250         237.6000      0.2007    500.0000     58.2450    381.6919      0.3638   2311.8999
17.2500         235.1500      0.2050    543.4000     55.6650    374.8004      0.3717   2315.0000
17.3750         235.7750      0.2056    559.8400     56.0250    361.9540      0.3773   2323.0000
17.5000         238.8250      0.2017    594.1200     56.9550    349.4654      0.3762   2328.5000
17.6250         240.6750      0.1999    538.0000     59.3550    335.8288      0.3751   2328.5000
17.7500         240.6750      0.2014    622.8000     61.5600    276.5533      0.3679   2320.5000
17.8750         241.6000      0.2053    591.4400     62.2950    252.9912      0.3676   2312.6001
18.0000         243.4250      0.2088    615.4400     60.4500    234.5012      0.3694   2303.3999
18.1250         244.0500      0.2131    583.8400     56.9550    214.5528      0.3788   2298.5000
18.2500         246.5000      0.2187    619.4000     53.0850    215.7127      0.4006   2296.6001
18.3750         251.1000      0.2265    608.1200     53.4450    213.9509      0.4211   2286.8000
18.5000         253.2250      0.2372    525.2800     54.5550    204.7322      0.4301   2260.5000
18.6250         253.5500      0.2455    291.4400     56.9550    203.9153      0.4249   2231.2000
18.7500         251.7000      0.2568     93.6400     59.1600    207.7028      0.4429   2218.3000
18.8750         251.7000      0.2713     85.8000     62.6700    221.1867      0.4564   2211.6001
19.0000         252.0000      0.2823    190.7200     69.1200    249.9931      0.4744   2193.8000
19.1250         252.3250      0.3112    459.0800     70.7700    278.0042      0.4916   2162.6001
19.2500         252.9250      0.3362    450.7600     70.0350    300.7570      0.5126   2117.8999
19.3750         254.1500      0.3386    209.0800     67.4550    310.8566      0.5204   2046.9000
19.5000         256.6000      0.3375    142.4400     62.4750    327.3894      0.5129   1953.9000
19.6250         254.4500      0.4011    180.6400     58.8000    346.9589      0.5054   1900.7000
19.7500         252.6250      0.4132    652.4800     54.1950    475.7194      0.4999   1879.3000
19.8750         255.3750      0.4415    650.2800     51.2400    481.6520      0.4987   1871.9000
20.0000         263.3500      0.4702    651.2400     44.0550    487.5846      0.4927   1862.1001
20.1250         259.9750      0.4874    645.8400     37.2300    493.5172      0.4822   1835.2000
20.2500         259.9750      0.4967    637.5200     31.5300    499.4497      0.4785   1804.0000
20.3750         260.6000      0.5073    633.3600     26.3700    503.1266      0.4800   1740.9000
20.5000         281.4250      0.5159    633.3600     25.0800    516.2642      0.4792   1638.7000
20.6250         337.5000      0.5247    633.6000     26.7300    527.4847      0.4725   1521.9000
20.7500         374.8750      0.5468    634.0800     29.8650    556.6046      0.4612   1476.0000
20.8750         372.7250      0.5654    646.3600     30.2400    571.6897      0.4564   1520.6001
21.0000         373.6500      0.5873    642.9200     30.0450    569.3361      0.4493   1564.1001
21.1250         373.9500      0.5941    557.1200     30.7800    575.3828      0.4361   1630.8000
21.2500         375.4750      0.5814     29.9200     33.1800    577.0831      0.4241   1693.2000
21.3750         376.4000      0.5720     64.4800     35.7600    569.4351      0.4174   1732.4000
21.5000         375.4750      0.5621    283.3600     36.4950    564.1553      0.4046   1747.1001
21.6250         356.1750      0.5501    648.3200     35.0250    560.0258      0.3882   1747.7000
21.7500         302.8750      0.5374    622.3200     33.9150    555.2439      0.3822   1758.7000
21.8750         246.8000      0.5235    594.4000     35.0250    554.4742      0.3792   1810.7000
22.0000         196.2500      0.5013    622.5600     37.9650    552.7421      0.3706   1905.0000
22.1250         193.8000      0.3675    563.2400     41.1000    538.8665      0.3668   2050.0000
22.2500         216.7750      0.3130    549.2800     42.2100    524.9910      0.3672   2166.8999
22.3750         248.9500      0.2982    543.4000     44.0550    511.1154      0.3683   2198.1001
22.5000         267.6250      0.2852    540.7200     44.0550    496.0691      0.3687   2222.0000
22.6250         270.0750      0.2750    533.6000     44.9700    488.5039      0.3657   2235.3999
22.7500         265.5000      0.2647    318.6400     42.9450    477.4093      0.3747   2225.0000
22.8750         258.1250      0.2618    381.1600     39.4500    454.7293      0.3766   2206.1001
23.0000         263.6500      0.2633    341.6800     37.7850    438.5457      0.3833   2181.0000
23.1250         270.4000      0.2676    304.6800     36.3150    414.8896      0.3942   2127.1001
23.2500         271.9250      0.2841    616.6800     36.1350    408.0585      0.3893   2067.1001
23.3750         275.9000      0.3327    595.1200     39.6300    399.5331      0.3829   1987.0000
23.5000         280.5000      0.3787    589.2400     44.0550    386.3013      0.3769   1936.8000
23.6250         294.9000      0.4037    588.0000     47.5500    374.6440      0.3706   1960.7000
