~VERSION INFORMATION
 VERS.                 2.0:   CWLS LOG ASCII STANDARD -VERSION 2.0
 WRAP.                  NO:   ONE LINE PER DEPTH STEP
~WELL INFORMATION BLOCK
#MNEM.UNIT           DATA                    DESCRIPTION OF MNEMONIC
#---------    -------------------            -------------------------------
# Generated from Intellog Unique Number	CW_79_81/WELL/2481
WELL.         GAD JOLI FOU OV                : Well_name    - WELL
LOC .         AA/11-08-081-19W4/0            : Location     - LOCATION
UWI .         AA/11-08-081-19W400            : Uwi          - UNIQUE WELL ID
ENTR.         MAX                            : Entered      - ENTERED BY
SRVC.         SCHLUMBERGER                   : Scn          - SERVICE COMPANY
STRT.M        175                            : top_depth    - START DEPTH
STOP.M        370                            : bot_depth    - STOP DEPTH
STEP.M        0.25                           : increment    - STEP LENGTH
 NULL. -999.2500:NULL Value
~CURVE INFORMATION BLOCK
#MNEM UNIT       ERCB CURVE CODE    CURVE DESCRIPTION
#-----------   ------------------   ----------------------------------
DEPT.M        00 001 00 00         : DEPTH        - DEPTH
ILD .OHMM     00 120 00 00         : RESD         - DEEP RESISTIVITY (DIL)
NPHI.V/V      00 330 00 00         : PHIN         - NEUTRON POROSITY (SANDSTONE)
DPHI.V/V      00 890 00 00         : PHID         - DENSITY POROSITY (SANDSTONE)
GR  .API      00 310 00 00         : GR           - GAMMA RAY
CALI.MM       00 280 01 00         : CAL          - CALIPER
~PARAMETER INFORMATION
#MNEM.UNIT           DATA             DESCRIPTION OF MNEMONIC
#---------         -----------     ------------------------------
GL  .M        580.5                : gl           - GROUND LEVEL ELEVATION
EREF.M        584                  : kb           - ELEVATION OF DEPTH REFERENCE
DATM.M        580.5                : datum        - DATUM ELEVATION
TDD .M        374                  : tdd          - TOTAL DEPTH DRILLER
RUN .         ONE                  : Run          - RUN NUMBER
ENG .         BILL                 : Engineer     - RECORDING ENGINEER
WIT .         JIM                  : Witness      - WITNESSED BY
MUD .         GEL                  : Mud_type     - MUD TYPE
MATR.         SANDSTONE            : Logunit      - NEUTRON MATRIX
TMAX.C        25.5                 : BHT          - MAXIMUM RECORDED TEMPERATURE
BHTD.M        374                  : BHTDEP       - MAXIMUM RECORDED TEMPERATURE
MATR.         1                    : LOGUNIT      - NEUTRON MATRIX
RMT .C        18.8                 : MDTP         - TEMPERATURE OF MUD
NEUT.         1                    : NEUTRON      - NEUTRON TYPE
RESI.         0                    : RESIST       - RESISTIVITY TYPE
RMC .OHMM     3.74                 : RMC          - RESISTIVITY OF MUD CAKE
RMF .OHMM     3.212                : RMF          - RESISTIVITY OF MUD FILTRATE
SUFT.C        -20                  : SUFT         - SURFACE TEMPERATURE
~A  DEPTH     RESD     PHIN     PHID       GR      CAL
# ...
  321.000    9.102    0.443    0.214   73.098  254.477
  321.250    9.650    0.435    0.214   75.478  253.676
  321.500   10.124    0.421    0.219   78.037  252.975
  321.750   10.271    0.413    0.228   76.742  252.572
  322.000   10.267    0.419    0.237   76.240  252.565
  322.250   10.114    0.439    0.215   77.667  253.353
  322.500    9.908    0.440    0.215   79.272  254.142
  322.750    9.760    0.439    0.218   79.984  254.731
  323.000    9.722    0.444    0.215   79.444  255.023
  323.250    9.819    0.455    0.209   77.811  255.098
  323.500    9.968    0.452    0.208   76.814  255.506
  323.750   10.185    0.452    0.207   77.287  255.501
  324.000   10.352    0.443    0.209   78.833  255.792
  324.250   10.501    0.434    0.211   81.332  256.382
  324.500   10.635    0.436    0.210   83.712  257.269
  324.750   10.758    0.457    0.202   83.400  258.618
  325.000   11.004    0.440    0.199   80.665  259.440
  325.250   11.661    0.448    0.202   78.039  259.831
  325.500   11.900    0.435    0.201   77.201  259.329
  325.750   11.852    0.413    0.208   77.435  258.529
  326.000   11.632    0.394    0.222   78.147  257.926
  326.250   11.257    0.401    0.231   78.709  257.919
  326.500   11.083    0.418    0.216   77.959  257.912
  326.750   10.917    0.417    0.205   77.957  258.702
  327.000   10.814    0.423    0.198   80.277  259.192
  327.250   10.692    0.441    0.196   82.538  259.583
  327.500   10.571    0.460    0.199   83.785  259.875
  327.750   10.567    0.447    0.200   83.950  259.950
  328.000   10.563    0.439    0.193   81.215  260.357
  328.250   10.482    0.435    0.178   80.973  260.352
  328.500   10.402    0.435    0.179   83.770  260.644
  328.750   10.361    0.431    0.186   86.388  261.036
  329.000   10.357    0.423    0.193   87.457  261.426
  329.250   10.353    0.420    0.195   87.503  261.814
  329.500   10.350    0.416    0.193   87.747  261.809
  329.750   10.271    0.414    0.189   88.220  261.406
  330.000   10.136    0.410    0.189   89.230  261.003
  330.250    9.947    0.420    0.196   90.180  260.798
  330.500    9.746    0.441    0.207   90.653  260.891
  330.750    9.511    0.444    0.209   90.062  261.281
  331.000    9.083    0.433    0.195   88.320  261.275
  331.250    8.558    0.430    0.186   87.125  261.268
  331.500    8.157    0.426    0.187   88.611  260.667
  331.750    7.980    0.436    0.194   90.395  260.065
  332.000    8.078    0.456    0.196   90.213  259.960
  332.250    8.554    0.460    0.177   85.521  260.912
  332.500    8.818    0.428    0.167   83.530  261.733
  332.750    8.945    0.428    0.150   84.003  262.522
  333.000    9.025    0.437    0.154   85.906  262.715
  333.250    9.254    0.446    0.172   88.048  262.312
  333.500    9.735    0.455    0.191   89.356  261.511
  333.750   10.650    0.462    0.196   87.087  260.460
  334.000   11.590    0.430    0.196   78.144  259.212
  334.250   13.381    0.399    0.169   76.710  258.015
  334.500   14.845    0.378    0.167   79.209  256.221
  334.750   15.475    0.363    0.191   80.040  254.427
  335.000   15.328    0.358    0.225   77.772  253.229
  335.250   15.279    0.375    0.242   75.146  253.221
  335.500   16.244    0.382    0.249   75.142  253.215
  335.750   17.972    0.372    0.249   72.039  254.004
  336.000   20.003    0.364    0.234   69.652  255.091
  336.250   22.326    0.347    0.209   67.264  256.475
  336.500   24.558    0.320    0.170   64.698  257.760
  336.750   25.659    0.283    0.101   62.658  258.066
  337.000   25.650    0.248    0.071   64.393  257.647
  337.250   24.714    0.284    0.077   66.772  257.641
  337.500   22.493    0.317    0.111   68.079  257.337
  337.750   19.252    0.341    0.151   68.552  257.132
  338.000   16.378    0.357    0.180   68.907  257.027
  338.250   14.875    0.372    0.185   70.879  256.622
  338.500   14.758    0.369    0.180   73.606  256.616
  338.750   15.525    0.350    0.173   74.079  256.610
  339.000   16.689    0.350    0.172   70.799  256.901
  339.250   18.212    0.353    0.170   66.504  257.292
  339.500   19.407    0.348    0.164   64.415  257.783
  339.750   17.998    0.331    0.152   69.168  258.653
  340.000   15.139    0.327    0.155   73.881  259.061
  340.250   13.433    0.351    0.171   78.407  259.452
  340.500   12.918    0.361    0.186   79.893  259.843
  340.750   13.007    0.369    0.200   79.532  259.836
  341.000   13.391    0.381    0.204   79.289  259.532
  341.250   13.870    0.400    0.184   83.099  259.609
  341.500   14.297    0.372    0.159   89.054  260.016
  341.750   14.504    0.377    0.150   94.533  260.408
  342.000   14.473    0.395    0.157   97.688  260.501
  342.250   14.521    0.409    0.178   95.181  260.892
  342.500   14.704    0.409    0.194   87.372  261.580
  342.750   14.783    0.391    0.169   78.309  261.970
  343.000   14.666    0.377    0.151   78.305  261.964
  343.250   14.236    0.393    0.149   84.498  262.355
  343.500   13.511    0.405    0.166   85.866  262.448
  343.750   12.833    0.413    0.190   86.578  262.443
  344.000   12.484    0.418    0.207   88.898  262.437
  344.250   12.911    0.420    0.201   93.333  262.511
  344.500   13.726    0.406    0.182   94.074  262.918
  344.750   15.078    0.397    0.164   92.163  262.119
  345.000   15.796    0.396    0.150   85.605  260.126
  345.250   15.791    0.398    0.137   79.046  257.935
  345.500   15.153    0.399    0.129   75.348  255.844
  345.750   13.769    0.406    0.143   75.830  253.451
  346.000   12.382    0.430    0.190   77.067  253.446
  346.250   11.493    0.424    0.223   78.256  255.426
  346.500   11.164    0.418    0.221   78.907  257.406
  346.750   11.120    0.419    0.204   79.023  258.592
  347.000   11.259    0.428    0.187   78.722  258.786
  347.250   11.608    0.429    0.190   78.092  258.381
  347.500   11.693    0.428    0.213   77.343  258.374
  347.750   11.435    0.422    0.202   78.768  258.764
  348.000   10.933    0.414    0.184   80.553  260.050
  348.250   10.500    0.412    0.170   82.814  261.236
  348.500   10.174    0.416    0.167   84.896  261.727
  348.750    9.714    0.419    0.179   85.915  261.902
  349.000    9.276    0.429    0.161   88.642  264.791
  349.250    8.872    0.431    0.159   89.115  267.566
  349.500    8.295    0.426    0.172   89.231  267.659
  349.750    7.705    0.426    0.178   90.896  267.057
  350.000    7.202    0.433    0.177   93.693  266.852
  350.250    6.942    0.431    0.194   94.682  267.242
  350.500    7.495    0.412    0.198   93.685  267.236
  350.750    8.472    0.409    0.196   91.774  267.231
  351.000    8.998    0.420    0.191   91.651  267.224
  351.250    9.431    0.437    0.183   92.005  266.622
  351.500   10.018    0.446    0.176   91.346  265.225
  351.750   10.923    0.427    0.169   87.359  262.818
  352.000   12.168    0.425    0.153   84.127  260.744
  352.250   13.462    0.419    0.121   84.124  259.148
  352.500   15.296    0.402    0.161   84.656  258.447
  352.750   16.996    0.390    0.190   84.652  258.043
  353.000   17.834    0.393    0.189   84.053  257.937
  353.250   17.831    0.406    0.192   83.959  258.807
  353.500   18.522    0.413    0.196   84.700  259.214
  353.750   19.913    0.411    0.200   82.790  259.209
  354.000   21.189    0.404    0.188   80.701  258.608
  354.250   22.306    0.391    0.170   78.313  257.608
  354.500   23.388    0.376    0.155   76.224  256.608
  354.750   25.026    0.366    0.152   76.140  256.039
  355.000   26.199    0.370    0.167   78.123  255.204
  355.250   27.763    0.381    0.149   75.974  254.800
  355.500   28.022    0.374    0.137   77.043  254.695
  355.750   27.084    0.367    0.131   80.734  254.690
  356.000   25.283    0.366    0.140   85.557  255.180
  356.250   22.133    0.372    0.184   89.227  257.490
  356.500   18.616    0.369    0.186   89.720  259.139
  356.750   15.664    0.399    0.190   90.193  263.104
  357.000   13.756    0.423    0.258   88.879  264.985
  357.250   12.857    0.438    0.298   84.227  262.994
