~VERSION INFORMATION
 VERS.                 2.0:   CWLS LOG ASCII STANDARD -VERSION 2.0
 WRAP.                  NO:   ONE LINE PER DEPTH STEP
~WELL INFORMATION BLOCK
#MNEM.UNIT           DATA                    DESCRIPTION OF MNEMONIC
#---------    -------------------            -------------------------------
# Generated from Intellog Unique Number	CN_94_101/WELL/5058
WELL.         16-17-101-13W4                 : Well_name    - WELL
LOC .         AA/16-17-101-13W4/0            : Location     - LOCATION
UWI .         AA/16-17-101-13W400            : Uwi          - UNIQUE WELL ID
ENTR.         TIM                            : Entered      - ENTERED BY
SRVC.         SCHLUMBERGER                   : Scn          - SERVICE COMPANY
DATE.         08/13/92                       : Date         - LOG DATE
STRT.M        320.04                         : top_depth    - START DEPTH
STOP.M        542.54                         : bot_depth    - STOP DEPTH
STEP.M        0.25                           : increment    - STEP LENGTH
NULL. -999.2500:NULL Value
~CURVE INFORMATION BLOCK
#MNEM UNIT       ERCB CURVE CODE    CURVE DESCRIPTION
#-----------   ------------------   ----------------------------------
DEPT.M        00 001 00 00         : DEPTH        - DEPTH
NPHI.V/V      00 330 00 00         : PHIN         - NEUTRON POROSITY (SANDSTONE)
ILD .OHMM     00 120 00 00         : RESD         - DEEP RESISTIVITY (DIL)
GR  .API      00 310 00 00         : GR           - GAMMA RAY
~PARAMETER INFORMATION
#MNEM.UNIT           DATA             DESCRIPTION OF MNEMONIC
#---------         -----------     ------------------------------
GL  .M        755.752              : gl           - GROUND LEVEL ELEVATION
EREF.M        759.104              : kb           - ELEVATION OF DEPTH REFERENCE
DATM.M        759.104              : datum        - DATUM ELEVATION
TDD .M        543.763              : tdd          - TOTAL DEPTH DRILLER
RUN .         ONE                  : Run          - RUN NUMBER
ENG .         BILL                 : Engineer     - RECORDING ENGINEER
WIT .         JIM                  : Witness      - WITNESSED BY
MUD .         GEL                  : Mud_type     - MUD TYPE
MATR.         SANDSTONE            : Logunit      - NEUTRON MATRIX
TMAX.C        20.5556              : BHT          - MAXIMUM RECORDED TEMPERATURE
BHTD.M        543.763              : BHTDEP       - MAXIMUM RECORDED TEMPERATURE
RMT .C        10                   : MDTP         - TEMPERATURE OF MUD
MUDD.KG/M     1090                 : MWT          - MUD DENSITY
NEUT.         1                    : NEUTRON      - NEUTRON TYPE
RESI.         0                    : RESIST       - RESISTIVITY TYPE
RM  .OHMM     9.8                  : RM           - RESISTIVITY OF MUD
RMC .OHMM     8.7                  : RMC          - RESISTIVITY OF MUD CAKE
RMF .OHMM     9.2                  : RMF          - RESISTIVITY OF MUD FILTRATE
SUFT.C        4                    : SUFT         - SURFACE TEMPERATURE
~A  DEPTH     PHIN     RESD       GR
# ...
  428.540    0.502    4.259   92.059
  428.790    0.501    4.261   92.058
  429.040    0.502    4.102   92.056
  429.290    0.508    3.949   92.470
  429.540    0.512    3.590   92.469
  429.790    0.494    3.523   92.883
  430.040    0.502    3.662   93.297
  430.290    0.516    4.109   93.295
  430.540    0.519    4.270   92.463
  430.790    0.500    4.354   91.216
  431.040    0.482    4.113   89.968
  431.290    0.436    3.668   89.551
  431.540    0.369    3.399   89.965
  431.790    0.329    3.090   90.794
  432.040    0.354    2.755   91.208
  432.290    0.380    2.505   90.790
  432.540    0.402    2.191   90.790
  432.790    0.429    1.954   90.788
  433.040    0.455    1.677   90.787
  433.290    0.462    1.496   90.785
  433.540    0.480    1.386   90.368
  433.790    0.509    1.309   90.367
  434.040    0.545    1.310   89.950
  434.290    0.562    1.310   89.949
  434.540    0.568    1.336   89.532
  434.790    0.557    1.362   90.361
  435.040    0.542    1.443   91.605
  435.290    0.537    1.651   92.434
  435.540    0.556    1.962   93.679
  435.790    0.566    2.244   94.923
  436.040    0.569    2.616   94.507
  436.290    0.565    2.992   90.352
  436.540    0.556    3.422   89.935
  436.790    0.540    3.914   92.841
  437.040    0.529    4.069   96.162
  437.290    0.517    4.148  101.560
  437.540    0.491    4.312  105.711
  437.790    0.475    4.397  106.955
  438.040    0.459    4.398  105.708
  438.290    0.442    4.485  104.460
  438.540    0.435    4.573  102.797
  438.790    0.430    4.663  101.966
  439.040    0.436    4.755  100.718
  439.290    0.441    4.848  100.301
  439.540    0.447    4.850   99.884
  439.790    0.451    5.041   99.883
  440.040    0.451    5.140  100.296
  440.290    0.451    5.241  100.711
  440.540    0.447    5.344  102.370
  440.790    0.438    5.347  101.953
  441.040    0.431    5.247  101.121
  441.290    0.433    5.149  100.705
  441.540    0.436    4.957   98.211
  441.790    0.439    4.866   96.549
  442.040    0.442    4.775   97.378
  442.290    0.465    4.685   98.622
  442.540    0.469    4.687   98.621
  442.790    0.494    4.689   98.204
  443.040    0.500    4.781   96.541
  443.290    0.507    4.783   95.709
  443.540    0.515    4.971   95.292
  443.790    0.518    5.069   94.460
  444.040    0.521    5.169   93.213
  444.290    0.489    5.270   92.796
  444.540    0.405    5.584   91.964
  444.790    0.351    5.693   91.132
  445.040    0.365    5.918   89.884
  445.290    0.372    6.151   88.637
  445.540    0.368    6.393   87.805
  445.790    0.364    6.644   86.972
  446.040    0.353    7.040   86.556
  446.290    0.344    7.317   85.724
  446.540    0.335    6.526   83.230
  446.790    0.327    5.709   83.229
  447.040    0.316    5.190   86.135
  447.290    0.298    4.454   91.117
  447.540    0.334    3.823   93.192
  447.790    0.411    3.281   95.267
  448.040    0.488    2.871   94.850
  448.290    0.504    2.561   94.848
  448.540    0.514    2.512   95.262
  448.790    0.511    2.466   96.092
  449.040    0.503    2.285   97.751
  449.290    0.495    2.038   98.165
  449.540    0.489    1.817   97.333
  449.790    0.489    1.590   96.085
  450.040    0.520    1.445   96.084
  450.290    0.546    1.531   96.083
  450.540    0.558    1.820   96.081
  450.790    0.563    2.081   96.079
  451.040    0.567    2.335   96.493
  451.290    0.565    2.671   96.076
  451.540    0.565    2.885   94.829
  451.790    0.563    3.176   93.166
  452.040    0.561    3.430   92.334
  452.290    0.551    3.564   93.163
  452.540    0.539    3.777   93.993
  452.790    0.536    3.925   95.652
  453.040    0.533    4.080   97.727
  453.290    0.530    4.160   99.802
  453.540    0.526    4.162  100.631
  453.790    0.522    4.163  100.215
  454.040    0.526    4.164   99.798
  454.290    0.534    4.166   96.058
  454.540    0.539    4.011   95.227
  454.790    0.530    3.936   97.301
  455.040    0.502    3.938   97.300
  455.290    0.502    3.939   96.468
  455.540    0.511    3.940   94.390
  455.790    0.521    3.722   91.066
  456.040    0.532    3.583   89.403
  456.290    0.529    3.450   91.063
  456.540    0.485    3.321   92.723
  456.790    0.475    3.197   96.459
  457.040    0.497    3.138   99.780
  457.290    0.531    3.021  101.855
  457.540    0.541    2.965  100.607
  457.790    0.543    2.966   99.360
  458.040    0.540    2.967   98.112
  458.290    0.540    2.968   96.865
  458.540    0.544    2.969   96.864
  458.790    0.544    2.804   96.862
  459.040    0.540    2.648   96.860
  459.290    0.539    2.454   96.029
  459.540    0.537    2.189   93.950
  459.790    0.537    2.148   92.288
  460.040    0.543    2.149   91.456
  460.290    0.550    2.191   91.869
  460.540    0.558    2.321   92.283
  460.790    0.565    2.413   92.281
  461.040    0.568    2.556   92.696
  461.290    0.567    2.869   93.524
  461.540    0.564    2.981   94.354
  461.790    0.562    3.099   93.106
  462.040    0.555    3.159   91.029
  462.290    0.547    3.161   93.103
  462.540    0.543    3.043   95.178
  462.790    0.546    2.874   96.008
  463.040    0.553    2.767   95.175
  463.290    0.553    2.375   94.342
  463.540    0.552    1.962   93.926
  463.790    0.551    1.652   93.925
  464.040    0.543    1.473   94.339
  464.290    0.534    1.339   93.506
  464.540    0.532    1.289   92.675
  464.790    0.534    1.218   90.597
  465.040    0.539    1.218   88.934
  465.290    0.545    1.242   86.856
  465.540    0.551    1.267   84.778
  465.790    0.570    1.342   82.700
  466.040    0.576    1.506   82.284
  466.290    0.567    1.722   80.205
  466.540    0.552    2.340   76.051
  466.790    0.509    3.120   68.159
  467.040    0.421    4.490   59.851
  467.290    0.372    5.872   54.451
  467.540    0.355    6.464   48.636
  467.790    0.341    6.466   43.650
  468.040    0.373    6.851   42.403
  468.290    0.387    6.985   42.401
  468.540    0.382    7.690   42.815
  468.790    0.370    7.992   44.475
  469.040    0.360    8.631   46.965
  469.290    0.349    7.998   48.625
  469.540    0.368    6.004   51.945
  469.790    0.396    4.865   54.020
  470.040    0.422    3.868   56.926
  470.290    0.455    3.195   66.477
  470.540    0.461    2.742   77.688
  470.790    0.484    2.354   84.747
  471.040    0.501    2.140   84.745
  471.290    0.525    2.141   83.913
  471.540    0.537    2.225   84.326
  471.790    0.542    2.313   85.156
  472.040    0.548    2.403   87.231
  472.290    0.549    2.697   88.475
  472.540    0.543    2.857   88.474
  472.790    0.539    3.145   88.057
  473.040    0.534    3.530   87.640
  473.290    0.531    3.812   86.808
  473.540    0.528    4.360   84.315
  473.790    0.528    4.987   83.483
  474.040    0.538    6.157   80.574
  474.290    0.546    7.900   71.021
  474.540    0.551   10.531   61.052
  474.790    0.548   13.773   54.406
  475.040    0.532   17.335   48.175
  475.290    0.489   18.366   46.513
  475.540    0.472   17.018   51.079
  475.790    0.468   14.607   54.815
  476.040    0.432   12.780   56.059
  476.290    0.397   11.841   56.889
  476.540    0.385   10.973   58.133
  476.790    0.413   10.565   58.962
  477.040    0.416   10.171   59.791
  477.290    0.422    9.793   61.035
  477.540    0.422    9.609   62.695
  477.790    0.414    5.310   64.355
  478.040    0.387    3.049   65.600
  478.290    0.363    2.719   68.505
  478.540    0.354    2.520   77.225
  478.790    0.430    2.520   84.284
  479.040    0.484    2.620   87.604
  479.290    0.498    3.235   87.603
  479.540    0.473    5.323   87.186
  479.790    0.444    8.270   86.354
  480.040    0.416   10.212   83.861
  480.290    0.383   16.172   79.706
  480.540    0.355   21.561   69.738
  480.790    0.343   27.139   63.092
  481.040    0.337   32.250   56.445
  481.290    0.330   37.599   51.460
  481.540    0.320   46.427   46.890
  481.790    0.309   65.554   44.397
  482.040    0.293  101.848   42.319
  482.290    0.289  164.412   41.072
  482.540    0.289  260.375   38.993
