~VERSION INFORMATION
 VERS.                 2.0:   CWLS LOG ASCII STANDARD -VERSION 2.0
 WRAP.                  NO:   ONE LINE PER DEPTH STEP
~WELL INFORMATION BLOCK
#MNEM.UNIT           DATA                    DESCRIPTION OF MNEMONIC
#---------    -------------------            -------------------------------
# Generated from Intellog Unique Number	CN_91_93/WELL/1174
WELL.         16-02-091-09W4                 : Well_name    - WELL
LOC .         AA/16-02-091-09W4/0            : Location     - LOCATION
UWI .         AA/16-02-091-09W400            : Uwi          - UNIQUE WELL ID
ENTR.         JOETTE                         : Entered      - ENTERED BY
SRVC.         SCHLUMBERGER                   : Scn          - SERVICE COMPANY
DATE.         01/14/92                       : Date         - LOG DATE
STRT.F        50                             : top_depth    - START DEPTH
STOP.F        439.6                          : bot_depth    - STOP DEPTH
STEP.F        0.8202                         : increment    - STEP LENGTH
 NULL. -999.2500:NULL Value
~CURVE INFORMATION BLOCK
#MNEM UNIT       ERCB CURVE CODE    CURVE DESCRIPTION
#-----------   ------------------   ----------------------------------
DEPT.F        00 001 00 00         : DEPTH        - DEPTH
GR  .API      00 310 00 00         : GR           - GAMMA RAY
CALI.IN       00 280 01 00         : CAL          - CALIPER
DPHI.V/V      00 890 00 00         : PHID         - DENSITY POROSITY (SANDSTONE)
ILD .OHMM     00 120 00 00         : RESD         - DEEP RESISTIVITY (DIL)
~PARAMETER INFORMATION
#MNEM.UNIT           DATA             DESCRIPTION OF MNEMONIC
#---------         -----------     ------------------------------
GL  .M        360.243              : gl           - GROUND LEVEL ELEVATION
EREF.M        361.615              : kb           - ELEVATION OF DEPTH REFERENCE
DATM.M        360.243              : datum        - DATUM ELEVATION
TDD .M        138.379              : tdd          - TOTAL DEPTH DRILLER
RUN .         ONE                  : Run          - RUN NUMBER
ENG .         BILL                 : Engineer     - RECORDING ENGINEER
WIT .         JIM                  : Witness      - WITNESSED BY
MUD .         GEL                  : Mud_type     - MUD TYPE
MATR.         SANDSTONE            : Logunit      - NEUTRON MATRIX
TMAX.F        52                   : BHT          - MAXIMUM RECORDED TEMPERATURE
BHTD.F        454                  : BHTDEP       - MAXIMUM RECORDED TEMPERATURE
RMT .F        52                   : MDTP         - TEMPERATURE OF MUD
MUDD.LB/G     9.16666              : MWT          - MUD DENSITY
NEUT.         1                    : NEUTRON      - NEUTRON TYPE
RESI.         0                    : RESIST       - RESISTIVITY TYPE
RM  .OHMM     5.68                 : RM           - RESISTIVITY OF MUD
RMC .OHMM     5.68                 : RMC          - RESISTIVITY OF MUD CAKE
RMF .OHMM     5.68                 : RMF          - RESISTIVITY OF MUD FILTRATE
SUFT.F        39.2                 : SUFT         - SURFACE TEMPERATURE
~A  DEPTH       GR      CAL     PHID     RESD
   50.000   49.310    8.023    0.299  100.853
   50.820   52.714    7.906    0.319   91.903
   51.640   56.912    7.690    0.309   95.424
   52.461   61.114    7.831    0.308  110.804
   53.281   64.121    7.992    0.271  100.038
   54.101   62.158    7.776    0.282   83.051
   54.921   59.002    7.540    0.308   81.542
   55.742   55.648    7.781    0.322   96.470
   56.562   55.076    7.963    0.295  100.170
   57.382   62.058    7.747    0.305  100.201
   58.202   62.086    7.709    0.327  101.167
   59.022   60.319    7.792    0.347   99.329
   59.843   58.160    7.774    0.357   91.369
   60.663   57.386    7.578    0.367   86.430
   61.483   61.191    7.560    0.366   85.655
   62.303   80.102    7.920    0.356   86.484
   63.123   89.869    8.142    0.351   84.913
   63.944   90.291    8.423    0.359   82.594
   64.764   77.198    8.604    0.422   81.094
   65.584   51.178    8.786    0.409   96.838
   66.404   56.768    8.788    0.361   84.230
   67.224   70.312    8.751    0.361   73.263
   68.045   75.110    8.674    0.375   65.531
   68.865   70.166    8.538    0.404   73.995
   69.685   72.178    8.440    0.408   77.552
   70.505   80.753    8.364    0.365   74.041
   71.326   84.753    8.346    0.340   69.389
   72.146   73.842    8.448    0.291   79.088
   72.966   71.879    8.470    0.226   82.117
   73.786   74.494    8.334    0.237   74.833
   74.606   70.339    8.217    0.267   68.831
   75.427   65.394    8.120    0.270   69.499
   76.247   64.230    9.216    0.276   58.236
   77.067   63.456    9.874    0.320   41.263
   77.887   63.882   10.294    0.367   14.945
   78.707   63.108   10.873    0.427   11.303
   79.528   69.695   11.294    0.486    8.084
   80.348   73.500   11.535    0.523    9.743
   81.168   73.124   11.339    0.529    9.390
   81.988   71.161   10.864    0.534    8.478
   82.808   68.403   10.787    0.510    9.052
   83.629   66.245   10.770    0.519   10.126
   84.449   64.080   10.732    0.513   12.092
   85.269   63.710   10.715    0.485   15.413
   86.089   66.319   10.697    0.527   16.305
   86.909   70.915   10.621    0.553   15.568
   87.730   71.741   10.544    0.487   15.865
   88.550   70.371   10.427    0.511   16.473
   89.370   68.803   10.310    0.508   15.875
   90.190   67.638   10.173    0.445   14.877
   91.010   68.657   10.037    0.438   16.956
   91.831   67.290    9.880    0.445   21.815
   92.651   65.722    9.724    0.454   21.619
   93.471   66.942    9.487    0.486   21.226
   94.291   67.563    9.232    0.489   19.707
   95.112   65.802    9.035    0.464   17.465
   95.932   69.203    8.899    0.456   14.635
   96.752   75.194    8.980    0.462    9.715
   97.572   74.026    9.102    0.468    9.993
   98.392   72.464    9.006    0.474   11.604
   99.213   71.889    8.908    0.432   10.977
  100.033   71.516    8.792    0.428   10.383
  100.853   70.351    8.734    0.418    9.913
  101.673   69.379    8.658    0.421    9.465
  102.493   70.000    8.601    0.429    9.557
  103.314   73.010    8.543    0.436   10.110
  104.134   72.441    8.486    0.448   10.895
  104.954   74.649    8.429    0.424    9.655
  105.774   75.273    8.372    0.423    8.477
  106.594   72.711    8.357    0.412   16.131
  107.415   68.164    8.338    0.403   17.064
  108.235   67.990    8.338    0.409   14.166
  109.055   71.394    8.284    0.408   10.322
  109.875   74.205    8.266    0.416   11.021
  110.696   68.661    8.266    0.419   18.581
  111.516   66.102    8.232    0.394   19.113
  112.336   74.279    8.194    0.401   14.322
  113.156   71.325    8.156    0.414   10.632
  113.976   67.769    8.139    0.404   12.231
  114.797   65.409    8.139    0.412   11.569
  115.617   63.843    8.125    0.417   12.238
  116.437   68.241    8.106    0.420   13.314
  117.257   69.458    8.089    0.424   16.349
  118.077   67.101    8.071    0.425   14.221
  118.898   69.312    7.975    0.435   11.697
  119.718   70.728    7.878    0.407    9.801
  120.538   67.967    7.781    0.383    8.767
  121.358   62.824    7.644    0.331    9.448
  122.178   57.482    7.507    0.287   31.452
  122.999   50.944    7.410    0.213   71.450
  123.819   58.525    7.413    0.239   24.018
  124.639   68.293    7.496    0.295   14.524
  125.459   69.311    7.598    0.409   17.835
  126.280   66.556    7.679    0.441   16.103
  127.100   65.385    7.762    0.398   16.721
  127.920   64.618    7.824    0.381   21.511
  128.740   63.646    7.824    0.388   22.128
  129.560   64.469    7.869    0.405   19.792
  130.381   66.084    7.931    0.405   14.421
  131.201   67.705    7.931    0.415    8.803
  132.021   66.730    7.976    0.413   12.089
  132.841   69.338    8.037    0.424   11.329
  133.661   75.727    8.042    0.434    9.232
  134.482   75.751    8.082    0.440    9.234
  135.302   72.596    8.105    0.440    8.416
  136.122   74.012    8.127    0.447    7.527
  136.942   76.823    8.127    0.443    6.989
  137.762   79.236    8.152    0.429    7.603
  138.583   82.043    8.155    0.427    9.691
  139.403   77.294    8.159    0.435   10.347
  140.223   73.145    8.160    0.414   10.447
  141.043   72.378    8.162    0.426    9.087
  141.864   71.008    8.146    0.432    9.978
  142.684   70.238    8.147    0.406   13.201
  143.504   69.868    8.130    0.404   13.579
  144.324   72.278    8.112    0.412   14.232
  145.144   79.462    8.112    0.421   15.482
  145.965   81.275    8.098    0.440   12.973
  146.785   78.912    8.080    0.412   11.933
  147.605   75.759    8.062    0.397   11.183
  148.425   79.756    8.062    0.403    7.634
  149.245   86.542    8.068    0.451    5.774
  150.066   81.796    8.068    0.478    4.749
  150.886   83.415    8.053    0.463    4.577
  151.706   82.840    8.053    0.486    4.411
  152.526   79.088    8.059    0.481    4.172
  153.346   80.305    8.080    0.483    3.766
  154.167   84.507    8.080    0.487    3.465
  154.987   83.138    8.106    0.489    3.339
  155.807   86.942    8.147    0.486    3.309
  156.627   84.383    8.190    0.489    3.634
  157.448   84.010    8.232    0.502    3.634
  158.268   81.848    8.274    0.450    4.066
  159.088   77.699    8.299    0.449    5.584
  159.908   79.712    8.339    0.446    6.364
  160.728   84.311    8.339    0.461    7.053
  161.549   86.721    8.384    0.463    7.055
  162.369   82.370    8.427    0.449    7.326
  163.189   76.630    8.429    0.413    7.606
  164.009   78.046    8.431    0.400    9.168
  164.829   77.478    8.434    0.388    8.754
  165.650   82.074    8.416    0.387    8.357
  166.470   83.292    8.379    0.395    7.760
  167.290   85.503    8.342    0.362    8.441
  168.110   89.307    8.264    0.353    9.621
  168.930   88.341    8.187    0.367   10.369
  169.751   88.164    8.091    0.348   10.469
  170.571   87.195    7.974    0.361   10.770
  171.391   84.835    7.877    0.357   11.606
  172.211   79.490    7.800    0.350   10.577
  173.031   67.787    7.742    0.319   10.289
  173.852   60.653    7.706    0.256   19.762
  174.672   57.699    7.708    0.173   67.653
  175.492   59.911    7.731    0.206   37.620
  176.312   63.314    7.733    0.272   14.142
  177.133   67.314    7.733    0.322    8.632
  177.953   69.923    7.758    0.371    8.090
  178.773   71.541    7.800    0.404    8.245
  179.593   70.771    7.800    0.404    8.402
  180.413   69.606    7.825    0.381    8.484
  181.234   69.237    7.888    0.383    8.809
  182.054   69.237    7.888    0.377    8.812
  182.874   70.488    7.913    0.392    8.733
  183.694   72.090    7.974    0.402    8.033
  184.514   76.687    8.016    0.407    7.458
  185.335   80.687    8.016    0.399    7.530
  186.155   83.302    8.082    0.401    7.393
  186.975   83.125    8.124    0.385    7.822
  187.795   80.764    8.124    0.368    7.329
  188.615   84.969    8.149    0.361    7.539
  189.436   86.777    8.191    0.347    9.087
  190.256   84.218    8.191    0.352   11.159
  191.076   86.034    8.196    0.362    9.797
  191.896   87.450    8.196    0.372    9.012
