~VERSION INFORMATION
 VERS.                 2.0:   CWLS LOG ASCII STANDARD -VERSION 2.0
 WRAP.                  NO:   ONE LINE PER DEPTH STEP
~WELL INFORMATION BLOCK
#MNEM.UNIT           DATA                    DESCRIPTION OF MNEMONIC
#---------    -------------------            -------------------------------
# Generated from Intellog Unique Number	CX_WELLS/WELL/3897
WELL.         PEX POEJ MCMURRAY              : Well_name    - WELL
LOC .         AA/10-08-088-16W4/0            : Location     - LOCATION
UWI .         AA/10-08-088-16W400            : Uwi          - UNIQUE WELL ID
ENTR.         TIM                            : Entered      - ENTERED BY
SRVC.         SCHLUMBERGER                   : Scn          - SERVICE COMPANY
STRT.M        75                             : top_depth    - START DEPTH
STOP.M        270                            : bot_depth    - STOP DEPTH
STEP.M        0.25                           : increment    - STEP LENGTH
 NULL. -999.2500:NULL Value
~CURVE INFORMATION BLOCK
#MNEM UNIT       ERCB CURVE CODE    CURVE DESCRIPTION
#-----------   ------------------   ----------------------------------
DEPT.M        00 001 00 00         : DEPTH        - DEPTH
GR  .API      00 310 00 00         : GR           - GAMMA RAY
NPHI.V/V      00 330 00 00         : PHIN         - NEUTRON POROSITY (SANDSTONE)
DPHI.V/V      00 890 00 00         : PHID         - DENSITY POROSITY (SANDSTONE)
ILD .OHMM     00 120 00 00         : RESD         - DEEP RESISTIVITY (DIL)
~PARAMETER INFORMATION
#MNEM.UNIT           DATA             DESCRIPTION OF MNEMONIC
#---------         -----------     ------------------------------
GL  .M        539                  : gl           - GROUND LEVEL ELEVATION
EREF.M        542.8                : kb           - ELEVATION OF DEPTH REFERENCE
DATM.M        542.8                : datum        - DATUM ELEVATION
TDD .M        279                  : tdd          - TOTAL DEPTH DRILLER
RUN .         ONE                  : Run          - RUN NUMBER
ENG .         BILL                 : Engineer     - RECORDING ENGINEER
WIT .         JIM                  : Witness      - WITNESSED BY
MUD .         GEL                  : Mud_type     - MUD TYPE
MATR.         SANDSTONE            : Logunit      - NEUTRON MATRIX
TMAX.C        13.9                 : BHT          - MAXIMUM RECORDED TEMPERATURE
BHTD.M        278                  : BHTDEP       - MAXIMUM RECORDED TEMPERATURE
MATR.         1                    : LOGUNIT      - NEUTRON MATRIX
RMT .C        9                    : MDTP         - TEMPERATURE OF MUD
NEUT.         1                    : NEUTRON      - NEUTRON TYPE
RESI.         6.98                 : RESIST       - RESISTIVITY TYPE
RMC .OHMM     8.86                 : RMC          - RESISTIVITY OF MUD CAKE
RMF .OHMM     7.09                 : RMF          - RESISTIVITY OF MUD FILTRATE
SUFT.C        4                    : SUFT         - SURFACE TEMPERATURE
~A  DEPTH       GR     PHIN     PHID     RESD
# ...
  162.000   89.731    0.569    0.236    7.480
  162.250   87.379    0.547    0.237    7.914
  162.500   85.624    0.526    0.239    8.217
  162.750   83.884    0.507    0.241    8.382
  163.000   85.734    0.481    0.240    8.238
  163.250   90.591    0.485    0.235    7.805
  163.500   94.834    0.503    0.201    7.527
  163.750   99.078    0.521    0.172    7.131
  164.000  102.724    0.512    0.170    6.755
  164.250  106.981    0.518    0.196    6.400
  164.500  104.044    0.526    0.213    6.287
  164.750  101.121    0.537    0.219    6.178
  165.000   99.952    0.555    0.212    6.186
  165.250   98.810    0.566    0.203    6.543
  165.500   97.083    0.547    0.215    7.591
  165.750   95.357    0.499    0.233    8.801
  166.000   93.617    0.480    0.244   11.191
  166.250   91.890    0.480    0.239   12.982
  166.500   90.136    0.491    0.237   13.736
  166.750   88.981    0.486    0.237   13.746
  167.000   86.044    0.463    0.244   13.763
  167.250   84.303    0.459    0.248   14.037
  167.500   82.577    0.456    0.242   14.304
  167.750   82.020    0.461    0.231   15.131
  168.000   82.075    0.454    0.204   15.714
  168.250   82.144    0.438    0.197   16.030
  168.500   82.797    0.423    0.178   15.749
  168.750   83.464    0.452    0.211   15.195
  169.000   84.104    0.506    0.232   14.661
  169.250   84.771    0.515    0.242   14.408
  169.500   84.826    0.528    0.239   13.908
  169.750   84.282    0.454    0.241   14.177
  170.000   83.739    0.455    0.247   14.997
  170.250   82.597    0.461    0.248   15.571
  170.500   81.442    0.447    0.249   16.471
  170.750   80.300    0.431    0.240   17.105
  171.000   80.953    0.422    0.238   16.814
  171.250   83.416    0.427    0.266   15.641
  171.500   84.654    0.433    0.240   14.023
  171.750   87.742    0.438    0.226   13.280
  172.000   88.980    0.451    0.230   12.127
  172.250   90.232    0.451    0.234   11.698
  172.500   91.470    0.453    0.225   11.284
  172.750   92.722    0.457    0.218   10.890
  173.000   93.389    0.454    0.212   10.898
  173.250   93.471    0.447    0.206   10.911
  173.500   92.316    0.438    0.197   10.919
  173.750   91.160    0.436    0.195   10.936
  174.000   87.666    0.437    0.194   11.145
  174.250   87.081    0.437    0.198   11.161
  174.500   83.560    0.439    0.205   11.380
  174.750   81.207    0.445    0.219   11.388
  175.000   77.087    0.448    0.239   11.195
  175.250   74.136    0.447    0.265   11.206
  175.500   70.016    0.440    0.281   11.217
  175.750   73.050    0.435    0.264   11.026
  176.000   75.512    0.433    0.236   11.032
  176.250   76.165    0.435    0.216   11.043
  176.500   76.234    0.437    0.202   11.262
  176.750   75.065    0.433    0.231   11.693
  177.000   73.923    0.426    0.259   12.605
  177.250   73.393    0.422    0.275   13.094
  177.500   74.061    0.418    0.291   12.864
  177.750   75.299    0.418    0.299   12.639
  178.000   77.149    0.421    0.299   11.972
  178.250   78.414    0.428    0.290   11.139
  178.500   79.054    0.436    0.282   10.745
  178.750   79.109    0.448    0.267   10.364
  179.000   80.375    0.455    0.213    9.643
  179.250   81.042    0.457    0.195    9.474
  179.500   80.485    0.457    0.222    9.313
  179.750   80.567    0.457    0.231    8.988
  180.000   81.193    0.456    0.224    8.992
  180.250   82.486    0.457    0.226    8.837
  180.500   83.126    0.464    0.240    8.846
  180.750   83.765    0.472    0.239    8.693
  181.000   83.807    0.484    0.224    8.702
  181.250   83.862    0.498    0.218    8.873
  181.500   85.141    0.517    0.218    8.881
  181.750   85.794    0.432    0.228    9.058
  182.000   86.448    0.437    0.238    9.233
  182.250   84.708    0.450    0.227    9.591
  182.500   81.757    0.416    0.221   10.145
  182.750   76.426    0.362    0.217   11.766
  183.000   71.694    0.315    0.031   16.403
  183.250   67.560    0.251    0.034   19.377
  183.500   69.410    0.259    0.069   19.052
  183.750   76.646    0.269    0.088   14.200
  184.000   84.494    0.313    0.137   12.496
  184.250   91.730    0.371    0.156    8.982
  184.500   98.368    0.414    0.202    7.618
  184.750  105.032    0.460    0.210    6.115
  185.000  109.276    0.507    0.225    4.819
  185.250  111.113    0.562    0.246    4.736
  185.500  111.766    0.564    0.240    5.595
  185.750  110.040    0.534    0.224    6.491
  186.000  107.687    0.492    0.209    7.122
  186.250  100.561    0.451    0.194    7.816
  186.500   95.843    0.439    0.190    8.737
  186.750   95.313    0.436    0.196    9.414
  187.000   95.355    0.436    0.207   10.334
  187.250   95.396    0.438    0.213   10.937
  187.500   94.880    0.442    0.184   11.148
  187.750   92.555    0.443    0.170   11.157
  188.000   91.386    0.438    0.144   11.171
  188.250   90.258    0.439    0.141   11.182
  188.500   93.903    0.469    0.165   10.986
  188.750   97.549    0.476    0.175   10.797
  189.000  101.194    0.498    0.193   10.810
  189.250  104.241    0.519    0.204   10.821
  189.500  100.719    0.527    0.200   10.834
  189.750   97.782    0.510    0.191   10.842
  190.000   96.056    0.466    0.184   11.055
  190.250   95.485    0.438    0.179   11.700
  190.500   95.540    0.409    0.185   12.144
  190.750   95.595    0.411    0.211   12.615
  191.000   95.052    0.416    0.231   12.863
  191.250   93.910    0.427    0.239   13.114
  191.500   92.183    0.433    0.248   13.375
  191.750   89.260    0.440    0.259   13.388
  192.000   88.689    0.448    0.257   13.408
  192.250   88.744    0.437    0.236   13.415
  192.500   88.813    0.424    0.227   13.431
  192.750   88.256    0.423    0.216   13.441
  193.000   87.712    0.425    0.206   13.451
  193.250   85.401    0.424    0.196   13.226
  193.500   83.647    0.430    0.205   13.236
  193.750   80.737    0.449    0.217   13.246
  194.000   79.568    0.463    0.192   13.266
  194.250   80.222    0.451    0.240   13.040
  194.500   83.269    0.447    0.281   13.046
  194.750   86.914    0.448    0.271   13.063
  195.000   89.975    0.451    0.242   13.076
  195.250   91.825    0.458    0.237   13.085
  195.500   92.492    0.469    0.233   13.849
  195.750   91.350    0.458    0.236   14.379
  196.000   89.012    0.429    0.238   15.489
  196.250   86.061    0.410    0.232   19.340
  196.500   81.329    0.315    0.191   25.514
  196.750   76.597    0.265    0.032   31.269
  197.000   71.850    0.221    0.021   36.274
  197.250   67.132    0.230    0.029   23.786
  197.500   73.769    0.282    0.064   22.525
  197.750   81.604    0.316    0.093   16.190
  198.000   85.249    0.384    0.121   15.332
  198.250   91.900    0.409    0.141   14.258
  198.500   95.560    0.433    0.156   12.547
  198.750   95.601    0.448    0.168   12.106
  199.000   95.670    0.468    0.187   14.841
  199.250   95.112    0.489    0.188   17.857
  199.500   93.386    0.510    0.185   18.216
  199.750   89.837    0.525    0.183   17.892
  200.000   85.703    0.523    0.172   16.953
  200.250   83.963    0.298    0.078   16.054
  200.500   91.811    0.282    0.050   14.665
  200.750   96.055    0.400    0.082   14.145
  201.000   96.123    0.422    0.110   13.644
  201.250   95.580    0.448    0.154   12.931
  201.500   96.846    0.431    0.180   12.252
  201.750   97.472    0.426    0.172   12.034
  202.000   96.942    0.450    0.178   11.614
  202.250   97.595    0.482    0.185   11.203
  202.500   98.262    0.525    0.200   11.009
  202.750   97.719    0.539    0.213   10.627
  203.000   94.768    0.550    0.199   10.444
  203.250   90.648    0.544    0.195   10.259
  203.500   93.110    0.529    0.211   10.269
  203.750   94.349    0.499    0.214   10.094
  204.000   96.811    0.456    0.208    9.920
  204.250   97.437    0.445    0.206    9.932
  204.500   96.907    0.454    0.208    9.942
  204.750   95.167    0.483    0.209   10.134
  205.000   92.842    0.493    0.209   10.145
  205.250   91.102    0.500    0.211   10.346
