~VERSION INFORMATION
 VERS.                 2.0:   CWLS LOG ASCII STANDARD -VERSION 2.0
 WRAP.                  NO:   ONE LINE PER DEPTH STEP
~WELL INFORMATION BLOCK
#MNEM.UNIT           DATA                    DESCRIPTION OF MNEMONIC
#---------    -------------------            -------------------------------
# Generated from Intellog Unique Number	CN_91_93/WELL/3916
WELL.         13-02-092-08W4                 : Well_name    - WELL
LOC .         AA/13-02-092-08W4/0            : Location     - LOCATION
UWI .         AA/13-02-092-08W400            : Uwi          - UNIQUE WELL ID
ENTR.         JOETTE                         : Entered      - ENTERED BY
SRVC.         SCHLUMBERGER                   : Scn          - SERVICE COMPANY
DATE.         01/15/92                       : Date         - LOG DATE
STRT.F        50                             : top_depth    - START DEPTH
STOP.F        650.394                        : bot_depth    - STOP DEPTH
STEP.F        0.8202                         : increment    - STEP LENGTH
 NULL. -999.2500:NULL Value
~CURVE INFORMATION BLOCK
#MNEM UNIT       ERCB CURVE CODE    CURVE DESCRIPTION
#-----------   ------------------   ----------------------------------
DEPT.F        00 001 00 00         : DEPTH        - DEPTH
GR  .API      00 310 00 00         : GR           - GAMMA RAY
CALI.IN       00 280 01 00         : CAL          - CALIPER
NPHI.V/V      00 330 00 00         : PHIN         - NEUTRON POROSITY (SANDSTONE)
ILD .OHMM     00 120 00 00         : RESD         - DEEP RESISTIVITY (DIL)
~PARAMETER INFORMATION
#MNEM.UNIT           DATA             DESCRIPTION OF MNEMONIC
#---------         -----------     ------------------------------
GL  .M        457.505              : gl           - GROUND LEVEL ELEVATION
EREF.M        458.724              : kb           - ELEVATION OF DEPTH REFERENCE
DATM.M        458.724              : datum        - DATUM ELEVATION
TDD .M        202.082              : tdd          - TOTAL DEPTH DRILLER
RUN .         ONE                  : Run          - RUN NUMBER
ENG .         BILL                 : Engineer     - RECORDING ENGINEER
WIT .         JIM                  : Witness      - WITNESSED BY
MUD .         GEL                  : Mud_type     - MUD TYPE
MATR.         SANDSTONE            : Logunit      - NEUTRON MATRIX
TMAX.F        49                   : BHT          - MAXIMUM RECORDED TEMPERATURE
BHTD.F        663                  : BHTDEP       - MAXIMUM RECORDED TEMPERATURE
RMT .F        49                   : MDTP         - TEMPERATURE OF MUD
MUDD.LB/G     9.6                  : MWT          - MUD DENSITY
NEUT.         1                    : NEUTRON      - NEUTRON TYPE
RESI.         0                    : RESIST       - RESISTIVITY TYPE
RM  .OHMM     2.3                  : RM           - RESISTIVITY OF MUD
RMC .OHMM     1.7                  : RMC          - RESISTIVITY OF MUD CAKE
RMF .OHMM     1.7                  : RMF          - RESISTIVITY OF MUD FILTRATE
SUFT.F        39.2                 : SUFT         - SURFACE TEMPERATURE
~A  DEPTH       GR      CAL     PHIN     RESD
# ...
  335.433   73.054    7.191    0.430    8.786
  336.253   73.655    7.150    0.422    8.490
  337.073   73.645    7.068    0.410    7.908
  337.894   73.633    7.027    0.388    8.076
  338.714   73.014    6.945    0.364    9.556
  339.534   69.351    6.945    0.322   10.327
  340.354   58.382    6.903    0.290   11.138
  341.175   42.543    6.862    0.249   15.004
  341.995   37.657    6.861    0.140   45.477
  342.815   41.300    6.860    0.120   82.252
  343.635   47.989    6.860    0.136  196.227
  344.455   54.068    6.859    0.147  189.624
  345.276   60.146    6.858    0.223   90.952
  346.096   63.788    6.858    0.303   46.959
  346.916   64.996    6.857    0.324   12.258
  347.736   64.375    6.816    0.358    8.656
  348.556   63.147    6.815    0.416    9.872
  349.377   62.528    6.815    0.427    9.717
  350.197   63.127    6.854    0.425    9.062
  351.017   64.329    6.813    0.422    9.956
  351.837   64.322    6.812    0.415   10.945
  352.657   65.527    6.812    0.404   10.773
  353.478   66.123    6.811    0.399   10.234
  354.298   67.333    6.851    0.417   10.060
  355.118   69.150    6.850    0.416    9.563
  355.938   72.184    6.849    0.420    9.401
  356.759   75.218    6.889    0.422    8.767
  357.579   78.858    6.929    0.428    8.618
  358.399   81.283    6.928    0.421    8.489
  359.219   80.058    6.968    0.407    8.350
  360.039   77.001    7.008    0.393    8.074
  360.860   75.165    7.007    0.382    8.095
  361.680   72.722    7.006    0.370    9.233
  362.500   71.489    7.006    0.388   10.727
  363.320   72.699    7.005    0.420   12.702
  364.140   77.560    7.005    0.433   14.766
  364.961   77.550    7.004    0.433   13.493
  365.781   75.102    6.963    0.431    9.028
  366.601   74.485    6.921    0.436    8.094
  367.421   75.691    6.921    0.441    6.875
  368.241   78.113    6.920    0.433    5.629
  369.062   79.930    6.919    0.427    4.964
  369.882   79.313    6.919    0.429    4.621
  370.702   76.865    6.918    0.435    4.633
  371.522   76.249    6.917    0.439    6.241
  372.343   75.628    6.917    0.443    6.143
  373.163   74.395    6.916    0.439    5.218
  373.983   74.390    6.956    0.453    4.954
  374.803   74.375    6.955    0.463    5.751
  375.623   74.367    6.954    0.450    6.327
  376.444   74.966    6.953    0.438    4.721
  377.264   71.303    6.953    0.433    4.647
  378.084   70.681    6.952    0.419    5.503
  378.904   73.109    6.951    0.421    5.623
  379.724   74.926    6.951    0.424    5.531
  380.545   74.913    6.950    0.416    5.549
  381.365   74.903    6.949    0.377    5.989
  382.185   74.284    6.949    0.349    6.958
  383.005   73.660    6.948    0.328    8.392
  383.825   73.655    6.947    0.314    9.578
  384.646   71.816    6.947    0.319   10.725
  385.466   68.153    6.946    0.335   12.691
  386.286   68.143    6.945    0.375   14.485
  387.106   69.348    6.945    0.396   11.852
  387.927   71.165    6.944    0.397    8.700
  388.747   73.590    6.943    0.392    8.884
  389.567   74.189    6.942    0.381    9.061
  390.387   70.528    6.941    0.407    9.254
  391.207   63.819    6.941    0.440    8.942
  392.028   60.156    6.940    0.510    6.319
  392.848   58.319    6.939    0.535    4.462
  393.668   59.524    6.939    0.528    3.153
  394.488   61.949    6.938    0.499    2.936
  395.308   61.939    6.937    0.525    3.169
  396.129   61.318    6.937    0.530    3.360
  396.949   62.523    6.895    0.499    3.495
  397.769   63.735    6.895    0.482    3.636
  398.589   66.161    6.894    0.497    3.924
  399.409   69.803    6.893    0.416    4.478
  400.230   67.962    6.893    0.399    5.203
  401.050   66.128    6.851    0.413    6.880
  401.870   64.898    6.851    0.430    6.898
  402.690   61.846    6.850    0.429    5.444
  403.510   58.183    6.809    0.381    4.795
  404.331   58.782    6.808    0.362    5.178
  405.151   63.031    6.807    0.339    6.475
  405.971   66.674    6.807    0.320    9.564
  406.791   67.881    6.806    0.341   12.191
  407.612   69.698    6.805    0.378   11.566
  408.432   72.732    6.804    0.431    8.960
  409.252   72.113    6.804    0.458    5.361
  410.072   68.442    6.803    0.466    4.230
  410.892   67.829    6.803    0.452    4.016
  411.713   66.598    6.802    0.436    4.252
  412.533   65.979    6.801    0.437    4.592
  413.353   65.967    6.800    0.438    4.687
  414.173   66.566    6.800    0.441    4.616
  414.993   67.167    6.799    0.449    4.464
  415.814   68.374    6.798    0.451    4.473
  416.634   70.800    6.798    0.451    4.571
  417.454   74.442    6.797    0.453    4.499
  418.274   77.474    6.796    0.453    4.347
  419.094   76.244    6.795    0.449    4.359
  419.915   73.801    6.794    0.443    4.618
  420.735   71.356    6.794    0.436    5.271
  421.555   70.128    6.793    0.430    6.120
  422.375   70.118    6.793    0.425    7.523
  423.196   71.325    6.792    0.420    7.971
  424.016   71.922    6.791    0.418    7.419
  424.836   71.303    6.790    0.414    6.075
  425.656   72.510    6.790    0.410    5.874
  426.476   71.891    6.748    0.412    6.453
  427.297   68.837    6.748    0.413    7.365
  428.117   66.392    6.706    0.413    6.992
  428.937   63.941    6.665    0.407    6.389
  429.757   62.714    6.664    0.390    5.635
  430.577   62.097    6.664    0.351    6.423
  431.398   62.085    6.663    0.325    9.842
  432.218   62.077    6.622    0.302   13.258
  433.038   62.065    6.621    0.288   16.288
  433.858   58.399    6.580    0.296   16.645
  434.678   52.912    6.579    0.277   17.636
  435.499   43.770    6.538    0.271   19.021
  436.319   42.540    6.537    0.277   14.736
  437.139   43.747    6.537    0.283   14.241
  437.959   38.258    6.495    0.241   23.927
  438.780   32.769    6.495    0.198   37.347
  439.600   36.411    6.453    0.212   58.295
  440.420   41.878    6.453    0.229   41.190
  441.240   44.915    6.411    0.245   34.373
  442.060   47.337    6.410    0.256   30.858
  442.881   49.763    6.369    0.272   29.256
  443.701   55.232    6.287    0.285   26.281
  444.521   55.828    6.246    0.307   25.396
  445.341   55.818    6.205    0.314   24.094
  446.161   58.246    6.163    0.306   24.590
  446.982   58.236    6.162    0.307   27.534
  447.802   54.570    6.162    0.318   30.851
  448.622   52.734    6.161    0.330   30.387
  449.442   52.115    6.160    0.336   28.302
  450.262   56.973    6.160    0.330   27.858
  451.083   58.789    6.159    0.319   29.518
  451.903   59.388    6.158    0.307   28.506
  452.723   61.204    6.198    0.301   25.123
  453.543   64.845    6.198    0.306   32.023
  454.364   68.490    6.197    0.318   32.703
  455.184   67.257    6.197    0.328   27.273
  456.004   65.426    6.196    0.339   23.168
  456.824   61.763    6.195    0.333   23.228
  457.644   56.877    6.235    0.327   25.535
  458.465   54.432    6.234    0.321   25.618
  459.285   53.204    6.234    0.319   27.648
  460.105   51.368    6.233    0.318   29.840
  460.925   46.489    6.232    0.318   32.205
  461.745   36.736    6.231    0.322   35.426
  462.566   34.291    6.231    0.327   38.944
  463.386   34.889    6.230    0.329   46.941
  464.206   36.706    6.229    0.333   69.332
  465.026   39.740    6.229    0.339   95.129
  465.846   44.600    6.187    0.347   95.377
  466.667   51.285    6.186    0.351   81.019
  467.487   54.319    6.186    0.355   71.452
  468.307   55.526    6.185    0.356   60.656
  469.127   54.298    6.184    0.357   46.962
  469.948   46.374    6.183    0.361   26.118
  470.768   37.838    6.183    0.353   23.867
  471.588   38.436    5.979    0.338   26.254
  472.408   41.471    6.101    0.330   54.018
  473.228   46.331    6.100    0.344   75.495
  474.049   51.191    6.140    0.351   81.531
  474.869   57.878    6.139    0.361   32.507
  475.689   58.477    6.138    0.371   22.954
  476.509   40.200    6.178    0.366   28.724
  477.329   38.972    6.177    0.360   68.527
