~VERSION INFORMATION
 VERS.                 2.0:   CWLS LOG ASCII STANDARD -VERSION 2.0
 WRAP.                  NO:   ONE LINE PER DEPTH STEP
~WELL INFORMATION BLOCK
#MNEM.UNIT           DATA                    DESCRIPTION OF MNEMONIC
#---------    -------------------            -------------------------------
# Generated from Intellog Unique Number	CW_82_90/WELL/1033
WELL.         14-05-082-21W4                 : Well_name    - WELL
LOC .         AA/14-05-082-21W4/0            : Location     - LOCATION
UWI .         AA/14-05-082-21W4/0            : Uwi          - UNIQUE WELL ID
ENTR.         JAYE                           : Entered      - ENTERED BY
SRVC.         SCHLUMBERGER                   : Scn          - SERVICE COMPANY
DATE.         26 JAN 82                      : Date         - LOG DATE
STRT.M        225                            : top_depth    - START DEPTH
STOP.M        430                            : bot_depth    - STOP DEPTH
STEP.M        0.25                           : increment    - STEP LENGTH
 NULL. -999.2500:NULL Value
~CURVE INFORMATION BLOCK
#MNEM UNIT       ERCB CURVE CODE    CURVE DESCRIPTION
#-----------   ------------------   ----------------------------------
DEPT.M        00 001 00 00         : DEPTH        - DEPTH
CALI.MM       00 280 01 00         : CAL          - CALIPER
GR  .API      00 310 00 00         : GR           - GAMMA RAY
NPHI.V/V      00 330 00 00         : PHIN         - NEUTRON POROSITY (SANDSTONE)
DPHI.V/V      00 890 00 00         : PHID         - DENSITY POROSITY (SANDSTONE)
ILD .OHMM     00 120 00 00         : RESD         - DEEP RESISTIVITY (DIL)
~PARAMETER INFORMATION
#MNEM.UNIT           DATA             DESCRIPTION OF MNEMONIC
#---------         -----------     ------------------------------
GL  .M        615.3                : gl           - GROUND LEVEL ELEVATION
EREF.M        619.8                : kb           - ELEVATION OF DEPTH REFERENCE
DATM.M        615.3                : datum        - DATUM ELEVATION
TDD .M        437                  : tdd          - TOTAL DEPTH DRILLER
RUN .         ONE                  : Run          - RUN NUMBER
ENG .         KUZIO                : Engineer     - RECORDING ENGINEER
WIT .         WALKER               : Witness      - WITNESSED BY
BASE.         EDMONTON             : Branch       - HOME BASE OF LOGGING UNIT
MUD .         GEL CHEM             : Mud_type     - MUD TYPE
MATR.         SANDSTONE            : Logunit      - NEUTRON MATRIX
TMAX.C        24.4                 : BHT          - MAXIMUM RECORDED TEMPERATURE
BHTD.M        437                  : BHTDEP       - MAXIMUM RECORDED TEMPERATURE
RMT .C        14.4                 : MDTP         - TEMPERATURE OF MUD
MUDD.KG/M     1060                 : MWT          - MUD DENSITY
NEUT.         1                    : NEUTRON      - NEUTRON TYPE
RESI.         0                    : RESIST       - RESISTIVITY TYPE
RM  .OHMM     6.58                 : RM           - RESISTIVITY OF MUD
RMC .OHMM     0.25                 : RMC          - RESISTIVITY OF MUD CAKE
RMF .OHMM     5.72                 : RMF          - RESISTIVITY OF MUD FILTRATE
SUFT.C        4                    : SUFT         - SURFACE TEMPERATURE
~A  DEPTH      CAL       GR     PHIN     PHID     RESD
# ...
  261.500  161.925   78.214    0.443    0.325   17.144
  261.750  161.924   76.340    0.455    0.331   15.889
  262.000  161.192   76.653    0.426    0.323   15.427
  262.250  160.982   78.778    0.418    0.319   18.336
  262.500  160.668   74.466    0.416    0.321   17.247
  262.750  159.937   72.967    0.415    0.324   16.811
  263.000  159.518   75.405    0.416    0.322   17.397
  263.250  158.369   77.531    0.427    0.323   17.871
  263.500  158.368   76.594    0.420    0.329   18.183
  263.750  158.053   75.470    0.428    0.331   18.400
  264.000  158.365   77.283    0.437    0.331   17.145
  264.250  158.573   78.846    0.431    0.336   17.124
  264.500  158.675   79.159    0.412    0.345   18.157
  264.750  158.882   77.534    0.398    0.350   19.219
  265.000  159.403   73.723    0.412    0.344   19.515
  265.250  159.714   69.911    0.429    0.329   20.308
  265.500  160.026   73.099    0.440    0.329   21.099
  265.750  160.233   75.662    0.421    0.342   21.191
  266.000  160.127   77.100    0.412    0.348   21.199
  266.250  159.291   77.226    0.415    0.351   21.293
  266.500  157.308   77.101    0.425    0.345   21.502
  266.750  156.785   74.102    0.422    0.342   22.212
  267.000  156.158   70.102    0.416    0.347   22.515
  267.250  156.052   69.353    0.411    0.350   22.868
  267.500  155.738   71.479    0.411    0.357   23.273
  267.750  155.424   72.792    0.418    0.364   24.442
  268.000  155.005   71.792    0.419    0.365   26.654
  268.250  155.421   72.543    0.435    0.364   24.378
  268.500  156.045   72.856    0.451    0.363   21.479
  268.750  156.461   67.169    0.459    0.361   23.032
  269.000  156.877   63.232    0.459    0.369   23.044
  269.250  157.502   66.921    0.448    0.370   22.672
  269.500  158.126   71.859    0.434    0.367   22.223
  269.750  158.959   73.297    0.463    0.368   21.783
  270.000  159.583   73.360    0.474    0.367   20.956
  270.250  160.625   71.798    0.472    0.363   20.310
  270.500  161.562   65.424    0.437    0.359   19.322
  270.750  161.769   64.674    0.462    0.368   18.483
  271.000  161.455   62.800    0.488    0.374   19.020
  271.250  160.724   60.800    0.493    0.379   19.759
  271.500  160.096   63.239    0.488    0.381   19.804
  271.750  159.156   62.989    0.456    0.381   19.927
  272.000  158.008   63.677    0.437    0.384   20.202
  272.250  156.859   65.990    0.425    0.387   20.872
  272.500  156.128   67.116    0.431    0.386   20.264
  272.750  155.813   65.054    0.451    0.384   20.048
  273.000  155.603   61.805    0.461    0.387   19.835
  273.250  155.915   62.993    0.462    0.391   19.335
  273.500  156.435   65.556    0.451    0.390   18.951
  273.750  156.851   65.306    0.447    0.386   18.369
  274.000  156.432   65.245    0.458    0.379   18.105
  274.250  155.805   67.370    0.466    0.380   17.646
  274.500  155.073   64.371    0.471    0.384   17.329
  274.750  154.550   62.371    0.474    0.387   17.147
  275.000  154.340   64.184    0.439    0.383   16.932
  275.250  154.235   67.060    0.441    0.379   16.659
  275.500  154.651   66.936    0.469    0.376   16.237
  275.750  154.962   64.311    0.475    0.377   15.360
  276.000  154.960   66.874    0.452    0.375   14.394
  276.250  155.064   72.250    0.434    0.364   11.967
  276.500  155.062   75.063    0.438    0.356   10.291
  276.750  155.061   73.501    0.457    0.355   11.737
  277.000  154.955   67.314    0.453    0.357   12.993
  277.250  154.745   66.752    0.436    0.351   13.270
  277.500  154.952   69.316    0.467    0.353   13.503
  277.750  155.159   68.879    0.492    0.353   13.818
  278.000  155.262   63.817    0.479    0.351   14.086
  278.250  155.052   62.818    0.472    0.356   14.523
  278.500  154.947   65.505    0.478    0.370   14.315
  278.750  154.945   67.631    0.481    0.379   14.111
  279.000  154.944   67.882    0.487    0.353   13.857
  279.250  155.255   69.820    0.494    0.326   13.255
  279.500  155.358   71.508    0.495    0.343   13.590
  279.750  155.774   70.946    0.484    0.353   13.854
  280.000  155.772   66.822    0.467    0.364   14.018
  280.250  155.667   67.822    0.450    0.366   13.689
  280.500  155.457   70.510    0.455    0.371   13.544
  280.750  155.247   68.386    0.481    0.372   13.152
  281.000  154.933   66.949    0.507    0.372   10.752
  281.250  155.244   69.575    0.503    0.376    9.871
  281.500  155.555   69.950    0.487    0.369   12.408
  281.750  156.180   67.513    0.490    0.352   12.961
  282.000  156.804   67.202    0.501    0.345   12.873
  282.250  158.472   65.077    0.492    0.343   12.594
  282.500  158.783   64.140    0.487    0.333   12.092
  282.750  159.616   67.766    0.483    0.313   11.439
  283.000  159.719   67.266    0.476    0.276   11.532
  283.250  159.092   60.142    0.313    0.196   14.853
  283.500  158.882   58.143    0.295    0.049   18.744
  283.750  158.672   59.831    0.363    0.067   19.322
  284.000  158.149   61.706    0.456    0.314   18.553
  284.250  157.313   62.895    0.474    0.332   15.658
  284.500  156.373   63.708    0.470    0.331   13.641
  284.750  155.955   65.083    0.469    0.330   12.223
  285.000  155.640   65.584    0.467    0.333   11.433
  285.250  155.326   65.522    0.451    0.347   11.020
  285.500  154.595   66.585    0.442    0.348   10.483
  285.750  154.072   68.898    0.447    0.342   10.198
  286.000  153.758   70.336    0.456    0.330   10.015
  286.250  153.443   70.774    0.462    0.310    9.909
  286.500  153.338   74.650    0.470    0.311    9.658
  286.750  152.814   79.401    0.476    0.328    9.627
  287.000  152.709   82.464    0.459    0.326    9.615
  287.250  153.125   76.902    0.451    0.314    9.319
  287.500  154.166   72.840    0.452    0.313    9.273
  287.750  155.104   70.653    0.460    0.312    9.417
  288.000  155.311   67.529    0.422    0.305   10.801
  288.250  154.996   67.904    0.410    0.310   12.600
  288.500  154.995   66.217    0.441    0.310   13.485
  288.750  155.202   63.906    0.446    0.306   13.620
  289.000  155.305   66.656    0.451    0.298   13.374
  289.250  155.616   75.594    0.478    0.282   12.892
  289.500  156.032   87.157    0.500    0.273   12.754
  289.750  156.656   75.533    0.472    0.277   13.988
  290.000  157.072   68.534    0.446    0.305   14.394
  290.250  157.488   66.472    0.417    0.315   14.108
  290.500  157.383   66.222    0.413    0.318   13.750
  290.750  156.860   63.098    0.447    0.324   13.554
  291.000  156.650   60.974    0.452    0.335   14.453
  291.250  156.022   62.037    0.453    0.345   14.546
  291.500  156.021   60.037    0.471    0.341   14.550
  291.750  156.020   57.413    0.465    0.345   14.343
  292.000  156.018   57.476    0.467    0.347   14.270
  292.250  156.121   60.102    0.474    0.348   14.363
  292.500  156.641   57.977    0.465    0.356   14.476
  292.750  156.953   55.790    0.458    0.366   14.268
  293.000  157.473   56.291    0.463    0.354   14.197
  293.250  157.993   59.979    0.426    0.317   14.423
  293.500  158.826   59.792    0.321    0.210   14.703
  293.750  160.389   59.543    0.290    0.168   15.470
  294.000  161.118   59.981    0.267    0.124   18.592
  294.250  161.325   58.481    0.252    0.085   21.088
  294.500  161.011   56.607    0.264    0.090   21.417
  294.750  160.696   57.045    0.285    0.192   20.033
  295.000  159.965   57.171    0.308    0.247   18.186
  295.250  159.128   59.359    0.341    0.302   14.839
  295.500  158.711   57.922    0.371    0.353   13.778
  295.750  158.083   57.298    0.427    0.364   13.430
  296.000  157.352   58.486    0.434    0.366   12.704
  296.250  156.725   60.986    0.433    0.362   13.369
  296.500  156.306   61.987    0.436    0.358   13.427
  296.750  155.575   58.675    0.451    0.367   13.947
  297.000  156.095   57.363    0.462    0.378   14.326
  297.250  157.866   56.739    0.454    0.380   14.741
  297.500  161.098   54.990    0.434    0.377   15.514
  297.750  166.103   53.990    0.438    0.368   16.450
