~VERSION INFORMATION
 VERS.                 2.0:   CWLS LOG ASCII STANDARD -VERSION 2.0
 WRAP.                  NO:   ONE LINE PER DEPTH STEP
~WELL INFORMATION BLOCK
#MNEM.UNIT           DATA                    DESCRIPTION OF MNEMONIC
#---------    -------------------            -------------------------------
# Generated from Intellog Unique Number	CC_88_90/WELL/3240
WELL.         IMPERIAL OIL                   : Well_name    - WELL
LOC .         AA/12-36-090-13W4/0            : Location     - LOCATION
UWI .         AA/12-36-090-13W400            : Uwi          - UNIQUE WELL ID
ENTR.         JOETTE                         : Entered      - ENTERED BY
SRVC.         SCHLUMBERGER                   : Scn          - SERVICE COMPANY
DATE.         03/11/92                       : Date         - LOG DATE
STRT.M        60.96                          : top_depth    - START DEPTH
STOP.M        161.96                         : bot_depth    - STOP DEPTH
STEP.M        0.25                           : increment    - STEP LENGTH
 NULL. -999.2500:NULL Value
~CURVE INFORMATION BLOCK
#MNEM UNIT       ERCB CURVE CODE    CURVE DESCRIPTION
#-----------   ------------------   ----------------------------------
DEPT.M        00 001 00 00         : DEPTH        - DEPTH
GR  .API      00 310 00 00         : GR           - GAMMA RAY
NPHI.V/V      00 330 00 00         : PHIN         - NEUTRON POROSITY (SANDSTONE)
ILD .OHMM     00 120 00 00         : RESD         - DEEP RESISTIVITY (DIL)
~PARAMETER INFORMATION
#MNEM.UNIT           DATA             DESCRIPTION OF MNEMONIC
#---------         -----------     ------------------------------
GL  .M        499.567              : gl           - GROUND LEVEL ELEVATION
EREF.M        499.567              : kb           - ELEVATION OF DEPTH REFERENCE
DATM.M        499.567              : datum        - DATUM ELEVATION
TDD .M        213.97               : tdd          - TOTAL DEPTH DRILLER
RUN .         ONE                  : Run          - RUN NUMBER
ENG .         BILL                 : Engineer     - RECORDING ENGINEER
WIT .         JIM                  : Witness      - WITNESSED BY
MUD .         GEL                  : Mud_type     - MUD TYPE
MATR.         SANDSTONE            : Logunit      - NEUTRON MATRIX
TMAX.C        15.5556              : BHT          - MAXIMUM RECORDED TEMPERATURE
BHTD.M        213.97               : BHTDEP       - MAXIMUM RECORDED TEMPERATURE
RMT .C        4.44444              : MDTP         - TEMPERATURE OF MUD
MUDD.KG/M     1190                 : MWT          - MUD DENSITY
NEUT.         1                    : NEUTRON      - NEUTRON TYPE
RESI.         0                    : RESIST       - RESISTIVITY TYPE
RM  .OHMM     14.3                 : RM           - RESISTIVITY OF MUD
RMC .OHMM     14.3                 : RMC          - RESISTIVITY OF MUD CAKE
RMF .OHMM     14.3                 : RMF          - RESISTIVITY OF MUD FILTRATE
SUFT.C        4                    : SUFT         - SURFACE TEMPERATURE
~A  DEPTH       GR     PHIN     RESD
# ...
  115.210   84.881    0.515    7.423
  115.460   82.425    0.502    8.146
  115.710   80.585    0.488   14.810
  115.960   91.650    0.474   21.763
  116.210  115.622    0.421   26.832
  116.460  122.385    0.419   30.598
  116.710  116.857    0.437   28.713
  116.960  121.162    0.435   19.440
  117.210  121.780    0.449   20.380
  117.460  121.783    0.465   18.496
  117.710  108.880    0.462   17.046
  117.960   92.905    0.433   14.292
  118.210   83.075    0.434   13.929
  118.460  100.286    0.441   13.565
  118.710  124.257    0.446   15.592
  118.960  124.875    0.452   17.619
  119.210  116.889    0.460   17.111
  119.460  111.361    0.456   15.661
  119.710   97.229    0.450   14.429
  119.960   84.940    0.445   15.152
  120.210   64.663    0.432   15.368
  120.460   41.313    0.429   14.715
  120.710   43.774    0.441   16.452
  120.960   40.705    0.452   17.683
  121.210   33.333    0.453   18.913
  121.460   35.179    0.445   16.811
  121.710   59.151    0.425   15.361
  121.960   99.101    0.402   16.519
  122.210  105.250    0.416   16.735
  122.460  108.326    0.430   17.820
  122.710   84.361    0.454   14.921
  122.960   68.385    0.466   13.979
  123.210   48.722    0.476   13.253
  123.460   46.267    0.485   12.093
  123.710   60.406    0.473   10.932
  123.960   65.940    0.451   11.149
  124.210   57.953    0.417   13.031
  124.460   45.050    0.413   14.696
  124.710   45.668    0.390   18.679
  124.960   51.203    0.435   28.168
  125.210   58.581    0.449   23.023
  125.460   58.584    0.469   12.301
  125.710   54.900    0.478   10.561
  125.960   57.975    0.469   11.646
  126.210   63.510    0.458   13.601
  126.460   61.669    0.449   14.687
  126.710   61.673    0.391   17.438
  126.960   55.530    0.384   20.914
  127.210   62.908    0.406   25.042
  127.460   75.817    0.459   27.431
  127.710   83.809    0.488   10.334
  127.960   83.198    0.487   10.695
  128.210   78.284    0.477   11.853
  128.460   67.840    0.463   12.504
  128.710   57.396    0.452   11.199
  128.960   47.566    0.448   12.357
  129.210   35.892    0.465   14.963
  129.460   32.823    0.465   13.658
  129.710   35.284    0.451   11.122
  129.960   38.360    0.427   12.497
  130.210   37.134    0.380   20.681
  130.460   40.210    0.397   27.489
  130.710   46.359    0.423   29.010
  130.960   38.987    0.448   30.819
  131.210   43.907    0.487   28.935
  131.460   48.826    0.506   11.114
  131.710   48.830    0.507    9.012
  131.960   46.989    0.500    6.765
  132.210   46.377    0.493    6.908
  132.460   46.381    0.497    7.197
  132.710   42.697    0.489    7.341
  132.960   48.231    0.476    9.947
  133.210   48.849    0.454   11.105
  133.460   36.560    0.437   12.697
  133.710   29.189    0.448   12.335
  133.960   25.505    0.447   11.681
  134.210   21.820    0.451   11.680
  134.460   31.042    0.439   14.576
  134.710   48.867    0.415   18.052
  134.960   44.568    0.438   21.094
  135.210   42.728    0.432   15.949
  135.460   45.190    0.411   17.035
  135.710   47.651    0.395   21.525
  135.960   71.622    0.378   25.798
  136.210   87.604    0.387   29.273
  136.460   92.523    0.399   35.357
  136.710   94.370    0.405   34.052
  136.960   77.780    0.398   16.883
  137.210   71.638    0.390   15.433
  137.460   86.391    0.382   15.142
  137.710   96.841    0.375   19.125
  137.960   96.230    0.379   20.935
  138.210   95.618    0.385   22.310
  138.460   82.716    0.393   20.280
  138.710   72.272    0.399   22.235
  138.960   64.285    0.392   23.683
  139.210   64.903    0.371   21.146
  139.460   82.728    0.334   22.666
  139.710   82.117    0.330   31.140
  139.960   75.360    0.360   34.254
  140.210   75.363    0.396   25.271
  140.460   77.210    0.393   23.313
  140.710   71.068    0.400   23.674
  140.960   69.227    0.397   24.687
  141.210   66.772    0.406   23.962
  141.460   63.702    0.427   20.918
  141.710   46.498    0.443   12.659
  141.960   45.886    0.455   15.121
  142.210   55.722    0.391   17.148
  142.460   73.548    0.345   19.899
  142.710   83.999    0.277   22.723
  142.960   79.700    0.265   28.880
  143.210   66.797    0.233   31.559
  143.460   48.978    0.320   30.181
  143.710   71.105    0.377   19.531
  143.960   95.691    0.420   20.110
  144.210  123.964    0.427   21.775
  144.460  115.978    0.421   22.715
  144.710  115.981    0.410   25.177
  144.960  124.588    0.367   24.162
  145.210  120.904    0.338   22.639
  145.460   92.637    0.370   22.783
  145.710   76.047    0.389   20.753
  145.960   47.780    0.403   17.492
  146.210   63.762    0.392   15.101
  146.460  106.785    0.402   18.432
  146.710  104.330    0.410   20.459
  146.960  106.176    0.382   21.327
  147.210   93.888    0.419   17.124
  147.460   61.934    0.448   13.936
  147.710   44.115    0.456   12.703
  147.960   65.014    0.430   13.209
  148.210   74.235    0.429   14.657
  148.460   83.457    0.447   14.728
  148.710  113.573    0.443   15.379
  148.960   96.984    0.437   13.349
  149.210   55.196    0.440   12.116
  149.460   39.221    0.427   11.753
  149.710   52.744    0.432   11.245
  149.960   66.882    0.452   10.954
  150.210   77.948    0.451   11.025
  150.460   87.169    0.424   11.676
  150.710   83.485    0.406   13.414
  150.960   75.499    0.379   14.861
  151.210   73.044    0.372   14.715
  151.460   77.349    0.383   19.422
  151.710   74.894    0.416   31.808
  151.960   76.126    0.415   25.070
  152.210   67.525    0.452   12.392
  152.460   63.841    0.458   13.478
  152.710   65.688    0.451   17.823
  152.960   59.545    0.423   16.083
  153.210   54.632    0.416   15.937
  153.460   60.781    0.434   15.211
  153.710   63.242    0.407   14.558
  153.960   58.944    0.389   15.209
  154.210   62.020    0.382   15.208
  154.460   70.627    0.398   17.887
  154.710   73.703    0.406   41.212
  154.960   74.935    0.437   40.848
  155.210   74.324    0.443   22.447
  155.460   71.869    0.431   13.319
  155.710   63.883    0.422   12.666
  155.960   63.885    0.444   13.389
  156.210   66.347    0.447   13.531
  156.460   67.579    0.440   13.531
  156.710   76.187    0.442   13.747
  156.960   71.887    0.453   14.036
  157.210   69.432    0.463   13.383
  157.460   66.362    0.469   10.122
  157.710   66.980    0.475    9.758
  157.960   68.213    0.476    8.888
  158.210   65.757    0.457    8.452
  158.460   67.605    0.439    9.972
  158.710   76.212    0.439   15.694
  158.960   74.371    0.446   18.300
  159.210   70.072    0.455   13.663
  159.460   72.534    0.467   10.185
  159.710   71.308    0.474   10.401
  159.960   67.623    0.475    9.748
  160.210   65.168    0.477    9.892
  160.460   74.390    0.480   10.108
  160.710   71.935    0.478   10.541
  160.960   59.032    0.474   10.830
  161.210   39.369    0.436   16.262
  161.460   20.320    0.458   11.842
  161.710   21.553    0.463   11.260
  161.960   25.243    0.470   10.898
