~VERSION INFORMATION
 VERS.                 2.0:   CWLS LOG ASCII STANDARD -VERSION 2.0
 WRAP.                  NO:   ONE LINE PER DEPTH STEP
~WELL INFORMATION BLOCK
#MNEM.UNIT           DATA                    DESCRIPTION OF MNEMONIC
#---------    -------------------            -------------------------------
# Generated from Intellog Unique Number	CC_80_83/WELL/2381
COMP.         PETRO CANADA                   : COMPANY
WELL.         PEX PCEL CHARD OV              : WELL NAME
LOC .         10-29-080-07W4                 : Location     - LOCATION
UWI .         AA/10-29-080-07W400            : Uwi          - UNIQUE WELL ID
ENTR.         DW                             : Entered      - ENTERED BY
SRVC.         SCHLUMBERGER                   : Scn          - SERVICE COMPANY
STRT.M        175                            : top_depth    - START DEPTH
STOP.M        420.094                        : bot_depth    - STOP DEPTH
STEP.M        0.3                            : increment    - STEP LENGTH
 NULL. -999.2500:NULL Value
~CURVE INFORMATION BLOCK
#MNEM UNIT       ERCB CURVE CODE    CURVE DESCRIPTION
#-----------   ------------------   ----------------------------------
DEPT.M        00 001 00 00         : DEPTH        - DEPTH
DPHI.V/V      00 890 00 00         : PHID         - DENSITY POROSITY (LIMESTONE)
NPHI.V/V      00 330 00 00         : PHIN         - NEUTRON POROSITY (LIMESTONE)
GR  .API      00 310 00 00         : GR           - GAMMA RAY
ILD .OHMM     00 120 00 00         : RESD         - DEEP RESISTIVITY (DIL)
~PARAMETER INFORMATION
#MNEM.UNIT           DATA             DESCRIPTION OF MNEMONIC
#---------         -----------     ------------------------------
GL  .M        625.45               : gl           - GROUND LEVEL ELEVATION
EREF.M        629.1                : kb           - ELEVATION OF DEPTH REFERENCE
DATM.M        629.1                : datum        - DATUM ELEVATION
TDD .M        426                  : tdd          - TOTAL DEPTH DRILLER
RUN .         ONE                  : Run          - RUN NUMBER
ENG .         BILL                 : Engineer     - RECORDING ENGINEER
WIT .         JIM                  : Witness      - WITNESSED BY
MUD .         GEL                  : Mud_type     - MUD TYPE
MATR.         LIMESTONE            : Logunit      - NEUTRON MATRIX
TMAX.C        16                   : BHT          - MAXIMUM RECORDED TEMPERATURE
BHTD.M        426                  : BHTDEP       - MAXIMUM RECORDED TEMPERATURE
MATR.         1                    : LOGUNIT      - NEUTRON MATRIX
RMT .C        25                   : MDTP         - TEMPERATURE OF MUD
NEUT.         1                    : NEUTRON      - NEUTRON TYPE
RESI.         0                    : RESIST       - RESISTIVITY TYPE
RMC .OHMM     0.25                 : RMC          - RESISTIVITY OF MUD CAKE
RMF .OHMM     0.25                 : RMF          - RESISTIVITY OF MUD FILTRATE
SUFT.C        4                    : SUFT         - SURFACE TEMPERATURE
~A  DEPTH     PHID     PHIN       GR     RESD
# ...
  331.598    0.282    0.381   95.397    8.298
  331.898    0.281    0.378   89.138    8.442
  332.198    0.280    0.358   91.629    9.451
  332.498    0.246    0.361   91.619   10.986
  332.798    0.119    0.348   91.608   11.837
  333.098    0.183    0.304   86.600   11.819
  333.398    0.234    0.343   85.341   11.143
  333.698    0.248    0.424  106.579    9.920
  333.998    0.247    0.408  100.944    9.180
  334.298    0.240    0.393   98.434    8.494
  334.598    0.232    0.397   93.424    7.854
  334.898    0.222    0.398   96.541    7.405
  335.198    0.202    0.444   94.654    7.398
  335.498    0.202    0.469  100.270    7.386
  335.798    0.263    0.476  102.134    7.235
  336.098    0.290    0.501  105.248    6.688
  336.398    0.283    0.493  102.115    6.308
  336.698    0.282    0.473  112.729    5.835
  336.998    0.299    0.459  119.593    5.718
  337.298    0.330    0.479  113.335    5.710
  337.598    0.279    0.478  114.574    6.268
  337.897    0.213    0.449  118.940    7.153
  338.197    0.213    0.410  126.430    8.158
  338.497    0.215    0.422  129.543    8.460
  338.797    0.226    0.434  122.036    8.611
  339.097    0.275    0.448  115.776    8.274
  339.397    0.300    0.448  124.514    7.512
  339.697    0.287    0.489  128.255    6.318
  339.997    0.279    0.517  120.743    4.739
  340.297    0.313    0.514  115.734    3.694
  340.597    0.323    0.561  103.853    2.991
  340.897    0.318    0.577  105.093    2.516
  341.197    0.330    0.595  101.335    2.116
  341.497    0.335    0.574  106.323    1.957
  341.797    0.305    0.554  105.065    1.954
  342.097    0.300    0.524  109.429    2.146
  342.397    0.297    0.512  106.920    2.495
  342.697    0.278    0.517  116.909    2.901
  342.997    0.277    0.493  124.399    3.504
  343.297    0.306    0.474  116.264    4.152
  343.597    0.293    0.460  118.754    5.112
  343.897    0.291    0.409  108.120    6.175
  344.197    0.293    0.390  104.362    7.179
  344.497    0.293    0.471  104.974    6.898
  344.797    0.324    0.503  116.216    6.382
  345.097    0.291    0.529  111.831    5.472
  345.397    0.255    0.524  114.321    4.346
  345.697    0.262    0.518  119.310    3.945
  345.997    0.265    0.514  114.302    3.650
  346.297    0.259    0.497  112.416    3.376
  346.597    0.264    0.501  123.656    3.183
  346.897    0.255    0.488  115.522    3.059
  347.197    0.245    0.500  121.762    2.996
  347.497    0.241    0.531  128.001    3.049
  347.797    0.239    0.521  114.243    3.223
  348.097    0.250    0.487  124.855    3.344
  348.397    0.257    0.503  128.596    3.468
  348.697    0.293    0.487  121.087    3.528
  348.997    0.316    0.456  112.329    3.660
  349.297    0.318    0.487  106.691    4.017
  349.597    0.318    0.469  105.435    4.329
  349.897    0.338    0.434  103.551    4.665
  350.197    0.336    0.436  109.790    5.423
  350.497    0.251    0.403  117.280    6.072
  350.797    0.330    0.430  112.894    6.061
  351.097    0.316    0.418  104.762    5.936
  351.397    0.233    0.356   91.628    6.156
  351.697    0.259    0.335   86.618    6.759
  351.997    0.256    0.330   78.485    7.424
  352.297    0.244    0.355   79.725    8.311
  352.597    0.212    0.365   89.089    8.781
  352.897    0.209    0.370   91.579    8.601
  353.197    0.248    0.383   95.318    7.960
  353.497    0.269    0.425   97.184    6.696
  353.797    0.268    0.465  100.300    4.836
  354.097    0.280    0.458  105.914    3.175
  354.397    0.298    0.447  112.153    2.670
  354.697    0.268    0.403   98.395    2.616
  354.997    0.293    0.366   77.138    2.985
  355.297    0.298    0.350   65.879    3.744
  355.597    0.291    0.356   67.744    5.267
  355.897    0.289    0.357   70.234    8.627
  356.197    0.288    0.347   67.725   14.133
  356.497    0.287    0.346   69.589   19.878
  356.797    0.282    0.355   75.829   29.046
  357.097    0.278    0.365   78.945   37.865
  357.397    0.274    0.376   85.808   36.374
  357.697    0.269    0.361   87.674   31.785
  357.997    0.266    0.350   92.038   27.253
  358.297    0.263    0.359   98.903   22.486
  358.597    0.264    0.355  101.393   19.282
  358.897    0.268    0.371  102.008   17.492
  359.197    0.263    0.376  105.122   16.186
  359.497    0.233    0.351  106.987   14.148
  359.797    0.221    0.348  107.602   11.456
  360.097    0.249    0.353  114.468    9.454
  360.397    0.240    0.381  130.706    8.419
  360.697    0.246    0.399  132.571    7.642
  360.997    0.284    0.378  129.436    7.629
  361.297    0.302    0.350  130.676    8.376
  361.597    0.276    0.325  116.918    9.739
  361.897    0.245    0.297  105.033   11.326
  362.197    0.241    0.317  104.400   13.680
  362.496    0.257    0.324  108.765   15.021
  362.796    0.278    0.322  121.254   14.434
  363.096    0.275    0.340  122.494   13.101
  363.396    0.255    0.337  116.859   11.233
  363.696    0.255    0.353  107.476   10.391
  363.996    0.241    0.357   97.467   10.775
  364.296    0.239    0.340  102.456    9.597
  364.596    0.252    0.364  108.072    9.050
  364.896    0.261    0.365  111.812    9.566
  365.196    0.265    0.359   90.555   11.125
  365.496    0.267    0.357   75.546   14.498
  365.796    0.275    0.373   76.787   22.006
  366.096    0.278    0.365   85.526   30.959
  366.396    0.271    0.354   94.265   36.680
  366.696    0.266    0.358  100.503   35.259
  366.996    0.276    0.347   99.870   26.958
  367.296    0.280    0.347  102.984   20.612
  367.596    0.267    0.352  107.349   18.358
  367.896    0.244    0.344  110.464   14.585
  368.196    0.216    0.332   99.206   12.989
  368.496    0.229    0.341   83.572   13.471
  368.796    0.285    0.352   72.940   14.514
  369.096    0.300    0.353   59.180   16.557
  369.396    0.297    0.347   68.545   21.170
  369.696    0.294    0.346   63.535   28.125
  369.996    0.291    0.359   61.026   37.369
  370.296    0.287    0.361   58.517   53.571
  370.596    0.286    0.376   58.507   75.365
  370.896    0.287    0.373   69.121   87.622
  371.196    0.287    0.352   61.612   81.010
  371.496    0.286    0.356   58.476   74.950
  371.796    0.292    0.367   67.217   72.056
  372.096    0.296    0.362   77.206   69.268
  372.396    0.295    0.371   83.446   61.686
  372.696    0.288    0.383   79.062   54.925
  372.996    0.281    0.387   82.801   51.785
  373.296    0.263    0.377   80.292   55.789
  373.596    0.243    0.362   79.657   57.855
  373.896    0.229    0.346   81.521   52.521
  374.196    0.218    0.378   85.887   41.731
  374.496    0.228    0.367   92.751   40.110
  374.796    0.273    0.403   93.367   42.399
  375.096    0.277    0.383   97.106   40.738
  375.396    0.277    0.367   95.222   31.158
  375.696    0.305    0.449  105.211   21.255
  375.996    0.290    0.449  116.449   12.688
  376.296    0.294    0.412  115.815   10.274
  376.596    0.303    0.408  108.306    8.641
  376.896    0.304    0.432  106.420    8.624
  377.196    0.287    0.427  111.411    8.451
  377.496    0.259    0.423  114.526    7.818
  377.796    0.239    0.436  122.640    7.097
  378.096    0.215    0.418  146.378    6.946
  378.396    0.207    0.399  138.243    6.940
  378.696    0.216    0.377  141.358    7.331
  378.996    0.222    0.385  127.600    7.605
  379.296    0.223    0.385  107.593    8.353
  379.596    0.250    0.386  110.705    8.832
  379.896    0.257    0.392  111.323    8.488
  380.196    0.251    0.374  123.187    8.307
  380.496    0.241    0.335  123.175    8.455
  380.796    0.242    0.364  125.667    8.769
  381.096    0.256    0.351  118.783    9.264
  381.396    0.257    0.340  114.396    9.432
  381.696    0.246    0.345  107.514    9.778
  381.996    0.238    0.342  110.005    9.958
  382.296    0.229    0.370  108.120   10.133
  382.596    0.222    0.363  111.233   10.508
  382.896    0.211    0.344  113.099   10.695
  383.196    0.199    0.352  109.341   10.676
  383.496    0.194    0.362  113.080   10.655
