~Version : LASO    vs 4.00 
VERS.                2.00:   CWLS Log ASCII Standard -VERSION 2.0
WRAP.                  NO:
~Well Information Block
#MNEM.UNIT       Data                        Description of Mnemonic
#----.----      -------------------------- : -----------------------------
STRT.M             1.0000:
STOP.M           202.5000:
STEP.M             0.1000:
NULL.           -999.2500:
COMP.  MOBIL OIL CANADA                    :COMPANY
WELL.  MOBIL 90 CLARKE CREEK 16-31         :WELL
FLD.   CLARKE CREEK                        :FIELD
LOC.   16-31-089-07W4                      :LOCATION
CTRY.  CANADA                              :COUNTRY
PROV.  ALBERTA                             :PROVINCE
SRVC.  BRITISH PLASTERBOARD                :SERVICE COMPANY
DATE.  22-JAN-90                           :LOG DATE
UWI.   AA/16-31-089-07W400                 :UNIQUE WELL ID
~Parameter Information Block
#MNEM.UNIT       Data                        Description of Mnemonic
#----.----      -------------------------- : -----------------------------
RUN .                   1                 : Run Number
GL  .M           453.6000                 : Ground Level Elevation
DREF.                  GD                 : Depth Reference
EREF.M           453.6000                 : Elevation of Depth Reference
TDL .M           204.5000                 : Total Depth Logger
TDD .M           204.5000                 : Total Depth Driller
~Curve Information Block
#MNEM.UNIT        API CODE    Curve Description
#---------    ------------    -------------------------------------------
DEPT.M                    :   DEPTH
CALI.mm                   :   CALI
DPHI.V/V                  :   DPHI
DT  .US/M     60 520  0  1:   2 SONIC INTERVAL TRANSIT TIME (COMPENSATED)
GR  .API                  :   GR
ILD .Ohmm                 :   ILD
NPHI.V/V                  :   NPHI
RHOB.K/M3     45 350  1  1:   3 BULK DENSITY
~A  Depth           CALI        DPHI          DT          GR         ILD        NPHI        RHOB
# ...
50.8000         162.8182      0.1068   -999.2500     60.3303   -999.2500      0.2971   2156.8000
50.9000         162.8452      0.1173   -999.2500     61.7796   -999.2500      0.3015   2184.1001
51.0000         163.2232      0.1266   -999.2500     61.5628   -999.2500      0.3028   2134.0000
51.1000         163.5663      0.1348   -999.2500     59.6743   -999.2500      0.3131   2151.6001
51.2000         163.7477      0.1429   -999.2500     56.2950   -999.2500      0.3344   2173.3000
51.3000         163.7822      0.1507   -999.2500     53.4498   -999.2500      0.3512   2148.2000
51.4000         163.8148      0.1664   -999.2500     53.7145   -999.2500      0.3507   2083.0000
51.5000         163.8472      0.1815   -999.2500     54.7780   -999.2500      0.3346   2087.0000
51.6000         163.6109      0.1925   -999.2500     55.0566   -999.2500      0.3214   2063.1001
51.7000         163.5122      0.2034   -999.2500     53.9893   -999.2500      0.3111   2024.8000
51.8000         163.5408      0.2149   -999.2500     53.4256   -999.2500      0.3189   2027.9000
51.9000         163.8600      0.2297   -999.2500     52.3892   -999.2500      0.3369   2017.3000
52.0000         163.9723      0.2323   -999.2500     51.7846   -999.2500      0.3523   2004.1000
52.1000         164.0342      0.2316   -999.2500     52.8383   -999.2500      0.3735   1996.2000
52.2000         164.0738      0.2255   -999.2500     53.4778   -999.2500      0.3612   2009.8000
52.3000         164.1065      0.2139   -999.2500     53.5766   -999.2500      0.3404   2079.8000
52.4000         164.1390      0.2107   -999.2500     56.1412   -999.2500      0.3356   1995.0000
52.5000         164.1714      0.2153   -999.2500     56.1058   -999.2500      0.3349   2008.2000
52.6000         164.2038      0.2223   -999.2500     56.1545   -999.2500      0.3367   1972.5000
52.7000         164.2362      0.2259   -999.2500     56.7483   -999.2500      0.3394   1997.0000
52.8000         163.9080      0.2280   -999.2500     56.8490   -999.2500      0.3350   1967.5000
52.9000         163.9103      0.2344   -999.2500     57.4003   -999.2500      0.3515   1978.4000
53.0000         163.9320      0.2392   -999.2500     56.9628   -999.2500      0.3668   2029.7000
53.1000         163.9620      0.2419   -999.2500     55.3105   -999.2500      0.3731   1971.0000
53.2000         163.6940      0.2471   -999.2500     52.5724   -999.2500      0.3688   1955.6000
53.3000         163.6524      0.2485   -999.2500     50.7008   -999.2500      0.3575   1949.6000
53.4000         163.3215      0.2511   -999.2500     49.0784   -999.2500      0.3354   1985.7000
53.5000         163.2976      0.2529   -999.2500     49.8959   -999.2500      0.3311   2015.7000
53.6000         163.0100      0.2463   -999.2500     51.0801   -999.2500      0.3566   2036.3000
53.7000         162.9821      0.2348   -999.2500     51.7486   -999.2500      0.3776   2066.2000
53.8000         162.9818      0.2209   -999.2500     50.8689   -999.2500      0.3411   2148.3000
53.9000         162.6764      0.2079   -999.2500     49.8065   -999.2500      0.3112   2257.3000
54.0000         162.2352      0.1917   -999.2500     49.0041   -999.2500      0.2956   2343.5000
54.1000         161.8849      0.1546   -999.2500     48.4652   -999.2500      0.2846   2296.1001
54.2000         161.8967      0.1282   -999.2500     48.4573   -999.2500      0.2995   2235.2000
54.3000         161.9274      0.1045   -999.2500     48.4981   -999.2500      0.3156   2198.5000
54.4000         161.9593      0.1237   -999.2500     49.1415   -999.2500      0.3167   2252.0000
54.5000         161.9916      0.1567   -999.2500     49.1991   -999.2500      0.3084   2298.8000
54.6000         162.3995      0.1677   -999.2500     49.2483   -999.2500      0.3128   2253.0000
54.7000         162.1004      0.1567   -999.2500     49.2970   -999.2500      0.3217   2176.5000
54.8000         162.0958      0.1512   -999.2500     49.3456   -999.2500      0.3341   2210.7000
54.9000         161.7982      0.1541   -999.2500     49.3942   -999.2500      0.3488   2241.1001
55.0000         161.3633      0.1606   -999.2500     48.8863   -999.2500      0.3520   2228.5000
55.1000         161.3795      0.1398   -999.2500     48.4699   -999.2500      0.3372   2281.0000
55.2000         161.7621      0.0988   -999.2500     48.3600   -999.2500      0.3231   2239.7000
55.3000         161.8380      0.0881   -999.2500     48.7860   -999.2500      0.3080   2369.3999
55.4000         161.8775      0.0844   -999.2500     49.0221   -999.2500      0.3104   2371.5000
55.5000         162.2953      0.0774   -999.2500     49.6277   -999.2500      0.3168   2359.2000
55.6000         162.3462      0.0649   -999.2500     50.2489   -999.2500      0.3081   2327.3000
55.7000         162.0337      0.0500   -999.2500     50.7691   -999.2500      0.2977   2326.7000
55.8000         162.3502      0.0585   -999.2500     51.0423   -999.2500      0.2872   1970.1000
55.9000         163.2430      0.1467   -999.2500     53.9480   -999.2500      0.2811   1664.0000
56.0000         164.4983      0.1868    551.3200     57.4176   -999.2500      0.3330   1130.0000
56.1000         165.9726      0.2167    600.3200     61.9595   -999.2500      0.3635   1182.5000
56.2000         170.9915      0.2377    643.5600     64.5537   -999.2500      0.3770   1123.2000
56.3000         178.0357      0.2506    649.7200     66.4190   -999.2500      0.3467   1157.2000
56.4000         182.3902      0.2563    595.4400     67.3939   -999.2500      0.3207   1151.8000
56.5000         183.2004      0.2489    491.5200     70.4230   -999.2500      0.3052   1202.2000
56.6000         182.9113      0.2407    456.0000     68.7144   -999.2500      0.2857   1202.2000
56.7000         181.1912      0.2415    452.0800     67.3423   -999.2500      0.2649   1108.4000
56.8000         170.6106      0.2511    448.1600     67.2905   -999.2500      0.2519   1134.5000
56.9000         168.3225      0.2569    444.6800     67.8968   -999.2500      0.2471   1175.4000
57.0000         166.9757      0.2465    441.4000     70.1196     54.6953      0.2446   1196.6001
57.1000         166.1923      0.2359    439.6400     72.9646     57.3203      0.2411   1166.8000
57.2000         165.5917      0.2381    442.7200     75.8777     57.7887      0.2475   1247.7000
57.3000         164.9220      0.2421    446.5600     76.5984     57.9744      0.2573   1186.0000
57.4000         163.0502      0.2500    450.4000     77.2244     58.0789      0.2757   1121.5000
57.5000         160.8153      0.2537    451.2000     76.7901     59.1610      0.2867   1087.5000
57.6000         158.5613      0.2511    442.6000     76.2762     57.5309      0.2816   1318.3000
57.7000         155.6562      0.2456    429.8400     77.1970     58.2316      0.2767   1305.0000
57.8000         154.8317      0.2535    435.8800     77.4602     57.4365      0.2720   1282.8000
57.9000         154.0794      0.2725    441.9200     78.0666     57.4944      0.2594   1140.0000
58.0000         153.5170      0.2910    442.5200     78.6879     58.3625      0.2497   1070.0000
58.1000         153.7651      0.3105    406.8000     79.3105     59.6597      0.2759   1151.6000
58.2000         154.8417      0.3221    423.4000     80.0835     59.9769      0.2870   1045.9000
58.3000         155.9012      0.3145    437.2400     81.2776     61.2139      0.2896   1172.7000
58.4000         156.5609      0.2838    451.0800     83.5606     62.2262      0.2830   1248.1001
58.5000         156.7921      0.2524    466.6000     85.0583     61.6458      0.2728   1220.2000
58.6000         157.5160      0.2297    460.0800     86.1154     60.7192      0.2564   1310.5000
58.7000         157.9834      0.2182    428.1600     84.0162     60.5801      0.2466   1285.6001
58.8000         159.6515      0.2142    437.1600     82.3371     59.6410      0.2451   1258.2000
58.9000         162.6797      0.2095    452.6400     81.7314     58.6866      0.2449   1247.9000
59.0000         163.3448      0.2068    449.8400     78.1580     57.7450      0.2551   1368.2000
