~VERSION INFORMATION
 VERS.                 2.0:   CWLS LOG ASCII STANDARD -VERSION 2.0
 WRAP.                  NO:   ONE LINE PER DEPTH STEP
~WELL INFORMATION BLOCK
#MNEM.UNIT           DATA                    DESCRIPTION OF MNEMONIC
#---------    -------------------            -------------------------------
# Generated from Intellog Unique Number	CC_80_83/WELL/2336
NULL.         -999.25                        : NULL_VALUE
WELL.         ARCO ACI MCMURRAY OV           : Well_name    - WELL
LOC .         10-08-081-10W4                 : Location     - LOCATION          
UWI .         AA/10-08-081-10W400            : Uwi          - UNIQUE WELL ID    
ENTR.         JHS                            : Entered      - ENTERED BY        
SRVC.         DRESSER ATLAS                  : Scn          - SERVICE COMPANY   
DATE.         10 FEB 76                      : Date         - LOG DATE
STRT.M        243.84                         : top_depth    - START DEPTH       
STOP.M        502.928                        : bot_depth    - STOP DEPTH        
STEP.M        0.305                          : increment    - STEP LENGTH       
~CURVE INFORMATION BLOCK
#MNEM UNIT       ERCB CURVE CODE    CURVE DESCRIPTION
#-----------   ------------------   ----------------------------------
DEPT.M        00 001 00 00         : DEPTH        - DEPTH                       
NPHI.V/V      00 330 00 00         : PHIN         - NEUTRON POROSITY (LIMESTONE)
GR  .API      00 310 00 00         : GR           - GAMMA RAY                   
ILD .OHMM     00 120 00 00         : RESD         - DEEP RESISTIVITY (DIL)      
~PARAMETER INFORMATION       
#MNEM.UNIT           DATA             DESCRIPTION OF MNEMONIC
#---------         -----------     ------------------------------
GL  .M        705.307              : gl           - GROUND LEVEL ELEVATION      
EREF.M        708.355              : kb           - ELEVATION OF DEPTH REFERENCE
DATM.M        708.355              : datum        - DATUM ELEVATION             
TDD .M        502.92               : tdd          - TOTAL DEPTH DRILLER         
RUN .         ONE                  : Run          - RUN NUMBER                  
ENG .         BILL                 : Engineer     - RECORDING ENGINEER          
WIT .         JIM                  : Witness      - WITNESSED BY                
MUD .         GEL                  : Mud_type     - MUD TYPE                    
MATR.         LIMESTONE            : Logunit      - NEUTRON MATRIX              
TMAX.C        23.3333              : BHT          - MAXIMUM RECORDED TEMPERATURE
BHTD.M        502.92               : BHTDEP       - MAXIMUM RECORDED TEMPERATURE
MATR.         1                    : LOGUNIT      - NEUTRON MATRIX              
RMT .C        25                   : MDTP         - TEMPERATURE OF MUD          
NEUT.         1                    : NEUTRON      - NEUTRON TYPE                
RESI.         0                    : RESIST       - RESISTIVITY TYPE            
RMC .OHMM     0.25                 : RMC          - RESISTIVITY OF MUD CAKE     
RMF .OHMM     0.25                 : RMF          - RESISTIVITY OF MUD FILTRATE 
SUFT.C        15                   : SUFT         - SURFACE TEMPERATURE         
~A  DEPTH     PHIN       GR     RESD
  243.840    0.433   91.067    4.966
  244.145    0.408   80.908    6.195
  244.450    0.404   76.101    7.313
  244.754    0.409   77.250    8.321
  245.059    0.410   74.828    9.643
  245.364    0.398   68.834   10.972
  245.669    0.378   64.629   11.385
  245.974    0.376   65.779   11.178
  246.278    0.380   69.903   10.196
  246.583    0.370   69.266    8.482
  246.888    0.373   76.367    6.801
  247.193    0.391   87.041    6.090
  247.498    0.417   97.114    5.555
  247.802    0.422   94.097    5.161
  248.107    0.429   92.272    5.067
  248.412    0.440   93.411    4.975
  248.717    0.447   94.568    4.976
  249.021    0.434   97.502    4.976
  249.326    0.432   99.242    4.977
  249.631    0.443   98.608    4.887
  249.936    0.452   97.975    4.798
  250.241    0.462   97.338    4.625
  250.545    0.468   97.294    4.377
  250.850    0.463   99.627    4.067
  251.155    0.469  103.163    3.848
  251.460    0.484  106.098    3.642
  251.765    0.490  110.818    3.511
  252.069    0.487  110.182    3.384
  252.374    0.492  105.379    3.262
  252.679    0.503  104.147    3.203
  252.984    0.506  104.694    3.145
  253.289    0.508  104.659    3.204
  253.593    0.509  104.019    3.204
  253.898    0.501  103.980    3.264
  254.203    0.496  106.910    3.265
  254.508    0.496  108.057    3.326
  254.813    0.499  108.617    3.388
  255.117    0.500  110.957    3.388
  255.422    0.502  110.318    3.452
  255.727    0.499  108.493    3.389
  256.032    0.492  108.451    3.389
  256.337    0.497  109.005    3.390
  256.641    0.499  104.797    3.328
  256.946    0.498   98.210    3.268
  257.251    0.494   99.948    3.329
  257.556    0.489  104.079    3.330
  257.861    0.491  103.434    3.392
  258.165    0.493  108.157    3.455
  258.470    0.496  108.118    3.520
  258.775    0.495  104.503    3.521
  259.080    0.491  100.890    3.587
  259.385    0.488   98.469    3.587
  259.689    0.487   97.228    3.654
  259.994    0.492   98.384    3.654
  260.299    0.497   97.153    3.655
  260.604    0.504   95.916    3.723
  260.909    0.508   98.262    3.724
  261.214    0.508  101.190    3.724
  261.518    0.509   99.366    3.725
  261.823    0.512   98.131    3.725
  262.128    0.514   95.717    3.726
  262.433    0.518   95.674    3.658
  262.738    0.524   95.031    3.592
  263.042    0.526   96.778    3.399
  263.347    0.524   94.954    3.217
  263.652    0.516   94.314    3.044
  263.957    0.507   94.868    2.989
  264.262    0.504   94.232    2.989
  264.566    0.503   91.811    3.045
  264.871    0.500   89.384    3.219
  265.176    0.493   91.726    3.279
  265.481    0.484   97.038    3.530
  265.786    0.480   96.994    3.731
  266.090    0.482   97.555    3.801
  266.395    0.485   97.513    3.944
  266.700    0.485   93.895    4.018
  267.005    0.472   93.858    4.093
  267.310    0.456   96.200    4.170
  267.615    0.458   99.729    4.248
  267.919    0.461   96.712    4.408
  268.224    0.458   97.860    4.490
  268.529    0.454   99.008    4.659
  268.834    0.455   99.563    4.660
  269.139    0.457  102.497    4.575
  269.443    0.460  101.854    4.410
  269.748    0.460   98.838    4.098
  270.053    0.467   93.445    3.950
  270.358    0.466   90.415    3.951
  270.663    0.470   93.956    4.024
  270.967    0.482   99.867    4.176
  271.272    0.463   98.031    4.496
  271.577    0.447   95.022    4.580
  271.882    0.456   90.815    4.580
  272.187    0.467   94.335    4.581
  272.491    0.476   96.676    4.582
  272.796    0.475   98.423    4.667
  273.101    0.469   94.815    4.755
  273.406    0.455   88.821    4.755
  273.711    0.441   87.576    4.584
  274.016    0.437   89.925    4.418
  274.320    0.432   93.453    4.339
  274.625    0.417   89.842    4.502
  274.930    0.398   82.066    4.937
  275.235    0.320   73.690    6.753
  275.540    0.337   68.887    9.762
  275.844    0.381   66.458   11.956
  276.149    0.385   66.424   14.644
  276.454    0.391   69.950   16.357
  276.759    0.395   75.269   16.359
  277.064    0.391   77.008   15.481
  277.368    0.382   77.566   13.610
  277.673    0.382   75.737   12.880
  277.978    0.387   73.909   13.121
  278.283    0.392   72.677   13.367
  278.588    0.393   66.686   13.124
  278.892    0.391   72.002   12.886
  279.197    0.387   83.863   11.754
  279.502    0.393   83.221   11.330
  279.807    0.397   80.208   11.542
  280.112    0.398   75.402   13.377
  280.417    0.393   69.412   16.084
  280.721    0.395   61.036   19.340
  281.026    0.400   60.993   20.821
  281.331    0.406   65.120   19.345
  281.636    0.414   77.580   17.006
  281.941    0.452   84.681   15.512
  282.245    0.535   84.636   15.803
  282.550    0.541   81.019   16.397
  282.855    0.521   67.889   18.656
  283.160    0.374   57.134   22.432
  283.465    0.361   55.300   25.523
  283.769    0.364   58.828   26.483
  284.074    0.373   59.383   26.004
  284.379    0.385   62.321   26.490
  284.684    0.386   61.688   28.520
  284.989    0.384   57.481   29.053
  285.293    0.379   50.889   29.056
  285.598    0.377   49.062   28.009
  285.903    0.373   56.755   27.502
  286.208    0.365   65.051   27.505
  286.513    0.360   69.171   27.006
  286.818    0.361   69.126   26.032
  287.122    0.365   69.092   23.744
  287.427    0.377   71.428   21.658
  287.732    0.380   71.384   21.265
  288.037    0.373   75.510   20.880
  288.342    0.379   79.639   21.271
  288.646    0.383   77.212   22.072
  288.951    0.386   71.221   23.329
  289.256    0.390   65.818   24.206
  289.561    0.401   62.211   26.546
  289.866    0.404   53.244   29.110
  290.170    0.398   50.819   30.769
  290.475    0.399   54.943   30.772
  290.780    0.399   62.047   28.589
  291.085    0.398   71.528   27.056
  291.390    0.394   71.481   28.074
  291.694    0.391   70.850   28.599
  291.999    0.386   71.397   29.136
  292.304    0.387   73.147   28.606
  292.609    0.396   79.046   27.073
  292.914    0.394   82.588   26.096
  293.219    0.391   79.567   25.155
  293.523    0.384   80.709   23.806
  293.828    0.380   83.651   23.375
  294.133    0.382   88.373   23.378
  294.438    0.380   85.944   23.380
  294.743    0.372   84.717   22.956
  295.047    0.371   90.630   21.724
  295.352    0.377   91.177   20.559
  295.657    0.381   93.516   19.101
  295.962    0.381   98.243   18.076
  296.267    0.382   99.391   16.794
  296.571    0.386   96.370   16.189
  296.876    0.386   91.571   15.321
  297.181    0.373   77.836   14.768
  297.486    0.338   73.628   13.721
  297.791    0.340   78.945   11.414
  298.095    0.365  100.332    8.659
  298.400    0.407  108.027    7.474
  298.705    0.421  108.572    6.944
  299.010    0.428  110.919    6.571
  299.315    0.430  117.426    6.105
  299.620    0.438  119.160    5.467
  299.924    0.452  114.368    5.079
  300.229    0.480  111.945    4.548
  300.534    0.486  110.714    4.304
  300.839    0.484  112.451    4.149
  301.144    0.485  111.818    4.227
  301.448    0.490  115.946    4.721
  301.753    0.491  109.354    6.000
  302.058    0.475  101.577    7.624
  302.363    0.404   91.415   12.309
  302.668    0.368   85.424   17.151
  302.972    0.366   88.954   19.157
  303.277    0.364   89.504   16.842
  303.582    0.359   93.631   14.011
  303.887    0.359   91.798   14.537
  304.192    0.366   97.121   14.810
  304.496    0.381   95.284   14.276
  304.801    0.389   94.655   12.784
  305.106    0.394   95.210   11.447
  305.411    0.397  102.309    9.523
  305.716    0.394  106.432    8.372
  306.021    0.391  108.770    7.636
  306.325    0.381  106.346    7.779
  306.630    0.380  112.258    8.375
  306.935    0.369  103.293   10.070
  307.240    0.370  102.057   12.108
  307.545    0.377   99.043   14.293
  307.849    0.382   90.071   15.674
  308.154    0.382   90.029   16.875
  308.459    0.373   92.966   16.877
  308.764    0.358   94.709   15.971
  309.069    0.357   98.241   14.302
  309.373    0.359   97.601   13.786
  309.678    0.353   89.820   13.536
