~VERSION INFORMATION
 VERS.                 2.0:   CWLS LOG ASCII STANDARD -VERSION 2.0
 WRAP.                  NO:   ONE LINE PER DEPTH STEP
~WELL INFORMATION BLOCK
#MNEM.UNIT           DATA                    DESCRIPTION OF MNEMONIC
#---------    -------------------            -------------------------------
# Generated from Intellog Unique Number	CC_80_83/WELL/2418
NULL.         -999.25                        : NULL_VALUE
WELL.         PEX PCEJ CHARD OV              : Well_name    - WELL              
LOC .         11-30-080-06W4                 : Location     - LOCATION          
UWI .         00/11-30-080-06W400            : Uwi          - UNIQUE WELL ID    
ENTR.         DW                             : Entered      - ENTERED BY        
SRVC.         SCHLUMBERGER                   : Scn          - SERVICE COMPANY   
DATE.         01 JAN 93                      : Date         - LOG DATE
STRT.M        85                             : top_depth    - START DEPTH       
STOP.M        315.099                        : bot_depth    - STOP DEPTH        
STEP.M        0.3                            : increment    - STEP LENGTH       
~CURVE INFORMATION BLOCK
#MNEM UNIT       ERCB CURVE CODE    CURVE DESCRIPTION
#-----------   ------------------   ----------------------------------
DEPT.M        00 001 00 00         : DEPTH        - DEPTH                       
DPHI.V/V      00 890 00 00         : PHID         - DENSITY POROSITY (LIMESTONE)
NPHI.V/V      00 330 00 00         : PHIN         - NEUTRON POROSITY (LIMESTONE)
GR  .API      00 310 00 00         : GR           - GAMMA RAY                   
ILD .OHMM     00 120 00 00         : RESD         - DEEP RESISTIVITY (DIL)      
~PARAMETER INFORMATION       
#MNEM.UNIT           DATA             DESCRIPTION OF MNEMONIC
#---------         -----------     ------------------------------
GL  .M        515.67               : gl           - GROUND LEVEL ELEVATION      
EREF.M        519.32               : kb           - ELEVATION OF DEPTH REFERENCE
DATM.M        519.32               : datum        - DATUM ELEVATION             
TDD .M        325                  : tdd          - TOTAL DEPTH DRILLER         
RUN .         ONE                  : Run          - RUN NUMBER                  
ENG .         BILL                 : Engineer     - RECORDING ENGINEER          
WIT .         JIM                  : Witness      - WITNESSED BY                
MUD .         GEL                  : Mud_type     - MUD TYPE                    
MATR.         LIMESTONE            : Logunit      - NEUTRON MATRIX              
TMAX.C        16                   : BHT          - MAXIMUM RECORDED TEMPERATURE
BHTD.M        322                  : BHTDEP       - MAXIMUM RECORDED TEMPERATURE
MATR.         1                    : LOGUNIT      - NEUTRON MATRIX              
RMT .C        25                   : MDTP         - TEMPERATURE OF MUD          
NEUT.         1                    : NEUTRON      - NEUTRON TYPE                
RESI.         0                    : RESIST       - RESISTIVITY TYPE            
RMC .OHMM     0.25                 : RMC          - RESISTIVITY OF MUD CAKE     
RMF .OHMM     0.25                 : RMF          - RESISTIVITY OF MUD FILTRATE 
SUFT.C        4                    : SUFT         - SURFACE TEMPERATURE         
~A  DEPTH     PHID     PHIN       GR     RESD
   85.000    0.246    0.514  124.484    5.571
   85.300    0.235    0.501  118.921    5.471
   85.600    0.217    0.470  109.622    5.174
   85.900    0.240    0.422  102.820    5.179
   86.200    0.253    0.480  114.054    5.281
   86.500    0.260    0.513  112.847    5.286
   86.800    0.271    0.496  119.107    4.999
   87.100    0.277    0.543  111.676    4.727
   87.400    0.274    0.519  112.335    4.387
   87.700    0.278    0.518  103.664    4.072
   88.000    0.264    0.488  126.105    4.074
   88.300    0.161    0.460  110.580    4.924
   88.600    0.207    0.403  108.130    6.180
   88.900    0.232    0.403  116.883    7.613
   89.200    0.231    0.410  120.654    8.694
   89.500    0.237    0.419  121.934   10.313
   89.800    0.255    0.423  105.791   11.562
   90.100    0.272    0.430  107.694   11.787
   90.400    0.270    0.455  102.747   11.799
   90.700    0.244    0.473  121.458   10.744
   91.000    0.241    0.459  118.382    9.600
   91.300    0.241    0.442  122.779    7.956
   91.600    0.262    0.457  126.556    7.668
   91.900    0.284    0.468  122.229    8.275
   92.200    0.296    0.423  106.710   10.194
   92.500    0.296    0.403  106.124   11.210
   92.800    0.283    0.398  109.274   12.328
   93.100    0.248    0.416   98.727   13.817
   93.400    0.258    0.406   85.697   14.912
   93.700    0.262    0.377   82.620   16.100
   94.000    0.262    0.367   89.504   16.728
   94.300    0.263    0.372   86.431   17.058
   94.600    0.285    0.366   87.711   17.730
   94.900    0.293    0.362   86.504   18.083
   95.200    0.282    0.362   77.204   18.441
   95.500    0.287    0.379   85.335   18.808
   95.800    0.292    0.363   90.349   19.548
   96.100    0.275    0.371   80.438   19.934
   96.400    0.263    0.374   86.688   19.948
   96.700    0.267    0.379  104.776   18.868
   97.000    0.272    0.368  111.662   17.848
   97.300    0.273    0.417  109.833   17.522
   97.600    0.268    0.406  106.132   16.573
   97.900    0.268    0.391  102.437   15.971
   98.200    0.269    0.384  116.166   15.685
   98.500    0.258    0.400  129.273   15.116
   98.800    0.246    0.425  133.667   14.295
   99.100    0.243    0.417  142.418   13.265
   99.400    0.243    0.450  139.968   12.313
   99.700    0.243    0.430  148.720   12.089
  100.000    0.245    0.418  141.286   12.566
  100.300    0.250    0.390  121.406   13.822
  100.600    0.238    0.365  118.334   14.635
  100.900    0.235    0.361  112.773   16.101
  101.200    0.264    0.378  110.318   16.729
  101.500    0.256    0.385  101.021   17.718
  101.800    0.284    0.369   90.473   18.067
  102.100    0.295    0.391   79.928   18.783
  102.400    0.301    0.415   76.852   18.449
  102.700    0.290    0.385   91.828   18.112
  103.000    0.290    0.387   93.734   17.457
  103.300    0.293    0.409   89.415   17.139
  103.600    0.280    0.398   95.676   18.505
  103.900    0.288    0.412   90.115   19.225
  104.200    0.308    0.401   76.454   20.750
  104.500    0.317    0.389   61.557   22.403
  104.800    0.322    0.384   83.998   22.414
  105.100    0.316    0.386   91.507   21.605
  105.400    0.288    0.402   90.920   20.820
  105.700    0.251    0.415   79.134   20.449
  106.000    0.142    0.379   88.504   20.459
  106.300    0.152    0.363   89.786   20.473
  106.600    0.250    0.382   87.955   20.495
  106.900    0.315    0.401  104.186   20.896
  107.200    0.304    0.405  104.224   20.921
  107.500    0.294    0.431   95.537   20.540
  107.800    0.294    0.418   88.727   20.180
  108.100    0.290    0.432  118.646   19.812
  108.400    0.290    0.453  116.198   19.454
  108.700    0.298    0.436  118.093   19.110
  109.000    0.295    0.430  107.549   19.127
  109.300    0.294    0.454  110.698   19.501
  109.600    0.292    0.453  102.021   20.274
  109.900    0.287    0.424  106.417   20.669
  110.200    0.289    0.411   94.008   20.688
  110.500    0.296    0.413   87.819   20.701
  110.800    0.291    0.411   93.466   19.577
  111.100    0.279    0.437   97.228   17.829
  111.400    0.261    0.469  125.898   14.226
  111.700    0.218    0.536  144.608    9.224
  112.000    0.260    0.556  152.743    6.955
  112.300    0.249    0.553  154.641    5.446
  112.600    0.234    0.535  154.055    4.513
  112.900    0.230    0.493  137.913    4.110
  113.200    0.264    0.492  130.482    4.272
  113.500    0.269    0.462  123.668    4.972
  113.800    0.267    0.427  119.978    6.009
  114.100    0.266    0.430   90.755    8.133
  114.400    0.309    0.407   66.520   13.551
  114.700    0.328    0.383   58.468   17.009
  115.000    0.326    0.362   54.776   19.425
  115.300    0.322    0.376   62.898   23.038
  115.600    0.324    0.385   69.780   25.340
  115.900    0.328    0.377   62.348   24.887
  116.200    0.329    0.385   66.124   23.539
  116.500    0.332    0.398   62.424   23.111
  116.800    0.324    0.399   68.068   22.706
  117.100    0.317    0.383   69.973   22.720
  117.400    0.313    0.412   67.518   22.735
  117.700    0.309    0.415   62.581   23.184
  118.000    0.299    0.400   72.570   24.098
  118.300    0.298    0.406   80.695   24.120
  118.600    0.320    0.392   75.758   23.247
  118.900    0.314    0.375   78.917   22.826
  119.200    0.317    0.388   83.298   22.423
  119.500    0.312    0.417   85.835   22.017
  119.800    0.301    0.424   90.220   22.038
  120.100    0.294    0.427   95.238   21.636
  120.400    0.291    0.425   90.917   20.080
  120.700    0.286    0.421   97.799   17.607
  121.000    0.280    0.404  105.306   14.316
  121.300    0.244    0.424  145.177   11.642
  121.600    0.152    0.476  142.108    9.116
  121.900    0.159    0.465  139.655    7.698
  122.200    0.243    0.473  140.316    7.704
  122.500    0.296    0.443  147.817    8.160
  122.800    0.315    0.432  143.500    9.677
  123.100    0.326    0.424  132.958   14.127
  123.400    0.327    0.411  136.105   18.416
  123.700    0.325    0.406   81.367   21.030
  124.000    0.322    0.394   82.649   22.701
  124.300    0.320    0.383   84.571   21.473
  124.600    0.309    0.381   88.327   20.689
  124.900    0.288    0.408  105.167   18.846
  125.200    0.264    0.425  130.723   17.819
  125.500    0.263    0.419  132.641   16.228
  125.800    0.268    0.416  128.314   15.345
  126.100    0.284    0.406  119.010   15.651
  126.400    0.292    0.411  126.518   15.958
  126.700    0.287    0.415  117.219   17.228
  127.000    0.293    0.404  101.073   17.900
  127.300    0.285    0.390   90.528   18.611
  127.600    0.290    0.408   97.412   18.977
  127.900    0.312    0.396   76.910   18.639
  128.200    0.316    0.385   70.100   19.004
  128.500    0.316    0.382   70.764   20.510
  128.800    0.319    0.402   75.153   22.565
  129.100    0.310    0.387   82.043   23.004
  129.400    0.295    0.399   80.831   23.460
  129.700    0.285    0.384   75.888   22.193
  130.000    0.284    0.399   89.618   21.388
  130.300    0.286    0.373   92.144   20.224
  130.600    0.264    0.415  116.456   18.071
  130.900    0.249    0.406  114.627   14.694
  131.200    0.249    0.406  126.496   12.886
  131.500    0.242    0.410  126.527   13.141
  131.800    0.229    0.412  118.474   13.659
  132.100    0.226    0.389  112.912   14.742
  132.400    0.234    0.400  120.417   14.208
  132.700    0.221    0.422  134.774   13.434
  133.000    0.214    0.437  141.654   12.466
  133.300    0.208    0.467  149.784   11.140
  133.600    0.208    0.465  147.952    9.235
  133.900    0.212    0.465  146.126    8.409
  134.201    0.235    0.463  143.672    7.803
  134.501    0.263    0.455  142.461    8.109
  134.801    0.272    0.408  121.957    9.263
  135.101    0.253    0.392  110.168   11.193
  135.401    0.243    0.386  121.413   15.154
  135.701    0.246    0.385  128.299   16.352
  136.001    0.256    0.426  130.201   15.470
  136.301    0.259    0.451  141.449   14.629
  136.601    0.262    0.480  132.146   13.832
  136.901    0.259    0.491  137.791   12.596
