~VERSION INFORMATION
 VERS.                 2.0:   CWLS LOG ASCII STANDARD -VERSION 2.0
 WRAP.                  NO:   ONE LINE PER DEPTH STEP
~WELL INFORMATION BLOCK
#MNEM.UNIT           DATA                    DESCRIPTION OF MNEMONIC
#---------    -------------------            -------------------------------
# Generated from Intellog Unique Number	CN_94_101/WELL/5008
WELL.         10-29-100-14W4                 : Well_name    - WELL
LOC .         AA/10-29-100-14W4/0            : Location     - LOCATION
UWI .         AA/10-29-100-14W400            : Uwi          - UNIQUE WELL ID
ENTR.         TIM                            : Entered      - ENTERED BY
SRVC.         SCHLUMBERGER                   : Scn          - SERVICE COMPANY
DATE.         08/11/92                       : Date         - LOG DATE
STRT.M        275                            : top_depth    - START DEPTH
STOP.M        480                            : bot_depth    - STOP DEPTH
STEP.M        0.25                           : increment    - STEP LENGTH
 NULL. -999.2500:NULL Value
~CURVE INFORMATION BLOCK
#MNEM UNIT       ERCB CURVE CODE    CURVE DESCRIPTION
#-----------   ------------------   ----------------------------------
DEPT.M        00 001 00 00         : DEPTH        - DEPTH
GR  .API      00 310 00 00         : GR           - GAMMA RAY
ILD .OHMM     00 120 00 00         : RESD         - DEEP RESISTIVITY (DIL)
NPHI.V/V      00 330 00 00         : PHIN         - NEUTRON POROSITY (SANDSTONE)
DPHI.V/V      00 890 00 00         : PHID         - DENSITY POROSITY (SANDSTONE)
~PARAMETER INFORMATION
#MNEM.UNIT           DATA             DESCRIPTION OF MNEMONIC
#---------         -----------     ------------------------------
GL  .M        713.6                : gl           - GROUND LEVEL ELEVATION
EREF.M        716.96               : kb           - ELEVATION OF DEPTH REFERENCE
DATM.M        716.96               : datum        - DATUM ELEVATION
TDD .M        480                  : tdd          - TOTAL DEPTH DRILLER
RUN .         ONE                  : Run          - RUN NUMBER
ENG .         BILL                 : Engineer     - RECORDING ENGINEER
WIT .         JIM                  : Witness      - WITNESSED BY
MUD .         GEL                  : Mud_type     - MUD TYPE
MATR.         SANDSTONE            : Logunit      - NEUTRON MATRIX
TMAX.C        28                   : BHT          - MAXIMUM RECORDED TEMPERATURE
BHTD.M        480                  : BHTDEP       - MAXIMUM RECORDED TEMPERATURE
RMT .C        17.3                 : MDTP         - TEMPERATURE OF MUD
MUDD.KG/M     1130                 : MWT          - MUD DENSITY
NEUT.         1                    : NEUTRON      - NEUTRON TYPE
RESI.         0                    : RESIST       - RESISTIVITY TYPE
RM  .OHMM     8.25                 : RM           - RESISTIVITY OF MUD
RMC .OHMM     7.89                 : RMC          - RESISTIVITY OF MUD CAKE
RMF .OHMM     6.89                 : RMF          - RESISTIVITY OF MUD FILTRATE
SUFT.C        4                    : SUFT         - SURFACE TEMPERATURE
~A  DEPTH       GR     RESD     PHIN     PHID
# ...
  318.500  121.843    3.605    0.565    0.285
  318.750  121.212    3.598    0.572    0.277
  319.000  119.972    3.593    0.574    0.275
  319.250  118.722    3.583    0.534    0.275
  319.500  118.097    3.579    0.496    0.277
  319.750  118.087    3.569    0.483    0.284
  320.000  118.071    3.564    0.489    0.287
  320.250  116.827    3.559    0.495    0.286
  320.500  117.429    3.552    0.501    0.281
  320.750  121.104    3.546    0.508    0.282
  321.000  124.777    3.537    0.519    0.279
  321.250  125.378    3.739    0.524    0.269
  321.500  125.365    3.730    0.495    0.259
  321.750  123.503    3.725    0.460    0.262
  322.000  122.882    3.718    0.466    0.259
  322.250  121.635    3.713    0.482    0.257
  322.500  119.778    3.705    0.494    0.263
  322.750  119.767    3.698    0.504    0.268
  323.000  120.980    3.692    0.518    0.275
  323.250  122.193    3.685    0.513    0.273
  323.500  122.187    3.886    0.509    0.268
  323.750  122.166    3.879    0.507    0.269
  324.000  122.156    4.081    0.502    0.272
  324.250  122.146    4.074    0.498    0.275
  324.500  122.126    4.062    0.499    0.272
  324.750  122.116    4.057    0.501    0.271
  325.000  122.099    4.054    0.501    0.273
  325.250  122.089    4.045    0.501    0.276
  325.500  122.687    4.040    0.503    0.280
  325.750  122.681    4.034    0.509    0.284
  326.000  122.667    4.025    0.525    0.290
  326.250  122.032    4.020    0.553    0.295
  326.500  121.411    4.013    0.575    0.290
  326.750  120.168    4.005    0.536    0.282
  327.000  118.925    4.000    0.502    0.273
  327.250  117.067    3.992    0.502    0.259
  327.500  117.668    3.987    0.512    0.255
  327.750  123.188    3.772    0.545    0.264
  328.000  129.323    3.555    0.569    0.270
  328.250  134.843    3.550    0.584    0.272
  328.500  139.133    3.124    0.584    0.279
  328.750  142.805    3.117    0.573    0.284
  329.000  144.636    3.112    0.561    0.280
  329.250  145.238    3.107    0.559    0.266
  329.500  145.224    3.101    0.565    0.261
  329.750  145.211    3.094    0.578    0.250
  330.000  143.353    3.087    0.576    0.239
  330.250  141.489    3.079    0.570    0.243
  330.500  140.252    3.070    0.565    0.247
  330.750  137.161    3.067    0.558    0.249
  331.000  133.462    3.058    0.547    0.230
  331.250  127.916    3.052    0.538    0.184
  331.500  129.132    3.047    0.531    0.155
  331.750  134.037    3.038    0.520    0.177
  332.000  132.172    3.033    0.523    0.231
  332.250  130.936    3.023    0.581    0.249
  332.500  129.690    3.016    0.592    0.268
  332.750  129.680    2.803    0.602    0.274
  333.000  129.666    2.795    0.605    0.275
  333.250  129.035    2.788    0.604    0.273
  333.500  128.410    2.783    0.604    0.268
  333.750  127.167    2.773    0.593    0.276
  334.000  127.768    2.770    0.557    0.280
  334.250  129.596    2.969    0.570    0.270
  334.500  130.815    2.964    0.577    0.263
  334.750  132.032    2.956    0.548    0.264
  335.000  133.248    2.949    0.529    0.265
  335.250  134.457    2.944    0.516    0.265
  335.500  134.451    2.936    0.505    0.264
  335.750  133.204    2.929    0.500    0.267
  336.000  133.194    2.922    0.504    0.268
  336.250  132.559    2.916    0.546    0.264
  336.500  132.549    2.910    0.556    0.258
  336.750  132.533    2.904    0.545    0.262
  337.000  132.519    3.102    0.526    0.272
  337.250  131.276    3.097    0.514    0.275
  337.500  130.036    3.092    0.508    0.275
  337.750  127.557    3.082    0.508    0.277
  338.000  126.321    3.076    0.514    0.277
  338.250  126.307    3.071    0.542    0.273
  338.500  128.135    2.853    0.566    0.266
  338.750  129.355    2.848    0.585    0.265
  339.000  131.186    2.635    0.578    0.276
  339.250  133.631    2.627    0.551    0.287
  339.500  134.233    2.622    0.517    0.283
  339.750  134.834    2.613    0.508    0.259
  340.000  136.662    2.605    0.496    0.234
  340.250  137.882    2.602    0.503    0.229
  340.500  139.709    2.387    0.533    0.229
  340.750  140.311    2.377    0.554    0.237
  341.000  140.297    2.373    0.561    0.246
  341.250  139.054    2.365    0.545    0.251
  341.500  137.196    2.565    0.583    0.260
  341.750  135.953    2.559    0.588    0.269
  342.000  137.784    2.553    0.550    0.269
  342.250  140.845    2.543    0.541    0.269
  342.500  140.832    2.539    0.545    0.267
  342.750  138.974    2.325    0.570    0.266
  343.000  138.345    2.318    0.588    0.266
  343.250  139.562    2.309    0.603    0.266
  343.500  141.396    2.096    0.595    0.258
  343.750  143.227    2.088    0.586    0.249
  344.000  145.670    2.083    0.576    0.247
  344.250  144.427    2.284    0.571    0.252
  344.500  140.724    2.277    0.572    0.264
  344.750  135.789    2.477    0.572    0.269
  345.000  135.164    2.470    0.570    0.270
  345.250  141.914    2.672    0.561    0.266
  345.500  144.974    3.081    0.553    0.265
  345.750  140.042    3.076    0.580    0.260
  346.000  135.725    3.276    0.587    0.257
  346.250  135.712    3.269    0.580    0.249
  346.500  135.084    3.264    0.547    0.255
  346.750  134.455    3.254    0.543    0.263
  347.000  133.212    3.249    0.547    0.252
  347.250  133.196    3.242    0.546    0.236
  347.500  136.260    3.237    0.535    0.229
  347.750  142.394    3.438    0.521    0.193
  348.000  147.911    3.432    0.507    0.142
  348.250  149.745    3.425    0.538    0.170
  348.500  150.962    3.418    0.563    0.199
  348.750  150.333    3.410    0.575    0.212
  349.000  149.702    3.195    0.582    0.218
  349.250  149.688    3.190    0.587    0.224
  349.500  149.675    2.975    0.592    0.230
  349.750  149.662    2.760    0.598    0.237
  350.000  149.033    2.544    0.605    0.241
  350.250  148.409    2.329    0.616    0.247
  350.500  147.777    2.114    0.616    0.251
  350.750  145.922    2.106    0.619    0.256
  351.000  142.217    2.099    0.626    0.266
  351.250  140.974    2.092    0.630    0.272
  351.500  141.575    2.086    0.634    0.280
  351.750  141.565    2.079    0.630    0.279
  352.000  141.542    2.074    0.624    0.273
  352.250  142.150    2.067    0.612    0.276
  352.500  142.136    2.267    0.611    0.282
  352.750  142.123    2.258    0.611    0.287
  353.000  139.035    2.460    0.607    0.284
  353.250  135.330    2.663    0.606    0.283
  353.500  132.860    2.658    0.598    0.281
  353.750  128.540    3.064    0.563    0.283
  354.000  125.456    3.060    0.543    0.288
  354.250  121.750    3.262    0.529    0.287
  354.500  119.281    3.253    0.510    0.282
  354.750  114.964    3.248    0.500    0.280
  355.000  111.261    3.654    0.483    0.284
  355.250  107.556    3.857    0.469    0.291
  355.500  104.468    3.852    0.457    0.297
  355.750  105.688    4.054    0.448    0.302
  356.000  110.593    4.253    0.445    0.307
  356.250  116.110    4.455    0.441    0.308
  356.500  119.174    4.448    0.450    0.300
  356.750  122.234    4.443    0.473    0.293
  357.000  125.910    4.225    0.482    0.282
  357.250  129.579    4.011    0.496    0.274
  357.500  131.413    3.798    0.491    0.269
  357.750  133.859    3.371    0.463    0.274
  358.000  134.460    3.159    0.462    0.274
  358.250  131.984    3.152    0.472    0.270
  358.500  130.133    3.147    0.471    0.268
  358.750  122.124    3.557    0.463    0.266
  359.000  122.722    3.963    0.460    0.273
  359.250  125.171    3.958    0.465    0.279
  359.500  128.843    4.161    0.468    0.280
  359.750  126.989    4.154    0.473    0.276
  360.000  120.827    4.147    0.482    0.276
  360.250  114.047    4.139    0.481    0.280
  360.500  109.119    4.134    0.466    0.286
  360.750  102.957    4.332    0.455    0.286
  361.000   96.177    4.531    0.445    0.281
  361.250   96.164    4.734    0.443    0.274
  361.500   96.765    4.729    0.447    0.264
  361.750   99.211    4.721    0.455    0.265
