~VERSION INFORMATION
 VERS.                 2.0:   CWLS LOG ASCII STANDARD -VERSION 2.0
 WRAP.                  NO:   ONE LINE PER DEPTH STEP
~WELL INFORMATION BLOCK
#MNEM.UNIT           DATA                    DESCRIPTION OF MNEMONIC
#---------    -------------------            -------------------------------
# Generated from Intellog Unique Number	CN_91_93/WELL/3639
WELL.         10-08-093-17W4                 : Well_name    - WELL
LOC .         AA/10-08-093-17W4/0            : Location     - LOCATION
UWI .         AA/10-08-093-17W400            : Uwi          - UNIQUE WELL ID
ENTR.         JOETTE                         : Entered      - ENTERED BY
SRVC.         SCHLUMBERGER                   : Scn          - SERVICE COMPANY
DATE.         03/20/92                       : Date         - LOG DATE
STRT.M        75                             : top_depth    - START DEPTH
STOP.M        255                            : bot_depth    - STOP DEPTH
STEP.M        0.25                           : increment    - STEP LENGTH
 NULL. -999.2500:NULL Value
~CURVE INFORMATION BLOCK
#MNEM UNIT       ERCB CURVE CODE    CURVE DESCRIPTION
#-----------   ------------------   ----------------------------------
DEPT.M        00 001 00 00         : DEPTH        - DEPTH
CALI.MM       00 280 01 00         : CAL          - CALIPER
GR  .API      00 310 00 00         : GR           - GAMMA RAY
NPHI.V/V      00 330 00 00         : PHIN         - NEUTRON POROSITY (SANDSTONE)
DPHI.V/V      00 890 00 00         : PHID         - DENSITY POROSITY (SANDSTONE)
ILD .OHMM     00 120 00 00         : RESD         - DEEP RESISTIVITY (DIL)
~PARAMETER INFORMATION
#MNEM.UNIT           DATA             DESCRIPTION OF MNEMONIC
#---------         -----------     ------------------------------
GL  .M        506.3                : gl           - GROUND LEVEL ELEVATION
EREF.M        509.95               : kb           - ELEVATION OF DEPTH REFERENCE
DATM.M        509.95               : datum        - DATUM ELEVATION
TDD .M        262                  : tdd          - TOTAL DEPTH DRILLER
RUN .         ONE                  : Run          - RUN NUMBER
ENG .         BILL                 : Engineer     - RECORDING ENGINEER
WIT .         JIM                  : Witness      - WITNESSED BY
MUD .         GEL                  : Mud_type     - MUD TYPE
MATR.         SANDSTONE            : Logunit      - NEUTRON MATRIX
TMAX.C        21                   : BHT          - MAXIMUM RECORDED TEMPERATURE
BHTD.M        262                  : BHTDEP       - MAXIMUM RECORDED TEMPERATURE
RMT .C        17.5                 : MDTP         - TEMPERATURE OF MUD
MUDD.KG/M     1130                 : MWT          - MUD DENSITY
NEUT.         1                    : NEUTRON      - NEUTRON TYPE
RESI.         0                    : RESIST       - RESISTIVITY TYPE
RM  .OHMM     9.4                  : RM           - RESISTIVITY OF MUD
RMC .OHMM     9.4                  : RMC          - RESISTIVITY OF MUD CAKE
RMF .OHMM     9.4                  : RMF          - RESISTIVITY OF MUD FILTRATE
SUFT.C        4                    : SUFT         - SURFACE TEMPERATURE
~A  DEPTH      CAL       GR     PHIN     PHID     RESD
# ...
  184.500  191.310  108.224    0.296    0.137   30.142
  184.750  195.244  104.042    0.259    0.045   32.634
  185.000  196.216  101.645    0.317    0.118   30.657
  185.250  199.151  102.823    0.352    0.152   28.245
  185.500  200.122  110.543    0.394    0.176   24.481
  185.750  201.094  118.859    0.426    0.179   20.787
  186.000  207.018  121.223    0.426    0.220   17.657
  186.250  225.836  118.822    0.431    0.224   11.767
  186.500  236.712  120.000    0.438    0.208   12.730
  186.750  239.661  123.551    0.421    0.188   13.511
  187.000  242.616  124.129    0.415    0.218   14.336
  187.250  248.533  122.328    0.441    0.217   14.911
  187.500  252.467  121.717    0.430    0.205   15.188
  187.750  253.439  120.510    0.422    0.187   15.166
  188.000  254.410  118.118    0.408    0.162   14.835
  188.250  256.367  115.122    0.400    0.130   14.528
  188.500  258.317  117.486    0.430    0.184   13.927
  188.750  259.288  124.016    0.424    0.226   13.911
  189.000  262.237  124.595    0.421    0.210   14.760
  189.250  266.170  123.983    0.421    0.204   14.443
  189.500  267.135  123.372    0.419    0.207   13.297
  189.750  267.115  123.951    0.409    0.202   12.496
  190.000  266.089  125.716    0.407    0.211   12.473
  190.250  265.070  127.485    0.412    0.203   12.969
  190.500  264.044  129.849    0.423    0.207   13.490
  190.750  262.040  126.862    0.435    0.218   13.740
  191.000  259.024  120.894    0.422    0.221   14.001
  191.250  258.019  123.849    0.417    0.228   13.980
  191.500  254.025  127.404    0.418    0.232   13.965
  191.750  249.038  129.173    0.430    0.214   14.229
  192.000  242.068  126.780    0.429    0.181   14.204
  192.250  236.090  123.189    0.418    0.170   15.064
  192.500  229.113  120.793    0.405    0.143   15.675
  192.750  224.127  117.206    0.395    0.138   17.304
  193.000  223.108  122.546    0.417    0.187   16.607
  193.250  228.040  130.861    0.428    0.193   15.294
  193.500  231.981  134.411    0.442    0.181   14.373
  193.750  228.978  142.136    0.460    0.217   13.778
  194.000  236.879  145.095    0.467    0.232   12.944
  194.250  236.859  141.508    0.475    0.214   12.671
  194.500  245.758  136.132    0.464    0.213   11.908
  194.750  237.797  133.140    0.479    0.223   11.648
  195.000  223.877  132.529    0.471    0.168   11.170
  195.250  222.858  130.136    0.431    0.134   11.382
  195.500  216.887  125.359    0.424    0.158   12.076
  195.750  210.908  127.723    0.429    0.186   13.074
  196.000  215.834  133.063    0.416    0.208   13.055
  196.250  219.781  136.022    0.421    0.218   12.023
  196.500  223.721  137.196    0.425    0.185   10.851
  196.750  225.671  134.795    0.431    0.178    9.994
  197.000  226.636  132.399    0.439    0.152   10.183
  197.250  226.602  128.812    0.434    0.105   10.796
  197.500  226.582  127.605    0.418    0.103   10.789
  197.750  227.540  128.184    0.418    0.152   10.993
  198.000  227.506  128.763    0.430    0.169   10.977
  198.250  227.493  127.557    0.430    0.160   10.957
  198.500  227.465  124.565    0.422    0.170   10.945
  198.750  226.440  118.002    0.409    0.181   11.152
  199.000  226.419  110.845    0.405    0.171   11.359
  199.250  225.394  103.088    0.394    0.184   13.612
  199.500  225.374   97.121    0.380    0.199   16.977
  199.750  225.340   91.154    0.383    0.203   25.921
  200.000  222.337   85.182    0.384    0.211   28.637
  200.250  219.335   86.356    0.375    0.226   29.158
  200.500  218.316   90.510    0.374    0.214   26.863
  200.750  223.248   93.461    0.402    0.203   24.749
  201.000  227.195   94.643    0.427    0.191   23.259
  201.250  230.137   95.222    0.438    0.179   20.984
  201.500  231.095   93.420    0.448    0.214   20.541
  201.750  232.066   92.210    0.445    0.234   19.699
  202.000  232.032   89.813    0.431    0.247   22.661
  202.250  229.023   83.846    0.417    0.261   27.698
  202.500  226.027   76.684    0.403    0.274   41.428
  202.750  221.041   73.102    0.397    0.288   59.528
  203.000  219.030   68.915    0.389    0.299   61.917
  203.250  218.018   67.709    0.393    0.291   72.656
  203.500  217.991   67.693    0.400    0.287   83.642
  203.750  218.949   68.867    0.408    0.279  108.590
  204.000  219.921   70.636    0.414    0.279  112.907
  204.250  221.870   68.239    0.401    0.286  112.743
  204.500  217.869   67.037    0.388    0.289  101.754
  204.750  214.860   68.806    0.383    0.278   95.626
  205.000  214.846   72.356    0.390    0.265   89.834
  205.250  216.796   72.935    0.399    0.277   87.876
  205.500  213.787   73.510    0.417    0.288   86.054
  205.750  210.791   74.089    0.433    0.303   84.148
  206.000  208.780   74.069    0.451    0.314   84.086
  206.250  208.760   74.060    0.466    0.314   83.964
  206.500  208.733   74.044    0.482    0.304   82.134
  206.750  207.714   74.024    0.479    0.292   82.044
  207.000  197.768   74.012    0.438    0.280   77.047
  207.250  196.743   74.582    0.432    0.265   72.460
  207.500  196.716   74.570    0.413    0.257   61.526
  207.750  196.689   75.149    0.389    0.249   55.488
  208.000  199.637   77.513    0.383    0.237   54.318
  208.250  199.603   82.857    0.394    0.221   54.259
  208.500  201.560   90.577    0.406    0.232   47.030
  208.750  205.507   95.917    0.418    0.263   25.585
  209.000  205.473   94.711    0.428    0.270   24.535
  209.250  200.494   89.930    0.434    0.275   26.032
  209.500  192.532   87.537    0.445    0.281   28.759
  209.750  189.529   84.541    0.452    0.274   29.315
  210.000  190.487   85.120    0.460    0.263   30.480
  210.250  190.467   87.484    0.465    0.269   30.436
  210.500  193.416   91.634    0.460    0.273   29.166
  210.750  196.357   99.354    0.437    0.272   29.145
  211.000  201.290  102.309    0.440    0.261   29.091
  211.250  205.230   99.912    0.436    0.250   29.642
  211.500  207.193   99.305    0.416    0.249   30.204
  211.750  209.150  101.074    0.393    0.237   30.160
  212.000  211.100  105.220    0.370    0.215   28.923
  212.250  215.040  101.633    0.366    0.177   28.302
  212.500  216.990   96.860    0.365    0.205   28.261
  212.750  214.979   93.868    0.362    0.222   28.210
  213.000  213.967   89.682    0.355    0.260   28.755
  213.250  210.965   87.285    0.347    0.300   31.132
  213.500  205.978   87.269    0.371    0.329   36.544
  213.750  201.984   90.828    0.395    0.297   46.495
  214.000  200.965   95.572    0.414    0.287   45.515
  214.250  202.915   99.127    0.411    0.272   40.242
  214.500  205.863   94.345    0.399    0.265   40.183
  214.750  209.810   90.163    0.377    0.285   44.409
  215.000  209.777   87.172    0.368    0.310   52.131
  215.250  207.766   84.180    0.372    0.323   63.720
  215.500  203.771   79.994    0.379    0.337   77.885
  215.750  199.777   76.411    0.388    0.345   86.077
  216.000  193.799   76.395    0.407    0.336  121.209
  216.250  193.772   76.379    0.416    0.325  125.982
  216.500  197.705   72.792    0.393    0.303  128.369
  216.750  200.661   73.371    0.372    0.296  128.182
  217.000  202.617   76.322    0.373    0.297  128.042
  217.250  198.623   76.901    0.381    0.291  127.809
  217.500  187.685   76.884    0.388    0.293  122.476
  217.750  181.700   75.678    0.392    0.275  117.494
  218.000  177.706   73.281    0.389    0.272  110.458
  218.250  171.728   67.913    0.371    0.276  110.297
  218.500  169.724   62.541    0.317    0.247  119.371
  218.750  163.725   57.764    0.196    0.174  126.698
  219.000  162.720   53.582    0.104    0.073  145.750
  219.250  161.701   49.991    0.270    0.018  185.503
  219.500  161.674   50.562    0.308    0.082  236.099
  219.750  160.642   50.553    0.347    0.207  277.249
  220.000  159.636   52.322    0.387    0.229  306.298
  220.250  158.604   54.088    0.397    0.264  195.960
  220.500  158.584   55.857    0.398    0.309  159.853
  220.750  159.548   57.622    0.402    0.318  115.502
