~VERSION INFORMATION
 VERS.                 2.0:   CWLS LOG ASCII STANDARD -VERSION 2.0
 WRAP.                  NO:   ONE LINE PER DEPTH STEP
~WELL INFORMATION BLOCK
#MNEM.UNIT           DATA                    DESCRIPTION OF MNEMONIC
#---------    -------------------            -------------------------------
# Generated from Intellog Unique Number	CN_94_101/WELL/5047
WELL.         15-14-101-13W4                 : Well_name    - WELL
LOC .         AA/15-14-101-13W4/0            : Location     - LOCATION
UWI .         AA/15-14-101-13W400            : Uwi          - UNIQUE WELL ID
ENTR.         TIM                            : Entered      - ENTERED BY
SRVC.         SCHLUMBERGER                   : Scn          - SERVICE COMPANY
DATE.         08/14/92                       : Date         - LOG DATE
STRT.M        370                            : top_depth    - START DEPTH
STOP.M        585                            : bot_depth    - STOP DEPTH
STEP.M        0.25                           : increment    - STEP LENGTH
NULL. -999.2500:NULL Value
~CURVE INFORMATION BLOCK
#MNEM UNIT       ERCB CURVE CODE    CURVE DESCRIPTION
#-----------   ------------------   ----------------------------------
DEPT.M        00 001 00 00         : DEPTH        - DEPTH
GR  .API      00 310 00 00         : GR           - GAMMA RAY
ILD .OHMM     00 120 00 00         : RESD         - DEEP RESISTIVITY (DIL)
NPHI.V/V      00 330 00 00         : PHIN         - NEUTRON POROSITY (SANDSTONE)
DPHI.V/V      00 890 00 00         : PHID         - DENSITY POROSITY (SANDSTONE)
~PARAMETER INFORMATION
#MNEM.UNIT           DATA             DESCRIPTION OF MNEMONIC
#---------         -----------     ------------------------------
GL  .M        804                  : gl           - GROUND LEVEL ELEVATION
EREF.M        809                  : kb           - ELEVATION OF DEPTH REFERENCE
DATM.M        809                  : datum        - DATUM ELEVATION
TDD .M        590                  : tdd          - TOTAL DEPTH DRILLER
RUN .         ONE                  : Run          - RUN NUMBER
ENG .         BILL                 : Engineer     - RECORDING ENGINEER
WIT .         JIM                  : Witness      - WITNESSED BY
MUD .         GEL                  : Mud_type     - MUD TYPE
MATR.         SANDSTONE            : Logunit      - NEUTRON MATRIX
TMAX.C        25                   : BHT          - MAXIMUM RECORDED TEMPERATURE
BHTD.M        590                  : BHTDEP       - MAXIMUM RECORDED TEMPERATURE
RMT .C        10                   : MDTP         - TEMPERATURE OF MUD
MUDD.KG/M     1090                 : MWT          - MUD DENSITY
NEUT.         1                    : NEUTRON      - NEUTRON TYPE
RESI.         0                    : RESIST       - RESISTIVITY TYPE
RM  .OHMM     5.7                  : RM           - RESISTIVITY OF MUD
RMC .OHMM     5.7                  : RMC          - RESISTIVITY OF MUD CAKE
RMF .OHMM     5.7                  : RMF          - RESISTIVITY OF MUD FILTRATE
SUFT.C        4                    : SUFT         - SURFACE TEMPERATURE
~A  DEPTH       GR     RESD     PHIN     PHID
# ...
  413.500   77.121   11.084    0.457    0.311
  413.750   76.505   11.090    0.459    0.308
  414.000   77.745   11.095    0.460    0.313
  414.250   78.983   11.309    0.463    0.319
  414.500   83.315   11.313    0.468    0.324
  414.750   85.172   11.526    0.473    0.329
  415.000   87.648   11.736    0.479    0.338
  415.250   90.124   11.948    0.486    0.344
  415.500   88.271   12.159    0.480    0.347
  415.750   87.655   11.342    0.467    0.337
  416.000   87.658   10.523    0.453    0.328
  416.250   87.042    9.706    0.443    0.319
  416.500   83.953    9.503    0.444    0.307
  416.750   78.391    9.096    0.446    0.298
  417.000   80.248    8.897    0.446    0.297
  417.250   84.579    8.903    0.441    0.303
  417.500   88.909    9.114    0.436    0.295
  417.750   90.767    9.325    0.428    0.295
  418.000   90.151    9.536    0.426    0.301
  418.250   88.299    9.749    0.453    0.305
  418.500   86.447    9.758    0.480    0.306
  418.750   84.594    9.556    0.483    0.308
  419.000   83.360    9.151    0.469    0.312
  419.250   80.890    9.155    0.462    0.314
  419.500   79.656    9.159    0.455    0.319
  419.750   77.185    8.959    0.450    0.326
  420.000   76.570    8.761    0.444    0.323
  420.250   77.191    8.765    0.439    0.322
  420.500   76.575    8.769    0.433    0.325
  420.750   73.485    8.572    0.442    0.334
  421.000   66.687    8.574    0.452    0.342
  421.250   65.453    8.580    0.444    0.350
  421.500   68.547    8.792    0.434    0.348
  421.750   70.404    9.005    0.434    0.343
  422.000   71.026    9.009    0.443    0.333
  422.250   71.028    9.427    0.438    0.332
  422.500   72.268    9.638    0.434    0.334
  422.750   72.269   10.264    0.435    0.338
  423.000   72.891   10.681    0.435    0.342
  423.250   71.038   10.687    0.434    0.344
  423.500   69.804   10.693    0.433    0.343
  423.750   71.662   10.698    0.431    0.340
  424.000   75.374   10.496    0.426    0.340
  424.250   79.087   10.091    0.423    0.337
  424.500   80.326    9.272    0.437    0.332
  424.750   82.802    8.661    0.443    0.320
  425.000   85.896    8.255    0.444    0.314
  425.250   88.373    8.260    0.444    0.303
  425.500   88.993    8.266    0.448    0.298
  425.750   91.468    7.859    0.454    0.302
  426.000   92.089    7.454    0.480    0.306
  426.250   92.092    7.045    0.519    0.308
  426.500   90.241    6.846    0.534    0.314
  426.750   89.005    6.441    0.502    0.320
  427.000   87.771    6.237    0.491    0.332
  427.250   92.102    6.038    0.475    0.335
  427.500  100.143    6.042    0.471    0.302
  427.750  108.183    6.049    0.538    0.288
  428.000  116.224    6.054    0.547    0.281
  428.250  117.464    6.059    0.542    0.284
  428.500  118.703    5.860    0.538    0.286
  428.750  119.942    5.455    0.528    0.283
  429.000  119.944    5.253    0.513    0.282
  429.250  119.947    4.846    0.522    0.278
  429.500  119.331    4.440    0.548    0.277
  429.750  118.716    4.444    0.557    0.275
  430.000  118.718    4.450    0.555    0.270
  430.250  118.721    4.455    0.548    0.267
  430.500  118.105    4.462    0.526    0.265
  430.750  118.107    4.468    0.517    0.262
  431.000  118.728    4.473    0.528    0.266
  431.250  118.730    4.479    0.524    0.267
  431.500  119.970    4.486    0.511    0.267
  431.750  121.209    4.490    0.500    0.267
  432.000  122.448    4.497    0.503    0.265
  432.250  124.925    4.501    0.526    0.263
  432.500  126.163    4.510    0.549    0.261
  432.750  129.876    4.514    0.561    0.261
  433.000  133.589    4.518    0.558    0.260
  433.250  135.447    4.524    0.545    0.260
  433.500  136.067    4.531    0.550    0.260
  433.750  136.069    4.332    0.555    0.261
  434.000  135.453    4.128    0.561    0.263
  434.250  134.838    3.929    0.595    0.287
  434.500  134.223    3.524    0.611    0.291
  434.750  134.224    3.527    0.618    0.295
  435.000  132.372    3.327    0.623    0.307
  435.250  128.047    3.332    0.618    0.318
  435.500  126.813    3.133    0.628    0.326
  435.750  128.052    2.931    0.638    0.333
  436.000  131.146    2.733    0.634    0.326
  436.250  133.003    2.736    0.629    0.319
  436.500  135.480    2.536    0.632    0.313
  436.750  137.337    2.335    0.637    0.315
  437.000  133.629    2.344    0.628    0.316
  437.250  128.067    2.348    0.621    0.314
  437.500  121.887    2.562    0.617    0.308
  437.750  117.562    2.567    0.605    0.300
  438.000  116.945    2.778    0.571    0.289
  438.250  114.475    3.197    0.561    0.284
  438.500  112.004    3.406    0.535    0.282
  438.750  109.533    3.619    0.529    0.288
  439.000  105.208    3.832    0.519    0.297
  439.250  100.264    3.837    0.482    0.304
  439.500   99.031    4.047    0.468    0.306
  439.750   99.033    4.465    0.472    0.304
  440.000  100.272    5.295    0.475    0.303
  440.250  102.130    6.744    0.472    0.302
  440.500  105.223    7.573    0.468    0.299
  440.750  108.318    7.990    0.496    0.288
  441.000  110.793    8.203    0.504    0.271
  441.250  121.925    8.003    0.515    0.261
  441.500  131.821    7.390    0.522    0.266
  441.750  127.495    6.573    0.528    0.271
  442.000  121.315    6.165    0.531    0.274
  442.250  115.135    5.348    0.518    0.273
  442.500  113.282    4.941    0.492    0.269
  442.750  115.758    4.741    0.467    0.264
  443.000  120.089    5.363    0.456    0.262
  443.250  122.564    5.987    0.449    0.262
  443.500  126.277    7.024    0.455    0.269
  443.750  125.043    7.029    0.478    0.274
  444.000  111.443    6.416    0.491    0.279
  444.250  108.354    5.806    0.498    0.285
  444.500  102.174    5.398    0.492    0.292
  444.750   98.466    5.199    0.468    0.303
  445.000   92.286    5.202    0.458    0.309
  445.250   87.342    5.622    0.447    0.303
  445.500   81.780    5.831    0.416    0.290
  445.750   79.928    6.455    0.403    0.274
  446.000   86.113    7.491    0.384    0.259
  446.250   94.154    8.321    0.409    0.248
  446.500   96.012    8.945    0.432    0.252
  446.750   97.870    9.158    0.452    0.263
  447.000   99.727    8.753    0.458    0.273
  447.250  102.820    8.345    0.465    0.280
  447.500  108.388    7.732    0.489    0.286
  447.750  113.955    6.501    0.518    0.289
  448.000  121.377    5.272    0.544    0.290
  448.250  123.854    4.864    0.570    0.291
  448.500  122.619    4.460    0.567    0.293
  448.750  120.767    4.258    0.554    0.291
  449.000  120.151    4.056    0.546    0.291
  449.250  120.772    3.857    0.539    0.291
  449.500  122.630    4.070    0.535    0.291
  449.750  123.870    4.073    0.552    0.291
  450.000  124.490    4.700    0.560    0.291
  450.250  125.730    4.910    0.551    0.293
  450.500  126.351    5.535    0.545    0.298
  450.750  126.970    5.538    0.549    0.300
  451.000  126.354    5.544    0.556    0.305
  451.250  122.647    5.140    0.565    0.310
  451.500  118.322    4.732    0.532    0.312
  451.750  123.271    4.531    0.502    0.319
  452.000  132.548    4.125    0.507    0.323
  452.250  140.589    3.924    0.518    0.323
  452.500  138.118    3.930    0.529    0.320
  452.750  133.174    3.728    0.540    0.319
  453.000  127.612    3.734    0.540    0.321
  453.250  127.615    3.742    0.532    0.322
  453.500  123.908    3.748    0.523    0.321
  453.750  118.963    3.753    0.509    0.317
  454.000  115.874    3.759    0.499    0.312
  454.250  114.022    3.764    0.497    0.309
  454.500  112.169    3.769    0.490    0.301
  454.750  109.699    4.188    0.485    0.299
  455.000  107.846    4.604    0.482    0.294
  455.250  105.376    5.640    0.474    0.305
  455.500  104.142    6.882    0.472    0.314
  455.750  106.619    8.332    0.466    0.317
  456.000  109.094    8.956    0.466    0.311
  456.250  112.806    9.373    0.495    0.309
  456.500  112.810    9.586    0.518    0.305
  456.750  110.340    9.589    0.535    0.307
