~VERSION INFORMATION
 VERS.                 2.0:   CWLS LOG ASCII STANDARD -VERSION 2.0
 WRAP.                  NO:   ONE LINE PER DEPTH STEP
~WELL INFORMATION BLOCK
#MNEM.UNIT           DATA                    DESCRIPTION OF MNEMONIC
#---------    -------------------            -------------------------------
# Generated from Intellog Unique Number	CC_80_83/WELL/2348
NULL.         -999.25                        : NULL_VALUE
WELL.         PEX PCEJ KEANE OV              : Well_name    - WELL
LOC .         10-11-080-15W4                 : Location     - LOCATION          
UWI .         AA/10-11-080-15W4/0            : Uwi          - UNIQUE WELL ID    
ENTR.         DW                             : Entered      - ENTERED BY        
SRVC.         SCHLUMBERGER                   : Scn          - SERVICE COMPANY   
DATE.         08 JAN 81                      : Date         - LOG DATE
STRT.M        200                            : top_depth    - START DEPTH       
STOP.M        430.093                        : bot_depth    - STOP DEPTH        
STEP.M        0.3                            : increment    - STEP LENGTH       
~CURVE INFORMATION BLOCK
#MNEM UNIT       ERCB CURVE CODE    CURVE DESCRIPTION
#-----------   ------------------   ----------------------------------
DEPT.M        00 001 00 00         : DEPTH        - DEPTH                       
DPHI.V/V      00 890 00 00         : PHID         - DENSITY POROSITY (LIMESTONE)
NPHI.V/V      00 330 00 00         : PHIN         - NEUTRON POROSITY (LIMESTONE)
GR  .API      00 310 00 00         : GR           - GAMMA RAY                   
ILD .OHMM     00 120 00 00         : RESD         - DEEP RESISTIVITY (DIL)      
~PARAMETER INFORMATION       
#MNEM.UNIT           DATA             DESCRIPTION OF MNEMONIC
#---------         -----------     ------------------------------
GL  .M        612                  : gl           - GROUND LEVEL ELEVATION      
EREF.M        615                  : kb           - ELEVATION OF DEPTH REFERENCE
DATM.M        615                  : datum        - DATUM ELEVATION             
TDD .M        440                  : tdd          - TOTAL DEPTH DRILLER         
RUN .         ONE                  : Run          - RUN NUMBER                  
ENG .         BILL                 : Engineer     - RECORDING ENGINEER          
WIT .         JIM                  : Witness      - WITNESSED BY                
MUD .         GEL                  : Mud_type     - MUD TYPE                    
MATR.         LIMESTONE            : Logunit      - NEUTRON MATRIX              
TMAX.C        27                   : BHT          - MAXIMUM RECORDED TEMPERATURE
BHTD.M        440                  : BHTDEP       - MAXIMUM RECORDED TEMPERATURE
MATR.         1                    : LOGUNIT      - NEUTRON MATRIX              
RMT .C        25                   : MDTP         - TEMPERATURE OF MUD          
NEUT.         1                    : NEUTRON      - NEUTRON TYPE                
RESI.         0                    : RESIST       - RESISTIVITY TYPE            
RMC .OHMM     0.25                 : RMC          - RESISTIVITY OF MUD CAKE     
RMF .OHMM     0.25                 : RMF          - RESISTIVITY OF MUD FILTRATE 
SUFT.C        15                   : SUFT         - SURFACE TEMPERATURE         
~A  DEPTH     PHID     PHIN       GR     RESD
  200.000    0.265    0.482   96.050    4.198
  200.300    0.249    0.503   97.311    4.278
  200.600    0.239    0.505   96.687    4.444
  200.900    0.245    0.474   92.924    4.443
  201.200    0.263    0.456   94.812    4.357
  201.500    0.275    0.464   99.211    4.193
  201.800    0.268    0.485  103.610    4.035
  202.100    0.264    0.478   94.198    3.808
  202.400    0.279    0.474   96.714    3.664
  202.700    0.306    0.463   88.558    3.664
  203.000    0.304    0.453   89.818    3.663
  203.300    0.309    0.472   91.706    3.662
  203.600    0.340    0.485   89.827    3.804
  203.900    0.368    0.473   91.716    4.105
  204.200    0.340    0.457   89.210    4.430
  204.500    0.295    0.443   86.074    4.968
  204.800    0.220    0.417   81.057    6.130
  205.100    0.261    0.338   72.900    8.011
  205.400    0.290    0.358   62.861   11.741
  205.700    0.325    0.402   65.377   12.195
  206.000    0.411    0.428   73.542   11.962
  206.300    0.428    0.396   82.336   11.078
  206.600    0.382    0.386   77.318   10.258
  206.900    0.303    0.399   81.089    9.871
  207.200    0.298    0.394   78.583   10.254
  207.500    0.288    0.388   81.726   11.281
  207.800    0.305    0.398   72.315   12.894
  208.100    0.303    0.383   71.064   15.312
  208.400    0.293    0.378   74.209   16.844
  208.700    0.292    0.373   75.467   17.496
  209.000    0.288    0.371   80.495   17.161
  209.300    0.290    0.378   85.521   15.007
  209.600    0.293    0.398   83.014   12.874
  209.900    0.328    0.390   78.625   11.475
  210.200    0.405    0.424   77.374   10.426
  210.500    0.346    0.433   75.495    9.472
  210.800    0.318    0.394   69.850    8.443
  211.100    0.353    0.455   81.783    6.582
  211.400    0.318    0.490   80.532    5.540
  211.700    0.307    0.485   85.559    4.662
  212.000    0.311    0.465   89.957    4.156
  212.300    0.296    0.448   94.984    4.076
  212.600    0.252    0.431   98.755    4.749
  212.900    0.270    0.375   83.066    7.095
  213.200    0.326    0.313   79.303   13.082
  213.500    0.304    0.306   71.147   18.455
  213.800    0.334    0.336   59.852   20.695
  214.100    0.321    0.365   59.857   18.445
  214.400    0.288    0.347   66.139   15.524
  214.700    0.282    0.363   69.910   13.064
  215.000    0.284    0.385   86.865   12.572
  215.300    0.263    0.396   93.776   12.095
  215.600    0.246    0.398   83.736   12.328
  215.900    0.241    0.396   82.486   13.304
  216.200    0.245    0.389   84.372   13.049
  216.500    0.255    0.383   85.005   12.085
  216.800    0.286    0.395   98.820   10.171
  217.100    0.393    0.421  102.592    8.083
  217.400    0.286    0.425   98.830    6.802
  217.700    0.303    0.428   97.579    7.342
  218.000    0.373    0.423   93.817    9.412
  218.300    0.385    0.383   86.288   13.026
  218.600    0.362    0.374   73.110   15.768
  218.900    0.277    0.376   85.042   16.067
  219.200    0.283    0.389   85.674   16.064
  219.500    0.273    0.366   74.379   16.369
  219.800    0.268    0.370   84.428   18.008
  220.100    0.284    0.381   94.477   19.436
  220.400    0.318    0.375   83.810   20.974
  220.700    0.328    0.329   76.909   21.375
  221.000    0.317    0.361   78.169   21.369
  221.300    0.300    0.378   77.547   20.173
  221.600    0.288    0.389   79.433   18.327
  221.900    0.271    0.384   93.878   17.637
  222.200    0.267    0.379   96.393   16.648
  222.500    0.268    0.369   99.537   17.292
  222.800    0.275    0.374   94.519   17.961
  223.100    0.278    0.364   88.246   17.957
  223.400    0.267    0.361   92.646   17.279
  223.700    0.256    0.369   93.908   16.003
  224.000    0.252    0.382   95.166   12.963
  224.300    0.269    0.390   94.543   10.106
  224.600    0.300    0.384   92.035    9.724
  224.900    0.389    0.381   78.857   10.296
  225.200    0.345    0.363   77.607   11.996
  225.500    0.321    0.314   75.727   14.801
  225.800    0.335    0.300   68.199   16.283
  226.100    0.321    0.285   60.671   17.241
  226.400    0.329    0.267   56.281   17.569
  226.700    0.283    0.343   63.191   16.270
  227.000    0.280    0.367   62.567   15.359
  227.300    0.272    0.355   50.017   15.355
  227.600    0.280    0.364   49.394   16.891
  227.900    0.267    0.347   46.259   18.230
  228.200    0.255    0.329   40.614   20.053
  228.500    0.265    0.334   44.385   20.832
  228.800    0.257    0.339   37.484   22.481
  229.100    0.252    0.332   34.978   22.912
  229.400    0.288    0.340   29.333   22.471
  229.700    0.296    0.346   23.689   21.622
  230.000    0.289    0.349   25.578   20.804
  230.300    0.288    0.361   27.464   20.801
  230.600    0.286    0.332   30.607   21.195
  230.900    0.278    0.345   28.730   21.601
  231.200    0.271    0.352   26.222   22.012
  231.500    0.294    0.351   24.971   22.430
  231.800    0.311    0.350   24.976   22.001
  232.100    0.310    0.350   24.982   20.767
  232.400    0.305    0.351   23.104   20.762
  232.700    0.301    0.346   24.990   20.759
  233.000    0.299    0.336   27.506   21.976
  233.300    0.305    0.329   29.393   21.972
  233.600    0.316    0.350   26.259   21.549
  233.900    0.317    0.339   24.381   21.546
  234.200    0.319    0.337   31.920   20.732
  234.500    0.332    0.356   36.317   19.949
  234.800    0.306    0.334   27.534   19.564
  235.100    0.309    0.321   21.260   19.558
  235.400    0.307    0.331   23.148   18.821
  235.700    0.193    0.363   31.942   15.841
  236.000    0.178    0.391   89.073   10.006
  236.300    0.234    0.423  102.889    8.584
  236.600    0.279    0.433  104.150    9.264
  236.900    0.275    0.416  102.898   10.589
  237.200    0.285    0.388   95.998   11.648
  237.500    0.315    0.375   92.236   11.871
  237.800    0.409    0.409   94.123   11.868
  238.100    0.381    0.454  105.428   11.203
  238.400    0.435    0.480   96.645   10.375
  238.700    0.306    0.409   94.765    9.426
  239.000    0.335    0.418   96.652    8.401
  239.300    0.406    0.467  101.679    8.240
  239.600    0.422    0.412  112.984    8.893
  239.900    0.336    0.376  118.639   10.562
  240.200    0.262    0.363  121.782   11.620
  240.500    0.260    0.358  109.859   12.540
  240.800    0.260    0.394  102.330   13.025
  241.100    0.257    0.407  102.963   13.275
  241.400    0.257    0.398   99.829   12.529
  241.700    0.256    0.388  101.090   12.290
  242.000    0.254    0.384   99.210   12.524
  242.300    0.249    0.386  101.100   12.283
  242.600    0.242    0.359  113.031   12.048
  242.900    0.237    0.366  110.525   12.276
  243.200    0.245    0.372  109.273   12.511
  243.500    0.252    0.371  113.673   12.750
  243.800    0.257    0.381  102.377   12.745
  244.100    0.260    0.358   75.388   12.265
  244.400    0.257    0.366   70.999   11.577
  244.700    0.255    0.378   72.886   11.140
  245.000    0.256    0.380   76.030   11.138
  245.300    0.265    0.361   74.152   11.569
  245.600    0.275    0.375   71.645   11.790
  245.900    0.265    0.374   70.394   12.483
  246.200    0.263    0.354   70.398   13.217
  246.500    0.261    0.362   72.913   13.994
  246.800    0.257    0.372   67.269   15.102
  247.100    0.257    0.375   62.251   15.989
  247.400    0.263    0.379   59.117   16.610
  247.700    0.286    0.380   55.984   17.253
  248.000    0.297    0.380   55.987   17.248
  248.300    0.275    0.377   62.269   16.596
  248.600    0.237    0.354   65.413   15.970
  248.900    0.272    0.384   61.651   14.790
  249.201    0.277    0.374   63.540   13.182
  249.501    0.274    0.357   66.683   12.209
  249.801    0.269    0.382   71.081    8.168
  250.101    0.284    0.424   79.874    6.247
  250.401    0.348    0.445   98.085    5.568
  250.701    0.323    0.454  114.412    5.358
  251.001    0.289    0.451  115.045    5.460
  251.301    0.293    0.452  110.654    5.672
  251.601    0.283    0.405  110.659    6.121
  251.901    0.297    0.386  104.387    6.734
