~VERSION INFORMATION
 VERS.                 2.0:   CWLS LOG ASCII STANDARD -VERSION 2.0
 WRAP.                  NO:   ONE LINE PER DEPTH STEP
~WELL INFORMATION BLOCK
#MNEM.UNIT           DATA                    DESCRIPTION OF MNEMONIC
#---------    -------------------            -------------------------------
# Generated from Intellog Unique Number	CC_88_90/WELL/3139
WELL.         CAN KEWANEE                    : Well_name    - WELL
LOC .         AA/10-29-088-14W4/0            : Location     - LOCATION
UWI .         AA/10-29-088-14W400            : Uwi          - UNIQUE WELL ID
ENTR.         T                              : Entered      - ENTERED BY
SRVC.         SCHLUMBERGER                   : Scn          - SERVICE COMPANY
STRT.F        200                            : top_depth    - START DEPTH
STOP.F        739.698                        : bot_depth    - STOP DEPTH
STEP.F        0.82                           : increment    - STEP LENGTH
 NULL. -999.2500:NULL Value
~CURVE INFORMATION BLOCK
#MNEM UNIT       ERCB CURVE CODE    CURVE DESCRIPTION
#-----------   ------------------   ----------------------------------
DEPT.F        00 001 00 00         : DEPTH        - DEPTH
GR  .API      00 310 00 00         : GR           - GAMMA RAY
NPHI.V/V      00 330 00 00         : PHIN         - NEUTRON POROSITY (SANDSTONE)
ILD .OHMM     00 120 00 00         : RESD         - DEEP RESISTIVITY (DIL)
~PARAMETER INFORMATION
#MNEM.UNIT           DATA             DESCRIPTION OF MNEMONIC
#---------         -----------     ------------------------------
GL  .F        1700.8               : gl           - GROUND LEVEL ELEVATION
EREF.F        1700.8               : kb           - ELEVATION OF DEPTH REFERENCE
DATM.F        1700.8               : datum        - DATUM ELEVATION
TDD .F        745                  : tdd          - TOTAL DEPTH DRILLER
RUN .         ONE                  : Run          - RUN NUMBER
ENG .         BILL                 : Engineer     - RECORDING ENGINEER
WIT .         JIM                  : Witness      - WITNESSED BY
MUD .         GEL                  : Mud_type     - MUD TYPE
MATR.         SANDSTONE            : Logunit      - NEUTRON MATRIX
TMAX.F        56                   : BHT          - MAXIMUM RECORDED TEMPERATURE
BHTD.F        745                  : BHTDEP       - MAXIMUM RECORDED TEMPERATURE
MATR.         1                    : LOGUNIT      - NEUTRON MATRIX
RMT .F        56                   : MDTP         - TEMPERATURE OF MUD
NEUT.         1                    : NEUTRON      - NEUTRON TYPE
RESI.         0                    : RESIST       - RESISTIVITY TYPE
RMC .OHMM     7.7                  : RMC          - RESISTIVITY OF MUD CAKE
RMF .OHMM     7.7                  : RMF          - RESISTIVITY OF MUD FILTRATE
SUFT.F        40                   : SUFT         - SURFACE TEMPERATURE
~A  DEPTH       GR     PHIN     RESD
# ...
  377.986   63.936    0.415   23.777
  378.806   64.374    0.401   23.777
  379.626   65.206    0.401   24.006
  380.446   65.644    0.396   23.936
  381.266   66.490    0.407   23.936
  382.087   66.521    0.411   23.791
  382.907   66.127    0.411   23.571
  383.727   64.525    0.422   23.276
  384.547   63.739    0.420   23.054
  385.367   63.769    0.409   22.909
  386.188   63.769    0.402   22.761
  387.008   64.207    0.389   22.690
  387.828   65.053    0.378   22.690
  388.648   66.716    0.390   22.397
  389.469   68.394    0.412   22.251
  390.289   68.394    0.424   22.180
  391.109   69.240    0.435   22.182
  391.929   68.877    0.454   22.185
  392.749   68.076    0.461   22.263
  393.570   67.275    0.461   22.415
  394.390   65.672    0.466   22.493
  395.210   64.055    0.456   22.644
  396.030   64.055    0.446   22.869
  396.850   60.834    0.446   23.096
  397.671   64.538    0.457   21.980
  398.491   78.053    0.475   17.288
  399.311   84.629    0.496   16.396
  400.131   82.603    0.499   14.089
  400.951   78.128    0.497   11.483
  401.772   81.832    0.494   10.814
  402.592   85.127    0.493   10.594
  403.412   85.157    0.491   10.598
  404.232   83.540    0.491   10.748
  405.052   78.263    0.493   11.050
  405.873   79.095    0.501   12.841
  406.693   90.161    0.507   14.185
  407.513   94.272    0.513   15.231
  408.333   98.384    0.518    9.644
  409.154  100.047    0.520    7.486
  409.974  102.118    0.520    6.818
  410.794  104.597    0.523    6.747
  411.614  104.597    0.524    6.751
  412.434  107.499    0.523    6.754
  413.255  105.081    0.521    6.754
  414.075  103.871    0.519    6.757
  414.895  101.044    0.516    6.986
  415.715  100.243    0.513    7.136
  416.535   93.319    0.510    7.361
  417.356   85.170    0.486    8.184
  418.176   78.655    0.484    9.081
  418.996   71.323    0.473   12.140
  419.816   70.945    0.464   18.179
  420.636   71.383    0.454   21.536
  421.457   71.413    0.446   21.540
  422.277   71.443    0.441   21.392
  423.097   71.443    0.432   21.098
  423.917   70.657    0.433   20.950
  424.738   69.054    0.437   20.805
  425.558   70.309    0.445   20.882
  426.378   74.829    0.460   20.959
  427.198   74.829    0.463   20.962
  428.018   76.915    0.465   20.667
  428.839   75.312    0.457   20.073
  429.659   74.526    0.448   18.659
  430.479   74.148    0.443   17.769
  431.299   74.979    0.439   17.547
  432.119   76.642    0.438   16.805
  432.940   81.162    0.454   16.434
  433.760   88.131    0.468   15.171
  434.580   88.978    0.477   15.100
  435.400   86.559    0.477   15.474
  436.220   85.757    0.460   15.999
  437.041   83.731    0.453   15.999
  437.861   82.552    0.460   16.376
  438.681   83.383    0.473   16.007
  439.501   86.271    0.478   15.564
  440.322   91.607    0.476   15.416
  441.142   92.454    0.468   14.973
  441.962   93.285    0.461   14.676
  442.782   93.315    0.463   14.233
  443.602   93.345    0.468   14.011
  444.423   92.559    0.477   13.344
  445.243   90.941    0.477   13.645
  446.063   90.941    0.491   13.870
  446.883   89.354    0.523   14.916
  447.703   86.935    0.494   15.888
  448.524   83.276    0.485   16.636
  449.344   77.577    0.461   18.204
  450.164   69.020    0.443   19.548
  450.984   65.362    0.426   21.564
  451.804   59.269    0.417   21.417
  452.625   72.361    0.428   21.122
  453.445   82.610    0.444   20.975
  454.265   93.268    0.454   19.787
  455.085   90.426    0.465   18.969
  455.906   87.584    0.467   18.969
  456.726   81.068    0.459   18.601
  457.546   81.068    0.463   15.176
  458.366   74.582    0.465   14.359
  459.186   87.281    0.470   13.617
  460.007   90.183    0.474   13.321
  460.827   87.341    0.483   12.356
  461.647   84.907    0.485   11.314
  462.467   82.881    0.489   11.318
  463.287   80.871    0.487   12.140
  464.108   80.069    0.483   13.857
  464.928   78.482    0.476   14.754
  465.748   76.864    0.471   15.875
  466.568   75.655    0.466   17.219
  467.388   75.685    0.463   17.219
  468.209   78.980    0.466   17.671
  469.029   80.643    0.468   15.587
  469.849   81.882    0.472   14.398
  470.669   83.545    0.481   13.729
  471.490   88.473    0.485   12.392
  472.310   92.177    0.494   11.500
  473.130   93.840    0.505   10.905
  473.950   94.701    0.519    9.791
  474.770   93.900    0.529    8.974
  475.591   92.282    0.543    8.974
  476.411   89.440    0.523    8.010
  477.231   87.838    0.519    8.461
  478.051   87.838    0.512    9.209
  478.871   85.434    0.497    9.808
  479.692   85.056    0.476   10.705
  480.512   85.086    0.471   12.347
  481.332   85.116    0.476   12.798
  482.152   85.131    0.479   12.650
  482.972   85.161    0.491   12.058
  483.793   86.007    0.491   11.761
  484.613   86.839    0.485   11.617
  485.433   86.839    0.478   11.768
  486.253   87.700    0.477   11.919
  487.073   83.649    0.477   12.741
  487.894   83.664    0.474   16.322
  488.714   86.551    0.461   17.666
  489.534   86.989    0.454   18.563
  490.354   87.428    0.448   17.894
  491.175   86.626    0.448   17.376
  491.995   84.615    0.446   16.709
  492.815   82.590    0.456   16.413
  493.635   78.946    0.449   16.193
  494.455   77.329    0.443   16.345
  495.276   75.726    0.433   16.496
  496.096   74.925    0.430   16.648
  496.916   73.730    0.439   16.799
  497.736   71.720    0.450   21.945
  498.556   70.918    0.458   22.842
  499.377   68.499    0.462   22.695
  500.197   70.963    0.462   21.655
  501.017   79.988    0.459   21.359
  501.837   86.957    0.454   20.841
  502.657   88.620    0.439   20.321
  503.478   85.778    0.418   19.803
  504.298   78.446    0.395   19.507
  505.118   72.353    0.370   18.989
  505.938   72.368    0.369   18.992
  506.759   76.480    0.377   19.441
  507.579   77.327    0.388   19.891
  508.399   74.091    0.394   20.639
  509.219   73.290    0.410   21.611
  510.039   72.504    0.415   22.657
  510.860   73.350    0.421   23.331
  511.680   74.182    0.426   23.483
  512.500   76.661    0.430   23.337
  513.320   77.522    0.433   22.966
  514.140   77.522    0.438   22.596
  514.961   77.144    0.440   21.854
  515.781   77.144    0.445   21.409
  516.601   76.373    0.448   20.369
  517.421   76.403    0.453   19.924
  518.241   75.209    0.458   19.106
  519.062   74.407    0.460   18.514
  519.882   72.805    0.431   18.070
  520.702   72.004    0.414   17.699
  521.522   69.177    0.388   16.807
  522.343   68.375    0.373   16.363
  523.163   74.543    0.379   15.845
  523.983   78.247    0.388   15.698
  524.803   79.486    0.411   15.403
  525.623   81.557    0.453   15.181
  526.444   83.643    0.464   15.110
  527.264   83.673    0.472   14.964
  528.084   83.673    0.472   14.819
  528.904   83.295    0.475   14.819
  529.724   83.325    0.477   14.673
  530.545   83.355    0.479   14.527
  531.365   84.202    0.485   14.233
  532.185   84.625    0.481   14.087
  533.005   85.063    0.478   13.941
  533.825   85.910    0.471   13.720
  534.646   86.756    0.469   13.498
  535.466   87.588    0.465   13.203
  536.286   90.067    0.459   13.056
  537.106   92.546    0.458   12.761
  537.927   95.025    0.458   12.392
  538.747   95.463    0.464   12.245
  539.567   96.309    0.470   11.950
  540.387   96.325    0.479   11.803
  541.207   95.523    0.482   11.659
  542.028   88.599    0.489   11.809
  542.848   85.364    0.493   11.960
  543.668   83.746    0.492   12.559
  544.488   82.960    0.485   13.680
  545.308   82.960    0.475   15.471
  546.129   83.414    0.459   15.623
  546.949   85.076    0.456   15.329
  547.769   90.413    0.431   14.809
  548.589   88.810    0.408   13.246
  549.409   88.432    0.412   13.246
  550.230   88.870    0.415   15.860
  551.050   89.717    0.428   15.642
  551.870   90.548    0.432   15.494
  552.690   92.211    0.446   15.423
  553.510   94.267    0.449   15.575
  554.331   96.746    0.454   15.726
  555.151   95.960    0.459   16.176
