~VERSION INFORMATION
 VERS.                 2.0:   CWLS LOG ASCII STANDARD -VERSION 2.0
 WRAP.                  NO:   ONE LINE PER DEPTH STEP
~WELL INFORMATION BLOCK
#MNEM.UNIT           DATA                    DESCRIPTION OF MNEMONIC
#---------    -------------------            -------------------------------
# Generated from Intellog Unique Number	CS_73_76/WELL/3285
WELL.         AMOCO KIRBY                    : Well_name    - WELL
LOC .         AA/10-11-074-07W4/0            : Location     - LOCATION
UWI .         AA/10-11-074-07W4/0            : Uwi          - UNIQUE WELL ID
ENTR.         TIM                            : Entered      - ENTERED BY
SRVC.         SCHLUMBERGER                   : Scn          - SERVICE COMPANY
STRT.M        300                            : top_depth    - START DEPTH
STOP.M        515                            : bot_depth    - STOP DEPTH
STEP.M        0.25                           : increment    - STEP LENGTH
 NULL. -999.2500:NULL Value
~CURVE INFORMATION BLOCK
#MNEM UNIT       ERCB CURVE CODE    CURVE DESCRIPTION
#-----------   ------------------   ----------------------------------
DEPT.M        00 001 00 00         : DEPTH        - DEPTH
NPHI.V/V      00 330 00 00         : PHIN         - NEUTRON POROSITY (SANDSTONE)
GR  .API      00 310 00 00         : GR           - GAMMA RAY
DPHI.V/V      00 890 00 00         : PHID         - DENSITY POROSITY (SANDSTONE)
ILD .OHMM     00 120 00 00         : RESD         - DEEP RESISTIVITY (DIL)
~PARAMETER INFORMATION
#MNEM.UNIT           DATA             DESCRIPTION OF MNEMONIC
#---------         -----------     ------------------------------
GL  .M        685.15               : gl           - GROUND LEVEL ELEVATION
EREF.M        688.25               : kb           - ELEVATION OF DEPTH REFERENCE
DATM.M        688.25               : datum        - DATUM ELEVATION
TDD .M        519                  : tdd          - TOTAL DEPTH DRILLER
RUN .         ONE                  : Run          - RUN NUMBER
ENG .         BILL                 : Engineer     - RECORDING ENGINEER
WIT .         JIM                  : Witness      - WITNESSED BY
MUD .         GEL                  : Mud_type     - MUD TYPE
MATR.         SANDSTONE            : Logunit      - NEUTRON MATRIX
TMAX.C        22                   : BHT          - MAXIMUM RECORDED TEMPERATURE
BHTD.M        519                  : BHTDEP       - MAXIMUM RECORDED TEMPERATURE
RMT .C        20                   : MDTP         - TEMPERATURE OF MUD
MUDD.KG/M     1150                 : MWT          - MUD DENSITY
NEUT.         1                    : NEUTRON      - NEUTRON TYPE
RESI.         0                    : RESIST       - RESISTIVITY TYPE
RM  .OHMM     6.05                 : RM           - RESISTIVITY OF MUD
RMC .OHMM     5.92                 : RMC          - RESISTIVITY OF MUD CAKE
RMF .OHMM     6.3                  : RMF          - RESISTIVITY OF MUD FILTRATE
SUFT.C        4                    : SUFT         - SURFACE TEMPERATURE
~A  DEPTH     PHIN       GR     PHID     RESD
# ...
  387.000    0.403   72.726    0.283    3.740
  387.250    0.410   68.553    0.288    3.667
  387.500    0.423   67.353    0.294    3.597
  387.750    0.440   67.330    0.299    3.461
  388.000    0.428   69.089    0.308    3.268
  388.250    0.420   70.251    0.318    3.144
  388.500    0.414   70.830    0.325    3.142
  388.750    0.413   69.621    0.333    3.139
  389.000    0.416   69.607    0.321    3.138
  389.250    0.422   71.366    0.305    3.195
  389.500    0.431   74.904    0.292    3.315
  389.750    0.450   80.221    0.296    3.439
  390.000    0.434   77.238    0.301    3.570
  390.250    0.420   71.291    0.313    3.703
  390.500    0.415   67.706    0.328    3.701
  390.750    0.420   67.094    0.335    3.839
  391.000    0.430   66.487    0.337    3.838
  391.250    0.424   63.499    0.333    3.908
  391.500    0.415   60.517    0.321    3.831
  391.750    0.411   68.802    0.303    3.756
  392.000    0.408   78.861    0.289    3.684
  392.250    0.405   79.430    0.272    3.545
  392.500    0.404   78.225    0.261    3.476
  392.750    0.410   81.175    0.263    3.282
  393.000    0.417   90.641    0.272    3.159
  393.250    0.433   97.143    0.280    3.039
  393.500    0.457   96.532    0.278    2.980
  393.750    0.456   92.956    0.278    2.978
  394.000    0.446   85.819    0.282    3.032
  394.250    0.446   87.573    0.283    3.088
  394.500    0.452   89.338    0.283    3.265
  394.750    0.456   90.505    0.282    3.518
  395.000    0.455   91.667    0.282    3.863
  395.250    0.440   92.241    0.282    4.489
  395.500    0.428   92.217    0.279    5.315
  395.750    0.410   92.203    0.270    5.947
  396.000    0.405   89.813    0.263    6.654
  396.250    0.405   85.649    0.258    7.170
  396.500    0.405   80.888    0.257    7.582
  396.750    0.407   71.972    0.258    8.016
  397.000    0.408   70.767    0.260    8.316
  397.250    0.409   72.522    0.261    8.470
  397.500    0.414   74.282    0.261    8.624
  397.750    0.416   77.232    0.261    8.618
  398.000    0.413   81.955    0.261    8.452
  398.250    0.415   87.865    0.261    8.288
  398.500    0.425   83.103    0.261    8.126
  398.750    0.427   76.564    0.261    7.970
  399.000    0.424   77.137    0.261    7.522
  399.250    0.419   83.042    0.261    7.239
  399.500    0.414   84.802    0.261    7.099
  399.750    0.411   89.525    0.258    6.832
  400.000    0.407   95.434    0.254    6.329
  400.250    0.412   96.601    0.249    6.208
  400.500    0.418   90.654    0.248    5.973
  400.750    0.427   86.486    0.246    5.857
  401.000    0.435   85.281    0.244    5.743
  401.250    0.428   88.226    0.242    5.528
  401.500    0.415   89.981    0.244    4.573
  401.750    0.412   89.962    0.248    4.081
  402.000    0.418   89.948    0.251    3.377
  402.250    0.429   87.558    0.257    3.013
  402.500    0.437   88.127    0.259    2.792
  402.750    0.441   89.887    0.264    2.687
  403.000    0.450   93.425    0.270    2.685
  403.250    0.451   97.556    0.273    2.683
  403.500    0.455   98.722    0.278    2.681
  403.750    0.455   94.554    0.276    2.679
  404.000    0.448   95.721    0.272    2.677
  404.250    0.440   95.702    0.267    2.777
  404.500    0.433   93.904    0.257    2.882
  404.750    0.428   89.736    0.249    3.165
  405.000    0.420   84.382    0.245    3.609
  405.250    0.410   79.023    0.249    4.115
  405.500    0.405   76.035    0.261    4.871
  405.750    0.401   75.424    0.265    5.350
  406.000    0.401   75.405    0.271    5.984
  406.250    0.407   75.391    0.278    6.096
  406.500    0.408   74.779    0.284    6.446
  406.750    0.413   72.977    0.294    6.688
  407.000    0.404   71.777    0.290    6.811
  407.250    0.398   69.387    0.281    7.066
  407.500    0.388   66.395    0.267    7.612
  407.750    0.370   61.633    0.265    7.900
  408.000    0.341   56.284    0.269    8.513
  408.250    0.312   47.373    0.275    9.002
  408.500    0.328   49.133    0.264    9.701
  408.750    0.354   58.006    0.156   10.451
  409.000    0.393   63.915    0.122   10.843
  409.250    0.394   63.303    0.167   10.837
  409.500    0.381   62.099    0.279   10.829
  409.750    0.384   62.080    0.305   10.418
  410.000    0.392   67.392    0.312   10.024
  410.250    0.396   72.708    0.309    9.829
  410.500    0.391   72.689    0.299    9.642
  410.750    0.386   69.707    0.291    9.278
  411.000    0.395   65.533    0.303    8.928
  411.250    0.411   63.148    0.303    8.431
  411.500    0.420   64.907    0.292    8.111
  411.750    0.412   70.224    0.278    7.952
  412.000    0.408   75.540    0.261    7.796
  412.250    0.408   77.893    0.250    7.648
  412.500    0.408   77.869    0.245    7.498
  412.750    0.408   78.443    0.250    7.353
  413.000    0.407   79.615    0.258    7.209
  413.250    0.402   81.365    0.260    7.206
  413.500    0.400   83.124    0.258    7.474
  413.750    0.393   85.481    0.253    7.612
  414.000    0.395   83.091    0.252    7.899
  414.250    0.402   78.923    0.254    8.195
  414.500    0.405   74.754    0.255    8.192
  414.750    0.392   74.142    0.261    8.342
  415.000    0.384   81.830    0.263    8.177
  415.250    0.396   82.404    0.263    8.169
  415.500    0.407   78.828    0.263    8.321
  415.750    0.400   75.846    0.263    8.470
  416.000    0.399   78.188    0.263    8.627
  416.250    0.404   81.731    0.263    8.620
  416.500    0.430   83.486    0.263    8.295
  416.750    0.422   80.508    0.267    7.835
  417.000    0.409   82.860    0.271    7.398
  417.250    0.403   85.213    0.272    6.986
  417.500    0.402   84.003    0.260    6.596
  417.750    0.398   80.432    0.249    6.346
  418.000    0.391   78.635    0.240    6.106
  418.250    0.395   82.761    0.238    5.767
  418.500    0.415   87.489    0.243    5.244
  418.750    0.434   93.991    0.251    4.952
  419.000    0.437   98.122    0.259    4.503
  419.250    0.441   94.542    0.265    4.094
  419.500    0.445   91.559    0.271    3.795
  419.750    0.454   88.576    0.277    4.013
  420.000    0.453   85.588    0.282    4.751
  420.250    0.429   83.194    0.285    5.521
  420.500    0.415   81.999    0.290    6.537
  420.750    0.417   78.423    0.297    7.178
  421.000    0.417   72.476    0.301    6.777
  421.250    0.414   65.334    0.299    5.823
  421.500    0.410   65.315    0.299    5.296
  421.750    0.411   69.451    0.301    4.382
  422.000    0.417   78.324    0.302    3.559
  422.250    0.424   81.862    0.302    3.001
  422.500    0.429   81.838    0.303    2.437
  422.750    0.427   76.489    0.305    2.625
  423.000    0.418   70.542    0.310    2.883
  423.250    0.411   72.301    0.320    4.281
  423.500    0.415   72.871    0.330    4.526
  423.750    0.418   68.702    0.350    5.065
  424.000    0.415   65.126    0.361    5.997
  424.250    0.402   61.541    0.357    7.101
  424.500    0.386   60.939    0.292    7.945
  424.750    0.366   59.735    0.211    8.561
  425.000    0.357   58.530    0.185    8.394
  425.250    0.368   57.326    0.215    7.926
  425.500    0.381   57.302    0.280    7.628
  425.750    0.402   57.283    0.316    6.937
  426.000    0.409   57.852    0.340    6.307
  426.250    0.416   58.431    0.345    5.957
  426.500    0.421   60.186    0.341    5.519
  426.750    0.424   61.946    0.337    5.725
  427.000    0.417   63.112    0.337    5.831
  427.250    0.409   61.908    0.335    6.049
  427.500    0.402   60.111    0.329    6.162
  427.750    0.403   63.060    0.317    6.391
  428.000    0.409   68.377    0.302    6.389
  428.250    0.407   73.693    0.284    6.629
  428.500    0.402   76.041    0.266    6.500
  428.750    0.400   77.212    0.254    6.496
  429.000    0.399   78.972    0.255    6.248
  429.250    0.396   75.989    0.259    6.246
  429.500    0.394   72.404    0.262    6.240
  429.750    0.390   74.168    0.263    6.353
  430.000    0.388   77.701    0.262    6.350
  430.250    0.393   79.461    0.254    6.467
