~Version : LASO    vs 4.00
VERS.                2.00:   CWLS Log ASCII Standard -VERSION 2.0
WRAP.                  NO:
~Well Information Block
#MNEM.UNIT       Data                        Description of Mnemonic
#----.----      -------------------------- : -----------------------------
STRT.M            21.0000:
STOP.M           215.4000:
STEP.M             0.2000:
NULL.           -999.2500:
COMP.  MOBIL OIL CANADA                 :COMPANY
WELL.  MOBIL CLARKE OV PROG. 2-81       :WELL
FLD.                                    :FIELD
LOC.   13-28-089-07W4                   :LOCATION
CTRY.  CANADA                           :COUNTRY
PROV.  ALBERTA                          :PROVINCE
SRVC.  SCHLUMBERGER                     :SERVICE COMPANY
DATE.  31-JAN-81                        :LOG DATE
UWI.   AA/13-28-089-07W400              :UNIQUE WELL ID
~Parameter Information Block
#MNEM.UNIT       Data                        Description of Mnemonic
#----.----      -------------------------- : -----------------------------
RUN .                   1                 : Run Number
GL  .M           458.5000                 : Ground Level Elevation
DREF.                  GD                 : Depth Reference
EREF.M           458.5000                 : Elevation of Depth Reference
TDL .M           216.0000                 : Total Depth Logger
TDD .M           216.0000                 : Total Depth Driller
CSGL.M            22.0000                 : Casing Bottom Logger
CSGD.M            22.0000                 : Casing Bottom Driller
CSGS.MM          219.0000                 : Casing Size
CSGW.KG/M          0.0000                 : Casing Weight
BHT .DEGC         12.0000                 : Bottom Hole Temperature
BS  .MM          171.0000                 : Bit Size
DFD .           9999.0000                 : Mud Weight (Density)
DFV .             45.0000                 : Mud Viscosity
DFPH.             11.0000                 : Mud pH
RM  .OHMM          5.7400                 : Mud Resistivity
RMT .DEGC         12.0000                 : Mud Resistivity Temperature
~Curve Information Block
#MNEM.UNIT        API CODE    Curve Description
#---------    ------------    -------------------------------------------
DEPT.M                    :   DEPTH
CALI.MM       42 280  1  1:   3 DENSITY CALIPER
DPHI.V/V                  :   DPHI
DT  .US/M     60 520  0  1:   2 SONIC INTERVAL TRANSIT TIME (COMPENSATED)
GR  .GAPI     42 310  1  1:   4 GAMMA RAY
ILD .OHMM      5 120 46  1:   7 DEEP INDUCTION
ILM .OHMM      5 120 44  1:   8 MEDIUM INDUCTION
NPHI.V/V      42 890  3  1:   5 NEUTRON POROSITY (SANDSTONE)
RHOB.K/M3     42 350  1  1:   6 BULK DENSITY
SFLU.OHMM      5 220  1  1:   9 FOCUSSED RESISTIVITY
SP  .MV        5  10  1  1:   10 SPONTANEOUS POTENTIAL
~A  Depth           CALI        DPHI          DT          GR         ILD         ILM        NPHI        RHOB        SFLU          SP
21.0000        -999.2500   -999.2500   -999.2500     49.6950   -999.2500   -999.2500   -999.2500   -999.2500   -999.2500   -999.2500
21.2000        -999.2500   -999.2500   -999.2500     49.7100   -999.2500   -999.2500   -999.2500   -999.2500   -999.2500   -999.2500
21.4000        -999.2500   -999.2500   -999.2500     49.7400   -999.2500   -999.2500   -999.2500   -999.2500   -999.2500   -999.2500
21.6000        -999.2500   -999.2500   -999.2500     50.1900   -999.2500   -999.2500   -999.2500   -999.2500   -999.2500   -999.2500
21.8000        -999.2500   -999.2500   -999.2500     50.7450   -999.2500   -999.2500   -999.2500   -999.2500   -999.2500   -999.2500
22.0000         214.7250   -999.2500    374.2400     51.7500     19.7620  99960.8281      0.3514   2499.5000      0.1763    -78.3750
22.2000         224.0250      0.1561    528.4800     56.2500    500.9910  99960.8281      0.3556   2427.0000     13.1169    -48.0150
22.4000         215.3750      0.1690    586.0000     59.0850      1.6589   9484.8369      0.3516   2385.7000   2364.9932    -44.5350
22.6000         213.9250      0.1781    600.4800     61.0650      1.0760     22.2346      0.3529   2374.3999    156.9748    -43.0500
22.8000         225.5500      0.1707    600.6800     62.2050      3.2797      3.2466      0.3605   2363.3999     50.0069    -42.0450
23.0000         212.7250      0.1608    523.5600     63.1200    103.7122    138.7490      0.3592   2384.8999     33.9336    -41.3100
23.2000         220.7250      0.1575    498.4400     63.1050  99960.8281     48.1537      0.3551   2375.2000     30.1044    -40.8000
23.4000         227.1000      0.1607    498.6400     63.0450  99960.8281    323.7650      0.3415   2427.0000     36.1934    -39.5550
23.6000         219.0000      0.1623    494.6000     62.9100     40.9100   6101.4053      0.3294   2406.0000     57.9469    -40.0650
23.8000         207.7000      0.1559    486.2800     62.9400     34.0275   3002.1328      0.3344   2388.2000     53.3372    -39.5550
24.0000         200.2250      0.1458    483.5200     62.7900     48.2870   2474.1721      0.3321   2378.5000     51.8836    -38.8200
24.2000         203.3000      0.1320    474.5600     62.1300     43.2345   3029.9111      0.3253   2454.1001     44.3231    -38.0700
24.4000         203.5500      0.1247    472.8800     62.0250     39.0688  29718.7031      0.3229   2452.0000     68.3959    -38.3250
24.6000         206.3250      0.1241    472.2400     61.9800    120.1794    198.7147      0.3216   2432.0000     44.7332    -40.0650
24.8000         220.0250      0.1362    469.2400     62.6250    436.3449     43.9167      0.3207   2415.1001     42.7199    -40.5600
25.0000         219.1500      0.1424    465.0000     62.9400     53.9299     44.3231      0.3209   2412.6001     43.1152    -41.3100
25.2000         220.9500      0.1400    464.1200     62.7900     46.1137     44.7332      0.3218   2411.2000     43.1152    -41.3100
25.4000         220.8750      0.1419    468.4000     62.8050     30.7489     44.3231      0.3242   2414.6001     44.3231    -40.5600
25.6000         219.1500      0.1397    467.1200     63.1950     37.3104     45.1471      0.3250   2420.3000     44.3231    -41.3100
25.8000         218.7000      0.1515    460.3200     63.3000     44.4457     45.1471      0.3256   2428.0000     43.5141    -41.8050
26.0000         218.1750      0.1603    460.3200     63.2400     45.6909     45.1471      0.3265   2435.8000     43.1152    -42.3000
26.2000         218.9000      0.1573    465.0000     62.6400     45.6909     44.7332      0.3354   2411.3999     44.3231    -43.0500
26.4000         216.3500      0.1464    463.9200     63.0000     45.6909     44.3231      0.3399   2403.8000     44.3231    -43.2900
26.6000         213.3250      0.1335    461.5600     63.3300     45.2720     44.3231      0.3468   2403.1001     44.3231    -43.2900
26.8000         211.6000      0.1226    463.2800     62.6850     45.6909     44.3231      0.3302   2456.8999     43.1152    -44.0400
27.0000         214.7250      0.1194    465.8400     61.8750     45.6909     44.7332      0.3247   2445.8000     42.7199    -43.7850
27.2000         219.6000      0.1348    467.5600     61.5000     45.2720     44.7332      0.3244   2435.8999     42.3282    -43.5450
27.4000         214.1000      0.1473    472.6400     61.2300     45.2720     44.3231      0.3243   2423.7000     43.1152    -43.7850
27.6000         212.6750      0.1482    470.7600     61.4400     45.2720     44.3231      0.3232   2420.1001     43.9167    -44.0400
27.8000         212.0250      0.1454    466.6800     61.9350     45.6909     43.9167      0.3236   2451.0000     43.9167    -43.5450
28.0000         208.6750      0.1406    476.4800     61.9650     46.5404     44.3231      0.3374   2456.3999     42.7199    -42.0450
28.2000         208.7500      0.1354    479.9200     61.2900     46.9710     46.4120      0.3408   2441.3000     43.5141    -44.0400
28.4000         212.7000      0.1279    489.0800     61.1700     46.9710     47.2748      0.3373   2430.8000     45.5648    -44.5350
28.6000         217.1500      0.1307    493.1200     60.9750     46.9710     45.1471      0.3272   2460.7000     47.3184    -44.5350
28.8000         214.6500      0.1332    485.0000     61.0200     47.4056     45.1471      0.3290   2457.1001     45.1471    -44.0400
29.0000         210.8750      0.1322    482.0400     61.0800     47.8443     44.7332      0.3328   2458.1001     43.1152    -42.5550
29.2000         207.1000      0.1279    483.3200     61.1250     47.8443     45.9865      0.3304   2448.8999     43.9167    -41.5500
29.4000         198.1000      0.1238    458.6000     61.2600     49.1847     48.1537      0.3235   2417.3999     47.3184    -43.2900
29.6000         195.0750      0.1188    452.0000     61.3350     49.6398     49.0490      0.3208   2405.1001     45.9865    -43.5450
29.8000         197.8750      0.1225    453.0400     61.4100     51.0305     49.5028      0.3167   2401.8999     47.3184    -43.5450
30.0000         199.3000      0.1205    416.2000     60.0750     51.9792     51.3606      0.3331   2433.8999     51.8836    -44.7900
30.2000         195.0750      0.1191    317.1200     58.6650     52.4602     51.3606      0.3400   2424.5000     52.8482    -44.5350
30.4000         193.8250      0.1190    332.4800     57.1950     52.9456     51.3606      0.3430   2417.7000     51.8836    -44.5350
30.6000         196.2750      0.1304    476.4800     54.8550     53.4355     52.3154      0.3437   2445.0000     51.4079    -45.0300
30.8000         198.8250      0.1378    471.3600     53.8050     53.9299     52.7995      0.3475   2457.2000     50.9366    -45.2850
31.0000         197.6500      0.1383    476.2800     52.9950     53.9299     52.7995      0.3520   2460.3000     51.4079    -46.0350
31.2000         198.9000      0.1297    483.7200     53.9250     54.9326     54.2788      0.3455   2463.2000     51.4079    -47.2800
31.4000         194.3000      0.1296    494.4000     54.5700     55.4409     54.7810      0.3416   2454.0000     51.8836    -47.7750
31.6000         192.9500      0.1429    512.7200     55.6050     55.9538     55.2879      0.3400   2443.1001     53.3372    -48.0150
31.8000         195.2500      0.1576    483.5200     56.6700     57.5215     56.8368      0.3406   2403.1001     55.3388    -48.0150
32.0000         192.9500      0.1576    486.7200     56.7300     57.5215     57.3627      0.3395   2392.7000     54.8315    -48.7650
32.2000         190.7250      0.1539    491.8400     56.8800     56.9941     58.9698      0.3357   2385.3000     54.8315    -50.0100
32.4000         190.0750      0.1509    481.1600     57.1350     56.4716     58.4292      0.3271   2379.3999     53.8307    -51.0000
32.6000         195.2000      0.1511    369.5600     57.6300     56.9941     54.2788      0.3043   2429.8999     55.3388    -51.2550
32.8000         196.2250      0.1469    274.1200     58.0950     56.9941     53.7811      0.3002   2427.2000     53.8307    -51.5100
33.0000         197.3000      0.1385    435.1600     58.5600     55.9538     54.7810      0.3010   2424.0000     51.8836    -52.5000
