~VERSION INFORMATION
 VERS.                 2.0:   CWLS LOG ASCII STANDARD -VERSION 2.0
 WRAP.                  NO:   ONE LINE PER DEPTH STEP
~WELL INFORMATION BLOCK
#MNEM.UNIT           DATA                    DESCRIPTION OF MNEMONIC
#---------    -------------------            -------------------------------
# Generated from Intellog Unique Number	CX_WELLS/WELL/1172
WELL.         10-11-089-14W4                 : Well_name    - WELL
LOC .         AA/10-11-089-14W4/0            : Location     - LOCATION
UWI .         AA/10-11-089-14W400            : Uwi          - UNIQUE WELL ID
ENTR.         DW                             : Entered      - ENTERED BY
SRVC.         SCHLUMBERGER                   : Scn          - SERVICE COMPANY
STRT.M        70                             : top_depth    - START DEPTH
STOP.M        225                            : bot_depth    - STOP DEPTH
STEP.M        0.25                           : increment    - STEP LENGTH
 NULL. -999.2500:NULL Value
~CURVE INFORMATION BLOCK
#MNEM UNIT       ERCB CURVE CODE    CURVE DESCRIPTION
#-----------   ------------------   ----------------------------------
DEPT.M        00 001 00 00         : DEPTH        - DEPTH
GR  .API      00 310 00 00         : GR           - GAMMA RAY
NPHI.V/V      00 330 00 00         : PHIN         - NEUTRON POROSITY (SANDSTONE)
DPHI.V/V      00 890 00 00         : PHID         - DENSITY POROSITY (SANDSTONE)
ILD .OHMM     00 120 00 00         : RESD         - DEEP RESISTIVITY (DIL)
~PARAMETER INFORMATION
#MNEM.UNIT           DATA             DESCRIPTION OF MNEMONIC
#---------         -----------     ------------------------------
GL  .M        501.1                : gl           - GROUND LEVEL ELEVATION
EREF.M        504.1                : kb           - ELEVATION OF DEPTH REFERENCE
DATM.M        504.1                : datum        - DATUM ELEVATION
TDD .M        228                  : tdd          - TOTAL DEPTH DRILLER
RUN .         ONE                  : Run          - RUN NUMBER
ENG .         BILL                 : Engineer     - RECORDING ENGINEER
WIT .         JIM                  : Witness      - WITNESSED BY
MUD .         GEL                  : Mud_type     - MUD TYPE
MATR.         SANDSTONE            : Logunit      - NEUTRON MATRIX
TMAX.C        25                   : BHT          - MAXIMUM RECORDED TEMPERATURE
BHTD.M        230                  : BHTDEP       - MAXIMUM RECORDED TEMPERATURE
MATR.         1                    : LOGUNIT      - NEUTRON MATRIX
RMT .C        25                   : MDTP         - TEMPERATURE OF MUD
NEUT.         1                    : NEUTRON      - NEUTRON TYPE
RESI.         0                    : RESIST       - RESISTIVITY TYPE
RMC .OHMM     0.25                 : RMC          - RESISTIVITY OF MUD CAKE
RMF .OHMM     0.25                 : RMF          - RESISTIVITY OF MUD FILTRATE
SUFT.C        15                   : SUFT         - SURFACE TEMPERATURE
~A  DEPTH       GR     PHIN     PHID     RESD
   70.000   96.868    0.495    0.432    7.058
   70.250  100.513    0.498    0.386    6.806
   70.500  102.952    0.505    0.375    6.567
   70.750  104.793    0.518    0.358    6.454
   71.000  105.438    0.531    0.344    6.462
   71.250  105.486    0.532    0.327    6.718
   71.500  104.937    0.533    0.306    6.853
   71.750  104.996    0.534    0.294    7.121
   72.000  105.044    0.537    0.278    7.397
   72.250  105.092    0.540    0.269    7.689
   72.500  102.750    0.547    0.268    7.694
   72.750  100.395    0.557    0.270    7.847
   73.000   93.881    0.566    0.287    8.157
   73.250   88.538    0.553    0.283    8.800
   73.500   86.195    0.522    0.274    9.142
   73.750   91.024    0.502    0.263   10.047
   74.000   91.096    0.514    0.261   10.633
   74.250   90.522    0.527    0.288    9.888
   74.500   90.582    0.521    0.280    9.188
   74.750   90.630    0.508    0.271    8.536
   75.000   94.264    0.495    0.299    7.644
   75.250   98.496    0.491    0.316    6.595
   75.500  102.727    0.503    0.290    5.584
   75.750  106.361    0.526    0.264    4.731
   76.000  110.007    0.550    0.260    4.396
   76.250  112.457    0.571    0.263    4.242
   76.500  113.700    0.581    0.268    4.245
   76.750  113.772    0.587    0.272    4.253
   77.000  113.211    0.594    0.272    4.255
   77.250  112.637    0.601    0.275    4.260
   77.500  111.502    0.595    0.277    4.349
   77.750  109.745    0.577    0.285    4.353
   78.000  106.219    0.566    0.296    4.359
   78.250  103.266    0.552    0.305    4.284
   78.500   97.935    0.540    0.308    4.057
   78.750   96.788    0.543    0.312    3.985
   79.000   96.250    0.555    0.319    4.141
   79.250   95.091    0.582    0.325    4.548
   79.500   92.150    0.594    0.331    6.486
   79.750   88.612    0.593    0.348    7.538
   80.000   83.879    0.554    0.383    8.438
   80.250   79.744    0.522    0.430   11.805
   80.500   73.229    0.541    0.495   12.978
   80.750   68.496    0.571    0.532   13.993
   81.000   66.739    0.585    0.527   15.092
   81.250   66.787    0.573    0.504   16.894
   81.500   68.054    0.560    0.486   18.568
   81.750   68.078    0.555    0.479   19.651
   82.000   68.138    0.574    0.491   21.612
   82.250   68.186    0.574    0.498   22.030
   82.500   68.222    0.558    0.484   22.471
   82.750   67.696    0.547    0.481   22.919
   83.000   67.158    0.540    0.482   22.960
   83.250   66.585    0.511    0.482   22.980
   83.500   66.645    0.496    0.477   22.584
   83.750   68.474    0.483    0.466   21.784
   84.000   69.717    0.463    0.454   21.408
   84.250   69.167    0.459    0.450   20.651
   84.500   66.836    0.454    0.459   19.914
   84.750   65.091    0.467    0.462   19.221
   85.000   68.115    0.492    0.462   18.883
   85.250   74.762    0.482    0.466   18.557
   85.500   77.212    0.466    0.439   17.911
   85.750   78.431    0.451    0.404   17.267
   86.000   79.077    0.450    0.349   16.666
   86.250   78.527    0.451    0.307   16.373
   86.500   76.794    0.447    0.315   15.789
   86.750   75.635    0.452    0.330   15.230
   87.000   74.487    0.475    0.321   14.691
   87.250   73.340    0.484    0.305   14.176
   87.500   72.802    0.486    0.312   13.931
   87.750   72.276    0.486    0.325   13.686
   88.000   72.312    0.486    0.334   13.450
   88.250   72.348    0.486    0.332   12.982
   88.500   72.396    0.488    0.327   12.757
   88.750   72.468    0.492    0.335   12.541
   89.000   71.895    0.498    0.338   12.317
   89.250   71.954    0.501    0.343   12.331
   89.500   71.393    0.497    0.341   12.582
   89.750   71.465    0.489    0.340   12.829
   90.000   70.891    0.483    0.342   13.093
   90.250   70.939    0.481    0.346   13.347
   90.500   70.413    0.476    0.348   13.367
   90.750   69.851    0.474    0.349   13.378
   91.000   69.899    0.472    0.351   13.406
   91.250   69.947    0.468    0.349   13.414
   91.500   70.007    0.471    0.348   13.682
   91.750   70.043    0.473    0.347   13.955
   92.000   70.091    0.476    0.349   14.238
   92.250   68.944    0.485    0.350   14.251
   92.500   67.808    0.488    0.350   14.536
   92.750   67.844    0.500    0.346   14.826
   93.000   67.319    0.489    0.346   14.844
   93.250   67.354    0.484    0.348   14.331
   93.500   68.000    0.483    0.350   14.075
   93.750   69.267    0.483    0.348   13.840
   94.000   69.913    0.489    0.347   13.597
   94.250   70.534    0.491    0.346   13.358
   94.500   71.778    0.490    0.350   13.135
   94.750   72.423    0.491    0.353   13.143
   95.000   73.666    0.496    0.351   12.924
   95.250   74.922    0.505    0.344   12.693
   95.500   74.384    0.505    0.339   12.712
   95.750   73.225    0.501    0.333   12.488
   96.000   70.906    0.502    0.331   12.503
   96.250   70.344    0.505    0.329   12.071
   96.500   69.794    0.512    0.327   12.082
   96.750   69.257    0.523    0.324   11.870
   97.000   69.293    0.529    0.323   11.672
   97.250   69.341    0.495    0.325   11.682
   97.500   69.974    0.491    0.332   11.693
   97.750   70.632    0.487    0.346   11.710
   98.000   73.082    0.484    0.344   11.508
   98.250   74.923    0.485    0.342   11.518
   98.500   74.959    0.485    0.344   11.319
   98.750   75.007    0.486    0.346   11.335
   99.000   75.653    0.491    0.345   11.136
   99.250   76.322    0.507    0.343   11.153
   99.500   76.956    0.519    0.339   10.963
   99.750   76.992    0.516    0.333   10.771
  100.000   75.270    0.508    0.329   10.784
  100.250   74.111    0.502    0.324   10.799
  100.500   72.354    0.501    0.329   10.613
  100.750   69.426    0.507    0.337   10.629
  101.000   67.681    0.513    0.352   10.635
  101.250   67.143    0.510    0.351   10.650
  101.500   67.179    0.506    0.350   10.660
  101.750   67.239    0.503    0.345   10.672
  102.000   67.275    0.505    0.340   10.691
  102.250   68.518    0.509    0.345   10.701
  102.500   70.981    0.512    0.353   10.717
  102.750   71.602    0.504    0.357   10.726
  103.000   72.260    0.496    0.359   10.739
  103.250   72.320    0.495    0.365   10.758
  103.500   72.344    0.503    0.374   10.764
  103.750   72.403    0.513    0.382   10.777
  104.000   72.475    0.519    0.382   10.790
  104.250   72.511    0.513    0.373   10.806
  104.500   73.145    0.504    0.361   10.822
  104.750   73.217    0.491    0.338   10.831
  105.000   73.241    0.480    0.333   10.844
  105.250   73.301    0.480    0.328   10.860
  105.500   73.958    0.481    0.334   10.870
  105.750   73.982    0.477    0.340   10.882
  106.000   76.445    0.472    0.346   10.898
  106.250   77.078    0.472    0.344   10.911
  106.500   78.322    0.473    0.341   11.129
  106.750   79.577    0.476    0.334   11.139
  107.000   80.210    0.478    0.333   11.159
  107.250   80.282    0.480    0.332   11.169
  107.500   80.306    0.483    0.340   11.188
  107.750   80.366    0.486    0.347   11.195
  108.000   79.805    0.488    0.349   11.208
  108.250   79.279    0.496    0.353   11.225
  108.500   78.741    0.501    0.354   11.235
  108.750   78.167    0.494    0.355   11.255
  109.000   78.227    0.477    0.353   11.265
  109.250   77.677    0.470    0.347   11.281
  109.500   78.921    0.467    0.342   11.291
  109.750   79.554    0.469    0.336   11.305
  110.000   80.797    0.471    0.339   11.318
  110.250   80.248    0.472    0.347   11.335
  110.500   79.112    0.473    0.354   11.348
  110.750   77.965    0.474    0.355   11.361
  111.000   78.001    0.475    0.355   11.375
  111.250   78.659    0.479    0.354   11.385
  111.500   80.511    0.487    0.352   11.402
  111.750   82.950    0.493    0.346   11.211
  112.000   84.791    0.501    0.341   11.218
  112.250   85.436    0.504    0.339   11.231
  112.500   84.875    0.492    0.339   11.037
  112.750   80.739    0.489    0.340   11.053
  113.000   78.396    0.490    0.339   10.863
  113.250   78.444    0.492    0.337   10.872
