~VERSION INFORMATION
 VERS.                 2.0:   CWLS LOG ASCII STANDARD -VERSION 2.0
 WRAP.                  NO:   ONE LINE PER DEPTH STEP
~WELL INFORMATION BLOCK
#MNEM.UNIT           DATA                    DESCRIPTION OF MNEMONIC
#---------    -------------------            -------------------------------
# Generated from Intellog Unique Number	CC_84_87/WELL/2337
NULL.         -999.25                        : NULL_VALUE
WELL.         SUN CHEECHAM CH 26             : Well_name    - WELL              
LOC .         11-36-086-07W4                 : Location     - LOCATION          
UWI .         AA/11-36-086-07W400            : Uwi          - UNIQUE WELL ID    
ENTR.         DW                             : Entered      - ENTERED BY        
SRVC.         SCHLUMBERGER                   : Scn          - SERVICE COMPANY   
DATE.         13 MAR 80                      : Date         - LOG DATE
STRT.M        55                             : top_depth    - START DEPTH       
STOP.M        238.902                        : bot_depth    - STOP DEPTH        
STEP.M        0.3                            : increment    - STEP LENGTH       
~CURVE INFORMATION BLOCK
#MNEM UNIT       ERCB CURVE CODE    CURVE DESCRIPTION
#-----------   ------------------   ----------------------------------
DEPT.M        00 001 00 00         : DEPTH        - DEPTH                       
DPHI.V/V      00 890 00 00         : PHID         - DENSITY POROSITY (LIMESTONE)
NPHI.V/V      00 330 00 00         : PHIN         - NEUTRON POROSITY (LIMESTONE)
GR  .API      00 310 00 00         : GR           - GAMMA RAY                   
ILD .OHMM     00 120 00 00         : RESD         - DEEP RESISTIVITY (DIL)      
~PARAMETER INFORMATION       
#MNEM.UNIT           DATA             DESCRIPTION OF MNEMONIC
#---------         -----------     ------------------------------
GL  .M        459                  : gl           - GROUND LEVEL ELEVATION      
EREF.M        461.06               : kb           - ELEVATION OF DEPTH REFERENCE
DATM.M        461.06               : datum        - DATUM ELEVATION             
TDD .M        239                  : tdd          - TOTAL DEPTH DRILLER         
RUN .         ONE                  : Run          - RUN NUMBER                  
ENG .         BILL                 : Engineer     - RECORDING ENGINEER          
WIT .         JIM                  : Witness      - WITNESSED BY                
MUD .         GEL                  : Mud_type     - MUD TYPE                    
MATR.         LIMESTONE            : Logunit      - NEUTRON MATRIX              
TMAX.C        20                   : BHT          - MAXIMUM RECORDED TEMPERATURE
BHTD.M        245                  : BHTDEP       - MAXIMUM RECORDED TEMPERATURE
MATR.         1                    : LOGUNIT      - NEUTRON MATRIX              
RMT .C        25                   : MDTP         - TEMPERATURE OF MUD          
NEUT.         1                    : NEUTRON      - NEUTRON TYPE                
RESI.         0                    : RESIST       - RESISTIVITY TYPE            
RMC .OHMM     0.25                 : RMC          - RESISTIVITY OF MUD CAKE     
RMF .OHMM     0.25                 : RMF          - RESISTIVITY OF MUD FILTRATE 
SUFT.C        4                    : SUFT         - SURFACE TEMPERATURE         
~A  DEPTH     PHID     PHIN       GR     RESD
# ...
  159.401    0.281    0.364   58.216   14.088
  159.701    0.258    0.377   62.500   11.633
  160.001    0.270    0.390   65.536    9.979
  160.301    0.278    0.395   65.488    8.724
  160.601    0.295    0.392   66.680    8.707
  160.901    0.296    0.389   72.192    8.702
  161.201    0.274    0.399   82.033    8.526
  161.501    0.264    0.448   82.603    8.201
  161.801    0.262    0.452   74.521    7.446
  162.101    0.276    0.418   60.879    7.440
  162.401    0.293    0.394   60.831    7.575
  162.701    0.304    0.385   62.020    8.320
  163.001    0.292    0.374   64.446    9.317
  163.301    0.233    0.400   81.697   10.042
  163.601    0.248    0.432   81.645    9.295
  163.901    0.256    0.443   80.989    7.973
  164.201    0.259    0.456   81.550    7.242
  164.501    0.264    0.435   77.186    6.832
  164.801    0.265    0.430   79.602    6.566
  165.101    0.264    0.440   80.174    6.437
  165.401    0.251    0.439   77.661    6.428
  165.701    0.247    0.444   73.905    6.299
  166.001    0.240    0.444   73.237    6.175
  166.301    0.253    0.445   71.327    6.169
  166.601    0.266    0.422   69.430    6.278
  166.901    0.262    0.434   70.007    6.392
  167.201    0.283    0.456   62.547    6.509
  167.501    0.274    0.435   55.086    6.626
  167.801    0.306    0.398   54.416    6.873
  168.101    0.315    0.407   57.456    6.867
  168.401    0.317    0.433   64.209    6.856
  168.701    0.289    0.429   73.431    6.852
  169.001    0.265    0.449   73.380    6.713
  169.301    0.289    0.455   62.833    6.834
  169.601    0.298    0.412   62.785    6.958
  169.901    0.312    0.410   59.646    7.085
  170.201    0.298    0.401   54.648    7.493
  170.501    0.272    0.385   53.367    8.548
  170.801    0.275    0.369   54.551    9.217
  171.101    0.281    0.379   52.038    9.563
  171.401    0.286    0.398   49.525    9.550
  171.701    0.306    0.409   50.089   10.101
  172.001    0.307    0.393   54.368   11.098
  172.301    0.293    0.377   58.646   11.735
  172.601    0.296    0.396   56.129   11.285
  172.901    0.319    0.412   57.308   10.446
  173.201    0.311    0.432   60.362    9.131
  173.501    0.308    0.448   59.690    8.452
  173.801    0.335    0.462   60.263    8.124
  174.101    0.335    0.404   62.683    8.116
  174.401    0.294    0.415   62.640    7.956
  174.701    0.302    0.412   62.596    7.647
  175.001    0.285    0.422   65.016    7.497
  175.301    0.302    0.434   64.961    7.073
  175.601    0.281    0.413   70.481    6.801
  175.901    0.259    0.423   72.285    6.662
  176.201    0.278    0.432   67.300    6.531
  176.501    0.301    0.398   61.690    6.162
  176.801    0.310    0.395   62.880    5.702
  177.101    0.295    0.417   72.099    5.481
  177.401    0.259    0.438   69.574    5.478
  177.701    0.282    0.437   65.210    5.266
  178.001    0.296    0.412   58.360    5.363
  178.301    0.318    0.394   53.993    5.671
  178.601    0.324    0.383   54.556    5.998
  178.901    0.316    0.377   57.596    6.589
  179.201    0.305    0.383   56.931    6.969
  179.501    0.306    0.382   56.889    6.960
  179.801    0.296    0.378   61.786    6.566
  180.101    0.264    0.393   71.006    6.078
  180.401    0.263    0.419   77.132    5.624
  180.701    0.265    0.429   79.561    5.513
  181.001    0.272    0.455   74.570    5.402
  181.301    0.293    0.451   62.786    5.397
  181.601    0.339    0.430   46.672    5.599
  181.901    0.355    0.414   41.064    6.271
  182.201    0.369    0.396   44.103    7.293
  182.501    0.381    0.394   49.613    8.646
  182.801    0.374    0.405   56.370   11.272
  183.101    0.332    0.426   57.555   11.923
  183.401    0.306    0.439   60.594   10.225
  183.701    0.299    0.431   63.022    7.824
  184.001    0.321    0.432   62.355    6.971
  184.301    0.313    0.434   56.748    6.332
  184.601    0.337    0.443   51.753    5.860
  184.901    0.361    0.441   48.624    5.965
  185.201    0.359    0.426   43.634    6.310
  185.501    0.348    0.435   41.103   13.242
  185.801    0.339    0.426   39.826   16.619
  186.101    0.330    0.364   43.489   16.922
  186.401    0.319    0.368   48.379   14.237
  186.701    0.302    0.383   50.808   11.538
  187.001    0.290    0.385   52.598    9.168
  187.301    0.290    0.384   52.563    7.572
  187.601    0.304    0.400   49.424    6.373
  187.901    0.317    0.403   46.906    5.897
  188.201    0.334    0.392   48.100    5.563
  188.501    0.314    0.376   51.753    5.352
  188.801    0.308    0.380   54.180    4.860
  189.101    0.309    0.400   54.132    4.329
  189.401    0.310    0.411   47.292    4.243
  189.701    0.324    0.412   42.300    4.239
  190.001    0.352    0.398   37.928    4.482
  190.301    0.363    0.380   35.408    4.738
  190.601    0.370    0.379   35.364    5.012
  190.901    0.349    0.380   45.201    5.300
  191.201    0.332    0.388   51.949    5.501
  191.501    0.305    0.400   49.431    5.601
  191.801    0.304    0.413   43.200    5.283
  192.101    0.331    0.423   36.361    5.588
  192.401    0.344    0.396   35.690    6.500
  192.701    0.331    0.393   39.354    9.322
  193.001    0.333    0.401   44.867   10.637
  193.301    0.315    0.411   47.293   11.910
  193.601    0.303    0.423   43.533   13.592
  193.901    0.333    0.419   38.541   17.388
  194.201    0.349    0.401   37.870   24.003
  194.501    0.344    0.403   38.443   56.463
  194.801    0.341    0.397   39.639   56.387
  195.101    0.337    0.386   40.210   51.220
  195.401    0.351    0.382   40.164   41.493
  195.701    0.353    0.379   40.731   32.979
  196.001    0.335    0.370   41.302   29.952
  196.301    0.311    0.360   39.400   28.261
  196.601    0.277    0.350   36.882   27.171
  196.901    0.284    0.349   38.689   24.213
  197.201    0.312    0.355   47.903   21.575
  197.501    0.293    0.376   52.800   17.816
  197.801    0.283    0.391   52.759   12.630
  198.101    0.287    0.403   50.857   11.257
  198.401    0.301    0.411   47.094   11.031
  198.701    0.320    0.420   47.665   11.665
  199.001    0.328    0.428   43.919   13.824
  199.301    0.343    0.429   37.691   15.781
  199.601    0.363    0.422   42.581   17.338
  199.901    0.362    0.409   47.482   16.990
  200.201    0.328    0.409   53.611   14.030
  200.501    0.345    0.407   44.916   12.743
  200.801    0.358    0.403   40.544   12.723
  201.101    0.356    0.392   42.967   12.474
  201.401    0.340    0.363   47.244   10.498
  201.701    0.282    0.362   54.611    8.345
  202.001    0.287    0.372   57.651    7.291
  202.301    0.293    0.384   50.187    7.149
  202.601    0.311    0.402   43.966    8.159
  202.901    0.332    0.424   40.211   10.242
  203.201    0.350    0.413   40.154   13.870
  203.501    0.368    0.406   40.729   18.433
  203.801    0.367    0.417   43.159   18.764
  204.101    0.360    0.416   49.290   15.204
  204.401    0.343    0.412   57.880   12.317
  204.701    0.302    0.420   57.835   10.171
  205.001    0.299    0.431   53.466    8.084
  205.301    0.317    0.438   48.481    7.483
  205.601    0.358    0.432   41.017    7.764
  205.901    0.338    0.424   36.030    9.745
  206.201    0.328    0.411   32.264   14.245
  206.501    0.332    0.394   30.989   20.818
  206.801    0.336    0.387   31.561   26.134
  207.101    0.347    0.396   33.976   34.073
  207.401    0.365    0.422   37.022   30.357
  207.701    0.368    0.455   40.681   22.362
  208.001    0.372    0.454   43.101   17.440
  208.301    0.381    0.442   43.682   15.535
  208.601    0.381    0.431   41.160   15.231
  208.901    0.356    0.421   39.872   17.055
  209.201    0.329    0.409   41.061   21.398
  209.501    0.295    0.376   39.161   25.374
  209.801    0.295    0.365   36.648   37.085
  210.101    0.318    0.375   33.508   49.289
  210.401    0.336    0.383   31.610   61.861
  210.701    0.341    0.379   32.166   65.424
  211.001    0.316    0.377   30.892   66.598
  211.301    0.339    0.394   29.602   58.230
