~VERSION INFORMATION
 VERS.                 2.0:   CWLS LOG ASCII STANDARD -VERSION 2.0
 WRAP.                  NO:   ONE LINE PER DEPTH STEP
~WELL INFORMATION BLOCK
#MNEM.UNIT           DATA                    DESCRIPTION OF MNEMONIC
#---------    -------------------            -------------------------------
# Generated from Intellog Unique Number	CN_94_101/WELL/1076
WELL.         11-33-094-06W4                 : Well_name    - WELL
LOC .         AA/11-33-094-06W4/0            : Location     - LOCATION
UWI .         AA/11-33-094-06W400            : Uwi          - UNIQUE WELL ID
ENTR.         JOETTE                         : Entered      - ENTERED BY
SRVC.         SCHLUMBERGER                   : Scn          - SERVICE COMPANY
DATE.         04/14/92                       : Date         - LOG DATE
STRT.M        100                            : top_depth    - START DEPTH
STOP.M        330                            : bot_depth    - STOP DEPTH
STEP.M        0.25                           : increment    - STEP LENGTH
 NULL. -999.2500:NULL Value
~CURVE INFORMATION BLOCK
#MNEM UNIT       ERCB CURVE CODE    CURVE DESCRIPTION
#-----------   ------------------   ----------------------------------
DEPT.M        00 001 00 00         : DEPTH        - DEPTH
ILD .OHMM     00 120 00 00         : RESD         - DEEP RESISTIVITY (DIL)
DPHI.V/V      00 890 00 00         : PHID         - DENSITY POROSITY (SANDSTONE)
NPHI.V/V      00 330 00 00         : PHIN         - NEUTRON POROSITY (SANDSTONE)
GR  .API      00 310 00 00         : GR           - GAMMA RAY
CALI.MM       00 280 01 00         : CAL          - CALIPER
~PARAMETER INFORMATION
#MNEM.UNIT           DATA             DESCRIPTION OF MNEMONIC
#---------         -----------     ------------------------------
GL  .M        597.57               : gl           - GROUND LEVEL ELEVATION
EREF.M        600.27               : kb           - ELEVATION OF DEPTH REFERENCE
DATM.M        600.27               : datum        - DATUM ELEVATION
TDD .M        335                  : tdd          - TOTAL DEPTH DRILLER
RUN .         ONE                  : Run          - RUN NUMBER
ENG .         BILL                 : Engineer     - RECORDING ENGINEER
WIT .         JIM                  : Witness      - WITNESSED BY
MUD .         GEL                  : Mud_type     - MUD TYPE
MATR.         SANDSTONE            : Logunit      - NEUTRON MATRIX
TMAX.C        16                   : BHT          - MAXIMUM RECORDED TEMPERATURE
BHTD.M        335                  : BHTDEP       - MAXIMUM RECORDED TEMPERATURE
RMT .C        19                   : MDTP         - TEMPERATURE OF MUD
MUDD.KG/M     1030                 : MWT          - MUD DENSITY
NEUT.         1                    : NEUTRON      - NEUTRON TYPE
RESI.         0                    : RESIST       - RESISTIVITY TYPE
RM  .OHMM     8.1                  : RM           - RESISTIVITY OF MUD
RMC .OHMM     8.1                  : RMC          - RESISTIVITY OF MUD CAKE
RMF .OHMM     8.1                  : RMF          - RESISTIVITY OF MUD FILTRATE
SUFT.C        4                    : SUFT         - SURFACE TEMPERATURE
~A  DEPTH     RESD     PHID     PHIN       GR      CAL
# ...
  282.500   28.442    0.259    0.372   78.474  171.186
  282.750   29.604    0.248    0.383   75.521  170.246
  283.000   30.203    0.249    0.377   73.175  168.325
  283.250   30.823    0.253    0.371   73.805  168.367
  283.500   31.446    0.255    0.371   76.227  167.428
  283.750   32.102    0.262    0.376   79.254  167.497
  284.000   32.751    0.260    0.379   80.465  167.567
  284.250   33.444    0.251    0.383   81.096  167.608
  284.500   34.799    0.241    0.393   79.943  167.650
  284.750   35.492    0.241    0.394   73.997  167.706
  285.000   38.381    0.252    0.387   72.256  167.761
  285.250   39.145    0.259    0.377   73.475  167.817
  285.500   41.505    0.258    0.372   75.897  167.886
  285.750   42.357    0.262    0.373   74.744  166.961
  286.000   42.422    0.267    0.383   71.792  167.030
  286.250   41.670    0.265    0.391   68.832  166.063
  286.500   40.144    0.265    0.386   67.679  166.119
  286.750   39.432    0.270    0.385   67.713  165.179
  287.000   36.609    0.276    0.376   67.149  165.249
  287.250   35.938    0.273    0.377   66.585  165.290
  287.500   35.311    0.266    0.379   67.216  164.379
  287.750   35.333    0.261    0.374   69.040  164.420
  288.000   35.376    0.254    0.393   72.648  164.462
  288.250   36.102    0.241    0.388   78.064  163.536
  288.500   37.577    0.250    0.380   79.283  163.578
  288.750   38.337    0.254    0.377   78.719  163.634
  289.000   39.148    0.242    0.383   72.790  162.708
  289.250   39.928    0.240    0.395   74.017  161.755
  289.500   41.533    0.248    0.390   77.036  161.824
  289.750   41.584    0.248    0.379   80.652  161.866
  290.000   43.270    0.250    0.364   83.074  161.922
  290.250   44.145    0.257    0.356   83.713  161.977
  290.500   45.065    0.266    0.356   80.155  162.033
  290.750   45.990    0.259    0.370   76.606  162.116
  291.000   46.934    0.253    0.383   74.260  162.172
  291.250   46.977    0.253    0.395   73.099  163.209
  291.500   47.049    0.260    0.396   71.930  163.278
  291.750   47.092    0.244    0.396   70.777  163.348
  292.000   47.149    0.228    0.397   70.213  163.376
  292.250   47.221    0.225    0.398   70.247  163.445
  292.500   47.293    0.243    0.411   73.854  163.487
  292.750   46.454    0.261    0.408   80.456  163.543
  293.000   46.497    0.261    0.396   79.892  163.598
  293.250   45.686    0.262    0.382   75.149  163.668
  293.500   44.890    0.267    0.381   71.002  163.737
  293.750   44.067    0.275    0.391   71.641  163.765
  294.000   43.286    0.271    0.404   76.451  163.835
  294.250   41.714    0.265    0.409   80.665  163.877
  294.500   40.199    0.267    0.400   83.095  163.946
  294.750   38.739    0.271    0.397   79.545  163.988
  295.000   37.343    0.271    0.389   77.190  164.085
  295.250   37.400    0.269    0.394   76.021  164.113
  295.500   37.434    0.272    0.398   74.860  164.169
  295.750   37.480    0.279    0.388   71.311  165.233
  296.000   37.525    0.272    0.394   64.776  165.289
  296.250   37.582    0.277    0.399   68.392  165.345
  296.500   36.894    0.286    0.400   75.002  165.386
  296.750   35.564    0.279    0.405   74.439  165.470
  297.000   32.363    0.278    0.412   74.463  165.498
  297.250   30.019    0.275    0.411   75.700  165.581
  297.500   27.844    0.271    0.402   76.322  165.623
  297.750   27.342    0.272    0.402   81.737  165.692
  298.000   25.858    0.275    0.398   87.153  165.720
  298.250   24.911    0.265    0.388   83.595  165.790
  298.500   24.014    0.250    0.391   80.651  165.831
  298.750   22.704    0.249    0.410   80.088  164.906
  299.000   21.052    0.275    0.418   75.942  164.975
  299.250   19.527    0.262    0.389   78.372  165.031
  299.500   19.181    0.247    0.398   80.785  164.105
  299.750   20.343    0.236    0.413   86.781  164.133
  300.000   22.410    0.233    0.409   90.397  164.189
  300.250   25.648    0.232    0.388   90.430  164.258
  300.500   27.203    0.242    0.396   92.272  164.300
  300.750   26.712    0.259    0.412   93.483  163.388
  301.000   24.315    0.277    0.412   89.933  163.416
  301.250   23.432    0.279    0.406   84.593  162.477
  301.500   25.805    0.268    0.397   90.017  162.546
  301.750   30.103    0.254    0.407   92.430  161.620
  302.000   31.323    0.247    0.423   93.069  161.648
  302.250   30.759    0.250    0.431   91.303  161.704
  302.500   28.530    0.258    0.452   81.186  160.778
  302.750   22.712    0.282    0.460   77.636  160.820
  303.000   19.522    0.294    0.429   84.238  160.890
  303.250   21.105    0.272    0.425   90.251  160.959
  303.500   21.941    0.250    0.418   93.261  160.987
  303.750   22.405    0.231    0.433   95.094  162.052
  304.000   22.865    0.237    0.438   94.531  162.121
  304.250   22.886    0.245    0.434   94.555  162.191
  304.500   23.813    0.242    0.444   90.409  162.218
  304.750   23.842    0.237    0.449   86.271  162.288
  305.000   23.871    0.238    0.439   85.102  162.344
  305.250   23.441    0.248    0.414   86.927  162.385
  305.500   22.603    0.246    0.406   89.349  162.441
  305.750   21.769    0.252    0.417   88.196  162.497
  306.000   20.204    0.278    0.422   84.638  163.575
  306.250   19.834    0.290    0.412   80.500  163.575
  306.500   19.482    0.274    0.414   91.282  164.668
  306.750   19.882    0.254    0.421   96.689  160.743
  307.000   21.087    0.233    0.427   96.125  160.812
  307.250   22.352    0.220    0.431   93.779  160.854
  307.500   24.171    0.212    0.405   96.192  160.924
  307.750   24.193    0.214    0.400   98.025  160.951
  308.000   22.873    0.215    0.390   89.102  162.002
  308.250   21.216    0.208    0.382   89.127  162.086
  308.500   20.445    0.216    0.387   96.326  162.141
  308.750   26.748    0.215    0.378   95.173  162.197
  309.000   40.786    0.215    0.383   94.601  162.253
  309.250   46.680    0.220    0.386  100.614  162.294
  309.500   51.406    0.222    0.379  103.044  162.378
  309.750   58.852    0.222    0.374   98.889  162.406
  310.000   66.102    0.231    0.380   88.763  162.461
  310.250   72.817    0.269    0.392   67.898  162.517
  310.500   78.672    0.287    0.406   60.775  161.605
  310.750   90.067    0.283    0.401   61.405  160.638
  311.000   99.186    0.280    0.393   63.827  160.693
  311.250  122.572    0.283    0.391   63.263  159.768
  311.500  148.605    0.309    0.417   57.914  159.809
  311.750  166.808    0.329    0.430   51.977  160.874
  312.000  198.408    0.341    0.429   48.428  161.925
  312.250  227.009    0.336    0.428   47.275  162.976
  312.500  245.412    0.340    0.437   47.308  164.027
  312.750  236.498    0.342    0.443   45.542  164.082
  313.000  223.527    0.337    0.430   43.784  165.147
  313.250  199.559    0.333    0.413   43.221  166.198
  313.500  168.236    0.338    0.401   44.448  162.259
  313.750  168.492    0.343    0.398   45.078  162.314
  314.000  212.170    0.344    0.399   45.112  164.374
  314.250  204.464    0.354    0.393   45.145  165.411
  314.500  165.908    0.363    0.399   44.582  163.490
  314.750  134.582    0.359    0.410   45.826  160.560
  315.000  107.137    0.355    0.431   47.053  158.626
  315.250   65.271    0.354    0.424   46.490  158.681
  315.500   43.751    0.345    0.417   46.515  158.737
  315.750   31.646    0.344    0.424   52.519  159.788
  316.000   58.414    0.342    0.425   59.129  163.824
  316.250   64.368    0.340    0.417   62.737  164.861
  316.500   59.686    0.319    0.402   68.144  166.921
  316.750   48.431    0.299    0.391   80.136  167.986
  317.000   32.473    0.279    0.406   74.787  169.036
  317.250   27.896    0.304    0.423   64.073  169.106
  317.500   21.787    0.323    0.418   57.530  169.134
  317.750   18.716    0.326    0.406   58.169  167.199
  318.000   16.393    0.291    0.391   72.532  165.278
  318.250   16.739    0.256    0.382   79.134  164.339
  318.500   18.790    0.228    0.396   83.347  164.394
  318.750   24.117    0.203    0.413   93.539  164.450
