~VERSION INFORMATION
 VERS.                 2.0:   CWLS LOG ASCII STANDARD -VERSION 2.0
 WRAP.                  NO:   ONE LINE PER DEPTH STEP
~WELL INFORMATION BLOCK
#MNEM.UNIT           DATA                    DESCRIPTION OF MNEMONIC
#---------    -------------------            -------------------------------
# Generated from Intellog Unique Number	CN_94_101/WELL/5014
WELL.         11-08-101-14W4                 : Well_name    - WELL
LOC .         AA/11-08-101-14W4/0            : Location     - LOCATION
UWI .         AA/11-08-101-14W400            : Uwi          - UNIQUE WELL ID
ENTR.         TIM                            : Entered      - ENTERED BY
SRVC.         SCHLUMBERGER                   : Scn          - SERVICE COMPANY
DATE.         08/13/92                       : Date         - LOG DATE
STRT.M        300                            : top_depth    - START DEPTH
STOP.M        506                            : bot_depth    - STOP DEPTH
STEP.M        0.25                           : increment    - STEP LENGTH
NULL. -999.2500:NULL Value
~CURVE INFORMATION BLOCK
#MNEM UNIT       ERCB CURVE CODE    CURVE DESCRIPTION
#-----------   ------------------   ----------------------------------
DEPT.M        00 001 00 00         : DEPTH        - DEPTH
GR  .API      00 310 00 00         : GR           - GAMMA RAY
ILD .OHMM     00 120 00 00         : RESD         - DEEP RESISTIVITY (DIL)
NPHI.V/V      00 330 00 00         : PHIN         - NEUTRON POROSITY (SANDSTONE)
DPHI.V/V      00 890 00 00         : PHID         - DENSITY POROSITY (SANDSTONE)
~PARAMETER INFORMATION
#MNEM.UNIT           DATA             DESCRIPTION OF MNEMONIC
#---------         -----------     ------------------------------
GL  .M        734.7                : gl           - GROUND LEVEL ELEVATION
EREF.M        737.96               : kb           - ELEVATION OF DEPTH REFERENCE
DATM.M        737.96               : datum        - DATUM ELEVATION
TDD .M        508                  : tdd          - TOTAL DEPTH DRILLER
RUN .         ONE                  : Run          - RUN NUMBER
ENG .         BILL                 : Engineer     - RECORDING ENGINEER
WIT .         JIM                  : Witness      - WITNESSED BY
MUD .         GEL                  : Mud_type     - MUD TYPE
MATR.         SANDSTONE            : Logunit      - NEUTRON MATRIX
TMAX.C        20                   : BHT          - MAXIMUM RECORDED TEMPERATURE
BHTD.M        508                  : BHTDEP       - MAXIMUM RECORDED TEMPERATURE
RMT .C        12                   : MDTP         - TEMPERATURE OF MUD
MUDD.KG/M     1150                 : MWT          - MUD DENSITY
NEUT.         1                    : NEUTRON      - NEUTRON TYPE
RESI.         0                    : RESIST       - RESISTIVITY TYPE
RM  .OHMM     1.01                 : RM           - RESISTIVITY OF MUD
RMC .OHMM     1.01                 : RMC          - RESISTIVITY OF MUD CAKE
RMF .OHMM     1.01                 : RMF          - RESISTIVITY OF MUD FILTRATE
SUFT.C        4                    : SUFT         - SURFACE TEMPERATURE
~A  DEPTH       GR     RESD     PHIN     PHID
# ...
  474.000  108.207    5.980    0.503    0.271
  474.250  103.265    6.794    0.503    0.271
  474.500  100.176    8.016    0.494    0.271
  474.750   94.616    8.831    0.446    0.270
  475.000   91.527    9.646    0.440    0.266
  475.250   87.202   11.277    0.441    0.273
  475.500   81.025   12.091    0.439    0.284
  475.750   74.848   12.498    0.434    0.298
  476.000   68.670   12.700    0.431    0.314
  476.250   68.051   12.697    0.426    0.324
  476.500   68.667   12.287    0.425    0.324
  476.750   69.283   12.081    0.424    0.323
  477.000   70.516   11.669    0.424    0.319
  477.250   71.133   11.668    0.423    0.316
  477.500   71.749   11.460    0.421    0.314
  477.750   72.365   11.254    0.422    0.317
  478.000   72.981   11.252    0.422    0.317
  478.250   73.597   11.046    0.423    0.318
  478.500   74.213   10.839    0.423    0.319
  478.750   74.829   10.429    0.424    0.318
  479.000   75.444   10.222    0.424    0.314
  479.250   75.443   10.015    0.424    0.312
  479.500   76.059    9.605    0.424    0.303
  479.750   76.058    9.398    0.424    0.300
  480.000   74.203    9.397    0.424    0.300
  480.250   73.584    9.394    0.424    0.305
  480.500   72.965    9.392    0.414    0.310
  480.750   73.581    9.389    0.407    0.307
  481.000   74.815    9.387    0.394    0.303
  481.250   77.283    9.385    0.380    0.295
  481.500   78.517    9.383    0.374    0.291
  481.750   80.985    9.380    0.379    0.287
  482.000   82.836    9.379    0.387    0.291
  482.250   83.452    8.968    0.395    0.291
  482.500   84.686    8.761    0.401    0.289
  482.750   84.684    8.555    0.411    0.285
  483.000   85.300    8.349    0.407    0.283
  483.250   86.534    7.938    0.401    0.269
  483.500   87.767    7.732    0.395    0.268
  483.750   89.001    7.320    0.395    0.268
  484.000   89.617    7.115    0.398    0.269
  484.250   92.085    6.703    0.402    0.269
  484.500   93.319    6.498    0.409    0.269
  484.750   95.170    6.087    0.413    0.260
  485.000   97.639    5.881    0.414    0.251
  485.250  101.343    5.674    0.415    0.236
  485.500  106.282    5.467    0.401    0.217
  485.750  113.691    5.669    0.402    0.204
  486.000  119.866    5.667    0.408    0.204
  486.250  126.040    5.869    0.416    0.208
  486.500  130.361    6.070    0.423    0.214
  486.750  130.977    6.272    0.428    0.219
  487.000  127.270    6.475    0.428    0.227
  487.250  119.858    6.472    0.419    0.244
  487.500  107.505    6.674    0.403    0.259
  487.750   93.917    6.672    0.400    0.283
  488.000   92.680    6.874    0.409    0.293
  488.250   95.149    6.871    0.406    0.302
  488.500   88.354    7.073    0.402    0.312
  488.750   86.499    7.070    0.397    0.310
  489.000   90.820    7.069    0.412    0.296
  489.250   95.760    7.067    0.433    0.280
  489.500  103.169    6.861    0.430    0.265
  489.750  110.578    6.449    0.424    0.254
  490.000  117.987    6.448    0.409    0.231
  490.250  122.309    6.241    0.382    0.220
  490.500  126.013    6.443    0.376    0.214
  490.750  129.716    6.643    0.374    0.236
  491.000  124.157    6.846    0.382    0.245
  491.250  114.892    7.049    0.393    0.274
  491.500  104.391    7.454    0.403    0.306
  491.750   98.831    7.861    0.414    0.312
  492.000   94.507    8.471    0.418    0.320
  492.250   93.270    8.877    0.421    0.317
  492.500   90.799    8.874    0.422    0.305
  492.750   92.649    8.465    0.421    0.298
  493.000   95.736    7.850    0.418    0.293
  493.250  100.057    7.235    0.405    0.282
  493.500  102.526    6.415    0.374    0.272
  493.750  104.995    6.209    0.364    0.268
  494.000  100.053    5.594    0.354    0.266
  494.250   95.110    5.183    0.350    0.258
  494.500   99.432    4.977    0.348    0.232
  494.750  111.164    4.770    0.381    0.207
  495.000  113.633    4.769    0.405    0.194
  495.250  129.688    4.766    0.416    0.193
  495.500  137.097    4.968    0.423    0.194
  495.750  140.184    4.964    0.424    0.197
  496.000  142.652    5.167    0.419    0.197
  496.250  145.739    5.166    0.417    0.193
  496.500  150.060    5.368    0.412    0.191
  496.750  144.500    5.570    0.403    0.195
  497.000  136.470    5.771    0.400    0.198
  497.250  131.528    5.769    0.399    0.203
  497.500  125.351    5.970    0.399    0.210
  497.750  122.879    5.969    0.399    0.213
  498.000  120.407    5.967    0.399    0.219
  498.250  119.170    6.168    0.397    0.220
  498.500  117.933    6.167    0.413    0.218
  498.750  118.549    6.164    0.413    0.212
  499.000  119.783    6.161    0.411    0.212
  499.250  120.398    6.160    0.410    0.214
  499.500  121.015    6.158    0.405    0.219
  499.750  121.631    5.951    0.400    0.221
  500.000  121.012    5.949    0.391    0.224
  500.250  119.775    5.742    0.379    0.228
  500.500  116.067    5.740    0.372    0.229
  500.750  114.832    5.737    0.370    0.229
  501.000  110.506    5.736    0.373    0.226
  501.250  108.035    5.733    0.376    0.212
  501.500  102.475    5.730    0.373    0.213
  501.750   93.828    5.523    0.370    0.218
  502.000   85.797    5.522    0.365    0.220
  502.250   83.943    5.519    0.362    0.221
  502.500   84.559    5.516    0.347    0.224
  502.750   84.558    5.310    0.346    0.224
  503.000   85.174    5.309    0.347    0.225
  503.250   86.408    5.307    0.351    0.220
  503.500   87.641    5.304    0.344    0.212
  503.750   88.874    5.301    0.336    0.198
  504.000   89.490    5.299    0.322    0.162
  504.250   89.489    5.298    0.297    0.139
  504.500   88.870    5.295    0.284    0.125
  504.750   88.251    5.089    0.279    0.121
  505.000   86.396    5.087    0.276    0.117
  505.250   85.777    5.084    0.268    0.112
  505.500   84.540    5.082    0.265    0.101
  505.750   84.539    5.080    0.258    0.086
  506.000   85.772    5.078    0.251    0.071
