~VERSION INFORMATION
 VERS.                 2.0:   CWLS LOG ASCII STANDARD -VERSION 2.0
 WRAP.                  NO:   ONE LINE PER DEPTH STEP
~WELL INFORMATION BLOCK
#MNEM.UNIT           DATA                    DESCRIPTION OF MNEMONIC
#---------    -------------------            -------------------------------
# Generated from Intellog Unique Number	CN_91_93/WELL/2943
WELL.         11-19-092-11W4                 : Well_name    - WELL
LOC .         AA/11-19-092-11W4/0            : Location     - LOCATION
UWI .         AA/11-19-092-11W400            : Uwi          - UNIQUE WELL ID
ENTR.         JOETTE                         : Entered      - ENTERED BY
SRVC.         SCHLUMBERGER                   : Scn          - SERVICE COMPANY
DATE.         03/31/92                       : Date         - LOG DATE
STRT.F        30                             : top_depth    - START DEPTH
STOP.F        340.039                        : bot_depth    - STOP DEPTH
STEP.F        0.8202                         : increment    - STEP LENGTH
 NULL. -999.2500:NULL Value
~CURVE INFORMATION BLOCK
#MNEM UNIT       ERCB CURVE CODE    CURVE DESCRIPTION
#-----------   ------------------   ----------------------------------
DEPT.F        00 001 00 00         : DEPTH        - DEPTH
CALI.IN       00 280 01 00         : CAL          - CALIPER
GR  .API      00 310 00 00         : GR           - GAMMA RAY
NPHI.V/V      00 330 00 00         : PHIN         - NEUTRON POROSITY (SANDSTONE)
DPHI.V/V      00 890 00 00         : PHID         - DENSITY POROSITY (SANDSTONE)
ILD .OHMM     00 120 00 00         : RESD         - DEEP RESISTIVITY (DIL)
~PARAMETER INFORMATION
#MNEM.UNIT           DATA             DESCRIPTION OF MNEMONIC
#---------         -----------     ------------------------------
GL  .M        362.407              : gl           - GROUND LEVEL ELEVATION
EREF.M        362.407              : kb           - ELEVATION OF DEPTH REFERENCE
DATM.M        362.407              : datum        - DATUM ELEVATION
TDD .M        111.252              : tdd          - TOTAL DEPTH DRILLER
RUN .         ONE                  : Run          - RUN NUMBER
ENG .         BILL                 : Engineer     - RECORDING ENGINEER
WIT .         JIM                  : Witness      - WITNESSED BY
MUD .         GEL                  : Mud_type     - MUD TYPE
MATR.         SANDSTONE            : Logunit      - NEUTRON MATRIX
TMAX.F        65                   : BHT          - MAXIMUM RECORDED TEMPERATURE
BHTD.F        365                  : BHTDEP       - MAXIMUM RECORDED TEMPERATURE
RMT .F        60                   : MDTP         - TEMPERATURE OF MUD
MUDD.LB/G     10                   : MWT          - MUD DENSITY
NEUT.         1                    : NEUTRON      - NEUTRON TYPE
RESI.         0                    : RESIST       - RESISTIVITY TYPE
RM  .OHMM     4.23                 : RM           - RESISTIVITY OF MUD
RMC .OHMM     4.23                 : RMC          - RESISTIVITY OF MUD CAKE
RMF .OHMM     4.23                 : RMF          - RESISTIVITY OF MUD FILTRATE
SUFT.F        39.2                 : SUFT         - SURFACE TEMPERATURE
~A  DEPTH      CAL       GR     PHIN     PHID     RESD
# ...
  149.751    4.040  110.477    0.432    0.228   12.076
  150.571    4.041  107.563    0.430    0.237   11.249
  151.391    4.043  104.652    0.430    0.241    9.841
  152.211    4.044  102.921    0.427    0.238    9.857
  153.031    4.046  104.116    0.449    0.230    9.435
  153.852    4.047  104.730    0.454    0.220   11.316
  154.672    4.049  102.406    0.434    0.202   11.959
  155.492    4.050   98.615    0.447    0.185   13.344
  156.312    4.069   99.812    0.468    0.264   10.020
  157.133    4.089   96.318    0.486    0.277    8.684
  157.953    4.108   94.290    0.516    0.266    6.578
  158.773    4.127   96.072    0.539    0.287    5.453
  159.593    4.128  100.205    0.544    0.297    4.814
  160.413    4.130  101.115    0.519    0.290    4.327
  161.234    4.131  101.433    0.474    0.263    8.672
  162.054    4.132  105.562    0.465    0.244    9.938
  162.874    4.116  107.356    0.449    0.245   10.412
  163.694    4.100  106.497    0.464    0.244    6.353
  164.514    4.084  102.116    0.463    0.228    7.349
  165.335    4.086   95.976    0.431    0.213    9.643
  166.155    4.105   89.544    0.425    0.182   13.479
  166.975    4.106   88.109    0.446    0.190   16.014
  167.795    4.126   87.834    0.486    0.219   10.041
  168.615    4.127   84.632    0.542    0.290    5.449
  169.436    4.128   79.958    0.591    0.317    4.768
  170.256    4.148   79.107    0.603    0.341    3.548
  171.076    4.149   77.074    0.613    0.340    3.750
  171.896    4.150   76.807    0.615    0.344    3.928
  172.717    4.152   79.772    0.611    0.327    4.382
  173.537    4.154   80.967    0.599    0.321    3.975
  174.357    4.155   80.407    0.538    0.285    5.455
  175.177    4.157   80.428    0.491    0.257    7.288
  175.997    4.175   82.213    0.459    0.247    7.989
  176.818    4.177   85.171    0.455    0.267    8.146
  177.638    4.178   85.492    0.460    0.257    7.320
  178.458    4.180   82.581    0.444    0.244    5.595
  179.278    4.164   80.257    0.433    0.239    8.404
  180.098    4.130   79.994    0.448    0.219    9.462
  180.919    4.079   82.656    0.456    0.214    9.225
  181.739    4.010   87.963    0.460    0.196   12.890
  182.559    3.959   97.088    0.492    0.268    5.636
  183.379    3.943  102.394    0.516    0.281    4.886
  184.199    3.926   99.780    0.548    0.294    5.807
  185.020    3.910   97.456    0.545    0.295    4.901
  185.840    3.894   98.363    0.526    0.285    4.693
  186.660    3.878   98.678    0.522    0.285    5.626
  187.480    3.880   97.827    0.531    0.275    5.895
  188.301    3.899   97.558    0.515    0.260    5.492
  189.121    3.900   98.166    0.500    0.258    5.071
  189.941    3.919   95.264    0.491    0.255    6.778
  190.761    3.921   95.285    0.505    0.259    6.788
  191.581    3.905   95.309    0.496    0.264    5.525
  192.402    3.888   94.452    0.470    0.258    5.102
  193.222    3.872   94.183    0.465    0.264    7.260
  194.042    3.856   96.851    0.493    0.271    6.644
  194.862    3.858   98.933    0.535    0.276    4.988
  195.682    3.842   96.609    0.533    0.260    5.368
  196.503    3.825   93.401    0.493    0.232    5.093
  197.323    3.809   86.969    0.471    0.204    4.920
  198.143    3.775   81.416    0.432    0.181    5.952
  198.963    3.742   70.581    0.396    0.137   19.053
  199.783    3.673   67.084    0.398    0.121   16.080
  200.604    3.639   64.176    0.437    0.169   10.173
  201.424    3.623   63.322    0.462    0.280    7.636
  202.244    3.625   56.300    0.462    0.293   11.366
  203.064    3.626   48.400    0.384    0.279   34.773
  203.885    3.628   45.489    0.376    0.272   15.070
  204.705    3.629   58.722    0.395    0.259   19.954
  205.525    3.630   68.431    0.396    0.258   16.995
  206.345    3.614   75.208    0.396    0.242   13.709
  207.165    3.616   83.453    0.422    0.248   11.466
  207.986    3.600   86.415    0.457    0.249   10.213
  208.806    3.602   84.088    0.480    0.257    9.778
  209.626    3.603   82.941    0.453    0.257   14.955
  210.446    3.587   77.682    0.413    0.256   19.097
  211.266    3.588   72.426    0.386    0.265   19.297
  212.087    3.572   69.219    0.375    0.274   18.144
  212.907    3.572   68.365    0.391    0.269   22.560
  213.727    3.593   68.099    0.398    0.271   28.294
  214.547    3.612   64.305    0.384    0.279   23.669
  215.367    3.614   66.383    0.390    0.273   21.080
  216.188    3.615   69.635    0.389    0.268   19.473
  217.008    3.616   69.665    0.381    0.271   20.035
  217.828    3.618   66.167    0.382    0.271   22.352
  218.648    3.618   67.659    0.381    0.274   23.200
  219.469    3.621   70.911    0.382    0.269   21.618
  220.289    3.605   71.231    0.389    0.256   18.744
  221.109    3.571   75.071    0.401    0.263   17.786
  221.929    3.555   75.095    0.408    0.266   22.922
  222.749    3.539   73.067    0.403    0.263   21.548
  223.570    3.540   72.504    0.406    0.263   22.374
  224.390    3.542   73.702    0.401    0.258   26.111
  225.210    3.543   72.846    0.407    0.254   18.240
  226.030    3.562   73.750    0.410    0.253   17.778
  226.850    3.582   71.139    0.400    0.242   22.102
  227.671    3.583   69.986    0.380    0.228   26.500
  228.491    3.585   72.067    0.382    0.229   26.068
  229.311    3.586   74.145    0.397    0.250   23.643
  230.131    3.587   74.463    0.393    0.253   19.953
  230.951    3.589   80.359    0.378    0.247   19.452
  231.772    3.591   76.862    0.380    0.257   20.557
  232.592    3.592   77.766    0.402    0.270   16.735
  233.412    3.611   79.260    0.386    0.273   23.178
  234.232    3.612   77.227    0.397    0.279   19.212
  235.052    3.632   81.366    0.409    0.269   16.214
  235.873    3.633   81.390    0.417    0.273   17.607
  236.693    3.634   82.297    0.409    0.272   20.008
  237.513    3.618   84.082    0.423    0.274   20.213
  238.333    3.620   79.994    0.433    0.277   18.666
  239.154    3.620   72.978    0.415    0.275   13.763
  239.974    3.606   68.009    0.397    0.258   23.878
  240.794    3.589   65.099    0.376    0.254   26.645
  241.614    3.591   62.194    0.359    0.241   24.162
  242.434    3.610   63.389    0.366    0.235   31.997
  243.255    3.611   65.176    0.369    0.262   32.618
  244.075    3.560   70.190    0.361    0.263   37.394
  244.895    3.509   74.616    0.367    0.256   32.428
  245.715    3.493   72.295    0.376    0.276   29.941
  246.535    3.512   76.431    0.362    0.281   41.097
  247.356    3.513   80.270    0.392    0.273   65.151
  248.176    3.532   80.881    0.392    0.275   50.249
  248.996    3.534   82.962    0.380    0.270   27.526
  249.816    3.535   85.627    0.385    0.250   29.358
  250.636    3.537   87.122    0.382    0.257   26.151
  251.457    3.538   86.265    0.375    0.257   22.674
  252.277    3.522   85.996    0.378    0.268   26.948
  253.097    3.524   90.129    0.378    0.260   30.887
  253.917    3.525   92.210    0.382    0.249   24.475
  254.738    3.526   89.005    0.370    0.227   27.066
  255.558    3.528   89.620    0.330    0.201   27.344
  256.378    3.529   94.043    0.353    0.188   24.362
  257.198    3.532  101.994    0.377    0.197   20.746
  258.018    3.533   99.963    0.373    0.225   13.482
  258.839    3.534   98.226    0.362    0.225   15.178
  259.659    3.536   97.966    0.358    0.227   16.337
  260.479    3.537   97.400    0.370    0.228   16.360
  261.299    3.538   97.714    0.381    0.234   17.930
  262.119    3.540   94.803    0.379    0.238   18.782
  262.940    3.542   89.551    0.368    0.237   17.344
  263.760    3.543   89.572    0.369    0.238   18.666
  264.580    3.544   91.359    0.369    0.228   18.197
  265.400    3.546   90.796    0.374    0.237   22.419
  266.220    3.565   88.769    0.373    0.238   24.345
  267.041    3.584   87.616    0.374    0.236   22.482
  267.861    3.603   86.466    0.376    0.240   18.638
  268.681    3.606   86.203    0.378    0.233   19.697
