~VERSION INFORMATION
 VERS.                 2.0:   CWLS LOG ASCII STANDARD -VERSION 2.0
 WRAP.                  NO:   ONE LINE PER DEPTH STEP
~WELL INFORMATION BLOCK
#MNEM.UNIT           DATA                    DESCRIPTION OF MNEMONIC
#---------    -------------------            -------------------------------
# Generated from Intellog Unique Number	CC_80_83/WELL/2386
NULL.         -999.25                        : NULL_VALUE
WELL.         PEX PECJU HOUSE                : Well_name    - WELL              
LOC .         10-29-081-14W4                 : Location     - LOCATION          
UWI .         AA/10-29-081-14W400            : Uwi          - UNIQUE WELL ID    
ENTR.         RJA                            : Entered      - ENTERED BY        
SRVC.         SCHLUMBERGER                   : Scn          - SERVICE COMPANY   
DATE.         09 JAN 82                      : Date         - LOG DATE
STRT.M        116                            : top_depth    - START DEPTH       
STOP.M        376.996                        : bot_depth    - STOP DEPTH        
STEP.M        0.3                            : increment    - STEP LENGTH       
~CURVE INFORMATION BLOCK
#MNEM UNIT       ERCB CURVE CODE    CURVE DESCRIPTION
#-----------   ------------------   ----------------------------------
DEPT.M        00 001 00 00         : DEPTH        - DEPTH                       
NPHI.V/V      00 330 00 00         : PHIN         - NEUTRON POROSITY (LIMESTONE)
DPHI.V/V      00 890 00 00         : PHID         - DENSITY POROSITY (LIMESTONE)
GR  .API      00 310 00 00         : GR           - GAMMA RAY                   
ILD .OHMM     00 120 00 00         : RESD         - DEEP RESISTIVITY (DIL)      
~PARAMETER INFORMATION       
#MNEM.UNIT           DATA             DESCRIPTION OF MNEMONIC
#---------         -----------     ------------------------------
GL  .M        585                  : gl           - GROUND LEVEL ELEVATION      
EREF.M        588.6                : kb           - ELEVATION OF DEPTH REFERENCE
DATM.M        588.6                : datum        - DATUM ELEVATION             
TDD .M        385                  : tdd          - TOTAL DEPTH DRILLER         
RUN .         ONE                  : Run          - RUN NUMBER                  
ENG .         BILL                 : Engineer     - RECORDING ENGINEER          
WIT .         JIM                  : Witness      - WITNESSED BY                
MUD .         GEL                  : Mud_type     - MUD TYPE                    
MATR.         LIMESTONE            : Logunit      - NEUTRON MATRIX              
TMAX.C        15                   : BHT          - MAXIMUM RECORDED TEMPERATURE
BHTD.M        385                  : BHTDEP       - MAXIMUM RECORDED TEMPERATURE
MATR.         1                    : LOGUNIT      - NEUTRON MATRIX              
RMT .C        25                   : MDTP         - TEMPERATURE OF MUD          
NEUT.         1                    : NEUTRON      - NEUTRON TYPE                
RESI.         0                    : RESIST       - RESISTIVITY TYPE            
RMC .OHMM     0.25                 : RMC          - RESISTIVITY OF MUD CAKE     
RMF .OHMM     0.25                 : RMF          - RESISTIVITY OF MUD FILTRATE 
SUFT.C        4                    : SUFT         - SURFACE TEMPERATURE         
~A  DEPTH     PHIN     PHID       GR     RESD
  116.000    0.570    0.297  131.175    2.808
  116.300    0.545    0.297  130.555    3.087
  116.600    0.549    0.303  124.911    3.084
  116.900    0.575    0.284  112.993    2.966
  117.200    0.585    0.272  114.882    2.798
  117.500    0.601    0.288  118.653    2.744
  117.800    0.579    0.299  115.521    2.638
  118.100    0.561    0.267  116.783    2.586
  118.400    0.570    0.250  116.790    2.535
  118.700    0.536    0.247  114.912    2.582
  119.000    0.534    0.260  111.153    2.681
  119.300    0.554    0.257  108.020    2.627
  119.600    0.575    0.237  109.910    2.626
  119.900    0.547    0.267  105.522    3.703
  120.200    0.461    0.293   80.423    5.322
  120.500    0.398    0.262   75.408    6.821
  120.800    0.421    0.229   94.871    7.219
  121.100    0.437    0.195   94.249    6.308
  121.400    0.387    0.145   64.756    5.728
  121.700    0.427    0.230   75.433    5.101
  122.000    0.455    0.256   92.386    4.814
  122.300    0.458    0.226   90.508    4.454
  122.600    0.432    0.238   81.101    4.284
  122.900    0.413    0.234   76.712    3.965
  123.200    0.481    0.216   87.390    3.670
  123.500    0.492    0.205   93.670    3.268
  123.800    0.497    0.223   94.306    3.144
  124.100    0.493    0.249   94.938    3.024
  124.400    0.502    0.258   99.338    2.907
  124.700    0.546    0.241   94.325    2.905
  125.000    0.556    0.248   90.563    3.016
  125.300    0.543    0.263   94.335    3.191
  125.600    0.482    0.245   97.480    3.313
  125.900    0.473    0.224   94.975    3.374
  126.200    0.499    0.230   96.237    3.371
  126.500    0.481    0.235   94.988    3.369
  126.800    0.481    0.240   95.620    3.303
  127.100    0.498    0.245   98.141    3.115
  127.400    0.497    0.234  100.656    3.054
  127.700    0.506    0.240  108.193    3.052
  128.000    0.507    0.240  113.850    2.991
  128.300    0.524    0.239  113.852    2.822
  128.600    0.550    0.244  108.210    2.714
  128.900    0.562    0.246  110.102    2.560
  129.200    0.540    0.254  109.477    2.510
  129.500    0.488    0.255  110.740    2.414
  129.800    0.512    0.254  115.767    2.366
  130.100    0.553    0.251  104.475    2.364
  130.400    0.558    0.250  110.758    2.362
  130.700    0.543    0.242  109.509    2.315
  131.000    0.535    0.232  100.729    2.313
  131.300    0.512    0.225  101.363    2.267
  131.600    0.519    0.230  103.878    2.266
  131.900    0.535    0.221  110.163    2.264
  132.200    0.542    0.217  115.188    2.305
  132.500    0.538    0.223  115.195    2.304
  132.800    0.531    0.216  107.043    2.302
  133.100    0.544    0.232  103.909    2.301
  133.400    0.544    0.251  107.055    2.255
  133.700    0.519    0.248  104.548    2.253
  134.000    0.509    0.247   95.767    2.252
  134.300    0.496    0.252  105.192    2.249
  134.600    0.498    0.245  110.844    2.291
  134.900    0.541    0.263  109.595    2.290
  135.200    0.543    0.250   97.676    2.332
  135.500    0.508    0.240   97.686    2.375
  135.800    0.511    0.242   98.317    2.372
  136.100    0.524    0.241  101.459    2.371
  136.400    0.544    0.242  106.487    2.369
  136.700    0.524    0.261  103.354    2.367
  137.000    0.549    0.236   99.595    2.366
  137.300    0.572    0.239  105.251    2.363
  137.600    0.569    0.248  107.139    2.362
  137.900    0.565    0.223   97.104    2.315
  138.200    0.561    0.218   94.599    2.313
  138.500    0.557    0.233   94.606    2.311
  138.800    0.544    0.248   97.121    2.310
  139.100    0.537    0.251   96.502    2.308
  139.400    0.564    0.236   99.017    2.306
  139.700    0.525    0.252  100.278    2.304
  140.000    0.524    0.254   97.774    2.346
  140.300    0.537    0.251   94.014    2.389
  140.600    0.556    0.248   91.510    2.388
  140.900    0.550    0.252   94.026    2.479
  141.200    0.546    0.254   95.288    2.573
  141.500    0.508    0.236   86.507    2.622
  141.800    0.465    0.233   82.119    2.721
  142.100    0.470    0.257   87.775    2.771
  142.400    0.498    0.258   92.174    2.770
  142.700    0.480    0.242   97.828    2.767
  143.000    0.506    0.233   97.207    2.713
  143.300    0.512    0.243   99.097    2.609
  143.600    0.517    0.258   96.594    2.461
  143.900    0.563    0.262  102.875    2.277
  144.200    0.598    0.259  104.136    2.191
  144.500    0.586    0.267  101.631    2.066
  144.800    0.574    0.237   97.245    2.026
  145.100    0.574    0.222   94.740    2.024
  145.400    0.538    0.215   90.982    2.101
  145.700    0.543    0.224   90.989    2.181
  146.000    0.584    0.223   91.622    2.222
  146.300    0.542    0.234   94.138    2.307
  146.600    0.524    0.244   99.791    2.395
  146.900    0.508    0.240   91.640    2.534
  147.200    0.494    0.230   90.389    2.631
  147.500    0.529    0.235  100.437    2.731
  147.800    0.546    0.229  102.326    2.781
  148.100    0.517    0.228   97.939    2.780
  148.400    0.529    0.231   92.924    2.831
  148.700    0.526    0.231   95.443    2.829
  149.000    0.472    0.231   96.702    2.827
  149.300    0.469    0.236   94.826    2.824
  149.600    0.484    0.245   97.969    2.769
  149.900    0.488    0.215   99.859    2.663
  150.200    0.504    0.240  101.749    2.465
  150.500    0.544    0.268  101.753    2.462
  150.800    0.579    0.229   98.621    2.508
  151.100    0.505    0.228   94.863    2.604
  151.400    0.482    0.246   98.634    2.809
  151.700    0.489    0.239  101.151    3.087
  152.000    0.543    0.241   96.764    3.206
  152.300    0.553    0.240   98.652    3.204
  152.600    0.524    0.225   99.913    3.081
  152.900    0.514    0.239   97.410    2.852
  153.200    0.509    0.197   97.416    2.742
  153.500    0.516    0.220   92.400    2.793
  153.800    0.534    0.249   96.174    2.956
  154.100    0.539    0.220   98.689    3.128
  154.400    0.559    0.221   87.398    3.008
  154.700    0.560    0.259   77.362    4.162
  155.000    0.429    0.261   75.486    5.541
  155.300    0.376    0.301   64.822    6.835
  155.600    0.391    0.135   42.233    9.641
  155.900    0.315    0.117   37.846   13.595
  156.200    0.338    0.214   46.011   13.846
  156.500    0.389    0.272   57.942   13.317
  156.800    0.395    0.256   68.619   11.414
  157.100    0.380    0.196   77.413    9.975
  157.400    0.424    0.155   83.067    8.552
  157.700    0.452    0.237   84.327    7.618
  158.000    0.461    0.274   81.823    6.407
  158.300    0.457    0.248   75.553    6.161
  158.600    0.466    0.233   74.935    6.771
  158.900    0.390    0.250   74.310    7.165
  159.200    0.380    0.267   61.763    7.443
  159.500    0.384    0.253   58.630    8.342
  159.800    0.404    0.261   59.894    9.351
  160.100    0.419    0.278   63.036    8.821
  160.400    0.399    0.283   66.182    7.708
  160.700    0.389    0.275   73.091    6.482
  161.000    0.398    0.241   80.633    6.117
  161.300    0.456    0.240   83.776    5.882
  161.600    0.483    0.293   80.641    6.107
  161.900    0.437    0.295   59.936    6.977
  162.200    0.416    0.272   62.453    7.820
  162.500    0.413    0.235   75.012    7.965
  162.800    0.432    0.233   79.410    6.827
  163.100    0.476    0.247   80.045    6.082
  163.400    0.446    0.277   75.657    5.418
  163.700    0.456    0.300   59.974    5.518
  164.000    0.470    0.311   52.448    7.072
  164.300    0.442    0.317   46.804    8.723
  164.600    0.442    0.315   41.790   10.966
  164.900    0.421    0.273   41.169   12.059
  165.201    0.376    0.231   51.844   10.740
  165.501    0.387    0.223   61.892    8.863
  165.801    0.457    0.244   82.610    6.518
  166.101    0.484    0.251   84.500    5.589
  166.401    0.476    0.257   80.114    4.884
  166.701    0.484    0.267   77.608    4.608
  167.001    0.438    0.279   85.773    5.264
  167.301    0.422    0.238  100.841    5.900
  167.601    0.423    0.232   99.594    7.276
  167.901    0.422    0.224   95.205    8.001
