~VERSION INFORMATION
 VERS.                 2.0:   CWLS LOG ASCII STANDARD -VERSION 2.0
 WRAP.                  NO:   ONE LINE PER DEPTH STEP
~WELL INFORMATION BLOCK
#MNEM.UNIT           DATA                    DESCRIPTION OF MNEMONIC
#---------    -------------------            -------------------------------
# Generated from Intellog Unique Number	CN_91_93/WELL/3916
WELL.         13-02-092-08W4                 : Well_name    - WELL
LOC .         AA/13-02-092-08W4/0            : Location     - LOCATION
UWI .         AA/13-02-092-08W400            : Uwi          - UNIQUE WELL ID
ENTR.         JOETTE                         : Entered      - ENTERED BY
SRVC.         SCHLUMBERGER                   : Scn          - SERVICE COMPANY
DATE.         01/15/92                       : Date         - LOG DATE
STRT.F        50                             : top_depth    - START DEPTH
STOP.F        650.394                        : bot_depth    - STOP DEPTH
STEP.F        0.8202                         : increment    - STEP LENGTH
 NULL. -999.2500:NULL Value
~CURVE INFORMATION BLOCK
#MNEM UNIT       ERCB CURVE CODE    CURVE DESCRIPTION
#-----------   ------------------   ----------------------------------
DEPT.F        00 001 00 00         : DEPTH        - DEPTH
GR  .API      00 310 00 00         : GR           - GAMMA RAY
CALI.IN       00 280 01 00         : CAL          - CALIPER
NPHI.V/V      00 330 00 00         : PHIN         - NEUTRON POROSITY (SANDSTONE)
ILD .OHMM     00 120 00 00         : RESD         - DEEP RESISTIVITY (DIL)
~PARAMETER INFORMATION
#MNEM.UNIT           DATA             DESCRIPTION OF MNEMONIC
#---------         -----------     ------------------------------
GL  .M        457.505              : gl           - GROUND LEVEL ELEVATION
EREF.M        458.724              : kb           - ELEVATION OF DEPTH REFERENCE
DATM.M        458.724              : datum        - DATUM ELEVATION
TDD .M        202.082              : tdd          - TOTAL DEPTH DRILLER
RUN .         ONE                  : Run          - RUN NUMBER
ENG .         BILL                 : Engineer     - RECORDING ENGINEER
WIT .         JIM                  : Witness      - WITNESSED BY
MUD .         GEL                  : Mud_type     - MUD TYPE
MATR.         SANDSTONE            : Logunit      - NEUTRON MATRIX
TMAX.F        49                   : BHT          - MAXIMUM RECORDED TEMPERATURE
BHTD.F        663                  : BHTDEP       - MAXIMUM RECORDED TEMPERATURE
RMT .F        49                   : MDTP         - TEMPERATURE OF MUD
MUDD.LB/G     9.6                  : MWT          - MUD DENSITY
NEUT.         1                    : NEUTRON      - NEUTRON TYPE
RESI.         0                    : RESIST       - RESISTIVITY TYPE
RM  .OHMM     2.3                  : RM           - RESISTIVITY OF MUD
RMC .OHMM     1.7                  : RMC          - RESISTIVITY OF MUD CAKE
RMF .OHMM     1.7                  : RMF          - RESISTIVITY OF MUD FILTRATE
SUFT.F        39.2                 : SUFT         - SURFACE TEMPERATURE
~A  DEPTH       GR      CAL     PHIN     RESD
# ...
  478.150   40.786    6.217    0.344   87.291
  478.970   43.209    6.217    0.332   82.814
  479.790   44.421    6.257    0.332   65.352
  480.610   43.797    6.256    0.340   69.244
  481.430   43.787    6.255    0.349   74.829
  482.251   46.824    6.255    0.356   67.132
  483.071   56.555    6.254    0.354   54.928
  483.891   63.851    6.253    0.349   53.114
  484.711   61.405    6.252    0.335   58.427
  485.531   42.520    6.252    0.341   37.603
  486.352   38.854    6.251    0.361   22.497
  487.172   37.017    6.250    0.386   23.417
  487.992   38.228    6.249    0.385   55.829
  488.812   43.086    6.249    0.378   78.026
  489.633   48.557    6.248    0.373   87.483
  490.453   54.633    6.247    0.374   57.386
  491.273   50.970    6.247    0.383   40.496
  492.093   47.307    6.246    0.396   22.507
  492.913   53.385    6.245    0.413   26.164
  493.734   64.940    6.244    0.406   31.537
  494.554   63.106    6.244    0.391   29.374
  495.374   57.614    6.243    0.386   22.342
  496.194   53.340    6.243    0.380   25.017
  497.014   51.503    6.201    0.374   26.541
  497.835   50.884    6.201    0.366   29.177
  498.655   50.877    6.200    0.372   30.915
  499.475   50.255    6.199    0.379   25.765
  500.295   45.984    6.158    0.386   27.300
  501.115   42.318    6.157    0.388   33.539
  501.936   45.355    6.156    0.386   31.819
  502.756   50.824    6.156    0.385   27.532
  503.576   56.902    6.155    0.384   24.716
  504.396   48.975    6.154    0.380   20.625
  505.217   39.224    6.194    0.374   19.918
  506.037   36.167    6.194    0.362   24.909
  506.857   38.595    6.193    0.354   31.751
  507.677   40.409    6.151    0.360   29.052
  508.497   38.575    6.151    0.367   27.041
  509.318   33.689    6.109    0.378   23.833
  510.138   33.679    6.109    0.385   28.202
  510.958   34.278    6.108    0.390   38.696
  511.778   34.876    6.108    0.391   48.424
  512.598   33.651    6.107    0.393   38.923
  513.419   31.810    6.106    0.395   36.230
  514.239   32.408    6.105    0.399   37.023
  515.059   34.222    6.105    0.406   35.801
  515.879   37.261    6.104    0.411   29.837
  516.699   44.557    6.103    0.411   22.679
  517.520   47.591    6.103    0.402   21.124
  518.340   50.016    6.102    0.396   20.413
  519.160   50.613    6.101    0.389   20.466
  519.980   50.602    6.101    0.385   20.546
  520.801   50.590    6.100    0.379   20.613
  521.621   51.797    6.099    0.374   20.640
  522.441   53.614    6.098    0.371   20.316
  523.261   54.824    6.097    0.366   19.274
  524.081   58.462    6.097    0.365   17.963
  524.902   58.454    6.096    0.365   20.502
  525.722   56.009    6.096    0.370   20.569
  526.542   54.779    6.095    0.378   20.219
  527.362   54.162    6.094    0.389   20.272
  528.182   48.670    6.093    0.409   22.285
  529.003   41.352    6.093    0.418   22.788
  529.823   42.562    6.092    0.411   26.949
  530.643   48.640    6.092    0.391   42.846
  531.463   57.760    6.091    0.384   22.122
  532.283   62.623    6.090    0.385   14.511
  533.104   64.437    6.089    0.395   13.027
  533.924   65.644    6.089    0.391   16.605
  534.744   66.849    6.088    0.384   19.650
  535.564   61.360    6.087    0.390   13.382
  536.385   56.482    6.127    0.400   14.179
  537.205   50.992    6.167    0.406   22.132
  538.025   58.286    6.166    0.407   18.800
  538.845   64.972    6.247    0.401   15.393
  539.665   72.877    6.287    0.389   13.566
  540.486   75.911    6.286    0.383   12.644
  541.306   75.292    6.366    0.389   11.995
  542.126   72.236    6.487    0.401   11.799
  542.946   71.619    6.730    0.415   12.282
  543.766   68.560    7.136    0.404   12.784
  544.587   64.291    7.094    0.394   13.546
  545.407   50.887    6.891    0.394   13.581
  546.227   40.527    6.687    0.396   14.380
  547.047   35.644    6.524    0.398   17.995
  547.867   33.198    6.361    0.401   21.691
  548.688   32.579    6.279    0.409   32.037
  549.508   33.787    6.197    0.415   42.368
  550.328   37.430    6.156    0.405   80.982
  551.148   41.073    6.114    0.404   75.427
  551.969   46.539    6.114    0.409   22.814
  552.789   53.226    6.154    0.412   16.420
  553.609   48.955    6.153    0.415   22.104
  554.429   41.639    6.193    0.420   30.912
  555.249   36.758    6.233    0.426   27.733
  556.070   30.657    6.232    0.420   36.675
  556.890   31.253    6.231    0.412   65.165
  557.710   33.681    6.231    0.414   45.985
  558.530   34.889    6.189    0.418   20.490
  559.350   35.487    6.188    0.424   56.642
  560.171   33.651    6.188    0.429   90.055
  560.991   25.115    6.228    0.420  135.482
  561.811   20.843    6.268    0.404  175.901
  562.631   20.224    6.308    0.401  204.354
  563.451   20.823    6.307    0.404  237.719
  564.272   22.640    6.347    0.399  256.392
  565.092   23.238    6.387    0.393  243.401
  565.912   25.050    6.386    0.383  226.704
  566.732   27.475    6.426    0.382  215.078
  567.552   30.509    6.425    0.384  203.914
  568.373   32.937    6.425    0.390  119.770
  569.193   35.362    6.424    0.395   69.108
  570.013   35.352    6.464    0.403   44.506
  570.833   31.072    6.463    0.415   37.141
  571.654   29.238    6.462    0.417   60.108
  572.474   28.622    6.462    0.407   93.822
  573.294   27.394    6.461    0.398  113.088
  574.114   23.122    6.460    0.392  138.934
  574.934   18.846    6.500    0.376  167.464
  575.755   18.227    6.499    0.361  247.341
  576.575   18.828    6.499    0.352  309.519
  577.395   20.642    6.498    0.358  321.969
  578.215   22.461    6.497    0.353  381.003
  579.035   28.536    6.497    0.352  468.081
  579.856   34.006    6.455    0.362  146.892
  580.676   41.301    6.455    0.375   71.765
  581.496   29.724    6.454    0.383   45.374
  582.316   22.408    6.453    0.393   40.733
  583.136   17.527    6.452    0.404   50.010
  583.957   16.906    6.452    0.401  207.442
  584.777   16.287    6.451    0.380  355.487
  585.597   16.277    6.410    0.369  349.909
  586.417   16.876    6.409    0.358  351.049
  587.238   18.083    6.408    0.355  351.506
  588.058   18.682    6.408    0.370  365.645
  588.878   18.672    6.407    0.364  316.376
  589.698   18.657    6.406    0.356  203.748
  590.518   18.038    6.405    0.350  173.077
  591.339   18.028    6.405    0.342  260.383
  592.159   18.015    6.404    0.335  302.699
  592.979   18.010    6.404    0.330  332.761
  593.799   19.215    6.362    0.342  359.133
  594.619   19.814    6.361    0.361  310.944
  595.440   21.022    6.361    0.372  284.144
  596.260   20.400    6.360    0.372  232.641
  597.080   19.784    6.359    0.359  164.274
  597.900   18.556    6.318    0.359   84.871
  598.720   16.715    6.317    0.358   66.932
  599.541   15.487    6.317    0.349   97.053
  600.361   14.868    6.316    0.342  178.798
  601.181   14.858    6.315    0.332  664.505
  602.001   14.848    6.315    0.364  607.232
  602.822   14.232    6.273    0.383  609.210
  603.642   16.045    6.313    0.386  633.302
  604.462   20.297    6.353    0.376  710.060
  605.282   23.937    6.433    0.360  765.836
  606.102   27.580    6.555    0.348  826.530
  606.923   30.005    6.635    0.339  926.106
  607.743   32.433    6.716    0.342 1037.680
  608.563   34.856    6.755    0.350 1079.420
  609.383   36.061    6.795    0.353 1061.790
  610.203   36.660    6.795    0.352  935.793
  611.024   36.650    6.794    0.344  888.378
  611.844   36.639    6.793    0.325 1032.080
  612.664   36.632    6.752    0.329 1113.880
  613.484   36.008    6.711    0.339 1038.140
  614.304   36.001    6.669    0.346  849.421
  615.125   35.990    6.669    0.322  646.070
  615.945   34.763    6.628    0.313  423.806
  616.765   32.926    6.586    0.315  360.009
  617.585   30.481    6.585    0.318  284.097
  618.406   25.598    6.544    0.308  232.452
  619.226   25.585    6.503    0.294  176.803
  620.046   28.013    6.462    0.292  134.476
