~VERSION INFORMATION
 VERS.                 2.0:   CWLS LOG ASCII STANDARD -VERSION 2.0
 WRAP.                  NO:   ONE LINE PER DEPTH STEP
~WELL INFORMATION BLOCK
#MNEM.UNIT           DATA                    DESCRIPTION OF MNEMONIC
#---------    -------------------            -------------------------------
# Generated from Intellog Unique Number	CC_80_83/WELL/2381
COMP.         PETRO CANADA                   : COMPANY
WELL.         PEX PCEL CHARD OV              : WELL NAME
LOC .         10-29-080-07W4                 : Location     - LOCATION
UWI .         AA/10-29-080-07W400            : Uwi          - UNIQUE WELL ID
ENTR.         DW                             : Entered      - ENTERED BY
SRVC.         SCHLUMBERGER                   : Scn          - SERVICE COMPANY
STRT.M        175                            : top_depth    - START DEPTH
STOP.M        420.094                        : bot_depth    - STOP DEPTH
STEP.M        0.3                            : increment    - STEP LENGTH
 NULL. -999.2500:NULL Value
~CURVE INFORMATION BLOCK
#MNEM UNIT       ERCB CURVE CODE    CURVE DESCRIPTION
#-----------   ------------------   ----------------------------------
DEPT.M        00 001 00 00         : DEPTH        - DEPTH
DPHI.V/V      00 890 00 00         : PHID         - DENSITY POROSITY (LIMESTONE)
NPHI.V/V      00 330 00 00         : PHIN         - NEUTRON POROSITY (LIMESTONE)
GR  .API      00 310 00 00         : GR           - GAMMA RAY
ILD .OHMM     00 120 00 00         : RESD         - DEEP RESISTIVITY (DIL)
~PARAMETER INFORMATION
#MNEM.UNIT           DATA             DESCRIPTION OF MNEMONIC
#---------         -----------     ------------------------------
GL  .M        625.45               : gl           - GROUND LEVEL ELEVATION
EREF.M        629.1                : kb           - ELEVATION OF DEPTH REFERENCE
DATM.M        629.1                : datum        - DATUM ELEVATION
TDD .M        426                  : tdd          - TOTAL DEPTH DRILLER
RUN .         ONE                  : Run          - RUN NUMBER
ENG .         BILL                 : Engineer     - RECORDING ENGINEER
WIT .         JIM                  : Witness      - WITNESSED BY
MUD .         GEL                  : Mud_type     - MUD TYPE
MATR.         LIMESTONE            : Logunit      - NEUTRON MATRIX
TMAX.C        16                   : BHT          - MAXIMUM RECORDED TEMPERATURE
BHTD.M        426                  : BHTDEP       - MAXIMUM RECORDED TEMPERATURE
MATR.         1                    : LOGUNIT      - NEUTRON MATRIX
RMT .C        25                   : MDTP         - TEMPERATURE OF MUD
NEUT.         1                    : NEUTRON      - NEUTRON TYPE
RESI.         0                    : RESIST       - RESISTIVITY TYPE
RMC .OHMM     0.25                 : RMC          - RESISTIVITY OF MUD CAKE
RMF .OHMM     0.25                 : RMF          - RESISTIVITY OF MUD FILTRATE
SUFT.C        4                    : SUFT         - SURFACE TEMPERATURE
~A  DEPTH     PHID     PHIN       GR     RESD
  175.000    0.237    0.503  122.470    3.255
  175.300    0.243    0.496  126.800    3.450
  175.600    0.259    0.487  136.130    3.519
  175.900    0.241    0.491  137.953    3.521
  176.200    0.241    0.552  139.787    3.523
  176.500    0.255    0.525  130.999    3.460
  176.800    0.260    0.508  137.828    3.397
  177.100    0.263    0.546  132.785    3.336
  177.400    0.264    0.565  132.112    3.404
  177.700    0.261    0.555  135.198    3.406
  178.000    0.262    0.529  115.157    3.475
  178.300    0.271    0.551  126.978    3.476
  178.600    0.280    0.572  130.695    3.479
  178.900    0.278    0.574  123.153    3.482
  179.200    0.273    0.585  129.980    3.485
  179.500    0.269    0.583  130.563    3.422
  179.800    0.270    0.638  117.398    3.360
  180.100    0.272    0.648  124.843    3.237
  180.400    0.272    0.602  117.311    3.179
  180.700    0.273    0.613  124.138    3.121
  181.000    0.282    0.601  129.721    3.007
  181.300    0.290    0.598  121.554    2.897
  181.600    0.282    0.609  134.004    2.791
  181.900    0.275    0.588  135.838    2.741
  182.200    0.275    0.567  122.046    2.640
  182.500    0.272    0.594  128.253    2.593
  182.800    0.271    0.585  129.453    2.546
  183.100    0.264    0.590  128.789    2.548
  183.400    0.259    0.580  128.120    2.550
  183.700    0.257    0.599  120.581    2.601
  184.000    0.259    0.548  114.914    2.704
  184.300    0.262    0.546  133.613    2.706
  184.600    0.259    0.602  121.074    2.657
  184.900    0.245    0.590  115.406    2.560
  185.200    0.236    0.608  119.738    2.562
  185.500    0.244    0.603  117.810    2.664
  185.800    0.239    0.535  129.024    2.717
  186.100    0.239    0.510  122.107    2.879
  186.400    0.241    0.513  132.056    2.936
  186.700    0.240    0.538  129.512    3.053
  187.000    0.240    0.507  130.091    3.114
  187.300    0.239    0.487  131.302    3.176
  187.600    0.238    0.508  131.871    3.302
  187.900    0.239    0.522  124.966    3.499
  188.200    0.241    0.483  123.670    3.637
  188.500    0.238    0.482  121.755    3.781
  188.800    0.237    0.508  116.715    3.931
  189.100    0.238    0.503  124.171    4.087
  189.400    0.240    0.472  117.254    3.938
  189.700    0.242    0.510  122.208    3.866
  190.000    0.234    0.540  129.039    3.518
  190.300    0.221    0.531  137.114    3.390
  190.600    0.205    0.544  130.196    3.393
  190.900    0.197    0.528  134.530    3.461
  191.200    0.174    0.454  123.240    3.809
  191.500    0.191    0.421   99.452    4.524
  191.800    0.209    0.422   76.914    5.477
  192.100    0.219    0.458  108.739    6.144
  192.400    0.227    0.456  119.941    6.149
  192.700    0.238    0.443  105.524    5.813
  193.000    0.235    0.475  105.481    5.290
  193.300    0.232    0.481  115.438    4.905
  193.600    0.232    0.475  124.140    4.549
  193.900    0.235    0.461  128.472    4.300
  194.200    0.240    0.445  123.430    4.142
  194.500    0.236    0.418  100.890    4.307
  194.800    0.231    0.460  115.219    4.741
  195.100    0.233    0.460  121.424    5.319
  195.400    0.244    0.429  127.003    6.082
  195.700    0.268    0.433  115.089    6.568
  196.000    0.278    0.432  114.412    6.959
  196.300    0.274    0.400  118.123    7.515
  196.600    0.272    0.391  114.957    8.759
  196.900    0.277    0.381   94.294   10.016
  197.200    0.273    0.386   87.371   11.023
  197.500    0.264    0.400   95.455   13.601
  197.800    0.272    0.384  104.162   15.261
  198.100    0.266    0.408   98.489   15.273
  198.400    0.262    0.420  105.946   14.714
  198.700    0.264    0.413  121.517   14.445
  199.000    0.265    0.403  126.476   14.459
  199.300    0.251    0.393  133.935   14.195
  199.600    0.238    0.431  134.511   13.677
  199.900    0.234    0.442  138.846   13.176
  200.200    0.230    0.428  137.551   12.695
  200.500    0.219    0.418  143.130   12.231
  200.800    0.212    0.427  144.337   11.561
  201.100    0.234    0.399  134.924   10.721
  201.400    0.251    0.420  126.129   10.528
  201.700    0.253    0.420  104.845   10.947
  202.000    0.257    0.414   95.427   11.822
  202.300    0.262    0.444  104.132   13.262
  202.600    0.265    0.420  109.711   13.785
  202.900    0.269    0.425  110.292   14.609
  203.200    0.277    0.414   99.001   14.901
  203.500    0.275    0.391   87.697   14.633
  203.800    0.266    0.392   92.667   15.210
  204.100    0.259    0.383   98.246   16.427
  204.400    0.265    0.384   87.580   17.408
  204.700    0.275    0.401   79.412   16.771
  205.000    0.275    0.401   84.990   15.555
  205.300    0.274    0.415   79.953   14.704
  205.600    0.277    0.396   86.781   14.168
  205.900    0.281    0.404   96.733   14.451
  206.200    0.294    0.394  100.442   14.739
  206.500    0.301    0.392   82.274   15.616
  206.800    0.306    0.397   90.978   16.547
  207.100    0.307    0.396   92.809   17.870
  207.400    0.304    0.396   99.016   18.577
  207.700    0.297    0.407  103.968   18.950
  208.000    0.289    0.422  112.053   18.608
  208.300    0.286    0.427  112.631   17.590
  208.600    0.289    0.420   89.470   17.600
  208.900    0.292    0.412   93.798   16.640
  209.200    0.295    0.411  100.004   16.340
  209.500    0.298    0.397  104.961   16.664
  209.800    0.293    0.417  108.666   17.327
  210.100    0.288    0.430  109.863   17.015
  210.400    0.284    0.424  109.204   17.357
  210.700    0.275    0.425  114.781   17.039
  211.000    0.270    0.440  124.720   16.105
  211.300    0.302    0.454  124.061   14.939
  211.600    0.335    0.447  127.150   14.121
  211.900    0.391    0.448  112.729   13.867
  212.200    0.367    0.439  120.189   13.616
  212.500    0.283    0.401  129.515   13.628
  212.800    0.293    0.423   87.610   13.897
  213.100    0.318    0.400   78.189   15.012
  213.400    0.326    0.397   65.650   15.605
  213.700    0.327    0.366   59.987   16.534
  214.000    0.323    0.380   75.564   18.197
  214.300    0.323    0.400   80.520   20.031
  214.600    0.321    0.410   85.468   20.045
  214.900    0.318    0.419   83.557   18.955
  215.200    0.316    0.408   81.627   18.258
  215.500    0.317    0.419   86.590   17.928
  215.800    0.317    0.415   77.175   17.605
  216.100    0.311    0.402   87.130   17.619
  216.400    0.309    0.404   92.709   16.973
  216.700    0.293    0.405   90.785   16.665
  217.000    0.280    0.406   93.248   16.058
  217.300    0.257    0.394   98.205   15.467
  217.600    0.247    0.384   98.785   14.074
  217.900    0.253    0.378  106.862   13.055
  218.200    0.257    0.366   98.698   12.107
  218.500    0.255    0.358  102.400   11.443
  218.800    0.260    0.359  105.482   10.816
  219.100    0.266    0.360   89.191   10.826
  219.400    0.277    0.372   82.903   11.691
  219.700    0.286    0.351   60.363   13.368
  220.000    0.281    0.357   67.819   15.579
  220.300    0.269    0.368   84.020   17.478
  220.600    0.280    0.381   80.854   17.163
  220.900    0.268    0.375   89.555   15.916
  221.200    0.197    0.386   97.011   14.485
  221.500    0.227    0.399   98.844   14.774
  221.800    0.268    0.431   87.553   15.358
  222.100    0.287    0.431   95.006   16.906
  222.400    0.289    0.429  108.086   18.609
  222.700    0.293    0.419   94.914   19.720
  223.000    0.291    0.399   88.004   18.999
  223.300    0.283    0.380   85.457   18.300
  223.600    0.262    0.404   97.914   16.340
  223.900    0.239    0.428  113.490   13.263
  224.201    0.206    0.448  147.811    9.604
  224.501    0.198    0.449  150.890    7.649
  224.801    0.195    0.441  138.351    6.092
  225.101    0.205    0.456  142.682    5.543
  225.401    0.225    0.457  149.511    5.341
  225.701    0.239    0.463  142.596    6.225
  226.001    0.275    0.437  117.559    7.254
  226.301    0.300    0.400  116.887    8.781
  226.601    0.288    0.386  112.473   11.044
  226.901    0.292    0.406   99.308   14.425
