~VERSION INFORMATION
 VERS.                 2.0:   CWLS LOG ASCII STANDARD -VERSION 2.0
 WRAP.                  NO:   ONE LINE PER DEPTH STEP
~WELL INFORMATION BLOCK
#MNEM.UNIT           DATA                    DESCRIPTION OF MNEMONIC
#---------    -------------------            -------------------------------
# Generated from Intellog Unique Number	CS_77_79/WELL/3300
WELL.         10-11-078-08W4                 : Well_name    - WELL
LOC .         AA/10-11-078-08W4/0            : Location     - LOCATION
UWI .         AA/10-11-078-08W4/0            : Uwi          - UNIQUE WELL ID
ENTR.         JOETTE                         : Entered      - ENTERED BY
SRVC.         WESTERN ATLAS                  : Scn          - SERVICE COMPANY
DATE.         08/26/92                       : Date         - LOG DATE
STRT.M        140                            : top_depth    - START DEPTH
STOP.M        370                            : bot_depth    - STOP DEPTH
STEP.M        0.25                           : increment    - STEP LENGTH
 NULL. -999.2500:NULL Value
~CURVE INFORMATION BLOCK
#MNEM UNIT       ERCB CURVE CODE    CURVE DESCRIPTION
#-----------   ------------------   ----------------------------------
DEPT.M        00 001 00 00         : DEPTH        - DEPTH
GR  .API      00 310 00 00         : GR           - GAMMA RAY
NPHI.V/V      00 330 00 00         : PHIN         - NEUTRON POROSITY (SANDSTONE)
DPHI.V/V      00 890 00 00         : PHID         - DENSITY POROSITY (SANDSTONE)
ILD .OHMM     00 120 00 00         : RESD         - DEEP RESISTIVITY (DIL)
~PARAMETER INFORMATION
#MNEM.UNIT           DATA             DESCRIPTION OF MNEMONIC
#---------         -----------     ------------------------------
GL  .M        563.4                : gl           - GROUND LEVEL ELEVATION
EREF.M        566.9                : kb           - ELEVATION OF DEPTH REFERENCE
DATM.M        566.9                : datum        - DATUM ELEVATION
TDD .M        378                  : tdd          - TOTAL DEPTH DRILLER
RUN .         ONE                  : Run          - RUN NUMBER
ENG .         BILL                 : Engineer     - RECORDING ENGINEER
WIT .         JIM                  : Witness      - WITNESSED BY
MUD .         GEL                  : Mud_type     - MUD TYPE
MATR.         SANDSTONE            : Logunit      - NEUTRON MATRIX
TMAX.C        16                   : BHT          - MAXIMUM RECORDED TEMPERATURE
BHTD.M        378                  : BHTDEP       - MAXIMUM RECORDED TEMPERATURE
MATR.         1                    : LOGUNIT      - NEUTRON MATRIX
RMT .C        15                   : MDTP         - TEMPERATURE OF MUD
NEUT.         1                    : NEUTRON      - NEUTRON TYPE
RESI.         0                    : RESIST       - RESISTIVITY TYPE
RMC .OHMM     3.8                  : RMC          - RESISTIVITY OF MUD CAKE
RMF .OHMM     3.8                  : RMF          - RESISTIVITY OF MUD FILTRATE
SUFT.C        15                   : SUFT         - SURFACE TEMPERATURE
~A  DEPTH       GR     PHIN     PHID     RESD
# ...
  314.000  101.807    0.343    0.189    5.777
  314.250  105.941    0.354    0.199    6.330
  314.500  101.859    0.359    0.206    6.687
  314.750   96.017    0.336    0.210    7.195
  315.000   71.983    0.325    0.208    7.463
  315.250   70.255    0.313    0.209    8.030
  315.500   73.208    0.312    0.215    8.639
  315.750   73.247    0.324    0.220    9.126
  316.000   69.152    0.327    0.224   10.000
  316.250   53.921    0.319    0.222   10.373
  316.500   58.642    0.306    0.142   10.959
  316.750   68.643    0.298    0.111   11.578
  317.000   68.675    0.299    0.091   12.457
  317.250   66.941    0.302    0.173   12.921
  317.500   57.571    0.301    0.225   13.404
  317.750   47.035    0.313    0.245   13.655
  318.000   44.126    0.308    0.251   13.412
  318.250   48.853    0.304    0.252   12.933
  318.500   59.448    0.303    0.243   12.247
  318.750   60.641    0.305    0.225   11.388
  319.000   62.428    0.314    0.216   10.398
  319.250   65.387    0.318    0.200    9.323
  319.500   69.521    0.325    0.176    8.359
  319.750   82.470    0.336    0.157    7.359
  320.000   85.423    0.347    0.153    6.598
  320.250  101.293    0.355    0.159    5.809
  320.500   98.385    0.355    0.164    5.304
  320.750   99.584    0.349    0.160    5.115
  321.000  103.144    0.343    0.160    5.116
  321.250  100.816    0.344    0.170    5.212
  321.500  101.429    0.349    0.177    5.309
  321.750  100.868    0.353    0.185    5.408
  322.000   96.199    0.358    0.192    5.508
  322.250   90.944    0.368    0.190    5.819
  322.500   86.868    0.363    0.168    5.819
  322.750   87.475    0.340    0.162    6.495
  323.000   86.933    0.338    0.162    6.495
  323.250   86.359    0.332    0.166    6.381
  323.500   84.044    0.332    0.173    6.499
  323.750   84.057    0.333    0.176    6.501
  324.000   84.083    0.334    0.174    6.502
  324.250   82.935    0.334    0.176    6.503
  324.500   75.919    0.329    0.195    6.505
  324.750   70.664    0.324    0.240    6.506
  325.000   71.870    0.337    0.265    6.508
  325.250   77.177    0.342    0.203    6.509
  325.500   81.311    0.315    0.178    6.630
  325.750   83.097    0.307    0.172    6.754
  326.000   82.536    0.303    0.171    7.136
  326.250   83.736    0.301    0.176    7.402
  326.500   91.396    0.307    0.186    7.679
  326.750   89.075    0.310    0.183    7.822
  327.000   84.406    0.310    0.176    7.823
  327.250   87.366    0.301    0.172    7.825
  327.500   90.913    0.298    0.172    7.685
  327.750   92.699    0.299    0.173    7.687
  328.000   85.097    0.300    0.178    7.413
  328.250   85.709    0.299    0.178    7.416
  328.500   89.256    0.294    0.169    7.417
  328.750   93.403    0.287    0.169    7.285
  329.000   90.501    0.290    0.169    7.286
  329.250   87.580    0.290    0.169    7.288
  329.500   84.085    0.288    0.169    7.289
  329.750   77.656    0.285    0.169    7.291
  330.000   72.400    0.288    0.168    7.293
  330.250   73.013    0.295    0.167    7.294
  330.500   82.434    0.297    0.166    7.296
  330.750   83.634    0.297    0.168    7.297
  331.000   84.246    0.300    0.169    7.433
  331.250   82.505    0.305    0.171    7.572
  331.500   81.944    0.307    0.173    7.713
  331.750   74.341    0.297    0.176    8.002
  332.000   73.781    0.298    0.179    8.150
  332.250   68.525    0.306    0.180    8.454
  332.500   68.564    0.304    0.179    8.611
  332.750   74.451    0.295    0.174    8.458
  333.000   80.932    0.292    0.174    7.723
  333.250   85.072    0.290    0.177    7.585
  333.500   88.032    0.300    0.184    7.588
  333.750   84.531    0.304    0.189    7.728
  334.000   77.515    0.298    0.198    8.017
  334.250   71.679    0.297    0.205    8.469
  334.500   75.813    0.301    0.213    9.112
  334.750   77.019    0.303    0.215    9.627
  335.000   71.170    0.302    0.211    9.986
  335.250   62.980    0.302    0.213   10.359
  335.500   60.659    0.304    0.219   10.361
  335.750   67.733    0.305    0.225   10.364
  336.000   65.418    0.300    0.222   10.179
  336.250   64.257    0.292    0.219    9.817
  336.500   61.936    0.298    0.211    9.642
  336.750   64.896    0.306    0.210    9.643
  337.000   66.682    0.306    0.211    9.646
  337.250   58.493    0.303    0.216    9.825
  337.500   53.824    0.307    0.225   10.380
  337.750   48.569    0.318    0.240   11.167
  338.000   49.768    0.313    0.251   12.015
  338.250   67.405    0.305    0.219   12.694
  338.500   61.562    0.296    0.215   12.696
  338.750   52.786    0.300    0.225   12.245
  339.000   50.478    0.307    0.233   12.026
  339.250   52.838    0.304    0.227   11.598
  339.500   57.558    0.302    0.227   11.391
  339.750   62.285    0.306    0.228   11.393
  340.000   62.898    0.309    0.230   11.396
  340.250   63.510    0.307    0.232   11.608
  340.500   55.321    0.302    0.237   12.043
  340.750   51.832    0.297    0.244   12.043
  341.000   53.612    0.302    0.244   13.940
  341.250   58.333    0.305    0.227   13.444
  341.500   58.945    0.306    0.230   13.693
  341.750   51.929    0.306    0.233   14.206
  342.000   46.680    0.304    0.239   14.208
  342.250   46.706    0.311    0.242   14.473
  342.500   49.079    0.318    0.248   14.742
  342.750   52.620    0.311    0.250   14.746
  343.000   55.586    0.292    0.255   14.748
  343.250   55.625    0.289    0.257   15.023
  343.500   55.638    0.290    0.253   15.303
  343.750   59.184    0.298    0.249   15.309
  344.000   60.971    0.311    0.241   15.311
  344.250   59.823    0.312    0.229   14.766
  344.500   61.609    0.303    0.224   13.729
  344.750   60.468    0.297    0.221   12.537
  345.000   61.667    0.298    0.240   13.487
  345.250   56.999    0.303    0.244   14.511
  345.500   57.618    0.310    0.250   15.330
  345.750   57.644    0.308    0.247   16.493
  346.000   55.909    0.303    0.242   15.619
  346.250   56.516    0.297    0.232   14.262
  346.500   60.062    0.292    0.221   13.022
  346.750   65.369    0.299    0.210   11.890
  347.000   62.468    0.302    0.209   11.057
  347.250   62.500    0.305    0.213   10.860
  347.500   63.700    0.306    0.220   10.861
  347.750   66.073    0.306    0.218   11.268
  348.000   64.338    0.304    0.211   11.477
  348.250   54.968    0.306    0.221   11.906
  348.500   58.522    0.313    0.231   12.578
  348.750   57.367    0.314    0.228   14.557
  349.000   53.872    0.313    0.223   15.661
  349.250   50.384    0.309    0.215   17.159
  349.500   50.410    0.308    0.207   18.461
  349.750   47.495    0.314    0.246   17.805
  350.000   46.347    0.316    0.251   15.963
  350.250   50.487    0.313    0.259   14.053
  350.500   54.621    0.306    0.259   12.373
  350.750   59.928    0.304    0.238   12.152
  351.000   64.648    0.311    0.232   12.155
  351.250   63.501    0.318    0.239   12.382
  351.500   67.634    0.321    0.237   12.613
  351.750   62.379    0.316    0.240   13.570
  352.000   51.842    0.309    0.258   14.335
  352.250   50.114    0.300    0.261   15.706
  352.500   53.067    0.305    0.236   15.710
  352.750   57.214    0.317    0.230   14.878
  353.000   58.994    0.311    0.222   14.348
  353.250   59.606    0.308    0.222   13.837
  353.500   48.483    0.305    0.221   13.345
  353.750   47.335    0.310    0.232   12.869
  354.000   51.475    0.317    0.230   12.412
  354.250   55.022    0.317    0.226   12.191
  354.500   57.982    0.315    0.226   11.972
  354.750   55.660    0.322    0.230   11.759
  355.000   50.985    0.322    0.237   11.549
  355.250   49.844    0.320    0.231   11.551
  355.500   51.637    0.310    0.225   11.554
  355.750   52.249    0.302    0.225   11.556
  356.000   48.748    0.308    0.232   11.771
  356.250   45.259    0.310    0.240   12.212
  356.500   48.219    0.305    0.243   12.901
  356.750   48.239    0.314    0.244   13.881
  357.000   36.541    0.315    0.251   14.399
  357.250   38.314    0.314    0.255   14.142
