~VERSION INFORMATION
 VERS.                 2.0:   CWLS LOG ASCII STANDARD -VERSION 2.0
 WRAP.                  NO:   ONE LINE PER DEPTH STEP
~WELL INFORMATION BLOCK
#MNEM.UNIT           DATA                    DESCRIPTION OF MNEMONIC
#---------    -------------------            -------------------------------
# Generated from Intellog Unique Number	CN_94_101/WELL/3257
WELL.         10-02-095-06W4                 : Well_name    - WELL
LOC .         AA/10-02-095-06W4/0            : Location     - LOCATION
UWI .         AA/10-02-095-06W400            : Uwi          - UNIQUE WELL ID
ENTR.         TIM                            : Entered      - ENTERED BY
SRVC.         SCHLUMBERGER                   : Scn          - SERVICE COMPANY
DATE.         06/18/92                       : Date         - LOG DATE
STRT.M        100                            : top_depth    - START DEPTH
STOP.M        340                            : bot_depth    - STOP DEPTH
STEP.M        0.25                           : increment    - STEP LENGTH
 NULL. -999.2500:NULL Value
~CURVE INFORMATION BLOCK
#MNEM UNIT       ERCB CURVE CODE    CURVE DESCRIPTION
#-----------   ------------------   ----------------------------------
DEPT.M        00 001 00 00         : DEPTH        - DEPTH
GR  .API      00 310 00 00         : GR           - GAMMA RAY
NPHI.V/V      00 330 00 00         : PHIN         - NEUTRON POROSITY (SANDSTONE)
DPHI.V/V      00 890 00 00         : PHID         - DENSITY POROSITY (SANDSTONE)
ILD .OHMM     00 120 00 00         : RESD         - DEEP RESISTIVITY (DIL)
~PARAMETER INFORMATION
#MNEM.UNIT           DATA             DESCRIPTION OF MNEMONIC
#---------         -----------     ------------------------------
GL  .M        595.5                : gl           - GROUND LEVEL ELEVATION
EREF.M        598.5                : kb           - ELEVATION OF DEPTH REFERENCE
DATM.M        598.5                : datum        - DATUM ELEVATION
TDD .M        344                  : tdd          - TOTAL DEPTH DRILLER
RUN .         ONE                  : Run          - RUN NUMBER
ENG .         BILL                 : Engineer     - RECORDING ENGINEER
WIT .         JIM                  : Witness      - WITNESSED BY
MUD .         GEL                  : Mud_type     - MUD TYPE
MATR.         SANDSTONE            : Logunit      - NEUTRON MATRIX
TMAX.C        14                   : BHT          - MAXIMUM RECORDED TEMPERATURE
BHTD.M        344                  : BHTDEP       - MAXIMUM RECORDED TEMPERATURE
RMT .C        14                   : MDTP         - TEMPERATURE OF MUD
MUDD.KG/M     1050                 : MWT          - MUD DENSITY
NEUT.         1                    : NEUTRON      - NEUTRON TYPE
RESI.         0                    : RESIST       - RESISTIVITY TYPE
RM  .OHMM     3.15                 : RM           - RESISTIVITY OF MUD
RMC .OHMM     3.15                 : RMC          - RESISTIVITY OF MUD CAKE
RMF .OHMM     3.15                 : RMF          - RESISTIVITY OF MUD FILTRATE
SUFT.C        4                    : SUFT         - SURFACE TEMPERATURE
~A  DEPTH       GR     PHIN     PHID     RESD
# ...
  230.500   98.862    0.517    0.195    6.050
  230.750   99.536    0.510    0.197    6.179
  231.000   99.578    0.502    0.198    6.192
  231.250   99.633    0.496    0.202    6.199
  231.500  100.294    0.498    0.209    6.209
  231.750  100.350    0.499    0.215    6.337
  232.000  100.405    0.499    0.215    6.477
  232.250  100.475    0.494    0.213    6.485
  232.500   99.939    0.490    0.204    6.618
  232.750   99.375    0.477    0.198    6.753
  233.000   98.825    0.463    0.193    6.897
  233.250   98.881    0.453    0.193    7.047
  233.500  100.752    0.441    0.196    7.192
  233.750  103.848    0.432    0.198    7.070
  234.000  105.087    0.438    0.201    7.076
  234.250  106.353    0.447    0.203    6.823
  234.500  105.211    0.455    0.208    6.579
  234.750  104.056    0.464    0.209    6.346
  235.000  102.887    0.473    0.208    6.234
  235.250  102.365    0.485    0.203    6.011
  235.500  102.393    0.500    0.200    5.799
  235.750  103.687    0.510    0.199    5.589
  236.000  104.334    0.515    0.197    5.393
  236.250  105.614    0.470    0.194    5.298
  236.500  105.669    0.458    0.190    5.205
  236.750  105.133    0.455    0.188    5.117
  237.000  105.161    0.492    0.187    5.125
  237.250  105.836    0.505    0.188    5.235
  237.500  106.483    0.505    0.191    5.340
  237.750  108.973    0.503    0.192    5.454
  238.000  110.226    0.501    0.193    5.565
  238.250  114.532    0.531    0.189    4.973
  238.500  118.206    0.554    0.189    4.359
  238.750  121.907    0.571    0.190    3.823
  239.000  123.173    0.575    0.196    3.549
  239.250  121.413    0.567    0.200    3.489
  239.500  118.442    0.561    0.207    3.492
  239.750  116.681    0.567    0.207    3.499
  240.000  116.131    0.582    0.204    3.571
  240.250  114.371    0.582    0.199    3.578
  240.500  113.807    0.568    0.197    3.583
  240.750  112.666    0.557    0.190    3.659
  241.000  113.327    0.546    0.185    3.665
  241.250  113.988    0.534    0.179    3.670
  241.500  111.608    0.516    0.172    3.746
  241.750  108.032    0.505    0.164    3.752
  242.000  107.496    0.511    0.159    3.906
  242.250  108.762    0.518    0.155    4.066
  242.500  108.226    0.521    0.153    4.149
  242.750  107.043    0.505    0.149    4.317
  243.000  104.086    0.472    0.144    4.581
  243.250  101.720    0.460    0.138    4.764
  243.500   99.960    0.452    0.126    5.150
  243.750   97.594    0.420    0.082    5.785
  244.000   97.030    0.404    0.046    6.373
  244.250   96.480    0.376    0.033    6.759
  244.500   96.536    0.405    0.020    7.168
  244.750   97.197    0.442    0.064    7.317
  245.000   97.857    0.477    0.138    7.329
  245.250   98.546    0.483    0.192    7.345
  245.500   99.193    0.482    0.176    7.215
  245.750   99.840    0.481    0.178    7.230
  246.000  101.134    0.478    0.182    7.099
  246.250  101.189    0.473    0.176    6.845
  246.500  101.836    0.466    0.168    6.603
  246.750  101.314    0.468    0.163    6.611
  247.000  101.342    0.476    0.169    6.497
  247.250   99.609    0.480    0.180    6.147
  247.500   99.046    0.480    0.208    5.705
  247.750   98.482    0.482    0.228    5.100
  248.000   97.341    0.513    0.237    4.304
  248.250   96.791    0.558    0.234    3.700
  248.500   96.846    0.567    0.227    2.950
  248.750   97.521    0.578    0.224    2.587
  249.000   98.154    0.569    0.217    2.542
  249.250   99.462    0.557    0.213    2.547
  249.500  100.095    0.532    0.207    2.599
  249.750  100.136    0.515    0.202    2.756
  250.000  100.797    0.498    0.196    2.979
  250.250  101.500    0.501    0.195    3.220
  250.500  101.541    0.509    0.193    3.756
  250.750  101.569    0.514    0.193    4.139
  251.000  101.061    0.515    0.192    4.224
  251.250  100.497    0.516    0.188    4.397
  251.500   99.933    0.519    0.183    4.487
  251.750   99.384    0.521    0.184    4.761
  252.000   98.834    0.526    0.188    4.954
  252.250   98.298    0.522    0.185    5.359
  252.500   98.326    0.508    0.171    5.365
  252.750   97.776    0.491    0.166    5.475
  253.000   97.831    0.484    0.171    5.486
  253.250   97.887    0.478    0.174    5.495
  253.500   97.942    0.471    0.178    5.403
  253.750   97.406    0.467    0.181    5.308
  254.000   97.462    0.468    0.178    5.116
  254.250   97.531    0.473    0.171    4.935
  254.500   98.164    0.483    0.163    4.756
  254.750   98.825    0.495    0.150    4.586
  255.000  103.737    0.507    0.148    4.424
  255.250  108.635    0.518    0.159    4.265
  255.500  113.533    0.525    0.170    4.190
  255.750  117.221    0.539    0.180    3.889
  256.000  117.882    0.547    0.187    3.613
  256.250  117.332    0.567    0.192    3.481
  256.500  115.571    0.584    0.192    3.293
  256.750  111.995    0.592    0.190    3.238
  257.000  106.616    0.585    0.189    3.369
  257.250  103.645    0.575    0.185    3.574
  257.500  102.504    0.527    0.184    3.791
  257.750  102.532    0.507    0.179    3.943
  258.000  101.982    0.497    0.169    4.263
  258.250  101.432    0.507    0.161    4.434
  258.500   99.066    0.512    0.149    4.703
  258.750   94.885    0.518    0.121    5.183
  259.000   90.097    0.491    0.128    5.710
  259.250   86.535    0.427    0.145    6.532
  259.500   83.564    0.415    0.161    7.915
  259.750   81.776    0.425    0.175    9.236
  260.000   79.410    0.436    0.184   10.179
  260.250   78.255    0.431    0.189   10.387
  260.500   78.310    0.431    0.189   10.604
  260.750   78.971    0.431    0.187   10.826
  261.000   82.700    0.426    0.182   11.274
  261.250   84.544    0.412    0.181   11.500
  261.500   87.626    0.398    0.183   12.436
  261.750   91.313    0.400    0.184   13.436
  262.000   94.395    0.403    0.184   15.377
  262.250   97.478    0.406    0.177   17.951
  262.500  102.403    0.408    0.171   18.678
  262.750  104.261    0.414    0.162   18.701
  263.000  107.357    0.417    0.156   18.379
  263.250  109.228    0.419    0.152   17.059
  263.500  110.495    0.420    0.150   15.841
  263.750  111.747    0.420    0.149   14.704
  264.000  113.632    0.418    0.144   14.166
  264.250  114.884    0.417    0.138   13.402
  264.500  116.178    0.416    0.129   12.694
  264.750  116.811    0.415    0.122   12.470
  265.000  117.472    0.415    0.121   12.486
  265.250  115.712    0.416    0.121   12.265
  265.500  113.346    0.419    0.121   11.831
  265.750  109.178    0.425    0.122   11.408
  266.000  105.588    0.426    0.126   11.211
  266.250  103.222    0.422    0.127   11.014
  266.500  102.672    0.417    0.129   10.832
  266.750  102.136    0.418    0.133   10.650
  267.000  102.192    0.421    0.137   10.663
  267.250  102.853    0.423    0.140   10.676
  267.500  102.894    0.426    0.144   10.492
  267.750  103.569    0.429    0.147   10.510
  268.000  104.835    0.429    0.148   10.531
  268.250  105.496    0.424    0.148   10.549
  268.500  107.367    0.421    0.147   10.570
  268.750  109.267    0.420    0.146   10.583
  269.000  110.505    0.420    0.144   10.805
  269.250  111.799    0.420    0.142   10.818
  269.500  112.432    0.421    0.140   10.836
  269.750  112.487    0.422    0.139   10.854
  270.000  111.938    0.422    0.135   10.876
  270.250  110.810    0.423    0.131   10.889
  270.500  110.233    0.428    0.130   11.340
  270.750  107.881    0.430    0.134   11.799
  271.000  106.726    0.426    0.136   12.041
  271.250  105.557    0.422    0.132   12.529
  271.500  103.219    0.418    0.127   12.791
  271.750  102.050    0.416    0.121   13.309
  272.000  101.486    0.407    0.126   13.848
  272.250   99.162    0.400    0.128   14.138
  272.500   97.993    0.391    0.132   14.711
  272.750   97.415    0.395    0.135   15.307
  273.000   94.458    0.402    0.136   16.233
  273.250   93.275    0.409    0.140   17.216
  273.500   90.909    0.425    0.145   18.265
  273.750   86.122    0.420    0.146   18.997
