~VERSION INFORMATION
 VERS.                 2.0:   CWLS LOG ASCII STANDARD -VERSION 2.0
 WRAP.                  NO:   ONE LINE PER DEPTH STEP
~WELL INFORMATION BLOCK
#MNEM.UNIT           DATA                    DESCRIPTION OF MNEMONIC
#---------    -------------------            -------------------------------
# Generated from Intellog Unique Number	CS_73_76/WELL/3285
WELL.         AMOCO KIRBY                    : Well_name    - WELL
LOC .         AA/10-11-074-07W4/0            : Location     - LOCATION
UWI .         AA/10-11-074-07W4/0            : Uwi          - UNIQUE WELL ID
ENTR.         TIM                            : Entered      - ENTERED BY
SRVC.         SCHLUMBERGER                   : Scn          - SERVICE COMPANY
STRT.M        300                            : top_depth    - START DEPTH
STOP.M        515                            : bot_depth    - STOP DEPTH
STEP.M        0.25                           : increment    - STEP LENGTH
 NULL. -999.2500:NULL Value
~CURVE INFORMATION BLOCK
#MNEM UNIT       ERCB CURVE CODE    CURVE DESCRIPTION
#-----------   ------------------   ----------------------------------
DEPT.M        00 001 00 00         : DEPTH        - DEPTH
NPHI.V/V      00 330 00 00         : PHIN         - NEUTRON POROSITY (SANDSTONE)
GR  .API      00 310 00 00         : GR           - GAMMA RAY
DPHI.V/V      00 890 00 00         : PHID         - DENSITY POROSITY (SANDSTONE)
ILD .OHMM     00 120 00 00         : RESD         - DEEP RESISTIVITY (DIL)
~PARAMETER INFORMATION
#MNEM.UNIT           DATA             DESCRIPTION OF MNEMONIC
#---------         -----------     ------------------------------
GL  .M        685.15               : gl           - GROUND LEVEL ELEVATION
EREF.M        688.25               : kb           - ELEVATION OF DEPTH REFERENCE
DATM.M        688.25               : datum        - DATUM ELEVATION
TDD .M        519                  : tdd          - TOTAL DEPTH DRILLER
RUN .         ONE                  : Run          - RUN NUMBER
ENG .         BILL                 : Engineer     - RECORDING ENGINEER
WIT .         JIM                  : Witness      - WITNESSED BY
MUD .         GEL                  : Mud_type     - MUD TYPE
MATR.         SANDSTONE            : Logunit      - NEUTRON MATRIX
TMAX.C        22                   : BHT          - MAXIMUM RECORDED TEMPERATURE
BHTD.M        519                  : BHTDEP       - MAXIMUM RECORDED TEMPERATURE
RMT .C        20                   : MDTP         - TEMPERATURE OF MUD
MUDD.KG/M     1150                 : MWT          - MUD DENSITY
NEUT.         1                    : NEUTRON      - NEUTRON TYPE
RESI.         0                    : RESIST       - RESISTIVITY TYPE
RM  .OHMM     6.05                 : RM           - RESISTIVITY OF MUD
RMC .OHMM     5.92                 : RMC          - RESISTIVITY OF MUD CAKE
RMF .OHMM     6.3                  : RMF          - RESISTIVITY OF MUD FILTRATE
SUFT.C        4                    : SUFT         - SURFACE TEMPERATURE
~A  DEPTH     PHIN       GR     PHID     RESD
# ...
  474.000    0.355   90.914    0.227    8.733
  474.250    0.351   84.370    0.224    8.728
  474.500    0.350   77.830    0.212    8.554
  474.750    0.347   77.219    0.192    8.549
  475.000    0.346   76.602    0.181    8.544
  475.250    0.349   76.588    0.187    8.375
  475.500    0.354   76.569    0.195    8.369
  475.750    0.361   74.772    0.204    8.364
  476.000    0.365   72.382    0.213    8.202
  476.250    0.365   72.956    0.216    8.197
  476.500    0.362   77.670    0.220    8.190
  476.750    0.363   80.615    0.218    8.029
  477.000    0.367   82.972    0.213    8.023
  477.250    0.374   84.139    0.209    8.019
  477.500    0.378   83.527    0.209    7.863
  477.750    0.381   82.323    0.209    7.859
  478.000    0.381   82.892    0.208    7.853
  478.250    0.379   86.430    0.207    7.847
  478.500    0.372   84.637    0.208    7.838
  478.750    0.365   81.062    0.211    7.834
  479.000    0.364   78.672    0.212    7.825
  479.250    0.365   79.834    0.212    7.822
  479.500    0.369   82.779    0.211    7.815
  479.750    0.366   83.353    0.217    7.809
  480.000    0.365   82.148    0.219    7.950
  480.250    0.363   83.315    0.218    8.097
  480.500    0.364   80.332    0.213    8.247
  480.750    0.369   76.757    0.204    8.556
  481.000    0.373   73.176    0.224    8.714
  481.250    0.377   74.940    0.247    9.212
  481.500    0.381   79.071    0.258    9.382
  481.750    0.382   83.202    0.270    9.917
  482.000    0.382   86.740    0.276   10.289
  482.250    0.381   87.309    0.281   10.480
  482.500    0.366   82.548    0.285   10.875
  482.750    0.352   76.003    0.279   10.867
  483.000    0.362   74.804    0.255   10.068
  483.250    0.372   90.198    0.242    9.690
  483.500    0.363   92.550    0.237    8.978
  483.750    0.353   96.088    0.233    8.639
  484.000    0.341   96.662    0.229    8.313
  484.250    0.348   96.046    0.225    8.307
  484.500    0.356   97.805    0.230    8.301
  484.750    0.365  100.755    0.233    8.295
  485.000    0.362  105.474    0.242    8.288
  485.250    0.347  100.717    0.243    8.764
  485.500    0.348   90.023    0.249    9.805
  485.750    0.359   81.112    0.264   10.766
  486.000    0.363   71.016    0.272   12.047
  486.250    0.360   60.919    0.263   13.228
  486.500    0.354   57.931    0.246   14.256
  486.750    0.354   62.067    0.248   15.949
  487.000    0.363   66.198    0.272   16.240
  487.250    0.374   64.989    0.289   16.852
  487.500    0.377   62.589    0.301   16.836
  487.750    0.376   60.797    0.317   16.830
  488.000    0.376   58.406    0.321   16.817
  488.250    0.373   56.021    0.314   16.183
  488.500    0.367   53.631    0.311   15.572
  488.750    0.358   58.947    0.293   13.380
  489.000    0.353   61.892    0.272   11.937
  489.250    0.348   68.390    0.250   10.853
  489.500    0.338   76.082    0.204   10.249
  489.750    0.339   84.955    0.170   10.053
  490.000    0.357   92.050    0.163    9.674
  490.250    0.378   93.217    0.177    9.309
  490.500    0.391   89.641    0.190    8.956
  490.750    0.401   75.390    0.186    8.951
  491.000    0.408   67.665    0.189    8.943
  491.250    0.412   64.682    0.249    9.103
  491.500    0.394   84.226    0.213    9.273
  491.750    0.362   93.099    0.212    9.441
  492.000    0.359   87.147    0.214    9.084
  492.250    0.355   87.129    0.206    8.742
  492.500    0.365   87.703    0.195    8.570
  492.750    0.376   87.091    0.188    8.567
  493.000    0.367   84.701    0.193    8.559
  493.250    0.342   81.125    0.194    8.554
  493.500    0.328   74.585    0.195    8.545
  493.750    0.335   72.783    0.202    8.540
  494.000    0.345   72.760    0.219    8.696
  494.250    0.350   72.750    0.230    8.857
  494.500    0.348   70.953    0.235    9.362
  494.750    0.345   69.749    0.229    9.716
  495.000    0.340   67.951    0.222   10.465
  495.250    0.336   67.335    0.215   10.661
  495.500    0.340   67.909    0.218   11.271
  495.750    0.347   64.333    0.237   11.918
  496.000    0.355   61.346    0.256   12.604
  496.250    0.360   59.548    0.244   13.328
  496.500    0.367   58.344    0.219   14.358
  496.750    0.372   55.366    0.235   15.472
  497.000    0.377   54.161    0.256   16.674
  497.250    0.385   58.287    0.277   18.654
  497.500    0.392   57.083    0.298   20.873
  497.750    0.395   55.290    0.325   22.924
  498.000    0.402   51.117    0.342   26.636
  498.250    0.398   46.351    0.350   30.950
  498.500    0.377   43.961    0.347   36.646
  498.750    0.377   44.535    0.332   41.005
  499.000    0.376   46.299    0.309   33.933
  499.250    0.373   48.651    0.285   26.537
  499.500    0.366   52.185    0.277   21.542
  499.750    0.357   55.135    0.279   19.593
  500.000    0.361   61.044    0.278   17.817
  500.250    0.372   63.396    0.277   16.510
  500.500    0.373   66.934    0.272   14.728
  500.750    0.372   71.065    0.249   13.910
  501.000    0.368   76.381    0.243   13.138
  501.250    0.363   81.105    0.236   11.942
  501.500    0.348   87.014    0.224   11.275
  501.750    0.340   94.702    0.199   11.060
  502.000    0.347  102.389    0.182   10.842
  502.250    0.362  110.670    0.168   10.838
  502.500    0.377  119.543    0.176   11.244
  502.750    0.387  127.824    0.222   11.449
  503.000    0.391  124.248    0.245   12.337
  503.250    0.392  101.698    0.279   13.546
  503.500    0.391   82.116    0.307   14.874
  503.750    0.388   71.427    0.343   16.333
  504.000    0.386   61.913    0.344   17.934
  504.250    0.384   63.085    0.340   18.967
  504.500    0.384   67.808    0.336   19.310
  504.750    0.386   71.342    0.328   19.663
  505.000    0.386   67.771    0.336   20.788
  505.250    0.389   61.226    0.344   21.579
  505.500    0.380   56.465    0.345   21.559
  505.750    0.372   56.446    0.345   18.526
  506.000    0.367   57.020    0.344   15.331
  506.250    0.368   56.408    0.342   12.687
  506.500    0.372   54.611    0.340   10.303
  506.750    0.378   51.031    0.337    8.689
  507.000    0.381   52.197    0.337    7.055
  507.250    0.382   51.586    0.342    6.295
  507.500    0.371   48.603    0.347    5.721
  507.750    0.359   44.439    0.346    5.719
  508.000    0.360   43.827    0.337    5.608
  508.250    0.363   46.180    0.331    5.605
  508.500    0.365   49.718    0.324    5.601
  508.750    0.369   52.658    0.321    5.703
  509.000    0.362   49.078    0.318    5.808
  509.250    0.345   46.688    0.311    6.026
  509.500    0.346   47.262    0.305    6.252
  509.750    0.343   48.428    0.299    6.610
  510.000    0.338   47.822    0.292    6.989
  510.250    0.331   46.020    0.288    7.392
  510.500    0.323   45.413    0.281    7.963
  510.750    0.307   45.394    0.251    8.422
  511.000    0.291   51.303    0.191    9.248
  511.250    0.283   55.429    0.096   10.545
  511.500    0.273   53.034    0.054   12.023
  511.750    0.250   51.834    0.020   14.505
  512.000    0.202   48.259    0.008   16.857
  512.250    0.184   45.276    0.004   22.350
  512.500    0.174   45.252    0.008   30.773
  512.750    0.167   44.641    0.012   40.809
  513.000    0.162   43.436    0.015   47.418
  513.250    0.164   43.422    0.023   45.620
  513.500    0.171   45.181    0.029   43.891
  513.750    0.178   52.869    0.032   42.235
  514.000    0.182   57.593    0.035   42.204
  514.250    0.185   61.131    0.048   42.975
  514.500    0.187   62.297    0.051   45.442
  514.750    0.187   62.269    0.054   48.051
  515.000    0.186   62.250    0.055   50.809
