~VERSION INFORMATION
 VERS.                 2.0:   CWLS LOG ASCII STANDARD -VERSION 2.0
 WRAP.                  NO:   ONE LINE PER DEPTH STEP
~WELL INFORMATION BLOCK
#MNEM.UNIT           DATA                    DESCRIPTION OF MNEMONIC
#---------    -------------------            -------------------------------
# Generated from Intellog Unique Number	CC_80_83/WELL/2385
NULL.         -999.25                        : NULL_VALUE
COMP.         PETRO CANADA                   : COMPANY
WELL.         PEX PCEJU HOUSE OV             : Well_name    - WELL              
LOC .         10-29-081-13W4                 : Location     - LOCATION          
UWI .         AA/10-29-081-13W400            : Uwi          - UNIQUE WELL ID    
ENTR.         RJA                            : Entered      - ENTERED BY        
SRVC.         SCHLUMBERGER                   : Scn          - SERVICE COMPANY   
DATE.         04 FEB 81                      : Date         - LOG DATE
STRT.M        175                            : top_depth    - START DEPTH       
STOP.M        454.893                        : bot_depth    - STOP DEPTH        
STEP.M        0.3                            : increment    - STEP LENGTH       
~CURVE INFORMATION BLOCK
#MNEM UNIT       ERCB CURVE CODE    CURVE DESCRIPTION
#-----------   ------------------   ----------------------------------
DEPT.M        00 001 00 00         : DEPTH        - DEPTH                       
DPHI.V/V      00 890 00 00         : PHID         - DENSITY POROSITY (LIMESTONE)
NPHI.V/V      00 330 00 00         : PHIN         - NEUTRON POROSITY (LIMESTONE)
GR  .API      00 310 00 00         : GR           - GAMMA RAY                   
ILD .OHMM     00 120 00 00         : RESD         - DEEP RESISTIVITY (DIL)      
~PARAMETER INFORMATION       
#MNEM.UNIT           DATA             DESCRIPTION OF MNEMONIC
#---------         -----------     ------------------------------
GL  .M        656.2                : gl           - GROUND LEVEL ELEVATION      
EREF.M        659.1                : kb           - ELEVATION OF DEPTH REFERENCE
DATM.M        659.1                : datum        - DATUM ELEVATION             
TDD .M        460.2                : tdd          - TOTAL DEPTH DRILLER         
RUN .         ONE                  : Run          - RUN NUMBER                  
ENG .         BILL                 : Engineer     - RECORDING ENGINEER          
WIT .         JIM                  : Witness      - WITNESSED BY                
MUD .         GEL                  : Mud_type     - MUD TYPE                    
MATR.         LIMESTONE            : Logunit      - NEUTRON MATRIX              
TMAX.C        23                   : BHT          - MAXIMUM RECORDED TEMPERATURE
BHTD.M        460.2                : BHTDEP       - MAXIMUM RECORDED TEMPERATURE
MATR.         1                    : LOGUNIT      - NEUTRON MATRIX              
RMT .C        25                   : MDTP         - TEMPERATURE OF MUD          
NEUT.         1                    : NEUTRON      - NEUTRON TYPE                
RESI.         0                    : RESIST       - RESISTIVITY TYPE            
RMC .OHMM     0.25                 : RMC          - RESISTIVITY OF MUD CAKE     
RMF .OHMM     0.25                 : RMF          - RESISTIVITY OF MUD FILTRATE 
SUFT.C        4                    : SUFT         - SURFACE TEMPERATURE         
~A  DEPTH     PHID     PHIN       GR     RESD
# ...
  383.796    0.391    0.548   56.875    5.532
  384.096    0.336    0.538   47.500    5.314
  384.396    0.329    0.543   56.250    5.108
  384.696    0.346    0.553   53.750    4.723
  384.996    0.341    0.560   56.250    3.891
  385.296    0.375    0.570   62.500    2.911
  385.596    0.411    0.561   60.000    2.493
  385.896    0.410    0.540   58.125    2.135
  386.196    0.378    0.566   55.000    1.935
  386.496    0.386    0.594   57.500    1.897
  386.796    0.390    0.589   60.000    2.385
  387.095    0.378    0.547   47.500    3.430
  387.395    0.353    0.535   45.000    3.920
  387.695    0.337    0.538   49.375    4.742
  387.995    0.313    0.523   45.000    5.313
  388.295    0.346    0.521   48.125    5.306
  388.595    0.371    0.509   46.250    4.370
  388.895    0.366    0.508   53.750    3.671
  389.195    0.323    0.518   51.250    3.143
  389.495    0.331    0.537   58.750    2.691
  389.795    0.339    0.546   60.625    2.587
  390.095    0.341    0.553   55.000    2.736
  390.395    0.375    0.564   53.125    3.186
  390.695    0.377    0.556   54.375    3.639
  390.995    0.387    0.538   51.250    3.563
  391.295    0.437    0.545   50.000    3.493
  391.595    0.487    0.550   55.000    3.291
  391.895    0.393    0.561   54.375    2.984
  392.195    0.391    0.562   60.000    2.759
  392.495    0.413    0.550   58.125    2.653
  392.795    0.403    0.560   57.500    2.499
  393.095    0.365    0.567   55.625    2.449
  393.395    0.319    0.546   60.000    2.589
  393.695    0.334    0.555   57.500    2.687
  393.995    0.377    0.561   55.000    2.631
  394.295    0.292    0.527   63.750    2.578
  394.595    0.371    0.537   70.000    2.675
  394.895    0.368    0.569   73.125    2.941
  395.195    0.347    0.565   63.125    3.770
  395.495    0.321    0.550   58.125    4.741
  395.795    0.319    0.518   64.375    5.629
  396.095    0.317    0.506   53.125    6.307
  396.395    0.306    0.482   45.000    6.297
  396.695    0.311    0.475   44.375    5.820
  396.995    0.343    0.511   50.625    5.704
  397.295    0.425    0.499   50.625    6.640
  397.595    0.413    0.513   54.375    7.440
  397.895    0.383    0.528   56.250    7.427
  398.195    0.314    0.504   46.875    7.002
  398.495    0.292    0.462   43.125    6.601
  398.795    0.334    0.454   42.500    6.718
  399.095    0.397    0.479   45.000    7.385
  399.395    0.422    0.496   45.000    8.767
  399.695    0.386    0.464   41.250   11.021
  399.995    0.308    0.459   41.875   13.089
  400.295    0.331    0.452   37.500   13.067
  400.595    0.294    0.426   26.250   10.765
  400.895    0.319    0.418   21.250    8.534
  401.195    0.385    0.462   29.375    7.308
  401.495    0.392    0.503   40.625    6.759
  401.795    0.391    0.511   43.750    7.013
  402.095    0.382    0.502   48.125    7.559
  402.395    0.371    0.479   53.750    8.636
  402.695    0.288    0.477   66.875    9.867
  402.995    0.262    0.483   66.875   11.494
  403.295    0.341    0.493   64.375   16.524
  403.595    0.319    0.483   64.375   20.006
  403.895    0.303    0.467   54.375   22.413
  404.195    0.271    0.454   43.750   18.817
  404.495    0.278    0.440   38.750   17.745
  404.795    0.293    0.430   47.500   16.099
  405.095    0.286    0.430   48.750   15.166
  405.395    0.298    0.448   50.000   14.852
  405.695    0.282    0.442   54.375   14.838
  405.995    0.259    0.435   54.375   15.105
  406.295    0.222    0.439   48.750   15.672
  406.595    0.249    0.438   44.375   15.054
  406.895    0.279    0.431   37.500   14.469
  407.195    0.252    0.428   42.500   13.640
  407.495    0.256    0.440   49.375   12.370
  407.795    0.281    0.443   44.375   11.216
  408.095    0.282    0.447   42.500   10.782
  408.395    0.293    0.459   48.750   10.972
  408.695    0.292    0.467   59.375   11.602
  408.995    0.273    0.453   55.625   12.039
  409.295    0.203    0.430   46.875   12.501
  409.595    0.177    0.421   51.250   13.742
  409.895    0.272    0.424   53.125   15.694
  410.195    0.272    0.438   55.000   17.251
  410.495    0.266    0.414   45.000   18.242
  410.795    0.276    0.403   48.125   18.218
  411.095    0.309    0.404   45.625   17.505
  411.395    0.273    0.435   43.750   16.813
  411.694    0.299    0.449   39.375   15.851
  411.994    0.302    0.436   39.375   14.936
  412.294    0.281    0.425   43.125   14.082
  412.594    0.284    0.424   41.875   13.276
  412.894    0.288    0.429   48.125   12.758
  413.194    0.286    0.431   45.625   12.023
  413.494    0.293    0.438   42.500   12.004
  413.794    0.289    0.442   51.250   12.456
  414.094    0.257    0.431   55.625   13.174
  414.394    0.239    0.438   52.500   13.678
  414.694    0.278    0.443   45.625   14.465
  414.994    0.304    0.447   41.250   15.300
  415.294    0.296    0.439   46.875   15.572
  415.594    0.247    0.448   47.500   15.546
  415.894    0.268    0.455   44.375   16.127
  416.194    0.282    0.460   37.500   16.419
  416.494    0.289    0.459   41.250   16.722
  416.794    0.274    0.440   44.375   16.686
  417.094    0.302    0.444   46.875   16.355
  417.394    0.291    0.457   45.000   13.998
  417.694    0.287    0.459   47.500   12.460
  417.994    0.273    0.462   52.500   11.086
  418.294    0.254    0.455   59.375    9.491
  418.594    0.237    0.459   63.125    8.607
  418.894    0.241    0.467   66.875    9.105
  419.194    0.257    0.468   74.375   10.205
  419.494    0.293    0.477   68.750   11.655
  419.794    0.307    0.483   61.250   13.566
  420.094    0.292    0.482   58.750   14.356
  420.394    0.272    0.489   56.250   14.607
  420.694    0.264    0.498   59.375   14.876
  420.994    0.284    0.494   58.125   14.849
  421.294    0.303    0.460   53.750   13.470
  421.594    0.309    0.453   50.000   12.454
  421.894    0.311    0.462   53.750   11.736
  422.194    0.272    0.448   55.625   11.500
  422.494    0.242    0.443   56.875   13.917
  422.794    0.243    0.460   54.375   24.734
  423.094    0.297    0.463   39.375   57.533
  423.394    0.271    0.443   18.750   72.349
  423.694    0.282    0.436   19.375   75.073
  423.994    0.331    0.425   23.750   61.851
  424.294    0.362    0.419   21.875   41.241
  424.594    0.346    0.447   23.125   26.470
  424.894    0.322    0.434   26.250   16.988
  425.194    0.302    0.439   50.000   12.470
  425.494    0.253    0.419   57.500   10.681
  425.794    0.239    0.411   58.750    9.498
  426.094    0.252    0.426   51.250    9.309
  426.394    0.254    0.423   55.000    9.472
  426.694    0.218    0.421   60.625   10.023
  426.994    0.228    0.444   56.875   11.891
  427.294    0.254    0.423   45.000   12.826
  427.594    0.264    0.428   41.875   14.102
  427.894    0.258    0.445   43.750   14.917
  428.194    0.267    0.449   40.625   14.053
  428.494    0.283    0.444   30.625   12.997
  428.794    0.297    0.439   37.500   12.012
  429.094    0.257    0.434   50.000   11.773
  429.394    0.235    0.448   56.250   11.978
  429.694    0.234    0.442   53.125   12.196
  429.994    0.261    0.411   49.375   12.898
  430.294    0.251    0.429   58.125   14.178
  430.594    0.233    0.426   61.250   15.293
  430.894    0.281    0.421   55.000   16.486
  431.194    0.312    0.443   43.750   17.106
  431.494    0.296    0.452   37.500   16.761
  431.794    0.268    0.428   46.250   13.538
  432.094    0.267    0.430   44.375   11.821
  432.394    0.273    0.431   41.250   10.517
  432.694    0.256    0.421   51.875    9.358
  432.994    0.248    0.431   60.000    8.654
  433.294    0.234    0.450   63.125    7.999
  433.594    0.224    0.464   60.000    7.396
  433.894    0.223    0.447   58.750    6.970
  434.194    0.213    0.442   55.625    6.700
  434.494    0.210    0.463   55.000    6.563
  434.794    0.232    0.507   55.625    6.550
  435.094    0.209    0.482   61.875    6.419
  435.394    0.217    0.463   65.000    5.933
  435.694    0.223    0.482   63.125    5.812
