~VERSION INFORMATION
 VERS.                 2.0:   CWLS LOG ASCII STANDARD -VERSION 2.0
 WRAP.                  NO:   ONE LINE PER DEPTH STEP
~WELL INFORMATION BLOCK
#MNEM.UNIT           DATA                    DESCRIPTION OF MNEMONIC
#---------    -------------------            -------------------------------
# Generated from Intellog Unique Number	CC_80_83/WELL/2364
NULL.         -999.25                        : NULL_VALUE
WELL.         PEX PCEJ HANGST OV             : Well_name    - WELL              
LOC .         10-23-081-08W4                 : Location     - LOCATION          
UWI .         AA/10-23-081-08W4/0            : Uwi          - UNIQUE WELL ID    
ENTR.         DW                             : Entered      - ENTERED BY        
SRVC.         SCHLUMBERGER                   : Scn          - SERVICE COMPANY   
DATE.         18 JAN 80                      : Date         - LOG DATE
STRT.M        250                            : top_depth    - START DEPTH       
STOP.M        494.79                         : bot_depth    - STOP DEPTH        
STEP.M        0.3                            : increment    - STEP LENGTH       
~CURVE INFORMATION BLOCK
#MNEM UNIT       ERCB CURVE CODE    CURVE DESCRIPTION
#-----------   ------------------   ----------------------------------
DEPT.M        00 001 00 00         : DEPTH        - DEPTH                       
DPHI.V/V      00 890 00 00         : PHID         - DENSITY POROSITY (LIMESTONE)
NPHI.V/V      00 330 00 00         : PHIN         - NEUTRON POROSITY (LIMESTONE)
GR  .API      00 310 00 00         : GR           - GAMMA RAY                   
ILD .OHMM     00 120 00 00         : RESD         - DEEP RESISTIVITY (DIL)      
~PARAMETER INFORMATION       
#MNEM.UNIT           DATA             DESCRIPTION OF MNEMONIC
#---------         -----------     ------------------------------
GL  .M        735.25               : gl           - GROUND LEVEL ELEVATION      
EREF.M        738.85               : kb           - ELEVATION OF DEPTH REFERENCE
DATM.M        738.85               : datum        - DATUM ELEVATION             
TDD .M        497                  : tdd          - TOTAL DEPTH DRILLER         
RUN .         ONE                  : Run          - RUN NUMBER                  
ENG .         BILL                 : Engineer     - RECORDING ENGINEER          
WIT .         JIM                  : Witness      - WITNESSED BY                
MUD .         GEL                  : Mud_type     - MUD TYPE                    
MATR.         LIMESTONE            : Logunit      - NEUTRON MATRIX              
TMAX.C        19                   : BHT          - MAXIMUM RECORDED TEMPERATURE
BHTD.M        497                  : BHTDEP       - MAXIMUM RECORDED TEMPERATURE
MATR.         1                    : LOGUNIT      - NEUTRON MATRIX              
RMT .C        25                   : MDTP         - TEMPERATURE OF MUD          
NEUT.         1                    : NEUTRON      - NEUTRON TYPE                
RESI.         0                    : RESIST       - RESISTIVITY TYPE            
RMC .OHMM     0.25                 : RMC          - RESISTIVITY OF MUD CAKE     
RMF .OHMM     0.25                 : RMF          - RESISTIVITY OF MUD FILTRATE 
SUFT.C        4                    : SUFT         - SURFACE TEMPERATURE         
~A  DEPTH     PHID     PHIN       GR     RESD
# ...
  354.396    0.325    0.405   69.548   20.485
  354.696    0.315    0.411   70.196   19.023
  354.996    0.316    0.429   72.719   19.395
  355.296    0.316    0.447   72.746   20.153
  355.596    0.317    0.437   63.447   21.340
  355.896    0.326    0.399   64.094   21.761
  356.196    0.332    0.405   62.882   21.774
  356.496    0.337    0.419   63.532   20.991
  356.796    0.336    0.430   62.940   18.429
  357.096    0.326    0.423   65.459   13.670
  357.396    0.307    0.428   81.044   11.136
  357.696    0.290    0.426   97.876    9.961
  357.996    0.268    0.419   96.659    8.746
  358.296    0.268    0.412   83.624    8.433
  358.596    0.281    0.418   92.989    8.437
  358.896    0.291    0.443  109.819    9.273
  359.196    0.276    0.434  107.980   10.781
  359.496    0.318    0.419  112.366   14.021
  359.796    0.346    0.464  108.665   14.845
  360.096    0.355    0.439   89.401   14.580
  360.396    0.307    0.408   67.029   13.042
  360.696    0.294    0.403   68.925   11.237
  360.996    0.289    0.452   90.114    9.868
  361.296    0.306    0.477  106.944    9.511
  361.596    0.345    0.501  106.975    9.344
  361.896    0.331    0.505  107.010    9.350
  362.196    0.252    0.469  110.146    9.899
  362.496    0.256    0.447  125.112   10.478
  362.796    0.252    0.433  119.538   11.518
  363.096    0.241    0.410  104.636   12.422
  363.396    0.242    0.390  108.399   13.652
  363.696    0.255    0.399  105.317   14.451
  363.996    0.271    0.405  107.838   15.299
  364.296    0.290    0.397   89.198   16.198
  364.596    0.291    0.384   77.403   15.912
  364.896    0.281    0.408   74.323   15.059
  365.196    0.259    0.409   94.887   14.514
  365.496    0.228    0.397  100.516   13.733
  365.796    0.229    0.382  109.880   12.750
  366.096    0.234    0.391  101.198   11.622
  366.396    0.240    0.418  100.605   11.203
  366.696    0.261    0.461  105.614   10.211
  366.996    0.310    0.442  108.131   10.029
  367.296    0.392    0.483  108.784   10.620
  367.596    0.404    0.504  107.573   10.429
  367.896    0.259    0.450  109.467    8.657
  368.195    0.287    0.462  110.740    7.458
  368.495    0.352    0.530  117.617    4.588
  368.795    0.370    0.601  124.493    3.600
  369.095    0.297    0.604  123.275    3.343
  369.395    0.327    0.599  118.948    3.540
  369.695    0.357    0.602  123.338    3.964
  369.995    0.355    0.580  127.097    4.522
  370.295    0.308    0.569  125.884    4.969
  370.595    0.306    0.547  124.049    5.462
  370.895    0.319    0.542  116.609    5.782
  371.195    0.364    0.544  118.514    6.121
  371.495    0.388    0.519  115.430    6.728
  371.795    0.311    0.529  112.343    7.122
  372.095    0.317    0.502  104.285    7.263
  372.395    0.362    0.522   98.713    7.268
  372.695    0.284    0.503  105.588    6.878
  372.995    0.283    0.526  107.488    6.386
  373.295    0.339    0.519  105.645    5.400
  373.595    0.394    0.521  110.036    4.568
  373.895    0.360    0.613  120.640    4.085
  374.195    0.343    0.630  120.683    4.013
  374.495    0.343    0.642  120.078    4.328
  374.795    0.331    0.636  115.752    4.759
  375.095    0.306    0.569  112.048    4.851
  375.395    0.299    0.546  123.278    4.947
  375.695    0.346    0.532  118.333    4.950
  375.995    0.352    0.526  113.383    5.341
  376.295    0.400    0.555  113.412    5.762
  376.595    0.422    0.555  103.485    5.985
  376.895    0.426    0.527   99.165    6.336
  377.195    0.411    0.501  101.680    6.582
  377.495    0.346    0.481   99.843    6.345
  377.795    0.445    0.528   94.271    6.595
  378.095    0.474    0.501   90.567    6.723
  378.395    0.281    0.472  101.800    7.121
  378.695    0.268    0.433  108.676    7.396
  378.995    0.252    0.431   92.524    7.831
  379.295    0.253    0.436  109.976    8.444
  379.595    0.251    0.436  108.764    9.281
  379.895    0.250    0.432   90.746    9.642
  380.195    0.257    0.420   95.756   10.211
  380.495    0.264    0.406   97.654   10.216
  380.795    0.269    0.399   93.954   10.419
  381.095    0.267    0.401   89.622   10.624
  381.395    0.264    0.405   90.894   11.245
  381.695    0.272    0.409   98.391   12.595
  381.995    0.280    0.425   97.801   13.332
  382.295    0.284    0.443   98.449   13.852
  382.595    0.281    0.415   87.901   14.127
  382.895    0.280    0.421   94.160   14.139
  383.195    0.281    0.426   91.071   14.152
  383.495    0.282    0.435   86.123   13.897
  383.795    0.290    0.448   85.532   13.915
  384.095    0.288    0.451   94.276   13.923
  384.395    0.286    0.448   89.946   13.931
  384.695    0.286    0.430   90.608   13.945
  384.995    0.287    0.414   88.765   13.699
  385.295    0.292    0.419   81.956   13.452
  385.595    0.298    0.409   81.977   12.971
  385.895    0.289    0.415   88.229   12.980
  386.195    0.284    0.424   91.370   12.996
  386.495    0.287    0.422   82.690   13.006
  386.795    0.295    0.430   87.075   13.014
  387.095    0.298    0.416   81.502   13.267
  387.395    0.291    0.393   82.155   13.533
  387.695    0.288    0.394   84.676   13.295
  387.995    0.284    0.411   88.437   13.055
  388.295    0.288    0.422   87.222   12.826
  388.595    0.292    0.444   82.903   12.595
  388.895    0.295    0.428   84.793   12.607
  389.195    0.292    0.421   91.668   12.856
  389.495    0.287    0.413   86.100   13.355
  389.795    0.290    0.398   84.262   13.619
  390.095    0.293    0.383   89.269   13.895
  390.395    0.296    0.378   84.320   13.905
  390.695    0.293    0.403   83.731   13.915
  390.995    0.292    0.419   81.893   13.928
  391.295    0.292    0.407   80.056   13.937
  391.595    0.289    0.399   85.060   13.945
  391.895    0.287    0.393   88.201   13.701
  392.195    0.286    0.411   82.632   13.970
  392.495    0.287    0.423   91.997   14.248
  392.794    0.293    0.427   92.026   14.256
  393.094    0.296    0.403   88.321   14.542
  393.394    0.296    0.410   77.774   14.549
  393.694    0.295    0.399   74.692   14.563
  393.994    0.298    0.410   81.565   14.574
  394.294    0.297    0.415   85.335   14.593
  394.594    0.289    0.417   84.114   14.602
  394.894    0.287    0.400   88.502   14.339
  395.194    0.289    0.397   80.440   13.567
  395.494    0.282    0.419   77.359   13.079
  395.794    0.277    0.419   79.878   11.921
  396.094    0.275    0.432   83.640   11.279
  396.394    0.286    0.406   89.894   10.474
  396.694    0.291    0.409   98.636    9.369
  396.994    0.288    0.456   94.310    7.216
  397.294    0.313    0.473   97.450    6.958
  397.594    0.398    0.512   98.102    6.961
  397.894    0.496    0.545  101.243    7.100
  398.194    0.333    0.549  108.742    7.516
  398.494    0.295    0.434  110.637    8.902
  398.794    0.321    0.448  105.688   10.155
  399.094    0.324    0.442  102.608   10.957
  399.394    0.213    0.389   82.724   10.963
  399.694    0.332    0.503  100.799   10.570
  399.994    0.347    0.521  107.677    8.588
  400.294    0.336    0.520  115.793    8.421
  400.594    0.323    0.491  117.694    7.952
  400.894    0.328    0.511  116.479    6.455
  401.194    0.344    0.542  105.928    5.240
  401.494    0.358    0.594   99.736    4.676
  401.794    0.421    0.615   98.521    3.942
  402.094    0.419    0.653  106.640    3.024
  402.394    0.343    0.721  105.433    2.698
  402.694    0.351    0.708  106.078    2.646
  402.994    0.401    0.782  108.597    2.745
  403.294    0.411    0.722  105.513    3.312
  403.594    0.393    0.728   96.208    4.310
  403.894    0.386    0.696  103.710    5.823
  404.194    0.387    0.652   98.135    7.575
  404.494    0.416    0.655  103.142    8.162
  404.794    0.457    0.546  100.062    8.630
  405.094    0.485    0.535  106.938    8.954
  405.394    0.377    0.540  110.702    9.291
  405.694    0.351    0.498  108.862   10.009
  405.994    0.335    0.490  105.780   10.991
  406.294    0.291    0.499   99.592   11.404
