~Version : LASO    vs 4.00
VERS.                2.00:   CWLS Log ASCII Standard -VERSION 2.0
WRAP.                  NO:
~Well Information Block
#MNEM.UNIT       Data                        Description of Mnemonic
#----.----      -------------------------- : -----------------------------
STRT.M            21.0000:
STOP.M           215.4000:
STEP.M             0.2000:
NULL.           -999.2500:
COMP.  MOBIL OIL CANADA                 :COMPANY
WELL.  MOBIL CLARKE OV PROG. 2-81       :WELL
FLD.                                    :FIELD
LOC.   13-28-089-07W4                   :LOCATION
CTRY.  CANADA                           :COUNTRY
PROV.  ALBERTA                          :PROVINCE
SRVC.  SCHLUMBERGER                     :SERVICE COMPANY
DATE.  31-JAN-81                        :LOG DATE
UWI.   AA/13-28-089-07W400              :UNIQUE WELL ID
~Parameter Information Block
#MNEM.UNIT       Data                        Description of Mnemonic
#----.----      -------------------------- : -----------------------------
RUN .                   1                 : Run Number
GL  .M           458.5000                 : Ground Level Elevation
DREF.                  GD                 : Depth Reference
EREF.M           458.5000                 : Elevation of Depth Reference
TDL .M           216.0000                 : Total Depth Logger
TDD .M           216.0000                 : Total Depth Driller
CSGL.M            22.0000                 : Casing Bottom Logger
CSGD.M            22.0000                 : Casing Bottom Driller
CSGS.MM          219.0000                 : Casing Size
CSGW.KG/M          0.0000                 : Casing Weight
BHT .DEGC         12.0000                 : Bottom Hole Temperature
BS  .MM          171.0000                 : Bit Size
DFD .           9999.0000                 : Mud Weight (Density)
DFV .             45.0000                 : Mud Viscosity
DFPH.             11.0000                 : Mud pH
RM  .OHMM          5.7400                 : Mud Resistivity
RMT .DEGC         12.0000                 : Mud Resistivity Temperature
~Curve Information Block
#MNEM.UNIT        API CODE    Curve Description
#---------    ------------    -------------------------------------------
DEPT.M                    :   DEPTH
CALI.MM       42 280  1  1:   3 DENSITY CALIPER
DPHI.V/V                  :   DPHI
DT  .US/M     60 520  0  1:   2 SONIC INTERVAL TRANSIT TIME (COMPENSATED)
GR  .GAPI     42 310  1  1:   4 GAMMA RAY
ILD .OHMM      5 120 46  1:   7 DEEP INDUCTION
ILM .OHMM      5 120 44  1:   8 MEDIUM INDUCTION
NPHI.V/V      42 890  3  1:   5 NEUTRON POROSITY (SANDSTONE)
RHOB.K/M3     42 350  1  1:   6 BULK DENSITY
SFLU.OHMM      5 220  1  1:   9 FOCUSSED RESISTIVITY
SP  .MV        5  10  1  1:   10 SPONTANEOUS POTENTIAL
~A  Depth           CALI        DPHI          DT          GR         ILD         ILM        NPHI        RHOB        SFLU          SP
# ...
191.8000        173.6000      0.1427    422.1600     89.9850     10.7604     10.4479      0.4200   2401.2000     13.4843    -83.8500
192.0000        171.3500      0.1476    419.8400     84.5550     11.1643     10.4479      0.4135   2405.8000     13.1169    -84.0900
192.2000        170.6750      0.1455    416.2000     79.8750     11.9078     10.8400      0.4085   2356.1001     11.3196    -83.8500
192.4000        170.6500      0.1543    412.8000     71.1750     12.7008     11.4559      0.4156   2335.8999     10.2195    -88.3200
192.6000        170.2250      0.1682    435.8000     50.4600     16.8978     16.2566      0.4139   2293.5000     14.6497   -104.9850
192.8000        168.5000      0.1829    443.0400     42.7200     18.5281     19.0121      0.3934   2280.2000     19.1527   -109.7100
193.0000        163.7000      0.2164    442.4000     37.2150     22.4817     26.2440      0.3761   2268.0000     43.1152   -113.4450
193.2000        164.7000      0.2345    406.6000     34.8150     36.9683     39.3215      0.3544   2310.2000    268.0587   -118.4250
193.4000        166.5250      0.2344    391.7200     35.0100     48.7338     67.0857      0.3521   2298.7000    380.7412   -118.6650
193.6000        168.3250      0.2343    380.0000     35.9850     64.2436     98.7711      0.3478   2275.5000    373.7919   -117.9300
193.8000        170.0250      0.2377    374.0000     36.9600     76.5297    124.2310      0.3424   2258.7000    373.7919   -116.9250
194.0000        170.1000      0.2318    368.4800     38.2800     68.5220    121.9635      0.3449   2237.5000    350.4531   -115.4400
194.2000        169.2750      0.2297    373.8000     37.5900     63.0710     91.7550      0.3499   2233.8999    246.7345   -115.1850
194.4000        168.4750      0.2425    381.0400     37.0500     57.5215     72.8836      0.3533   2244.3999    159.8932   -114.4500
194.6000        167.2000      0.2354    384.2400     37.5150     55.4409     65.2574      0.3595   2242.2000    101.7255   -115.4400
194.8000        166.9000      0.2266    380.6400     38.5050     55.9538     68.9652      0.3660   2234.5000     97.1471   -116.4300
195.0000        166.6250      0.2338    376.3600     39.2250     58.0537     71.5533      0.3719   2231.8999    108.5000   -117.1800
195.2000        167.4500      0.2497    373.6000     36.5100     58.5909    116.5816      0.3620   2299.8000    249.0175   -121.9050
195.4000        168.1000      0.2561    370.2000     35.5350     55.9538    114.4537      0.3489   2307.8999    479.3248   -123.1500
195.6000        169.7750      0.2413    361.8800     35.1600     49.6398     90.9138      0.3361   2297.5000    511.2460   -120.6600
195.8000        170.4500      0.2253    356.7600     36.6600     37.6556     47.2748      0.3210   2284.7000    210.9745   -123.1500
196.0000        169.6000      0.2114    364.2400     38.9850     32.4960     34.5645      0.3158   2280.1001     80.0626   -124.8900
196.2000        168.7750      0.2046    376.8000     41.4450     29.0958     29.3110      0.3120   2376.1001     38.6038   -124.3950
196.4000        167.9250      0.1864    385.9600     42.4500     23.9789     24.6054      0.3185   2414.0000     28.4859   -120.4200
196.6000        167.5000      0.1702    375.5200     42.8100     22.6898     23.4979      0.3314   2385.8000     32.1092   -118.4250
196.8000        167.0750      0.1542    362.3200     43.1700     21.8691     22.6480      0.3400   2364.7000     36.5283   -118.1700
197.0000        166.6750      0.1436    357.6000     43.7250     22.0714     22.6480      0.3380   2345.0000     37.8992   -118.6650
197.2000        166.0750      0.1825    362.5200     45.7050     22.2756     22.8576      0.3320   2325.7000     44.3231   -120.6600
197.4000        166.2750      0.1992    366.3600     47.3550     22.0714     22.6480      0.3391   2316.6001     46.4547   -121.6500
197.6000        166.5000      0.2023    368.0400     49.2300     21.0780     22.0308      0.3457   2311.2000     39.6853   -121.6500
197.8000        166.9250      0.2081    314.6000     56.8350     18.6995     19.9081      0.3595   2322.8000     37.2075   -118.1700
198.0000        167.4750      0.2088    387.8800     64.3200     17.3712     17.6616      0.3653   2344.8999     38.2499   -115.1850
198.2000        168.4000      0.1848    389.1600     72.4350     16.1373     15.3826      0.3750   2394.1001     29.5549   -109.4700
198.4000        170.2250      0.1615    409.4000     88.4400     13.5466     13.0326      0.4201   2726.2000     10.7110    -99.0150
198.6000        170.5000      0.1461    419.6000     96.3000     12.4690     11.6689      0.4498   2779.8000     11.2158    -95.5350
198.8000        170.7000      0.1302    436.0000    104.4450     11.7986     10.8400      0.4616   2739.8000     10.3141    -92.0550
199.0000        173.4750      0.1142    448.3600    119.6400     10.8600     10.1632      0.4565   2605.8999      8.8192    -88.8150
199.2000        176.6000      0.0816    450.2800    121.0950     10.7604     10.0700      0.4530   2574.7000      9.2349    -89.3100
199.4000        181.4250      0.0578    456.8800    117.8250     10.6618     10.0700      0.4525   2560.5000      9.5814    -89.0700
199.6000        189.3250      0.0613    464.1200    111.2400     11.3718     10.6422      0.4693   2538.8000      9.8499    -88.0800
199.8000        189.2250      0.0535    453.6800    106.8450     12.0179     11.4559      0.4694   2564.7000     10.9101    -87.3300
200.0000        182.2250      0.0468    436.8800    102.2850     12.2414     11.9958      0.4616   2724.3999     11.6367    -86.8350
200.2000        177.1000      0.0246    402.3600     96.2250     13.0566     12.7947      0.4459   2691.6001     13.1169    -86.8350
200.4000        168.9250      0.0040    355.9200     83.5200     14.8535     14.0291      0.4198   2671.3000     17.4675    -86.5800
200.6000        169.9750      0.0038    348.8800     79.6050     16.4373     15.6686      0.4058   2763.3000     18.4599    -85.5900
200.8000        171.9500      0.0036    342.0800     76.9050     17.2119     16.4070      0.3935   2734.5000     20.4282    -84.8400
201.0000        169.8000      0.0034    354.0000     71.9100     19.0471     18.4940      0.3527   2770.1001     23.2397    -82.8450
201.2000        168.8000      0.0032    349.7200     69.6300     20.1294     19.3656      0.3289   2632.6001     23.2397    -81.1050
201.4000        168.5750      0.0030    349.7200     68.2200     21.6686     20.4659      0.3036   2613.3999     25.0167    -79.8600
201.6000        169.7500      0.0028    323.5200     66.5100     23.9789     23.0691      0.2708   2649.2000     21.7886    -79.3650
201.8000        170.0500      0.0026    315.2400     66.6150     24.6507     24.6054      0.2683   2675.1001     24.3349    -79.6200
202.0000        169.6750      0.0024    313.3200     66.7050     25.1090     25.5288      0.2675   2690.8999     28.4859    -80.1150
202.2000        170.0500      0.0022    311.1600     65.2200     26.2924     25.5288      0.2676   2681.2000     31.2342    -80.3550
202.4000        170.6500      0.0020    310.1200     65.3100     26.7812     25.7650      0.2660   2671.5000     28.4859    -80.1150
202.6000        172.4000      0.0017    310.3200     65.3400     27.0290     26.0034      0.2645   2656.2000     26.1957    -79.1100
202.8000        177.7500      0.0015    313.9600     64.8900     27.2791     26.4868      0.2607   2670.8000     30.9478    -74.8950
203.0000        169.1250      0.0013    320.5600     65.5200     27.2791     27.2289      0.2575   2666.8999     31.2342    -75.3900
203.2000        168.4000      0.0011    320.5600     66.3600     27.2791     27.2289      0.2560   2663.6001     31.8149    -75.1350
203.4000        167.8000      0.0010    321.2000     66.6900     27.2791     26.9793      0.2537   2660.2000     32.1092    -74.3850
203.6000        167.0500      0.0009    334.2000     67.1700     27.2791     26.4868      0.2517   2690.3999     33.3142    -72.4050
203.8000        165.9250      0.0008    342.2800     67.6200     26.7812     26.2440      0.2544   2687.5000     31.5232    -71.9100
