~VERSION INFORMATION
 VERS.                 2.0:   CWLS LOG ASCII STANDARD -VERSION 2.0
 WRAP.                  NO:   ONE LINE PER DEPTH STEP
~WELL INFORMATION BLOCK
#MNEM.UNIT           DATA                    DESCRIPTION OF MNEMONIC
#---------    -------------------            -------------------------------
# Generated from Intellog Unique Number	CN_94_101/WELL/5036
WELL.         13-29-097-12W4                 : Well_name    - WELL
LOC .         AA/13-29-097-12W4/0            : Location     - LOCATION
UWI .         AA/13-29-097-12W400            : Uwi          - UNIQUE WELL ID
ENTR.         JOETTE                         : Entered      - ENTERED BY
SRVC.         SCHLUMBERGER                   : Scn          - SERVICE COMPANY
DATE.         08/17/92                       : Date         - LOG DATE
STRT.M        25                             : top_depth    - START DEPTH
STOP.M        205                            : bot_depth    - STOP DEPTH
STEP.M        0.25                           : increment    - STEP LENGTH
 NULL. -999.2500:NULL Value
~CURVE INFORMATION BLOCK
#MNEM UNIT       ERCB CURVE CODE    CURVE DESCRIPTION
#-----------   ------------------   ----------------------------------
DEPT.M        00 001 00 00         : DEPTH        - DEPTH
ILD .OHMM     00 120 00 00         : RESD         - DEEP RESISTIVITY (DIL)
GR  .API      00 310 00 00         : GR           - GAMMA RAY
NPHI.V/V      00 330 00 00         : PHIN         - NEUTRON POROSITY (SANDSTONE)
DPHI.V/V      00 890 00 00         : PHID         - DENSITY POROSITY (SANDSTONE)
~PARAMETER INFORMATION
#MNEM.UNIT           DATA             DESCRIPTION OF MNEMONIC
#---------         -----------     ------------------------------
GL  .M        448.3                : gl           - GROUND LEVEL ELEVATION
EREF.M        448.3                : kb           - ELEVATION OF DEPTH REFERENCE
DATM.M        448.3                : datum        - DATUM ELEVATION
TDD .M        215                  : tdd          - TOTAL DEPTH DRILLER
RUN .         ONE                  : Run          - RUN NUMBER
ENG .         BILL                 : Engineer     - RECORDING ENGINEER
WIT .         JIM                  : Witness      - WITNESSED BY
MUD .         GEL                  : Mud_type     - MUD TYPE
MATR.         SANDSTONE            : Logunit      - NEUTRON MATRIX
TMAX.C        17                   : BHT          - MAXIMUM RECORDED TEMPERATURE
BHTD.M        215                  : BHTDEP       - MAXIMUM RECORDED TEMPERATURE
RMT .C        17                   : MDTP         - TEMPERATURE OF MUD
MUDD.KG/M     1030                 : MWT          - MUD DENSITY
NEUT.         1                    : NEUTRON      - NEUTRON TYPE
RESI.         0                    : RESIST       - RESISTIVITY TYPE
RM  .OHMM     16.5                 : RM           - RESISTIVITY OF MUD
RMC .OHMM     16.5                 : RMC          - RESISTIVITY OF MUD CAKE
RMF .OHMM     16.5                 : RMF          - RESISTIVITY OF MUD FILTRATE
SUFT.C        4                    : SUFT         - SURFACE TEMPERATURE
~A  DEPTH     RESD       GR     PHIN     PHID
   25.000    9.347  109.581    0.492    0.302
   25.250    9.148  110.222    0.512    0.310
   25.500    9.366  108.442    0.535    0.305
   25.750    9.374  106.649    0.544    0.300
   26.000    9.380  103.063    0.517    0.305
   26.250    9.388  101.295    0.525    0.298
   26.500    8.153  101.308    0.527    0.301
   26.750    7.953  102.551    0.506    0.321
   27.000    8.377  104.978    0.492    0.322
   27.250    8.800  109.218    0.517    0.311
   27.500    8.809  107.438    0.527    0.298
   27.750    8.609  111.678    0.497    0.297
   28.000    7.787  111.704    0.502    0.300
   28.250    7.585  111.730    0.521    0.309
   28.500    7.386  118.378    0.539    0.304
   28.750    8.017  124.431    0.560    0.293
   29.000    9.481  126.256    0.555    0.288
   29.250   10.737  123.272    0.539    0.289
   29.500   10.953  116.073    0.538    0.294
   29.750   11.790  108.273    0.529    0.310
   30.000   15.536  101.676    0.488    0.309
   30.250   18.038   88.458    0.491    0.279
   30.500   18.252   72.825    0.461    0.254
   30.750   18.678   60.810    0.432    0.226
   31.000   19.104   56.622    0.406    0.215
   31.250   19.108   54.239    0.415    0.198
   31.500   19.118   57.884    0.270    0.193
   31.750   19.541   60.920    0.283    0.247
   32.000   20.173   60.946    0.316    0.267
   32.250   21.221   59.165    0.347    0.257
   32.500   21.437   60.991    0.361    0.247
   32.750   21.030   62.823    0.347    0.256
   33.000   20.000   61.055    0.341    0.271
   33.250   18.760   59.269    0.344    0.356
   33.500   17.107   59.301    0.344    0.351
   33.750   15.454   62.933    0.347    0.350
   34.000   12.972   71.387    0.349    0.352
   34.250   11.524   77.433    0.338    0.344
   34.500   10.911   83.479    0.318    0.327
   34.750   11.543   87.725    0.325    0.328
   35.000   12.380   90.755    0.326    0.335
   35.250   14.257   96.801    0.310    0.314
   35.500   16.757   98.633    0.304    0.303
   35.750   19.465   91.434    0.311    0.295
   36.000   21.550   71.594    0.328    0.299
   36.250   22.389   57.773    0.337    0.331
   36.500   21.361   52.983    0.341    0.337
   36.750   19.290   53.008    0.415    0.342
   37.000   17.845   59.054    0.431    0.349
   37.250   16.401   63.294    0.437    0.352
   37.500   16.409   67.534    0.445    0.345
   37.750   16.833   71.781    0.456    0.342
   38.000   16.218   74.817    0.477    0.347
   38.250   14.563   73.639    0.491    0.352
   38.500   13.119   70.654    0.465    0.356
   38.750   12.295   69.476    0.462    0.348
   39.000   11.890   71.308    0.442    0.341
   39.250   11.481   73.736    0.451    0.348
   39.500   10.866   77.387    0.477    0.359
   39.750    9.836   79.827    0.478    0.356
   40.000    8.600   81.665    0.469    0.344
   40.250    7.775   82.876    0.473    0.343
   40.500    7.162   85.918    0.495    0.340
   40.750    7.376   88.346    0.527    0.328
   41.000    7.802   91.984    0.528    0.318
   41.250    8.848   96.230    0.499    0.324
   41.500    9.895   92.035    0.490    0.329
   41.750   11.151   87.252    0.476    0.338
   42.000   12.196   84.267    0.481    0.339
   42.250   13.242   85.497    0.494    0.334
   42.500   14.499   84.319    0.489    0.336
   42.750   15.336   81.937    0.466    0.336
   43.000   15.967   83.173    0.461    0.336
   43.250   16.183   85.594    0.455    0.335
   43.500   15.568   89.841    0.474    0.333
   43.750   13.917   89.258    0.480    0.335
   44.000   12.679   85.070    0.468    0.336
   44.250   12.062   79.677    0.466    0.335
   44.500   11.240   74.893    0.455    0.321
   44.750    9.796   71.903    0.441    0.314
   45.000    8.764   75.541    0.432    0.308
   45.250    7.941   91.219    0.441    0.301
   45.500    7.536   99.680    0.478    0.308
   45.750    7.542  103.926    0.532    0.321
   46.000    8.383  106.360    0.528    0.328
   46.250    9.015  112.400    0.531    0.328
   46.500    9.646  112.426    0.556    0.337
   46.750    9.033  108.839    0.592    0.349
   47.000    8.001  104.049    0.582    0.363
   47.250    5.723  100.469    0.510    0.355
   47.500    4.900  106.509    0.514    0.336
   47.750    4.908  122.789    0.535    0.295
   48.000    4.715  130.039    0.561    0.273
   48.250    4.721  137.898    0.586    0.259
   48.500    4.520  143.349    0.575    0.261
   48.750    4.534  143.970    0.558    0.274
   49.000    4.748  143.996    0.563    0.285
   49.250    4.752  142.216    0.569    0.291
   49.500    4.972  139.840    0.556    0.277
   49.750    5.186  138.662    0.549    0.282
   50.000    5.400  140.500    0.549    0.281
   50.250    5.615  141.115    0.549    0.276
   50.500    5.626  141.141    0.538    0.266
   50.750    5.632  142.371    0.535    0.267
   51.000    5.432  149.621    0.532    0.273
   51.250    5.233  149.045    0.540    0.288
   51.500    5.033  142.448    0.556    0.283
   51.750    4.628  141.270    0.554    0.279
   52.000    4.431  141.904    0.552    0.284
   52.250    4.435  142.532    0.569    0.275
   52.500    4.443  141.956    0.573    0.263
   52.750    4.869  140.784    0.587    0.268
   53.000    5.500  140.797    0.613    0.263
   53.250    6.547  137.217    0.605    0.255
   53.500    6.970  133.625    0.598    0.269
   53.750    6.355  130.038    0.552    0.281
   54.000    5.325  130.071    0.564    0.275
   54.250    4.710  131.301    0.579    0.289
   54.500    4.511  133.728    0.591    0.301
   54.750    4.313  137.366    0.600    0.279
   55.000    4.324  141.011    0.586    0.265
   55.250    4.538  139.230    0.579    0.267
   55.500    4.546  135.036    0.579    0.273
   55.750    4.556  133.262    0.585    0.263
   56.000    4.562  137.495    0.592    0.258
   56.250    4.361  144.150    0.600    0.292
   56.500    4.161  146.584    0.612    0.316
   56.750    3.962  150.228    0.628    0.311
   57.000    3.762  149.646    0.655    0.309
   57.250    3.770  147.263    0.620    0.312
   57.500    3.779  150.306    0.608    0.312
   57.750    3.789  149.723    0.594    0.324
   58.000    3.795  145.535    0.608    0.342
   58.250    3.805  140.745    0.642    0.348
   58.500    3.816  135.961    0.639    0.323
   58.750    3.822  137.793    0.611    0.287
   59.000    3.828  140.227    0.607    0.285
   59.250    3.840  141.456    0.618    0.300
   59.500    3.846  140.887    0.617    0.278
   59.750    3.853  138.504    0.610    0.288
   60.000    3.863  137.313    0.630    0.298
   60.250    4.496  136.744    0.648    0.301
   60.500    4.712  137.371    0.635    0.294
   60.750    4.926  138.006    0.610    0.290
   61.000    4.938  138.627    0.601    0.307
   61.250    4.942  138.653    0.608    0.312
   61.500    4.950  140.485    0.610    0.300
   61.750    4.963  144.719    0.601    0.292
   62.000    4.969  149.561    0.591    0.305
   62.250    4.977  152.597    0.589    0.307
   62.500    4.985  153.833    0.599    0.302
   62.750    4.993  151.444    0.597    0.293
   63.000    4.586  148.460    0.571    0.301
   63.250    3.974  142.466    0.566    0.297
   63.500    3.562  136.478    0.562    0.289
   63.750    3.157  133.487    0.583    0.291
   64.000    3.163  129.299    0.607    0.289
   64.250    2.966  128.722    0.641    0.319
   64.500    3.182  129.952    0.638    0.298
   64.750    3.605  129.383    0.639    0.284
   65.000    4.029  127.602    0.618    0.283
   65.250    4.870  125.220    0.583    0.274
   65.500    5.289  123.440    0.559    0.274
   65.750    5.298  124.670    0.573    0.311
   66.000    5.306  127.097    0.580    0.325
   66.250    6.354  125.919    0.550    0.336
   66.500    6.986  123.537    0.523    0.348
   66.750    6.994  121.155    0.510    0.327
   67.000    6.171  122.384    0.540    0.319
   67.250    5.764  129.641    0.543    0.326
   67.500    6.190  130.269    0.506    0.324
   67.750    7.236  127.887    0.491    0.318
   68.000    8.073  121.290    0.481    0.323
   68.250    9.124  115.289    0.490    0.325
