~VERSION INFORMATION
 VERS.                 2.0:   CWLS LOG ASCII STANDARD -VERSION 2.0
 WRAP.                  NO:   ONE LINE PER DEPTH STEP
~WELL INFORMATION BLOCK
#MNEM.UNIT           DATA                    DESCRIPTION OF MNEMONIC
#---------    -------------------            -------------------------------
# Generated from Intellog Unique Number	CS_77_79/WELL/933
WELL.         LEISMER OV                     : Well_name    - WELL
LOC .         AA/10-08-079-08W4/0            : Location     - LOCATION
UWI .         AA/10-08-079-08W4/0            : Uwi          - UNIQUE WELL ID
ENTR.         JHS                            : Entered      - ENTERED BY
SRVC.         SCHLUMBERGER                   : Scn          - SERVICE COMPANY
STRT.M        145                            : top_depth    - START DEPTH
STOP.M        400                            : bot_depth    - STOP DEPTH
STEP.M        0.25                           : increment    - STEP LENGTH
 NULL. -999.2500:NULL Value
~CURVE INFORMATION BLOCK
#MNEM UNIT       ERCB CURVE CODE    CURVE DESCRIPTION
#-----------   ------------------   ----------------------------------
DEPT.M        00 001 00 00         : DEPTH        - DEPTH
DPHI.V/V      00 890 00 00         : PHID         - DENSITY POROSITY (LIMESTONE)
NPHI.V/V      00 330 00 00         : PHIN         - NEUTRON POROSITY (LIMESTONE)
GR  .API      00 310 00 00         : GR           - GAMMA RAY
ILD .OHMM     00 120 00 00         : RESD         - DEEP RESISTIVITY (DIL)
RHOB.KG/M3    00 350 00 00         : DENS         - BULK DENSITY
~PARAMETER INFORMATION
#MNEM.UNIT           DATA             DESCRIPTION OF MNEMONIC
#---------         -----------     ------------------------------
GL  .M        611.36               : gl           - GROUND LEVEL ELEVATION
EREF.M        614.94               : kb           - ELEVATION OF DEPTH REFERENCE
DATM.M        614.94               : datum        - DATUM ELEVATION
TDD .M        407                  : tdd          - TOTAL DEPTH DRILLER
RUN .         ONE                  : Run          - RUN NUMBER
ENG .         BILL                 : Engineer     - RECORDING ENGINEER
WIT .         JIM                  : Witness      - WITNESSED BY
MUD .         GEL                  : Mud_type     - MUD TYPE
MATR.         LIMESTONE            : Logunit      - NEUTRON MATRIX
TMAX.C        17                   : BHT          - MAXIMUM RECORDED TEMPERATURE
BHTD.M        407                  : BHTDEP       - MAXIMUM RECORDED TEMPERATURE
MATR.         1                    : LOGUNIT      - NEUTRON MATRIX
RMT .C        25                   : MDTP         - TEMPERATURE OF MUD
NEUT.         1                    : NEUTRON      - NEUTRON TYPE
RESI.         0                    : RESIST       - RESISTIVITY TYPE
RMC .OHMM     0.25                 : RMC          - RESISTIVITY OF MUD CAKE
RMF .OHMM     0.25                 : RMF          - RESISTIVITY OF MUD FILTRATE
SUFT.C        15                   : SUFT         - SURFACE TEMPERATURE
~A  DEPTH     PHID     PHIN       GR     RESD     DENS
  145.000    0.282    0.433  134.697    3.377    0.000
  145.250    0.286    0.434  138.386    3.443    0.000
  145.500    0.283    0.424  140.238    3.445    0.000
  145.750    0.280    0.418  138.415    3.512    0.000
  146.000    0.274    0.429  135.980    3.514    0.000
  146.250    0.270    0.436  136.606    3.516    0.000
  146.500    0.269    0.439  137.230    3.518    0.000
  146.750    0.270    0.428  136.631    3.587    0.000
  147.000    0.274    0.427  137.868    3.589    0.000
  147.250    0.272    0.440  132.987    3.592    0.000
  147.500    0.269    0.449  135.447    3.594    0.000
  147.750    0.270    0.457  135.461    3.596    0.000
  148.000    0.278    0.441  128.744    3.598    0.000
  148.250    0.282    0.443  128.145    3.600    0.000
  148.500    0.284    0.451  130.606    3.602    0.000
  148.750    0.281    0.451  133.679    3.604    0.000
  149.000    0.272    0.436  136.755    3.539    0.000
  149.250    0.270    0.417  135.544    3.476    0.000
  149.500    0.257    0.415  128.823    3.414    0.000
  149.750    0.246    0.416  123.329    3.416    0.000
  150.000    0.232    0.424  119.054    3.549    0.000
  150.250    0.221    0.412  111.721    3.686    0.000
  150.500    0.266    0.422  112.349    4.126    0.000
  150.750    0.284    0.405  112.974    4.886    0.000
  151.000    0.289    0.395  102.580    6.237    0.000
  151.250    0.296    0.398   94.021    7.667    0.000
  151.500    0.295    0.403   90.973    9.604    0.000
  151.750    0.293    0.393   95.886    9.791    0.000
  152.000    0.295    0.388  100.800    9.262    0.000
  152.250    0.288    0.395  103.261    8.440    0.000
  152.500    0.278    0.395  106.948    7.548    0.000
  152.750    0.269    0.382  104.515    7.007    0.000
  153.000    0.246    0.360  102.693    6.505    0.000
  153.250    0.217    0.351  105.766    5.928    0.000
  153.500    0.226    0.376  110.678    5.402    0.000
  153.750    0.250    0.395  114.363    5.110    0.000
  154.000    0.246    0.405  118.052    4.833    0.000
  154.250    0.248    0.419  118.678    4.658    0.000
  154.500    0.256    0.424  115.016    4.490    0.000
  154.750    0.263    0.411  111.970    4.410    0.000
  155.000    0.257    0.396  116.887    4.413    0.000
  155.250    0.253    0.385  118.733    4.333    0.000
  155.500    0.252    0.377  117.521    4.336    0.000
  155.750    0.257    0.381  116.312    4.259    0.000
  156.000    0.263    0.391  116.324    4.182    0.000
  156.250    0.264    0.400  117.563    4.184    0.000
  156.500    0.262    0.406  118.191    4.109    0.000
  156.750    0.262    0.409  118.207    4.112    0.000
  157.000    0.263    0.407  117.606    4.115    0.000
  157.250    0.264    0.395  117.005    4.040    0.000
  157.500    0.269    0.389  115.795    4.043    0.000
  157.750    0.272    0.397  114.588    4.122    0.000
  158.000    0.278    0.397  113.375    4.123    0.000
  158.250    0.280    0.402  112.779    4.126    0.000
  158.500    0.277    0.418  114.013    4.129    0.000
  158.750    0.270    0.404  119.538    4.132    0.000
  159.000    0.269    0.392  120.777    4.058    0.000
  159.250    0.270    0.404  117.728    3.984    0.000
  159.500    0.272    0.408  113.459    3.912    0.000
  159.750    0.275    0.404  114.694    3.771    0.000
  160.000    0.272    0.398  117.160    3.703    0.000
  160.250    0.268    0.391  120.848    3.637    0.000
  160.500    0.270    0.392  123.313    3.572    0.000
  160.750    0.273    0.400  123.938    3.508    0.000
  161.000    0.276    0.409  122.723    3.445    0.000
  161.250    0.276    0.406  119.678    3.383    0.000
  161.500    0.271    0.404  119.691    3.322    0.000
  161.750    0.267    0.408  121.544    3.262    0.000
  162.000    0.267    0.420  122.778    3.265    0.000
  162.250    0.270    0.422  125.858    3.206    0.000
  162.500    0.278    0.430  126.484    3.149    0.000
  162.750    0.283    0.432  125.269    3.151    0.000
  163.000    0.285    0.417  122.224    3.152    0.000
  163.250    0.290    0.416  124.686    3.095    0.000
  163.500    0.293    0.431  127.146    3.040    0.000
  163.750    0.296    0.439  127.164    2.985    0.000
  164.000    0.294    0.440  124.725    2.931    0.000
  164.250    0.278    0.434  122.295    2.879    0.000
  164.500    0.271    0.418  121.694    2.827    0.000
  164.750    0.278    0.411  121.093    2.776    0.000
  165.000    0.294    0.407  124.783    2.778    0.000
  165.250    0.285    0.411  128.472    2.781    0.000
  165.500    0.277    0.410  129.708    2.781    0.000
  165.750    0.276    0.415  130.945    2.836    0.000
  166.000    0.280    0.426  132.795    2.838    0.000
  166.250    0.276    0.437  130.365    2.840    0.000
  166.500    0.273    0.435  129.152    2.841    0.000
  166.750    0.275    0.424  128.554    2.896    0.000
  167.000    0.281    0.416  126.118    2.898    0.000
  167.250    0.284    0.419  126.746    2.955    0.000
  167.500    0.285    0.439  126.755    3.012    0.000
  167.750    0.287    0.442  125.544    3.014    0.000
  168.000    0.282    0.440  120.661    3.017    0.000
  168.250    0.280    0.444  116.390    3.018    0.000
  168.500    0.276    0.442  118.239    2.964    0.000
  168.750    0.274    0.431  120.704    2.966    0.000
  169.000    0.277    0.425  120.105    2.968    0.000
  169.250    0.281    0.426  118.893    2.914    0.000
  169.500    0.281    0.418  118.907    2.861    0.000
  169.750    0.288    0.414  118.309    2.759    0.000
  170.000    0.294    0.425  112.201    2.709    0.000
  170.250    0.305    0.429  108.539    2.660    0.000
  170.500    0.314    0.431  108.553    2.612    0.000
  170.750    0.325    0.430  110.404    2.518    0.000
  171.000    0.332    0.441  115.931    2.519    0.000
  171.250    0.332    0.456  119.618    2.474    0.000
  171.500    0.320    0.468  120.854    2.429    0.000
  171.750    0.298    0.467  122.704    2.386    0.000
  172.000    0.289    0.463  117.820    2.343    0.000
  172.250    0.283    0.455  112.936    2.301    0.000
  172.500    0.282    0.454  116.012    2.260    0.000
  172.750    0.279    0.458  119.697    2.261    0.000
  173.000    0.277    0.444  121.549    2.263    0.000
  173.250    0.273    0.431  119.729    2.306    0.000
  173.500    0.262    0.426  114.843    2.308    0.000
  173.750    0.252    0.426  110.570    2.398    0.000
  174.000    0.235    0.428  112.423    2.399    0.000
  174.250    0.212    0.436  116.721    2.400    0.000
  174.500    0.211    0.453  120.412    2.358    0.000
  174.750    0.267    0.472  121.032    2.359    0.000
  175.000    0.278    0.481  122.271    2.361    0.000
  175.250    0.277    0.483  122.900    2.361    0.000
  175.500    0.278    0.470  119.849    2.363    0.000
  175.750    0.278    0.455  114.355    2.364    0.000
  176.000    0.272    0.449  108.856    2.411    0.000
  176.250    0.263    0.459  104.586    2.412    0.000
  176.500    0.257    0.454  106.436    2.460    0.000
  176.750    0.248    0.455  112.574    2.507    0.000
  177.000    0.255    0.453  116.872    2.556    0.000
  177.250    0.266    0.428  118.111    2.655    0.000
  177.500    0.270    0.417  114.451    2.759    0.000
  177.750    0.273    0.412  116.916    2.812    0.000
  178.000    0.263    0.408  119.375    2.921    0.000
  178.250    0.251    0.397  123.063    2.978    0.000
  178.500    0.248    0.374  123.693    3.094    0.000
  178.750    0.258    0.375  121.868    3.214    0.000
  179.000    0.264    0.386  118.207    3.215    0.000
  179.250    0.264    0.384  118.832    3.340    0.000
  179.500    0.262    0.380  121.910    3.405    0.000
  179.750    0.258    0.379  123.759    3.537    0.000
  180.000    0.251    0.380  124.385    3.674    0.000
  180.250    0.248    0.385  123.176    3.746    0.000
  180.500    0.248    0.391  121.351    3.749    0.000
  180.750    0.241    0.396  117.691    3.613    0.000
  181.000    0.241    0.395  115.254    3.418    0.000
  181.250    0.246    0.397  117.108    3.293    0.000
