~VERSION INFORMATION
 VERS.                 2.0:   CWLS LOG ASCII STANDARD -VERSION 2.0
 WRAP.                  NO:   ONE LINE PER DEPTH STEP
~WELL INFORMATION BLOCK
#MNEM.UNIT           DATA                    DESCRIPTION OF MNEMONIC
#---------    -------------------            -------------------------------
# Generated from Intellog Unique Number	CX_WELLS/WELL/3107
WELL.         OIL BUTTES GRANDA              : Well_name    - WELL
LOC .         AA/11-17-082-18W4/0            : Location     - LOCATION
UWI .         AA/11-17-082-18W400            : Uwi          - UNIQUE WELL ID
ENTR.         TIM                            : Entered      - ENTERED BY
SRVC.         SCHLUMBERGER                   : Scn          - SERVICE COMPANY
STRT.M        190                            : top_depth    - START DEPTH
STOP.M        337                            : bot_depth    - STOP DEPTH
STEP.M        0.25                           : increment    - STEP LENGTH
 NULL. -999.2500:NULL Value
~CURVE INFORMATION BLOCK
#MNEM UNIT       ERCB CURVE CODE    CURVE DESCRIPTION
#-----------   ------------------   ----------------------------------
DEPT.M        00 001 00 00         : DEPTH        - DEPTH
GR  .API      00 310 00 00         : GR           - GAMMA RAY
NPHI.V/V      00 330 00 00         : PHIN         - NEUTRON POROSITY (SANDSTONE)
DPHI.V/V      00 890 00 00         : PHID         - DENSITY POROSITY (SANDSTONE)
ILD .OHMM     00 120 00 00         : RESD         - DEEP RESISTIVITY (OTHER)
~PARAMETER INFORMATION
#MNEM.UNIT           DATA             DESCRIPTION OF MNEMONIC
#---------         -----------     ------------------------------
GL  .M        572                  : gl           - GROUND LEVEL ELEVATION
EREF.M        575.7                : kb           - ELEVATION OF DEPTH REFERENCE
DATM.M        575.7                : datum        - DATUM ELEVATION
TDD .M        339                  : tdd          - TOTAL DEPTH DRILLER
RUN .         ONE                  : Run          - RUN NUMBER
ENG .         BILL                 : Engineer     - RECORDING ENGINEER
WIT .         JIM                  : Witness      - WITNESSED BY
MUD .         GEL                  : Mud_type     - MUD TYPE
MATR.         SANDSTONE            : Logunit      - NEUTRON MATRIX
TMAX.C        22                   : BHT          - MAXIMUM RECORDED TEMPERATURE
BHTD.M        339                  : BHTDEP       - MAXIMUM RECORDED TEMPERATURE
MATR.         1                    : LOGUNIT      - NEUTRON MATRIX
RMT .C        18                   : MDTP         - TEMPERATURE OF MUD
NEUT.         1                    : NEUTRON      - NEUTRON TYPE
RESI.         5.54                 : RESIST       - RESISTIVITY TYPE
RMC .OHMM     5.54                 : RMC          - RESISTIVITY OF MUD CAKE
RMF .OHMM     5.54                 : RMF          - RESISTIVITY OF MUD FILTRATE
SUFT.C        4                    : SUFT         - SURFACE TEMPERATURE
~A  DEPTH       GR     PHIN     PHID     RESD
# ...
  277.000   80.775    0.456    0.203    8.780
  277.250   80.812    0.457    0.196    8.633
  277.500   81.488    0.458    0.193    8.488
  277.750   80.976    0.458    0.217    8.508
  278.000   79.311    0.458    0.220    8.682
  278.250   77.591    0.452    0.190    9.208
  278.500   73.602    0.439    0.184    9.766
  278.750   71.882    0.428    0.161   10.151
  279.000   69.046    0.397    0.150   11.392
  279.250   67.344    0.369    0.122   12.300
  279.500   65.093    0.362    0.113   13.040
  279.750   64.562    0.329    0.078   13.566
  280.000   64.672    0.248    0.073   14.127
  280.250   64.727    0.289    0.098   14.140
  280.500   64.800    0.331    0.141   14.174
  280.750   64.891    0.361    0.207   13.427
  281.000   66.117    0.392    0.222   12.701
  281.250   68.532    0.419    0.229   11.802
  281.500   71.533    0.444    0.226   10.766
  281.750   73.948    0.442    0.223   10.388
  282.000   71.093    0.446    0.209   10.408
  282.250   67.635    0.452    0.155   10.422
  282.500   64.799    0.430    0.105   10.447
  282.750   68.403    0.288    0.153   10.271
  283.000   71.971    0.331    0.176   10.301
  283.250   77.332    0.376    0.184   10.123
  283.500   79.747    0.409    0.197   10.137
  283.750   76.911    0.417    0.208   10.161
  284.000   75.795    0.420    0.212   10.369
  284.250   73.526    0.425    0.218   10.997
  284.500   72.409    0.434    0.219   11.880
  284.750   68.969    0.443    0.182   12.588
  285.000   66.133    0.413    0.131   13.864
  285.250   64.431    0.365    0.106   14.691
  285.500   61.595    0.334    0.070   16.179
  285.750   59.875    0.303    0.044   18.158
  286.000   56.435    0.235    0.022   19.979
  286.250   54.166    0.191    0.014   20.016
  286.500   50.726    0.204    0.042   17.912
  286.750   48.475    0.251    0.093   16.028
  287.000   52.629    0.378    0.126   14.342
  287.250   72.060    0.415    0.177   13.078
  287.500   70.963    0.419    0.201   11.709
  287.750   70.450    0.419    0.206   11.292
  288.000   72.865    0.419    0.196   10.692
  288.250   75.299    0.419    0.198   10.517
  288.500   74.768    0.419    0.203   10.340
  288.750   74.841    0.420    0.209   10.171
  289.000   75.499    0.420    0.210    9.996
  289.250   76.762    0.421    0.209   10.010
  289.500   77.420    0.422    0.193   10.033
  289.750   78.079    0.426    0.185   10.052
  290.000   78.737    0.432    0.191   10.076
  290.250   79.982    0.441    0.198   10.086
  290.500   80.659    0.450    0.197   10.114
  290.750   80.695    0.449    0.197   10.129
  291.000   80.768    0.439    0.197   10.143
  291.250   80.256    0.434    0.198   10.167
  291.500   79.743    0.443    0.198   10.181
  291.750   79.249    0.452    0.197   10.205
  292.000   78.718    0.455    0.196   10.029
  292.250   78.791    0.463    0.190   10.057
  292.500   78.883    0.460    0.186   10.067
  292.750   80.712    0.452    0.175    9.907
  293.000   84.317    0.451    0.176    9.921
  293.250   86.732    0.452    0.184    9.750
  293.500   87.994    0.458    0.189    9.773
  293.750   86.896    0.465    0.195    9.791
  294.000   85.762    0.465    0.194    9.622
  294.250   83.493    0.448    0.192    9.474
  294.500   84.737    0.431    0.189    9.487
  294.750   86.566    0.425    0.184    9.324
  295.000   88.396    0.443    0.174    9.176
  295.250   87.884    0.454    0.115    9.189
  295.500   86.218    0.447    0.104    9.202
  295.750   88.030    0.429    0.152    9.223
  296.000  101.002    0.419    0.177    9.241
  296.250   98.148    0.422    0.185    9.434
  296.500   95.312    0.434    0.186    9.819
  296.750   94.232    0.445    0.149   10.015
  297.000   94.872    0.417    0.122   10.424
  297.250   96.116    0.407    0.145   10.845
  297.500   97.360    0.399    0.173   10.866
  297.750   98.605    0.408    0.178   10.489
  298.000   99.867    0.420    0.177   10.303
  298.250  100.489    0.421    0.174    9.950
  298.500   99.391    0.422    0.168    9.773
  298.750   96.536    0.422    0.160    9.430
  299.000   91.925    0.422    0.119    9.272
  299.250   86.143    0.419    0.103    9.838
  299.500   80.928    0.413    0.136   10.628
  299.750   80.416    0.407    0.183   11.052
  300.000   82.868    0.408    0.193   12.409
  300.250   81.733    0.410    0.205   12.897
  300.500   79.482    0.416    0.214   12.928
  300.750   78.970    0.437    0.220   12.952
  301.000   80.214    0.443    0.223   12.728
  301.250   80.854    0.449    0.192   12.764
  301.500   79.793    0.444    0.114   13.019
  301.750   79.829    0.414    0.112   13.292
  302.000   79.317    0.386    0.146   13.835
  302.250   80.598    0.370    0.195   14.118
  302.500   80.067    0.392    0.197   14.151
  302.750   78.402    0.404    0.203   14.178
  303.000   75.547    0.415    0.211   14.204
  303.250   74.413    0.417    0.168   14.509
  303.500   70.973    0.401    0.128   15.101
  303.750   66.380    0.372    0.061   15.695
  304.000   65.264    0.183    0.030   17.615
  304.250   68.301    0.167    0.097   18.325
  304.500   70.112    0.171    0.142   17.351
  304.750   77.815    0.197    0.171   16.734
  305.000   80.230    0.252    0.196   15.549
  305.250   80.322    0.300    0.209   14.722
  305.500   80.376    0.355    0.209   14.750
  305.750   79.864    0.398    0.190   14.509
  306.000   79.937    0.390    0.159   14.543
  306.250   79.992    0.367    0.148   14.286
  306.500   80.065    0.407    0.124   14.319
  306.750   80.156    0.408    0.176   14.079
  307.000   80.797    0.395    0.200   13.835
  307.250   82.059    0.400    0.179   13.610
  307.500   82.132    0.405    0.173   13.381
  307.750   81.638    0.396    0.157   13.156
  308.000   80.503    0.358    0.163   12.935
  308.250   77.649    0.382    0.139   12.717
  308.500   73.038    0.412    0.053   12.271
  308.750   66.689    0.391    0.071   12.064
  309.000   68.518    0.341    0.120   11.646
  309.250   70.915    0.290    0.173   11.439
  309.500   76.258    0.269    0.193   11.258
  309.750   82.204    0.397    0.191   10.857
  310.000   82.277    0.401    0.191   10.294
  310.250   81.820    0.402    0.190    9.928
  310.500   81.856    0.403    0.188    9.757
  310.750   81.911    0.403    0.190    9.588
  311.000   83.173    0.404    0.192    9.256
  311.250   84.399    0.407    0.202    9.104
  311.500   88.003    0.413    0.208    8.780
  311.750   91.004    0.422    0.195    8.629
  312.000   91.644    0.432    0.188    8.178
  312.250   91.717    0.438    0.185    8.037
  312.500   92.376    0.442    0.185    7.613
  312.750   94.224    0.434    0.185    7.342
  313.000   96.053    0.433    0.186    7.084
  313.250   97.298    0.431    0.188    6.835
  313.500   97.389    0.431    0.189    6.595
  313.750   97.444    0.430    0.192    6.484
  314.000   96.382    0.430    0.191    6.375
  314.250   96.437    0.436    0.189    6.268
  314.500   97.096    0.444    0.185    6.277
  314.750   98.340    0.453    0.180    6.657
  315.000   96.638    0.455    0.175    7.328
  315.250   91.441    0.454    0.107    8.217
  315.500   85.659    0.445    0.022    9.571
  315.750   82.201    0.368   -0.007   12.254
  316.000   75.852    0.277    0.023   15.391
  316.250   79.420    0.241    0.052   19.339
  316.500   83.006    0.268    0.089   19.384
  316.750   87.781    0.313    0.171   19.059
  317.000   84.963    0.336    0.184   19.104
  317.250   83.829    0.364    0.179   19.122
  317.500   81.541    0.380    0.164   19.176
  317.750   79.272    0.403    0.128   19.194
  318.000   78.760    0.407    0.104   19.596
  318.250   78.833    0.413    0.093   20.784
  318.500   79.492    0.411    0.136   21.219
  318.750   81.376    0.380    0.165   21.259
  319.000   81.998    0.387    0.180   20.902
  319.250   82.657    0.408    0.185   20.931
  319.500   82.730    0.413    0.190   21.380
  319.750   78.704    0.407    0.196   22.232
  320.000   64.121    0.378    0.219   25.424
  320.250   58.339    0.371    0.242   29.614
