~Version : LASO    vs 4.00 
VERS.                2.00:   CWLS Log ASCII Standard -VERSION 2.0
WRAP.                  NO:
~Well Information Block
#MNEM.UNIT       Data                        Description of Mnemonic
#----.----      -------------------------- : -----------------------------
STRT.M             1.0000:
STOP.M           202.5000:
STEP.M             0.1000:
NULL.           -999.2500:
COMP.  MOBIL OIL CANADA                    :COMPANY
WELL.  MOBIL 90 CLARKE CREEK 16-31         :WELL
FLD.   CLARKE CREEK                        :FIELD
LOC.   16-31-089-07W4                      :LOCATION
CTRY.  CANADA                              :COUNTRY
PROV.  ALBERTA                             :PROVINCE
SRVC.  BRITISH PLASTERBOARD                :SERVICE COMPANY
DATE.  22-JAN-90                           :LOG DATE
UWI.   AA/16-31-089-07W400                 :UNIQUE WELL ID
~Parameter Information Block
#MNEM.UNIT       Data                        Description of Mnemonic
#----.----      -------------------------- : -----------------------------
RUN .                   1                 : Run Number
GL  .M           453.6000                 : Ground Level Elevation
DREF.                  GD                 : Depth Reference
EREF.M           453.6000                 : Elevation of Depth Reference
TDL .M           204.5000                 : Total Depth Logger
TDD .M           204.5000                 : Total Depth Driller
~Curve Information Block
#MNEM.UNIT        API CODE    Curve Description
#---------    ------------    -------------------------------------------
DEPT.M                    :   DEPTH
CALI.mm                   :   CALI
DPHI.V/V                  :   DPHI
DT  .US/M     60 520  0  1:   2 SONIC INTERVAL TRANSIT TIME (COMPENSATED)
GR  .API                  :   GR
ILD .Ohmm                 :   ILD
NPHI.V/V                  :   NPHI
RHOB.K/M3     45 350  1  1:   3 BULK DENSITY
~A  Depth           CALI        DPHI          DT          GR         ILD        NPHI        RHOB
# ...
67.4000         166.9931      0.2483    490.6800     94.4874     30.0822      0.4072   1290.5000
67.5000         167.0160      0.2551    481.2000     94.3469     30.0654      0.4024   1263.1001
67.6000         166.3933      0.2543    504.6800     91.9536     30.1026      0.3977   1245.7000
67.7000         164.3158      0.2524    493.5600     90.2509     30.1554      0.3883   1253.5000
67.8000         163.9170      0.2457    479.6800     91.8683     30.2087      0.3745   1232.2000
67.9000         165.3325      0.2405    473.2800     94.1636     30.7457      0.3554   1200.2000
68.0000         165.7752      0.2426    468.7200     92.0011     30.8778      0.3435   1208.6001
68.1000         165.6362      0.2459    459.2800     87.9824     31.5177      0.3324   1219.1001
68.2000         165.6270      0.2462    442.9200     86.2862     32.1486      0.3352   1291.3000
68.3000         167.4962      0.2412    402.8000     86.2477     32.7911      0.3333   1257.5000
68.4000         169.0881      0.2376    365.7200     87.8085     33.4464      0.3350   1283.7000
68.5000         168.9834      0.2401    331.8800     90.0424     33.6358      0.3478   1252.1001
68.6000         167.7787      0.2418    309.2000     92.9581     33.1037      0.3650   1277.3000
68.7000         165.1465      0.2410    343.8000     95.3194     32.2428      0.3802   1280.6001
68.8000         163.0185      0.2468    379.5200     99.2813     31.2288      0.3762   1280.7000
68.9000         161.3163      0.2687    404.4000     99.2480     29.9801      0.3655   1246.7000
69.0000         160.0649      0.2841    429.0400     99.2844     29.7198      0.3534   1107.5000
69.1000         156.7389      0.3012    451.2800     99.9161     29.2532      0.3382   1029.3000
69.2000         157.4078      0.3215    465.5600     99.9830     29.2550      0.3274   1048.9000
69.3000         157.1371      0.3405    462.9600    100.0329     29.2998      0.3333    959.8000
69.4000         155.4556      0.3590    469.0000    100.0818     29.3500      0.3520    857.0000
69.5000         154.7287      0.3775    481.0400    100.1306     28.8900      0.3682    864.1000
69.6000         154.7657      0.3827    493.0800     97.8762     28.9038      0.3765    914.8000
69.7000         155.1628      0.3835    511.3600     95.6333     28.9505      0.3781    911.1000
69.8000         155.2292      0.3742    508.9600     95.9839     29.0010      0.3762    909.2000
69.9000         155.5973      0.3626    506.2800     95.5780     28.6358      0.3660    993.8000
70.0000         155.7028      0.3540    510.2000     96.7222     28.0845      0.3564   1021.9000
70.1000         156.4932      0.3417    513.7600    101.3346     27.6250      0.3481   1048.6000
70.2000         157.2911      0.3293    514.0800    101.5996     27.1804      0.3399   1085.1000
70.3000         157.0602      0.3141    487.6000    102.2340     26.7439      0.3346   1257.7000
70.4000         157.3818      0.3011    498.0400    105.8172     25.9491      0.3310   1188.0000
70.5000         157.4802      0.2923    512.9600    109.6361     24.1056      0.3285   1100.9000
70.6000         158.2615      0.2939    529.6400    113.1441     22.4733      0.3337   1013.9000
70.7000         158.6258      0.3190    551.4000    117.7288     20.5795      0.3467    952.5000
70.8000         159.4478      0.3614    573.1600    123.4156     19.5206      0.3644    909.6000
70.9000         160.5743      0.3872    580.4800    124.7566     18.7186      0.3865   1001.5000
71.0000         161.2558      0.3974    598.8800    123.3193     18.1831      0.4259    978.5000
71.1000         161.3107      0.3934    592.4400    128.4099     17.4302      0.5298    965.7000
71.2000         160.9938      0.3851    572.6800    131.4789     17.1433      0.5647   1071.3000
71.3000         161.3176      0.3791    562.3600    129.8108     16.5890      0.5418    993.8000
71.4000         162.0384      0.3774    565.2800    124.2627     16.5512      0.5283    992.5000
71.5000         163.0097      0.3787    573.7600    116.0359     16.8232      0.5165    992.1000
71.6000         166.3821      0.3805    580.5200    104.3125     17.2232      0.5048   1052.4000
71.7000         168.8098      0.3702    581.5600     94.4850     18.1915      0.5180   1121.6000
71.8000         175.0201      0.3651    563.1200     84.8312     18.9207      0.5690    919.2000
71.9000         181.2305      0.4220    556.9200     74.4802     19.9695      0.6000    649.6000
72.0000         187.4408      0.4966    569.4000     65.3691     21.1816      0.6000   1650.0000
72.1000         200.4142      0.5474    590.0800     58.8731     22.6420      0.6000   1650.0000
72.2000         236.4683      0.6000    603.5200     53.0962     25.2580      0.6000   1650.0000
72.3000         247.2522      0.6000    659.2400     48.2896     27.2787      0.6000   1650.0000
72.4000         254.5753      0.6000    659.2800     44.8701     29.3916      0.5649   1650.0000
72.5000         171.4915      0.6000    659.3600     43.5973     31.1727      0.5395   1650.0000
72.6000         110.6615      0.6000    645.2400     42.9830     33.4571      0.5077   1650.0000
72.7000         171.1744      0.6000    626.4400     42.4438     35.0179      0.4832   1650.0000
72.8000         177.0638      0.6009    603.1200     42.3487     36.1478      0.4514   1650.0000
72.9000         177.2459      0.6000    599.5200     44.0395     36.3319      0.4200   1650.0000
73.0000         174.6792      0.6000    577.3600     46.8549     35.3242      0.3625   1650.0000
73.1000         171.6971      0.6000    584.6800     49.7660     35.1325      0.3576    790.8000
73.2000         170.3555      0.6000    596.8800     53.6518     35.1861      0.3785    793.5000
73.3000         168.2474      0.5734    603.5200     58.1174     35.2456      0.4194   1650.0000
73.4000         166.5995      0.5633    633.3200     63.8715     34.7621      0.4114   1650.0000
73.5000         165.0983      0.5351    627.7200     69.6826     32.8213      0.3833    654.2000
73.6000         163.6014      0.4793    615.9600     75.4985     30.0981      0.3732   1125.0000
73.7000         162.1062      0.3801    598.5600     81.3149     27.5851      0.3841   1115.0000
73.8000         159.8259      0.3495    552.9600     89.7683     24.8974      0.3979   1129.6000
73.9000         156.0883      0.3343    547.9200     97.9198     22.2289      0.4173   1178.2000
74.0000         153.3675      0.3305    535.6400    104.4522     20.9983      0.4412   1137.0000
74.1000         150.7208      0.3302    567.3600    110.8646     19.6649      0.4666    987.2000
74.2000         148.1828      0.3456    593.0400    117.7558     19.5185      0.4627    940.8000
74.3000         145.9259      0.3656    601.5200    120.5660     19.8811      0.4410    917.3000
74.4000         144.7493      0.3904    599.7600    118.4594     19.9217      0.4264   1010.9000
74.5000         143.6293      0.4114    583.2400    112.5436     20.6411      0.4616    898.4000
74.6000         144.4804      0.4247    559.0000    102.3859     22.1383      0.4888    763.5000
74.7000         147.4720      0.4009    585.4000     93.6857     24.5898      0.4892   1188.4000
74.8000         154.7627      0.3332    578.2400     81.2936     27.7043      0.4712   1306.7000
74.9000         169.5400      0.2889    597.2000     80.4544     30.9589      0.4653   1330.3000
75.0000         175.0805      0.2699    559.6400     80.9090     33.4047      0.4614   1296.5000
75.1000         174.7967      0.2522    530.4000     84.6265     34.8108      0.4556   1268.3000
75.2000         171.5462      0.2435    514.5600     87.6471     35.0487      0.4394   1245.7000
75.3000         163.2759      0.2405    515.5600     90.0175     35.1482      0.3993   1274.9000
75.4000         159.2144      0.2472    516.5600     98.7803     33.3839      0.3904   1244.5000
75.5000         159.1259      0.2540    524.5200    106.4773     31.5909      0.3773   1300.3000
75.6000         160.1144      0.2475    461.5600    112.5761     28.6981      0.3634   1307.2000
