~VERSION INFORMATION
 VERS.                 2.0:   CWLS LOG ASCII STANDARD -VERSION 2.0
 WRAP.                  NO:   ONE LINE PER DEPTH STEP
~WELL INFORMATION BLOCK
#MNEM.UNIT           DATA                    DESCRIPTION OF MNEMONIC
#---------    -------------------            -------------------------------
# Generated from Intellog Unique Number	CC_80_83/WELL/2365
NULL.         -999.25                        : NULL_VALUE
WELL.         PEX PCEJ HANGST OV             : Well_name    - WELL
LOC .         10-23-082-08W4                 : Location     - LOCATION          
UWI .         AA/10-23-082-08W4/0            : Uwi          - UNIQUE WELL ID    
ENTR.         DW                             : Entered      - ENTERED BY        
SRVC.         DRESSER ATLAS                  : Scn          - SERVICE COMPANY   
DATE.         29 FEB 80                      : Date         - LOG DATE
STRT.M        275                            : top_depth    - START DEPTH       
STOP.M        509.89                         : bot_depth    - STOP DEPTH        
STEP.M        0.3                            : increment    - STEP LENGTH       
~CURVE INFORMATION BLOCK
#MNEM UNIT       ERCB CURVE CODE    CURVE DESCRIPTION
#-----------   ------------------   ----------------------------------
DEPT.M        00 001 00 00         : DEPTH        - DEPTH                       
DPHI.V/V      00 890 00 00         : PHID         - DENSITY POROSITY (LIMESTONE)
NPHI.V/V      00 330 00 00         : PHIN         - NEUTRON POROSITY (LIMESTONE)
GR  .API      00 310 00 00         : GR           - GAMMA RAY                   
ILD .OHMM     00 120 00 00         : RESD         - DEEP RESISTIVITY (DIL)      
~PARAMETER INFORMATION       
#MNEM.UNIT           DATA             DESCRIPTION OF MNEMONIC
#---------         -----------     ------------------------------
GL  .M        740.12               : gl           - GROUND LEVEL ELEVATION      
EREF.M        743.77               : kb           - ELEVATION OF DEPTH REFERENCE
DATM.M        743.77               : datum        - DATUM ELEVATION             
TDD .M        512                  : tdd          - TOTAL DEPTH DRILLER         
RUN .         ONE                  : Run          - RUN NUMBER                  
ENG .         BILL                 : Engineer     - RECORDING ENGINEER          
WIT .         JIM                  : Witness      - WITNESSED BY                
MUD .         GEL                  : Mud_type     - MUD TYPE                    
MATR.         LIMESTONE            : Logunit      - NEUTRON MATRIX              
TMAX.C        16.8                 : BHT          - MAXIMUM RECORDED TEMPERATURE
BHTD.M        512                  : BHTDEP       - MAXIMUM RECORDED TEMPERATURE
MATR.         1                    : LOGUNIT      - NEUTRON MATRIX              
RMT .C        25                   : MDTP         - TEMPERATURE OF MUD          
NEUT.         1                    : NEUTRON      - NEUTRON TYPE                
RESI.         0                    : RESIST       - RESISTIVITY TYPE            
RMC .OHMM     0.25                 : RMC          - RESISTIVITY OF MUD CAKE     
RMF .OHMM     0.25                 : RMF          - RESISTIVITY OF MUD FILTRATE 
SUFT.C        15                   : SUFT         - SURFACE TEMPERATURE         
~A  DEPTH     PHID     PHIN       GR     RESD
# ...
  483.792    0.257    0.331   83.947   25.095
  484.091    0.257    0.334   68.375   22.414
  484.391    0.250    0.335   67.746   19.646
  484.691    0.240    0.335   82.060   20.029
  484.991    0.240    0.328   69.601   20.806
  485.291    0.256    0.329   72.707   21.212
  485.591    0.255    0.329   73.946   21.223
  485.891    0.242    0.320   72.071   20.833
  486.191    0.232    0.300   78.291   20.450
  486.491    0.236    0.303   78.285   19.332
  486.791    0.246    0.309   73.298   17.932
  487.091    0.236    0.302   75.781   16.951
  487.391    0.231    0.310   72.039   17.280
  487.691    0.241    0.326   64.561   19.364
  487.991    0.268    0.341   61.440   20.501
  488.291    0.273    0.325   65.169   20.126
  488.591    0.270    0.307   65.787   19.023
  488.891    0.266    0.327   70.138   16.673
  489.191    0.271    0.331   73.868   14.612
  489.491    0.286    0.333   48.957   13.813
  489.791    0.312    0.339   30.895   13.818
  490.091    0.311    0.332   30.263   15.194
  490.391    0.311    0.329   33.995   17.024
  490.691    0.315    0.312   30.252   19.079
  490.991    0.319    0.314   26.510   18.729
  491.291    0.314    0.307   32.107   18.386
  491.591    0.312    0.298   37.703   18.745
  491.891    0.312    0.304   32.094   19.847
  492.191    0.313    0.322   34.578   21.012
  492.491    0.311    0.335   37.062   24.456
  492.791    0.308    0.329   33.943   25.890
  493.091    0.306    0.328   30.823   30.707
  493.391    0.302    0.327   28.326   36.419
  493.691    0.300    0.327   28.942   42.383
  493.991    0.298    0.334   33.917   48.398
  494.291    0.300    0.366   38.269   58.498
  494.591    0.302    0.359   33.903   80.699
  494.891    0.305    0.333   34.519   97.536
  495.191    0.305    0.324   40.739  101.367
  495.491    0.305    0.322   38.865  105.309
  495.791    0.305    0.316   33.877  107.340
  496.091    0.306    0.315   30.758  118.038
  496.391    0.308    0.310   27.016  124.975
  496.691    0.310    0.317   31.990  120.383
  496.991    0.307    0.334   36.965  120.437
  497.291    0.302    0.326   31.355  129.947
  497.591    0.297    0.327   36.330  135.031
  497.891    0.294    0.323   28.852  127.650
  498.191    0.296    0.321   28.222  122.940
  498.491    0.300    0.338   38.801  107.747
  498.791    0.301    0.337   43.152   96.224
  499.091    0.300    0.327   45.637   82.751
  499.391    0.297    0.310   43.140   65.980
  499.691    0.294    0.304   36.907   61.208
  499.991    0.293    0.307   35.655   60.075
  500.291    0.293    0.315   39.385   60.106
  500.591    0.293    0.331   43.736   60.136
  500.891    0.291    0.336   44.353   59.023
  501.191    0.293    0.322   36.252   55.794
  501.491    0.290    0.319   34.378   47.981
  501.791    0.288    0.321   51.805   29.919
  502.091    0.284    0.320   67.987   14.050
  502.391    0.291    0.311   28.755    8.123
  502.691    0.296    0.291   34.352    6.237
  502.991    0.296    0.283   35.591    5.068
  503.291    0.289    0.269   34.960    4.442
  503.591    0.275    0.247   35.575    4.360
  503.891    0.256    0.228   36.817    5.171
  504.191    0.219    0.212   53.621    8.299
  504.491    0.094    0.199   55.481   13.070
  504.791    0.000    0.178   52.986   18.726
  505.091    0.000    0.165   56.714   23.506
  505.391    0.000    0.170   54.218   25.362
  505.691    0.000    0.172   56.701   25.373
  505.991    0.000    0.163   53.583   23.983
  506.291    0.000    0.161   52.329   21.421
  506.591    0.001    0.167   50.455   19.497
  506.891    0.006    0.208   57.299   17.745
  507.191    0.011    0.209   57.292   15.261
  507.491    0.016    0.211   54.795   14.155
  507.791    0.016    0.213   54.789   13.895
  508.091    0.015    0.213   51.669   13.385
  508.391    0.017    0.216   56.021   13.390
  508.690    0.020    0.228   54.147   13.396
  508.990    0.022    0.229   54.763   13.659
  509.290    0.026    0.229   56.001   13.665
  509.590    0.031    0.226   56.618   13.670
  509.890    0.038    0.225   58.479   13.675
