~VERSION INFORMATION
 VERS.                 2.0:   CWLS LOG ASCII STANDARD -VERSION 2.0
 WRAP.                  NO:   ONE LINE PER DEPTH STEP
~WELL INFORMATION BLOCK
#MNEM.UNIT           DATA                    DESCRIPTION OF MNEMONIC
#---------    -------------------            -------------------------------
# Generated from Intellog Unique Number	CN_94_101/WELL/5019
WELL.         TEXACO EXPLOORATION            : Well_name    - WELL
LOC .         AA/11-09-099-15W4/0            : Location     - LOCATION
UWI .         AA/11-09-099-15W400            : Uwi          - UNIQUE WELL ID
ENTR.         TIM                            : Entered      - ENTERED BY
SRVC.         SCHLUMBERGER                   : Scn          - SERVICE COMPANY
DATE.         08/13/92                       : Date         - LOG DATE
STRT.M        270                            : top_depth    - START DEPTH
STOP.M        460                            : bot_depth    - STOP DEPTH
STEP.M        0.25                           : increment    - STEP LENGTH
 NULL. -999.2500:NULL Value
~CURVE INFORMATION BLOCK
#MNEM UNIT       ERCB CURVE CODE    CURVE DESCRIPTION
#-----------   ------------------   ----------------------------------
DEPT.M        00 001 00 00         : DEPTH        - DEPTH
GR  .API      00 310 00 00         : GR           - GAMMA RAY
ILD .OHMM     00 120 00 00         : RESD         - DEEP RESISTIVITY (DIL)
NPHI.V/V      00 330 00 00         : PHIN         - NEUTRON POROSITY (SANDSTONE)
DPHI.V/V      00 890 00 00         : PHID         - DENSITY POROSITY (SANDSTONE)
~PARAMETER INFORMATION
#MNEM.UNIT           DATA             DESCRIPTION OF MNEMONIC
#---------         -----------     ------------------------------
GL  .M        723.9                : gl           - GROUND LEVEL ELEVATION
EREF.M        727.3                : kb           - ELEVATION OF DEPTH REFERENCE
DATM.M        727.3                : datum        - DATUM ELEVATION
TDD .M        462                  : tdd          - TOTAL DEPTH DRILLER
RUN .         ONE                  : Run          - RUN NUMBER
ENG .         BILL                 : Engineer     - RECORDING ENGINEER
WIT .         JIM                  : Witness      - WITNESSED BY
MUD .         GEL                  : Mud_type     - MUD TYPE
MATR.         SANDSTONE            : Logunit      - NEUTRON MATRIX
TMAX.C        31.1                 : BHT          - MAXIMUM RECORDED TEMPERATURE
BHTD.M        462                  : BHTDEP       - MAXIMUM RECORDED TEMPERATURE
RMT .C        31.1                 : MDTP         - TEMPERATURE OF MUD
MUDD.KG/M     1130                 : MWT          - MUD DENSITY
NEUT.         1                    : NEUTRON      - NEUTRON TYPE
RESI.         0                    : RESIST       - RESISTIVITY TYPE
RM  .OHMM     6                    : RM           - RESISTIVITY OF MUD
RMC .OHMM     6                    : RMC          - RESISTIVITY OF MUD CAKE
RMF .OHMM     6                    : RMF          - RESISTIVITY OF MUD FILTRATE
SUFT.C        4                    : SUFT         - SURFACE TEMPERATURE
~A  DEPTH       GR     RESD     PHIN     PHID
  270.000  145.829    5.849    0.525    0.250
  270.250  145.221    5.845    0.515    0.250
  270.500  144.614    6.052    0.508    0.244
  270.750  145.231    6.049    0.507    0.243
  271.000  146.460    5.835    0.509    0.244
  271.250  145.854    5.622    0.518    0.251
  271.500  142.181    5.620    0.517    0.250
  271.750  136.671    5.409    0.470    0.220
  272.000  130.548    5.405    0.452    0.198
  272.250  125.038    5.402    0.411    0.202
  272.500  123.818    5.816    0.437    0.217
  272.750  129.337    6.023    0.467    0.235
  273.000  136.694    6.437    0.479    0.249
  273.250  138.537    6.642    0.477    0.248
  273.500  138.543    7.057    0.474    0.248
  273.750  140.998    7.889    0.462    0.250
  274.000  143.453    8.514    0.490    0.249
  274.250  144.685    8.927    0.499    0.244
  274.500  144.690    8.924    0.515    0.244
  274.750  145.307    8.922    0.508    0.249
  275.000  147.761    8.499    0.504    0.251
  275.250  149.604    8.079    0.512    0.254
  275.500  150.223    7.450    0.518    0.258
  275.750  149.615    6.819    0.525    0.259
  276.000  148.394    6.398    0.522    0.258
  276.250  145.948    6.396    0.517    0.256
  276.500  142.276    6.183    0.513    0.259
  276.750  139.216    6.181    0.509    0.264
  277.000  134.931    5.760    0.500    0.265
  277.250  131.261    5.548    0.474    0.260
  277.500  133.105    5.126    0.441    0.256
  277.750  134.945    4.914    0.467    0.256
  278.000  138.627    4.493    0.499    0.255
  278.250  139.856    4.489    0.506    0.248
  278.500  132.508    4.487    0.496    0.240
  278.750  123.935    5.319    0.482    0.246
  279.000  128.841    7.405    0.477    0.253
  279.250  134.973    9.283    0.503    0.254
  279.500  136.204   10.532    0.510    0.256
  279.750  134.370   10.111    0.524    0.267
  280.000  131.312    9.272    0.539    0.269
  280.250  130.091    8.224    0.557    0.261
  280.500  132.547    8.012    0.558    0.258
  280.750  133.776    7.590    0.513    0.259
  281.000  135.618    7.588    0.508    0.264
  281.250  138.688    6.958    0.519    0.265
  281.500  139.304    6.537    0.539    0.264
  281.750  137.472    6.115    0.544    0.258
  282.000  135.025    5.695    0.523    0.250
  282.250  130.129    5.483    0.513    0.245
  282.500  126.457    5.062    0.504    0.243
  282.750  122.785    4.849    0.477    0.240
  283.000  118.502    4.847    0.472    0.225
  283.250  120.957    4.844    0.460    0.210
  283.500  124.637    5.049    0.443    0.196
  283.750  131.382    5.254    0.441    0.152
  284.000  133.224    5.460    0.471    0.259
  284.250  127.714    5.667    0.495    0.279
  284.500  125.268    5.871    0.517    0.282
  284.750  127.111    6.077    0.556    0.282
  285.000  130.180    6.282    0.573    0.280
  285.250  132.636    6.281    0.605    0.277
  285.500  133.866    6.694    0.553    0.270
  285.750  132.644    6.901    0.537    0.266
  286.000  128.974    6.688    0.523    0.264
  286.250  130.204    6.476    0.498    0.263
  286.500  132.658    5.847    0.495    0.264
  286.750  137.566    4.798    0.504    0.265
  287.000  138.183    3.959    0.518    0.265
  287.250  135.737    3.538    0.544    0.266
  287.500  132.065    3.951    0.543    0.268
  287.750  129.618    3.949    0.514    0.268
  288.000  127.784    3.947    0.501    0.265
  288.250  129.014    3.942    0.495    0.261
  288.500  130.245    3.940    0.524    0.260
  288.750  130.249    3.728    0.549    0.259
  289.000  129.028    3.725    0.556    0.258
  289.250  126.583    3.720    0.524    0.258
  289.500  124.750    3.717    0.509    0.258
  289.750  122.303    3.715    0.508    0.258
  290.000  121.696    3.710    0.558    0.258
  290.250  122.314    3.709    0.538    0.260
  290.500  119.255    4.124    0.515    0.260
  290.750  116.196    4.747    0.501    0.261
  291.000  117.426    5.161    0.471    0.261
  291.250  120.494    5.368    0.461    0.263
  291.500  126.012    5.573    0.487    0.263
  291.750  132.145    5.360    0.490    0.263
  292.000  133.988    5.148    0.495    0.261
  292.250  134.604    4.937    0.509    0.261
  292.500  137.063    5.141    0.533    0.264
  292.750  137.679    5.558    0.534    0.266
  293.000  138.294    5.971    0.509    0.266
  293.250  137.688    6.178    0.506    0.260
  293.500  137.078    6.174    0.515    0.256
  293.750  134.633    6.172    0.520    0.256
  294.000  132.800    5.750    0.524    0.260
  294.250  130.966    5.538    0.516    0.261
  294.500  130.359    5.326    0.501    0.260
  294.750  130.363    5.322    0.499    0.260
  295.000  129.142    5.319    0.501    0.261
  295.250  127.920    5.316    0.499    0.264
  295.500  126.699    5.313    0.479    0.266
  295.750  123.029    5.308    0.474    0.268
  296.000  122.421    5.306    0.477    0.266
  296.250  128.551    5.301    0.501    0.264
  296.500  135.909    5.299    0.506    0.264
  296.750  141.429    5.506    0.513    0.268
  297.000  141.434    5.502    0.511    0.271
  297.250  137.762    5.499    0.500    0.280
  297.500  128.576    5.287    0.489    0.293
  297.750  118.164    5.284    0.474    0.307
  298.000  114.493    5.072    0.456    0.322
  298.250  112.046    5.068    0.443    0.337
  298.500  108.989    5.065    0.414    0.333
  298.750  105.929    5.271    0.409    0.287
  299.000  105.934    5.686    0.400    0.264
  299.250  112.065    6.726    0.388    0.246
  299.500  126.162    7.350    0.398    0.231
  299.750  132.906    7.975    0.419    0.244
  300.000  134.752    9.224    0.448    0.260
  300.250  134.141    9.011    0.462    0.261
  300.500  133.534    8.800    0.466    0.256
  300.750  132.926    8.379    0.471    0.249
  301.000  132.931    7.749    0.476    0.250
  301.250  133.547    7.327    0.485    0.255
  301.500  134.167    7.117    0.492    0.258
  301.750  136.010    6.695    0.490    0.264
  302.000  136.625    6.482    0.492    0.259
  302.250  137.855    6.271    0.500    0.249
  302.500  137.860    5.850    0.524    0.247
  302.750  135.413    5.637    0.553    0.247
  303.000  132.354    5.634    0.564    0.245
  303.250  132.360    5.421    0.564    0.247
  303.500  132.365    5.418    0.514    0.259
  303.750  133.595    5.624    0.485    0.268
  304.000  133.598    5.621    0.504    0.265
  304.250  136.056    5.826    0.534    0.255
  304.500  137.286    5.823    0.545    0.255
  304.750  136.679    5.820    0.545    0.256
  305.000  134.843    5.818    0.523    0.254
  305.250  131.786    5.815    0.514    0.246
  305.500  128.113    5.810    0.509    0.235
  305.750  125.054    5.807    0.461    0.251
  306.000  123.220    5.805    0.457    0.264
  306.250  122.614    5.801    0.481    0.260
  306.500  122.617    5.798    0.485    0.254
  306.750  123.847    5.795    0.490    0.252
  307.000  126.304    5.792    0.497    0.252
  307.250  127.532    5.789    0.508    0.254
  307.500  129.990    5.785    0.513    0.255
  307.750  130.605    5.781    0.516    0.259
  308.000  132.449    5.780    0.496    0.264
  308.250  133.066    5.776    0.497    0.256
  308.500  134.297    5.564    0.506    0.257
  308.750  134.914    5.561    0.524    0.266
  309.000  134.918    5.349    0.542    0.276
  309.250  134.312    5.345    0.539    0.270
  309.500  134.314    5.134    0.543    0.252
  309.750  133.706    5.130    0.552    0.255
  310.000  133.098    4.918    0.550    0.261
  310.250  133.103    4.706    0.495    0.268
  310.500  131.884    4.702    0.476    0.265
  310.750  131.888    4.490    0.472    0.254
  311.000  131.278    4.487    0.471    0.245
  311.250  133.734    4.483    0.509    0.241
  311.500  142.318    4.481    0.524    0.245
  311.750  148.450    4.686    0.537    0.250
  312.000  150.293    5.100    0.545    0.250
  312.250  150.911    5.307    0.557    0.247
  312.500  150.915    5.513    0.563    0.244
  312.750  151.533    5.300    0.569    0.240
  313.000  151.537    4.878    0.558    0.237
  313.250  151.541    4.667    0.544    0.231
