~VERSION INFORMATION
 VERS.                 2.0:   CWLS LOG ASCII STANDARD -VERSION 2.0
 WRAP.                  NO:   ONE LINE PER DEPTH STEP
~WELL INFORMATION BLOCK
#MNEM.UNIT           DATA                    DESCRIPTION OF MNEMONIC
#---------    -------------------            -------------------------------
# Generated from Intellog Unique Number	CX_WELLS/WELL/1076
WELL.         10-08-088-15W4                 : Well_name    - WELL
LOC .         AA/10-08-088-15W4/0            : Location     - LOCATION
UWI .         AA/10-08-088-15W400            : Uwi          - UNIQUE WELL ID
ENTR.         T                              : Entered      - ENTERED BY
SRVC.         SCHLUMBERGER                   : Scn          - SERVICE COMPANY
STRT.M        75                             : top_depth    - START DEPTH
STOP.M        275                            : bot_depth    - STOP DEPTH
STEP.M        0.25                           : increment    - STEP LENGTH
 NULL. -999.2500:NULL Value
~CURVE INFORMATION BLOCK
#MNEM UNIT       ERCB CURVE CODE    CURVE DESCRIPTION
#-----------   ------------------   ----------------------------------
DEPT.M        00 001 00 00         : DEPTH        - DEPTH
GR  .API      00 310 00 00         : GR           - GAMMA RAY
NPHI.V/V      00 330 00 00         : PHIN         - NEUTRON POROSITY (SANDSTONE)
DPHI.V/V      00 890 00 00         : PHID         - DENSITY POROSITY (SANDSTONE)
ILD .OHMM     00 120 00 00         : RESD         - DEEP RESISTIVITY (DIL)
~PARAMETER INFORMATION
#MNEM.UNIT           DATA             DESCRIPTION OF MNEMONIC
#---------         -----------     ------------------------------
GL  .M        535.9                : gl           - GROUND LEVEL ELEVATION
EREF.M        535.9                : kb           - ELEVATION OF DEPTH REFERENCE
DATM.M        535.9                : datum        - DATUM ELEVATION
TDD .M        283                  : tdd          - TOTAL DEPTH DRILLER
RUN .         ONE                  : Run          - RUN NUMBER
ENG .         BILL                 : Engineer     - RECORDING ENGINEER
WIT .         JIM                  : Witness      - WITNESSED BY
MUD .         GEL                  : Mud_type     - MUD TYPE
MATR.         SANDSTONE            : Logunit      - NEUTRON MATRIX
TMAX.C        8                    : BHT          - MAXIMUM RECORDED TEMPERATURE
BHTD.M        1.28367e+06          : BHTDEP       - MAXIMUM RECORDED TEMPERATURE
MATR.         1                    : LOGUNIT      - NEUTRON MATRIX
RMT .C        9                    : MDTP         - TEMPERATURE OF MUD
NEUT.         1                    : NEUTRON      - NEUTRON TYPE
RESI.         0                    : RESIST       - RESISTIVITY TYPE
RMC .OHMM     8.86                 : RMC          - RESISTIVITY OF MUD CAKE
RMF .OHMM     7.09                 : RMF          - RESISTIVITY OF MUD FILTRATE
SUFT.C        4                    : SUFT         - SURFACE TEMPERATURE
~A  DEPTH       GR     PHIN     PHID     RESD
# ...
  118.500  104.800    0.469    0.208   16.000
  118.750  109.012    0.475    0.201   12.630
  119.000  111.449    0.484    0.224    9.612
  119.250  113.868    0.516    0.249    7.183
  119.500  113.916    0.533    0.262    5.668
  119.750  109.770    0.529    0.250    4.235
  120.000  105.625    0.529    0.247    3.871
  120.250  104.468    0.520    0.260    3.951
  120.500  102.732    0.511    0.273    4.027
  120.750  100.370    0.511    0.284    4.342
  121.000   98.017    0.509    0.294    4.681
  121.250   95.058    0.501    0.286    4.771
  121.500   91.510    0.501    0.282    5.238
  121.750   87.962    0.508    0.286    5.540
  122.000   85.012    0.514    0.285    6.080
  122.250   83.257    0.509    0.280    6.432
  122.500   80.905    0.493    0.280    7.062
  122.750   79.150    0.472    0.273    7.893
  123.000   78.590    0.469    0.265   10.214
  123.250   79.226    0.469    0.263   17.721
  123.500   80.459    0.467    0.270   24.225
  123.750   79.311    0.464    0.276   31.359
  124.000   78.154    0.429    0.288   36.358
  124.250   77.594    0.433    0.299   38.496
  124.500   77.632    0.434    0.315   38.524
  124.750   77.073    0.434    0.326   38.582
  125.000   75.915    0.432    0.336   37.952
  125.250   73.572    0.436    0.334   38.023
  125.500   72.415    0.443    0.334   38.797
  125.750   71.855    0.450    0.336   38.840
  126.000   72.501    0.446    0.332   38.178
  126.250   72.519    0.442    0.330   37.555
  126.500   74.350    0.441    0.335   36.929
  126.750   76.181    0.438    0.342   36.313
  127.000   78.012    0.423    0.344   35.694
  127.250   78.647    0.417    0.343   35.099
  127.500   77.490    0.429    0.339   34.513
  127.750   75.156    0.449    0.337   33.938
  128.000   75.195    0.449    0.335   33.372
  128.250   74.037    0.454    0.334   32.232
  128.500   72.880    0.461    0.336   31.706
  128.750   73.516    0.468    0.337   31.154
  129.000   74.749    0.458    0.337   30.090
  129.250   75.384    0.451    0.333   29.062
  129.500   75.422    0.445    0.325   28.567
  129.750   75.451    0.442    0.332   27.101
  130.000   74.900    0.434    0.336   26.146
  130.250   74.350    0.438    0.338   24.795
  130.500   74.369    0.446    0.339   24.795
  130.750   74.426    0.461    0.334   23.104
  131.000   75.669    0.468    0.327   21.910
  131.250   76.285    0.465    0.324   20.394
  131.500   76.323    0.458    0.323   19.690
  131.750   75.166    0.449    0.319   18.659
  132.000   74.018    0.442    0.320   17.688
  132.250   72.263    0.444    0.324   16.470
  132.500   71.704    0.453    0.325   15.619
  132.750   72.927    0.457    0.323   15.069
  133.000   74.758    0.452    0.319   14.817
  133.250   73.610    0.448    0.313   14.311
  133.500   72.444    0.447    0.297   14.332
  133.750   70.101    0.446    0.053   15.164
  134.000   67.748    0.418    0.009   16.334
  134.250   65.405    0.375   -0.000   19.295
  134.500   64.248    0.301    0.004   24.070
  134.750   63.688    0.154    0.009   28.948
  135.000   64.324    0.149    0.017   39.587
  135.250   66.164    0.149    0.017   49.385
  135.500   66.799    0.149    0.022   52.250
  135.750   67.416    0.151    0.029   53.334
  136.000   69.266    0.157    0.038   53.393
  136.250   69.901    0.189    0.058   50.596
  136.500   71.135    0.232    0.081   42.196
  136.750   71.770    0.264    0.125   33.925
  137.000   72.406    0.349    0.160   28.293
  137.250   73.041    0.431    0.217   24.927
  137.500   73.677    0.445    0.301   20.796
  137.750   74.910    0.448    0.321   18.661
  138.000   75.545    0.448    0.319   16.745
  138.250   75.583    0.447    0.306   15.868
  138.500   75.024    0.452    0.312   15.042
  138.750   77.452    0.461    0.315   14.523
  139.000   80.478    0.456    0.319   14.286
  139.250   79.918    0.449    0.316   13.798
  139.500   78.173    0.444    0.316   13.563
  139.750   78.211    0.448    0.317   13.337
  140.000   78.837    0.454    0.315   13.352
  140.250   78.885    0.457    0.317   13.129
  140.500   77.718    0.458    0.319   12.915
  140.750   77.168    0.459    0.323   12.939
  141.000   76.617    0.458    0.325   12.953
  141.250   76.039    0.459    0.330   12.973
  141.500   74.891    0.463    0.332   12.997
  141.750   74.341    0.464    0.328   13.016
  142.000   74.379    0.468    0.326   13.030
  142.250   74.407    0.471    0.323   13.055
  142.500   75.043    0.471    0.326   13.074
  142.750   75.688    0.473    0.329   13.089
  143.000   75.716    0.475    0.324   13.113
  143.250   75.156    0.471    0.320   13.132
  143.500   75.195    0.467    0.319   13.147
  143.750   75.232    0.468    0.321   13.176
  144.000   75.868    0.470    0.313   12.957
  144.250   75.308    0.469    0.311   12.741
  144.500   74.768    0.463    0.311   12.755
  144.750   74.208    0.450    0.313   12.547
  145.000   73.051    0.455    0.318   12.561
  145.250   74.872    0.462    0.319   12.812
  145.500   78.505    0.467    0.319   13.072
  145.750   79.141    0.471    0.322   13.334
  146.000   77.993    0.462    0.329   13.600
  146.250   77.414    0.454    0.328   13.872
  146.500   77.452    0.451    0.321   14.411
  146.750   77.499    0.454    0.317   14.699
  147.000   77.537    0.458    0.310   14.726
  147.250   78.183    0.467    0.307   14.748
  147.500   78.818    0.471    0.312   14.764
  147.750   79.463    0.474    0.318   14.792
  148.000   79.482    0.470    0.324   14.540
  148.250   78.932    0.463    0.319   14.566
  148.500   78.960    0.452    0.309   14.318
  148.750   79.008    0.446    0.309   14.079
  149.000   79.036    0.445    0.308   13.850
  149.250   79.074    0.443    0.308   13.614
  149.500   79.710    0.442    0.301   13.392
  149.750   79.767    0.424    0.296   13.412
  150.000   78.012    0.418    0.291   13.436
  150.250   75.669    0.410    0.283   13.715
  150.500   73.895    0.356    0.274   13.730
  150.750   72.140    0.335    0.260   13.491
  151.000   72.785    0.272    0.201   13.276
  151.250   75.820    0.271    0.117   13.050
  151.500   78.230    0.304    0.162   13.069
  151.750   81.853    0.406    0.217   14.343
  152.000   83.684    0.446    0.279   15.735
  152.250   83.144    0.449    0.301   16.068
  152.500   81.389    0.447    0.307   15.507
  152.750   81.417    0.452    0.309   14.700
  153.000   83.855    0.459    0.310   13.931
  153.250   83.883    0.465    0.308   12.736
  153.500   83.921    0.467    0.307   11.854
  153.750   84.557    0.472    0.311   11.238
  154.000   86.388    0.496    0.315   11.250
  154.250   88.816    0.500    0.313   10.862
  154.500   94.252    0.496    0.309   10.491
  154.750   97.866    0.490    0.303    9.591
  155.000  102.685    0.481    0.288    9.253
  155.250  108.110    0.477    0.264    8.934
  155.500  114.134    0.483    0.264    8.165
  155.750  114.770    0.490    0.262    7.332
  156.000  111.819    0.498    0.261    6.948
  156.250  108.869    0.506    0.259    6.350
  156.500  106.507    0.515    0.263    5.592
  156.750  103.557    0.522    0.260    4.838
  157.000  101.214    0.517    0.256    4.759
  157.250  101.252    0.506    0.246    5.319
  157.500  104.269    0.499    0.240    6.055
  157.750  111.478    0.490    0.241    6.643
  158.000  116.297    0.480    0.247    7.847
  158.250  122.918    0.472    0.250    9.269
  158.500  126.541    0.503    0.253    8.784
  158.750  128.372    0.540    0.251    7.463
  159.000  128.410    0.562    0.247    6.821
  159.250  127.851    0.563    0.243    6.118
  159.500  126.703    0.552    0.238    5.390
  159.750  124.948    0.557    0.238    4.926
  160.000  122.595    0.572    0.233    4.502
  160.250  119.636    0.573    0.216    4.271
  160.500  112.502    0.557    0.189    4.198
  160.750  106.564    0.519    0.171    4.205
  161.000  101.821    0.502    0.153    4.532
  161.250  102.457    0.481    0.134    4.705
  161.500  107.285    0.464    0.123    5.163
  161.750  107.921    0.489    0.229    5.880
