~VERSION INFORMATION
 VERS.                 2.0:   CWLS LOG ASCII STANDARD -VERSION 2.0
 WRAP.                  NO:   ONE LINE PER DEPTH STEP
~WELL INFORMATION BLOCK
#MNEM.UNIT           DATA                    DESCRIPTION OF MNEMONIC
#---------    -------------------            -------------------------------
# Generated from Intellog Unique Number	CN_91_93/WELL/1174
WELL.         16-02-091-09W4                 : Well_name    - WELL
LOC .         AA/16-02-091-09W4/0            : Location     - LOCATION
UWI .         AA/16-02-091-09W400            : Uwi          - UNIQUE WELL ID
ENTR.         JOETTE                         : Entered      - ENTERED BY
SRVC.         SCHLUMBERGER                   : Scn          - SERVICE COMPANY
DATE.         01/14/92                       : Date         - LOG DATE
STRT.F        50                             : top_depth    - START DEPTH
STOP.F        439.6                          : bot_depth    - STOP DEPTH
STEP.F        0.8202                         : increment    - STEP LENGTH
 NULL. -999.2500:NULL Value
~CURVE INFORMATION BLOCK
#MNEM UNIT       ERCB CURVE CODE    CURVE DESCRIPTION
#-----------   ------------------   ----------------------------------
DEPT.F        00 001 00 00         : DEPTH        - DEPTH
GR  .API      00 310 00 00         : GR           - GAMMA RAY
CALI.IN       00 280 01 00         : CAL          - CALIPER
DPHI.V/V      00 890 00 00         : PHID         - DENSITY POROSITY (SANDSTONE)
ILD .OHMM     00 120 00 00         : RESD         - DEEP RESISTIVITY (DIL)
~PARAMETER INFORMATION
#MNEM.UNIT           DATA             DESCRIPTION OF MNEMONIC
#---------         -----------     ------------------------------
GL  .M        360.243              : gl           - GROUND LEVEL ELEVATION
EREF.M        361.615              : kb           - ELEVATION OF DEPTH REFERENCE
DATM.M        360.243              : datum        - DATUM ELEVATION
TDD .M        138.379              : tdd          - TOTAL DEPTH DRILLER
RUN .         ONE                  : Run          - RUN NUMBER
ENG .         BILL                 : Engineer     - RECORDING ENGINEER
WIT .         JIM                  : Witness      - WITNESSED BY
MUD .         GEL                  : Mud_type     - MUD TYPE
MATR.         SANDSTONE            : Logunit      - NEUTRON MATRIX
TMAX.F        52                   : BHT          - MAXIMUM RECORDED TEMPERATURE
BHTD.F        454                  : BHTDEP       - MAXIMUM RECORDED TEMPERATURE
RMT .F        52                   : MDTP         - TEMPERATURE OF MUD
MUDD.LB/G     9.16666              : MWT          - MUD DENSITY
NEUT.         1                    : NEUTRON      - NEUTRON TYPE
RESI.         0                    : RESIST       - RESISTIVITY TYPE
RM  .OHMM     5.68                 : RM           - RESISTIVITY OF MUD
RMC .OHMM     5.68                 : RMC          - RESISTIVITY OF MUD CAKE
RMF .OHMM     5.68                 : RMF          - RESISTIVITY OF MUD FILTRATE
SUFT.F        39.2                 : SUFT         - SURFACE TEMPERATURE
~A  DEPTH       GR      CAL     PHID     RESD
# ...
  335.433   60.237    7.462    0.343   12.137
  336.253   62.442    7.467    0.351    8.844
  337.073   62.867    7.489    0.353    9.986
  337.894   63.687    7.532    0.322   10.177
  338.714   65.501    7.594    0.326    8.935
  339.534   67.911    7.636    0.321    8.611
  340.354   69.532    7.718    0.319    8.534
  341.175   68.165    7.760    0.326    9.546
  341.995   64.606    7.823    0.313   14.257
  342.815   62.047    7.865    0.327   16.710
  343.635   59.686    7.907    0.338   13.241
  344.455   55.338    7.910    0.326   10.690
  345.276   51.984    7.910    0.325   15.097
  346.096   50.021    7.936    0.335   18.026
  346.916   50.844    7.937    0.340   16.894
  347.736   53.450    7.939    0.330   11.859
  348.556   56.658    7.939    0.336   11.429
  349.377   58.869    7.945    0.318   13.647
  350.197   60.288    7.947    0.321   11.225
  351.017   59.912    7.950    0.337    8.649
  351.837   65.307    7.932    0.346    8.492
  352.657   67.518    7.915    0.331    8.338
  353.478   64.959    7.858    0.313    9.241
  354.298   60.412    7.840    0.317   11.348
  355.118   60.837    7.803    0.326   12.577
  355.938   59.865    7.788    0.346   13.681
  356.759   56.511    7.749    0.334   11.149
  357.579   53.355    7.712    0.319   17.608
  358.399   51.790    7.712    0.316   24.636
  359.219   51.821    7.696    0.323   21.831
  360.039   55.020    7.620    0.323   10.754
  360.860   57.234    7.582    0.318   10.658
  361.680   58.252    7.565    0.324   12.147
  362.500   59.470    7.548    0.341   11.383
  363.320   60.290    7.550    0.360   10.374
  364.140   59.923    7.550    0.374   11.934
  364.961   59.544    7.556    0.379   13.476
  365.781   60.367    7.556    0.362   18.679
  366.601   63.181    7.541    0.359   13.359
  367.421   65.988    7.542    0.359   10.785
  368.241   67.799    7.542    0.346   11.954
  369.062   68.019    7.529    0.353   10.593
  369.882   63.075    7.491    0.346   13.628
  370.702   58.727    7.473    0.352   15.388
  371.522   57.956    7.477    0.352   16.128
  372.343   58.382    7.419    0.356   16.591
  373.163   58.602    7.419    0.359   16.289
  373.983   60.614    7.364    0.340   14.983
  374.803   62.832    7.287    0.325   10.228
  375.623   62.456    7.230    0.329   13.158
  376.444   65.065    7.214    0.331   12.331
  377.264   65.686    7.195    0.339   10.430
  378.084   64.120    7.195    0.336   13.050
  378.904   60.766    7.162    0.340   12.459
  379.724   59.201    7.143    0.330   16.950
  380.545   60.418    7.105    0.339   17.114
  381.365   60.247    7.068    0.344   14.341
  382.185   58.480    7.051    0.349   15.313
  383.005   56.914    7.014    0.360   24.186
  383.825   58.135    6.957    0.370   23.308
  384.646   63.129    6.957    0.372   20.273
  385.466   63.750    6.942    0.377   12.965
  386.286   64.769    6.884    0.361   12.378
  387.106   64.200    6.847    0.351   12.153
  387.927   60.843    6.830    0.340   12.386
  388.747   55.700    6.833    0.352   16.387
  389.567   56.718    6.836    0.331   13.107
  390.387   48.792    6.840    0.333   16.551
  391.207   40.664    6.841    0.311   25.897
  392.028   33.533    6.841    0.289  186.859
  392.848   31.971    6.846    0.266  152.270
  393.668   35.173    6.847    0.288   39.063
  394.488   41.760    6.850    0.331   18.539
  395.308   37.213    6.853    0.356   18.894
  396.129   34.058    6.855    0.368  114.203
  396.949   34.483    6.855    0.347  132.609
  397.769   35.306    6.860    0.345   84.018
  398.589   35.725    6.903    0.330   34.672
  399.409   36.741    6.925    0.326   27.990
  400.230   41.738    6.947    0.344   17.734
  401.050   51.900    6.950    0.346   13.538
  401.870   56.897    6.952    0.325   11.345
  402.690   51.356    6.955    0.344   16.475
  403.510   45.415    6.955    0.355   19.131
  404.331   38.284    6.961    0.368   35.074
  405.151   35.529    6.962    0.378   50.936
  405.971   34.162    6.962    0.392   54.389
  406.791   32.398    6.949    0.393   43.908
  407.612   30.634    6.950    0.384   57.019
  408.432   31.255    6.952    0.369   80.526
  409.252   32.870    6.955    0.371   70.039
  410.072   34.084    6.957    0.363   97.996
  410.892   35.503    6.940    0.370  111.689
  411.713   37.715    6.943    0.362   42.779
  412.533   41.317    6.945    0.361   33.898
  413.353   44.327    6.948    0.357   54.037
  414.173   45.348    6.951    0.334   31.777
  414.993   48.553    6.952    0.361   22.099
  415.814   49.969    6.957    0.325   21.297
  416.634   50.590    6.958    0.324   27.657
  417.454   52.010    6.958    0.331   30.941
  418.274   54.416    6.944    0.338   24.746
  419.094   62.196    6.945    0.314   17.698
  419.915   66.796    6.945    0.301   13.765
  420.735   67.616    6.932    0.292   14.427
  421.555   65.252    6.913    0.307   16.596
  422.375   59.910    6.916    0.322   15.408
  423.195   50.391    6.899    0.339   43.777
  424.016   36.101    6.900    0.342   69.786
  424.836   31.157    6.903    0.355  118.752
  425.656   30.787    6.905    0.353  119.901
  426.476   32.800    6.908    0.342   88.183
  427.297   37.992    6.911    0.332   55.870
  428.117   41.200    6.911    0.329   36.064
  428.937   46.791    6.916    0.323   26.772
  429.757   55.365    6.918    0.318   19.147
  430.577   60.956    6.921    0.323   14.347
  431.398   67.543    6.903    0.310   11.582
  432.218   55.837    6.908    0.295   23.309
  433.038   45.921    6.889    0.289   20.085
  433.858   37.796    6.871    0.288   32.927
  434.678   31.457    6.854    0.306   29.180
  435.499   23.929    6.857    0.300   23.121
  436.319   20.776    6.839    0.305   18.151
  437.139   18.614    6.842    0.210   11.288
  437.959   17.841    6.826    0.173   33.289
  438.780   17.273    6.827    0.151   44.041
  439.600   16.701    6.829    0.142   52.102
