~VERSION INFORMATION
 VERS.                 2.0:   CWLS LOG ASCII STANDARD -VERSION 2.0
 WRAP.                  NO:   ONE LINE PER DEPTH STEP
~WELL INFORMATION BLOCK
#MNEM.UNIT           DATA                    DESCRIPTION OF MNEMONIC
#---------    -------------------            -------------------------------
# Generated from Intellog Unique Number	CC_80_83/WELL/2433
NULL.         -999.25                        : NULL_VALUE
WELL.         ARCO ACI McMUURAY              : Well_name    - WELL              
LOC .         12-29-083-10W4                 : Location     - LOCATION          
UWI .         AA/12-29-083-10W400            : Uwi          - UNIQUE WELL ID    
ENTR.         DW                             : Entered      - ENTERED BY        
SRVC.         SCHLUMBERGER                   : Scn          - SERVICE COMPANY   
DATE.         26 JAN 74                      : Date         - LOG DATE
STRT.M        259.08                         : top_depth    - START DEPTH       
STOP.M        502.928                        : bot_depth    - STOP DEPTH        
STEP.M        0.305                          : increment    - STEP LENGTH       
~CURVE INFORMATION BLOCK
#MNEM UNIT       ERCB CURVE CODE    CURVE DESCRIPTION
#-----------   ------------------   ----------------------------------
DEPT.M        00 001 00 00         : DEPTH        - DEPTH                       
NPHI.V/V      00 330 00 00         : PHIN         - NEUTRON POROSITY (LIMESTONE)
GR  .API      00 310 00 00         : GR           - GAMMA RAY                   
DPHI.V/V      00 890 00 00         : PHID         - DENSITY POROSITY (LIMESTONE)
ILD .OHMM     00 120 00 00         : RESD         - DEEP RESISTIVITY (DLL)      
~PARAMETER INFORMATION       
#MNEM.UNIT           DATA             DESCRIPTION OF MNEMONIC
#---------         -----------     ------------------------------
GL  .M        740.359              : gl           - GROUND LEVEL ELEVATION      
EREF.M        743.407              : kb           - ELEVATION OF DEPTH REFERENCE
DATM.M        743.407              : datum        - DATUM ELEVATION             
TDD .M        505.968              : tdd          - TOTAL DEPTH DRILLER         
RUN .         ONE                  : Run          - RUN NUMBER                  
ENG .         BILL                 : Engineer     - RECORDING ENGINEER          
WIT .         JIM                  : Witness      - WITNESSED BY                
MUD .         GEL                  : Mud_type     - MUD TYPE                    
MATR.         LIMESTONE            : Logunit      - NEUTRON MATRIX              
TMAX.C        23.3333              : BHT          - MAXIMUM RECORDED TEMPERATURE
BHTD.M        505.968              : BHTDEP       - MAXIMUM RECORDED TEMPERATURE
MATR.         1                    : LOGUNIT      - NEUTRON MATRIX              
RMT .C        25                   : MDTP         - TEMPERATURE OF MUD          
NEUT.         0                    : NEUTRON      - NEUTRON TYPE                
RESI.         1                    : RESIST       - RESISTIVITY TYPE            
RMC .OHMM     0.25                 : RMC          - RESISTIVITY OF MUD CAKE     
RMF .OHMM     0.25                 : RMF          - RESISTIVITY OF MUD FILTRATE 
SUFT.C        4                    : SUFT         - SURFACE TEMPERATURE         
~A  DEPTH     PHIN       GR     PHID     RESD
# ...
  418.191    0.448   68.925    0.282    8.032
  418.495    0.500   76.150    0.296    8.492
  418.800    0.456   76.526    0.263    9.318
  419.105    0.427   81.735    0.260   10.036
  419.410    0.406   77.272    0.245   10.416
  419.715    0.363   72.008    0.238   10.224
  420.019    0.361   70.362    0.250   10.035
  420.324    0.376   70.343    0.248   10.035
  420.629    0.372   73.940    0.246    9.850
  420.934    0.372   72.700    0.251    9.491
  421.239    0.378   70.255    0.264    8.649
  421.543    0.363   68.620    0.263    7.595
  421.848    0.369   60.130    0.267    7.051
  422.153    0.382   61.711    0.270    6.921
  422.458    0.437   65.716    0.271    7.050
  422.763    0.479   66.493    0.295    7.594
  423.068    0.469   63.645    0.305    8.332
  423.372    0.456   60.796    0.273    9.314
  423.677    0.435   58.351    0.268   10.032
  423.982    0.374   55.502    0.281   10.220
  424.287    0.363   63.132    0.281   10.031
  424.592    0.359   66.326    0.276    9.665
  424.896    0.359   61.867    0.266    9.313
  425.201    0.377   61.435    0.265    8.973
  425.506    0.405   58.588    0.285    8.330
  425.811    0.427   50.499    0.273    8.026
  426.116    0.441   48.858    0.269    8.026
  426.420    0.428   50.848    0.253    8.176
  426.725    0.397   58.073    0.264    8.486
  427.030    0.386   67.314    0.275    8.806
  427.335    0.386   62.854    0.263    9.139
  427.640    0.397   56.779    0.260    9.310
  427.944    0.386   56.754    0.245    9.485
  428.249    0.389   60.352    0.248    9.310
  428.554    0.388   62.336    0.260    8.805
  428.859    0.382   61.905    0.286    8.175
  429.164    0.396   61.075    0.299    8.024
  429.469    0.436   58.219    0.275    8.483
  429.773    0.443   56.991    0.270    8.969
  430.078    0.439   44.469    0.274    9.308
  430.383    0.411   48.471    0.269    9.137
  430.688    0.370   52.471    0.267    8.641
  430.993    0.387   54.861    0.273    8.173
  431.297    0.391   59.669    0.296    7.448
  431.602    0.388   56.823    0.319    6.302
  431.907    0.405   56.794    0.319    4.596
  432.212    0.422   61.197    0.309    3.817
  432.517    0.429   66.410    0.304    3.677
  432.821    0.465   70.010    0.305    4.035
  433.126    0.492   73.207    0.306    4.595
  433.431    0.486   70.348    0.287    5.959
  433.736    0.458   65.897    0.252    7.586
  434.041    0.429   62.242    0.251    8.324
  434.345    0.419   57.377    0.252    8.639
  434.650    0.377   51.709    0.254    9.656
  434.955    0.361   48.861    0.226   11.203
  435.260    0.348   49.640    0.125   11.844
  435.565    0.329   45.179    0.163   11.626
  435.870    0.304   38.299    0.205   10.995
  436.174    0.182   38.272    0.246   10.399
  436.479    0.212   54.364    0.245    9.132
  436.784    0.322   61.188    0.240    8.169
  437.089    0.356   64.377    0.243    7.584
  437.394    0.365   66.771    0.248    7.444
  437.698    0.369   65.941    0.275    7.444
  438.003    0.397   65.508    0.270    7.583
  438.308    0.439   67.094    0.268    7.443
  438.613    0.440   67.058    0.269    7.306
  438.918    0.444   66.231    0.271    6.910
  439.222    0.444   66.190    0.299    5.739
  439.527    0.440   65.764    0.289    4.185
  439.832    0.429   62.923    0.323    3.168
  440.137    0.423   57.253    0.322    3.168
  440.442    0.423   54.408    0.305    3.412
  440.746    0.460   50.750    0.262    3.885
  441.051    0.494   50.720    0.249    4.855
  441.356    0.453   53.921    0.249    5.529
  441.661    0.412   49.459    0.268    6.066
  441.966    0.394   47.009    0.273    5.954
  442.271    0.380   46.986    0.272    5.229
  442.575    0.387   51.796    0.274    4.677
  442.880    0.372   62.245    0.275    4.184
  443.185    0.367   61.811    0.285    3.743
  443.490    0.428   59.367    0.291    3.743
  443.795    0.474   57.325    0.267    4.031
  444.099    0.489   52.056    0.231    4.853
  444.404    0.441   48.401    0.219    6.294
  444.709    0.409   49.985    0.290    6.178
  445.014    0.363   56.812    0.306    5.037
  445.319    0.375   58.794    0.295    3.812
  445.623    0.442   61.188    0.295    3.410
  445.928    0.489   61.157    0.302    3.225
  446.233    0.488   57.103    0.299    3.225
  446.538    0.489   57.476    0.282    3.410
  446.843    0.515   63.093    0.271    3.812
  447.147    0.505   60.242    0.269    4.030
  447.452    0.465   55.380    0.299    4.182
  447.757    0.451   58.577    0.280    4.260
  448.062    0.440   63.786    0.246    4.340
  448.367    0.457   66.581    0.226    4.340
  448.672    0.498   60.106    0.258    4.340
  448.976    0.486   64.506    0.263    4.260
  449.281    0.442   68.109    0.303    4.029
  449.586    0.461   74.126    0.297    3.740
  449.891    0.501   77.724    0.291    3.740
  450.196    0.490   77.696    0.291    3.810
  450.500    0.460   72.831    0.307    4.104
  450.805    0.455   63.940    0.306    5.128
  451.110    0.466   57.060    0.282    5.949
  451.415    0.437   48.973    0.294    6.775
  451.720    0.414   49.346    0.289    7.434
  452.024    0.407   54.158    0.288    8.007
  452.329    0.401   54.934    0.316    8.465
  452.634    0.392   54.908    0.309    8.950
  452.939    0.375   54.478    0.276    9.463
  453.244    0.363   50.415    0.247   10.192
  453.548    0.362   49.988    0.260   10.383
  453.853    0.355   50.361    0.277   10.577
  454.158    0.324   45.906    0.276   10.577
  454.463    0.308   52.325    0.272   10.003
  454.768    0.317   59.950    0.272    9.287
  455.073    0.342   61.536    0.299    8.783
  455.377    0.392   65.941    0.279    8.463
  455.682    0.396   75.583    0.249    8.307
  455.987    0.349   81.599    0.244    8.307
  456.292    0.356   77.139    0.247    8.307
  456.597    0.383   72.278    0.251    8.462
  456.901    0.378   68.617    0.254    8.947
  457.206    0.367   67.358    0.308   11.557
  457.511    0.377   49.102    0.319   13.662
  457.816    0.377   45.860    0.314   17.404
  458.121    0.369   46.269    0.297   22.582
  458.425    0.363   46.273    0.287   22.982
  458.730    0.363   43.031    0.280   22.971
  459.035    0.315   38.571    0.286   22.520
  459.340    0.312   36.953    0.286   22.083
  459.645    0.316   38.985    0.272   21.654
  459.949    0.341   44.670    0.266   20.846
  460.254    0.325   53.195    0.248   18.970
  460.559    0.312   59.285    0.229   16.321
  460.864    0.319   69.433    0.239   13.528
  461.169    0.328   76.741    0.235   12.778
  461.474    0.334   75.933    0.217   13.254
  461.778    0.336   57.272    0.183   14.812
  462.083    0.296   49.566    0.161   17.185
  462.388    0.271   46.324    0.133   21.482
  462.693    0.228   40.241    0.256   22.282
  462.998    0.233   40.245    0.239   17.791
  463.302    0.288   55.263    0.251   12.938
  463.607    0.332   61.353    0.239   11.557
  463.912    0.321   63.791    0.289   11.541
  464.217    0.322   58.114    0.335   11.975
  464.522    0.338   48.785    0.344   14.969
  464.826    0.363   49.195    0.322   19.429
  465.131    0.360   43.113    0.350   26.175
  465.436    0.355   39.871    0.344   35.930
  465.741    0.391   41.498    0.343   66.500
  466.046    0.380   37.849    0.349   78.588
  466.350    0.337   32.172    0.351   80.017
  466.655    0.345   35.017    0.348   71.463
  466.960    0.363   30.152    0.333   52.945
  467.265    0.370   30.967    0.332   43.078
  467.570    0.361   39.086    0.326   33.129
  467.875    0.349   41.931    0.289   27.462
  468.179    0.341   45.586    0.271   21.121
  468.484    0.334   50.865    0.275   18.865
  468.789    0.323   50.869    0.260   16.845
  469.094    0.304   46.410    0.243   15.616
  469.399    0.286   48.848    0.225   14.212
  469.703    0.288   55.750    0.213   13.181
  470.008    0.283   67.927    0.215   11.340
  470.313    0.288   74.423    0.226   10.318
  470.618    0.306   71.587    0.236   10.117
  470.923    0.325   72.402    0.251    9.919
