~Version : LASO    vs 4.00
VERS.                2.00:   CWLS Log ASCII Standard -VERSION 2.0
WRAP.                  NO:
~Well Information Block
#MNEM.UNIT       Data                        Description of Mnemonic
#----.----      -------------------------- : -----------------------------
STRT.M            15.0000:
STOP.M           203.4000:
STEP.M             0.1000:
NULL.           -999.2500:
COMP.  MOBIL OIL CANADA LTD.     :COMPANY
WELL.  MOBIL CLARKE OV 12-34     :WELL
FLD.   CLARKE                    :FIELD
LOC.   12-34-089-08W4            :LOCATION
CTRY.  CANADA                    :COUNTRY
PROV.  ALBERTA                   :PROVINCE
SRVC.  SCHLUMBERGER              :SERVICE COMPANY
DATE.  20-FEB-81                 :LOG DATE
UWI.   AA/12-34-089-08W400       :UNIQUE WELL ID
~Parameter Information Block
#MNEM.UNIT       Data                        Description of Mnemonic
#----.----      -------------------------- : -----------------------------
RUN .                   1                 : Run Number
GL  .M           415.1000                 : Ground Level Elevation
DREF.                  KB                 : Depth Reference
EREF.M           418.1000                 : Elevation of Depth Reference
TDL .M           203.0000                 : Total Depth Logger
TDD .M           200.0000                 : Total Depth Driller
CSGL.M            18.0000                 : Casing Bottom Logger
CSGD.M            15.0000                 : Casing Bottom Driller
CSGS.MM          219.0000                 : Casing Size
CSGW.KG/M          0.0000                 : Casing Weight
BHT .DEGC         12.0000                 : Bottom Hole Temperature
BS  .MM          159.0000                 : Bit Size
DFD .           1110.0000                 : Mud Weight (Density)
DFV .             90.0000                 : Mud Viscosity
DFPH.             10.0000                 : Mud pH
RM  .OHMM          1.9600                 : Mud Resistivity
RMT .DEGC         20.0000                 : Mud Resistivity Temperature
~Curve Information Block
#MNEM.UNIT        API CODE    Curve Description
#---------    ------------    -------------------------------------------
DEPT.M                    :   DEPTH
CALI.MM       42 280  1  1:   3 DENSITY CALIPER
DPHI.V/V                  :   DPHI
DT  .US/M     60 520  0  1:   2 SONIC INTERVAL TRANSIT TIME (COMPENSATED)
GR  .GAPI     42 310  1  1:   4 GAMMA RAY
ILD .OHMM      7 120 46  1:   7 DEEP INDUCTION
ILM .OHMM      7 120 44  1:   8 MEDIUM INDUCTION
NPHI.V/V      42 890  3  1:   5 NEUTRON POROSITY (SANDSTONE)
RHOB.K/M3     42 350  1  1:   6 BULK DENSITY
SFLU.OHMM      7 220  1  1:   9 FOCUSSED RESISTIVITY
SP  .MV        7  10  1  1:   10 SPONTANEOUS POTENTIAL
~A  Depth           CALI        DPHI          DT          GR         ILD         ILM        NPHI        RHOB        SFLU          SP
# ...
161.4000        161.7000      0.3331    417.0800     40.8750     77.8090     87.3032      0.3964   2103.0000    146.3625   -102.8800
161.5000        161.7000      0.3374    414.2800     40.8000     77.8090     87.3032      0.3964   2103.0000    146.3625   -102.8800
161.6000        161.8500      0.3404    413.6800     40.7250     77.6658     88.7626      0.3860   2111.1001    151.0184   -101.0800
161.7000        161.8500      0.3388    413.2800     40.8450     77.6658     88.7626      0.3860   2111.1001    151.0184   -101.0800
161.8000        160.3500      0.3361    413.4800     40.9500     79.3286     92.6894      0.4006   2098.6001    156.8303    -98.5000
161.9000        160.3500      0.3338    413.6400     41.3250     79.3286     92.6894      0.4006   2098.6001    156.8303    -98.5000
162.0000        160.5250      0.3308    413.7600     41.8050     79.9889     95.0233      0.4153   2094.7000    160.3356    -99.3600
162.1000        160.5250      0.3283    411.6800     41.3400     79.9889     95.0233      0.4153   2094.7000    160.3356    -99.3600
162.2000        160.6250      0.3263    409.8000     40.7550     80.8779     98.5893      0.4258   2091.5000    172.9139   -101.6000
162.3000        160.6250      0.3267    408.7200     40.2450     80.8779     98.5893      0.4258   2091.5000    172.9139   -101.6000
162.4000        160.7750      0.3280    407.6800     41.1150     81.6263    100.7001      0.4298   2088.5000    175.9665   -103.2900
162.5000        160.7750      0.3290    407.9600     41.7750     81.6263    100.7001      0.4298   2088.5000    175.9665   -103.2900
162.6000        164.3750      0.3292    408.3200     41.9850     79.6948     96.5228      0.4228   2085.8000    178.9081   -103.9100
162.7000        164.3750      0.3302    408.8000     40.9650     79.6948     96.5228      0.4228   2085.8000    178.9081   -103.9100
162.8000        163.3500      0.3320    407.9200     39.5100     77.5229     93.1172      0.4203   2091.6001    198.8978   -104.4900
162.9000        163.3500      0.3338    406.8000     38.2050     77.5229     93.1172      0.4203   2091.6001    198.8978   -104.4900
163.0000        162.0500      0.3349    405.6800     37.5300     75.4797     88.9262      0.4193   2098.5000    203.1561   -104.4000
163.1000        162.0500      0.3364    404.6000     36.6600     75.4797     88.9262      0.4193   2098.5000    203.1561   -104.4000
163.2000        160.6000      0.3364    403.6000     37.0200     69.4752     78.9641      0.4177   2088.0000    206.7426   -103.9100
163.3000        160.6000      0.3355    404.6000     37.5450     69.4752     78.9641      0.4177   2088.0000    206.7426   -103.9100
163.4000        160.7000      0.3340    405.6000     38.3400     66.9622     74.0338      0.4153   2094.8000    195.9882   -101.9100
163.5000        160.7000      0.3329    406.6000     39.5400     66.9622     74.0338      0.4153   2094.8000    195.9882   -101.9100
163.6000        160.7500      0.3311    407.6000     40.7400     65.5586     74.9946      0.4124   2080.8000    184.4293   -100.9700
163.7000        160.7500      0.3302    407.6800     41.9400     65.5586     74.9946      0.4124   2080.8000    184.4293   -100.9700
163.8000        160.5250      0.3334    407.5200     42.8100     64.8978     80.3582      0.4051   2085.3999    176.1286    -99.6300
163.9000        160.5250      0.3359    405.7600     43.6050     64.8978     80.3582      0.4051   2085.3999    176.1286    -99.6300
164.0000        160.9000      0.3347    404.0000     44.0850     66.1652     82.9908      0.4003   2080.2000    137.9844    -94.6300
164.1000        160.9000      0.3331    402.8000     43.5000     66.1652     82.9908      0.4003   2080.2000    137.9844    -94.6300
164.2000        162.1750      0.3324    403.1200     42.7500     65.7400     84.0678      0.3973   2066.8000    142.5049    -92.3500
164.3000        162.1750      0.3348    406.1200     41.5050     65.7400     84.0678      0.3973   2066.8000    142.5049    -92.3500
164.4000        165.7750      0.3358    410.3200     41.9550     52.9944     84.5337      0.4103   2021.3000    164.5242    -89.9700
164.5000        165.7750      0.3348    414.5200     42.4050     52.9944     84.5337      0.4103   2021.3000    164.5242    -89.9700
164.6000        162.4000      0.3338    418.5200     43.9950     45.1471     75.8979      0.4199   2008.7000    210.9745    -85.6400
164.7000        162.4000      0.3344    422.4400     46.3500     45.1471     75.8979      0.4199   2008.7000    210.9745    -85.6400
164.8000        160.9250      0.3387    424.8000     48.7050     35.4674     58.1072      0.4283   2068.3999    186.1358    -83.8400
164.9000        160.9250      0.3427    422.1600     51.0600     35.4674     58.1072      0.4283   2068.3999    186.1358    -83.8400
165.0000        159.1250      0.3447    420.2400     53.6550     21.8489     27.9402      0.4084   2389.2000    184.2595    -81.6600
165.1000        159.1250      0.3419    423.3200     56.2800     21.8489     27.9402      0.4084   2389.2000    184.2595    -81.6600
165.2000        155.7500      0.3373    426.8400     59.0250     18.5281     18.7858      0.3888   2494.3000     88.0298    -71.6000
165.3000        155.7500      0.2901    428.3600     62.8800     18.5281     18.7858      0.3888   2494.3000     88.0298    -71.6000
165.4000        153.4500      0.2568    429.8000     70.4850     15.4678     14.3295      0.4054   2561.8000     44.8983    -67.1700
165.5000        153.4500      0.2372    431.1200     75.6750     15.4678     14.3295      0.4054   2561.8000     44.8983    -67.1700
165.6000        153.6000      0.1911    432.4400     76.4400     13.2504     11.6582      0.4318   2662.1001     24.5601    -62.6400
165.7000        153.6000      0.1659    434.3200     74.4150     13.2504     11.6582      0.4318   2662.1001     24.5601    -62.6400
165.8000        171.2750      0.1414    420.8000     72.0600     10.2951      9.1418      0.4313   2352.8000     12.2414    -47.7100
165.9000        171.2750      0.1193    396.5600     70.3500     10.2951      9.1418      0.4313   2352.8000     12.2414    -47.7100
166.0000        176.9750      0.0975    371.2000     69.1950      9.4674     10.1258      0.4106   2327.5000      6.9220    -36.2200
166.1000        176.9750      0.0826    346.8800     72.0000      9.4674     10.1258      0.4106   2327.5000      6.9220    -36.2200
166.2000        162.4750      0.0590    336.6400     74.6400      9.2604     10.5155      0.4115   2330.1001     10.9908    -35.5400
166.3000        162.4750      0.0385    334.1600     78.2700      9.2604     10.5155      0.4115   2330.1001     10.9908    -35.5400
166.4000        162.0000      0.0230    340.6800     81.9000      9.3289      9.1081      0.4357   2316.8999     19.3477    -36.0800
166.5000        162.0000      0.0097    382.2400     85.5300      9.3289      9.1081      0.4357   2316.8999     19.3477    -36.0800
166.6000        159.6250      0.0039    402.8000     88.8450      9.4936      9.3031      0.4265   2327.7000     13.9389    -37.7200
166.7000        159.6250      0.0057    427.4800     91.8000      9.4936      9.3031      0.4265   2327.7000     13.9389    -37.7200
166.8000        160.0000      0.0390    433.6800     92.7750      9.2946      9.3375      0.4129   2340.8999     10.6128    -37.4700
166.9000        160.0000      0.0985    428.8800     93.5250      9.2946      9.3375      0.4129   2340.8999     10.6128    -37.4700
167.0000        170.6500      0.1441    430.0800     94.8600      7.9768      8.1476      0.4252   2296.8000      7.3762    -35.4500
167.1000        170.6500      0.1686    430.2400     96.3600      7.9768      8.1476      0.4252   2296.8000      7.3762    -35.4500
167.2000        169.3250      0.1745    418.6800     98.9100      7.3558      7.7881      0.4454   2285.5000      8.0878    -34.2700
167.3000        169.3250      0.1793    418.2400    103.8450      7.3558      7.7881      0.4454   2285.5000      8.0878    -34.2700
167.4000        166.8500      0.1858    427.4000    108.6750      6.7956      7.2482      0.4987   2273.6001      9.2264    -34.6600
