~VERSION INFORMATION
 VERS.                 2.0:   CWLS LOG ASCII STANDARD -VERSION 2.0
 WRAP.                  NO:   ONE LINE PER DEPTH STEP
~WELL INFORMATION BLOCK
#MNEM.UNIT           DATA                    DESCRIPTION OF MNEMONIC
#---------    -------------------            -------------------------------
# Generated from Intellog Unique Number	CN_94_101/WELL/5042
WELL.         14-29-097-11W4                 : Well_name    - WELL
LOC .         AA/14-29-097-11W4/0            : Location     - LOCATION
UWI .         AA/14-29-097-11W400            : Uwi          - UNIQUE WELL ID
ENTR.         JOETTE                         : Entered      - ENTERED BY
SRVC.         SCHLUMBERGER                   : Scn          - SERVICE COMPANY
DATE.         08/13/92                       : Date         - LOG DATE
STRT.M        0                              : top_depth    - START DEPTH
STOP.M        75                             : bot_depth    - STOP DEPTH
STEP.M        0.25                           : increment    - STEP LENGTH
 NULL. -999.2500:NULL Value
~CURVE INFORMATION BLOCK
#MNEM UNIT       ERCB CURVE CODE    CURVE DESCRIPTION
#-----------   ------------------   ----------------------------------
DEPT.M        00 001 00 00         : DEPTH        - DEPTH
GR  .API      00 310 00 00         : GR           - GAMMA RAY
ILD .OHMM     00 120 00 00         : RESD         - DEEP RESISTIVITY (DIL)
NPHI.V/V      00 330 00 00         : PHIN         - NEUTRON POROSITY (SANDSTONE)
DPHI.V/V      00 890 00 00         : PHID         - DENSITY POROSITY (SANDSTONE)
~PARAMETER INFORMATION
#MNEM.UNIT           DATA             DESCRIPTION OF MNEMONIC
#---------         -----------     ------------------------------
GL  .M        304.86               : gl           - GROUND LEVEL ELEVATION
EREF.M        304.86               : kb           - ELEVATION OF DEPTH REFERENCE
DATM.M        304.86               : datum        - DATUM ELEVATION
TDD .M        79.2                 : tdd          - TOTAL DEPTH DRILLER
RUN .         ONE                  : Run          - RUN NUMBER
ENG .         BILL                 : Engineer     - RECORDING ENGINEER
WIT .         JIM                  : Witness      - WITNESSED BY
MUD .         GEL                  : Mud_type     - MUD TYPE
MATR.         SANDSTONE            : Logunit      - NEUTRON MATRIX
TMAX.C        15                   : BHT          - MAXIMUM RECORDED TEMPERATURE
BHTD.M        79.2                 : BHTDEP       - MAXIMUM RECORDED TEMPERATURE
RMT .C        15                   : MDTP         - TEMPERATURE OF MUD
MUDD.KG/M     1000                 : MWT          - MUD DENSITY
NEUT.         1                    : NEUTRON      - NEUTRON TYPE
RESI.         0                    : RESIST       - RESISTIVITY TYPE
RM  .OHMM     12                   : RM           - RESISTIVITY OF MUD
RMC .OHMM     12                   : RMC          - RESISTIVITY OF MUD CAKE
RMF .OHMM     12                   : RMF          - RESISTIVITY OF MUD FILTRATE
SUFT.C        4                    : SUFT         - SURFACE TEMPERATURE
~A  DEPTH       GR     RESD     PHIN     PHID
    0.000  125.856 1744.090    0.226    0.493
    0.250  125.278 1744.880    0.230    0.495
    0.500  124.116 1721.400    0.240    0.502
    0.750  122.346 1627.510    0.256    0.513
    1.000  124.756 1583.130    0.540    0.523
    1.250  128.359 1984.640    0.587    0.524
    1.500  119.438 1876.610    0.608    0.512
    1.750  115.891 1357.420    0.638    0.504
    2.000  112.927 1283.380    0.635    0.507
    2.250  113.554 1039.100    0.634    0.510
    2.500  108.802 1010.650    0.634    0.516
    2.750  105.851 2105.530    0.630    0.517
    3.000  105.882  536.177    0.620    0.516
    3.250   98.738  129.033    0.608    0.509
    3.500  110.093   50.163    0.624    0.504
    3.750  111.907   39.490    0.620    0.499
    4.000  105.372   35.288    0.575    0.501
    4.250   80.343   32.442    0.505    0.503
    4.500   44.586   32.457    0.445    0.497
    4.750   46.996   33.879    0.318    0.490
    5.000   48.810   34.856    0.268    0.480
    5.250   35.715   38.495    0.361    0.469
    5.500   29.776   40.748    0.288    0.429
    5.750   33.975   42.529    0.253    0.371
    6.000   34.000   43.152    0.360    0.374
    6.250   36.410   43.172    0.456    0.504
    6.500   31.663   44.427    0.437    0.474
    6.750   29.303   46.368    0.455    0.462
    7.000   30.520   48.394    0.460    0.499
    7.250   29.352   49.802    0.465    0.464
    7.500   29.377   51.255    0.470    0.447
    7.750   29.401   51.279    0.463    0.486
    8.000   30.022   50.589    0.467    0.507
    8.250   31.239   50.600    0.488    0.478
    8.500   29.475   50.623    0.477    0.466
    8.750   25.325   51.371    0.436    0.495
    9.000   28.332   51.388    0.414    0.508
    9.250   31.941   51.429    0.389    0.480
    9.500   30.182   51.440    0.393    0.450
    9.750   27.809   51.458    0.456    0.443
   10.000   26.051   51.481    0.448    0.441
   10.250   31.443   51.504    0.452    0.430
   10.500   33.257   50.806    0.464    0.428
   10.750   30.896   50.128    0.471    0.463
   11.000   27.342   49.437    0.453    0.450
   11.250   30.349   49.465    0.431    0.431
   11.500   32.759   49.487    0.457    0.462
   11.750   33.386   50.937    0.469    0.496
   12.000   34.603   50.949    0.440    0.473
   12.250   33.435   51.696    0.442    0.452
   12.500   31.068   52.466    0.449    0.483
   12.750   30.496   52.477    0.486    0.455
   13.000   29.925   49.632    0.492    0.438
   13.250   32.931   50.348    0.496    0.436
   13.500   37.727   49.665    0.487    0.444
   13.750   40.733   46.972    0.499    0.470
   14.000   43.143   46.325    0.505    0.455
   14.250   41.975   45.696    0.494    0.435
   14.500   39.024   45.087    0.505    0.425
   14.750   39.042   45.107    0.519    0.417
   15.000   42.061   45.122    0.516    0.433
   15.250   43.863   45.138    0.531    0.453
   15.500   48.664   43.902    0.528    0.466
   15.750   48.093   42.704    0.528    0.466
   16.000   49.310   41.535    0.538    0.472
   16.250   54.111   40.967    0.544    0.479
   16.500   48.763   40.995    0.528    0.486
   16.750   48.794   41.004    0.520    0.496
   17.000   51.197   39.323    0.548    0.462
   17.250   53.608   39.345    0.562    0.455
   17.500   64.963   39.922    0.543    0.440
   17.750   61.410   40.507    0.532    0.468
   18.000   49.513   40.525    0.524    0.470
   18.250   51.321   39.980    0.571    0.465
   18.500   49.562   39.989    0.584    0.468
   18.750   68.664   46.073    0.573    0.491
   19.000   80.622   45.454    0.615    0.467
   19.250   90.785   40.048    0.616    0.465
   19.500  103.936   35.786    0.563    0.466
   19.750   74.142   32.901    0.515    0.460
   20.000   78.335   35.325    0.489    0.448
   20.250   81.944   36.864    0.478    0.452
   20.500   74.806   33.413    0.472    0.460
   20.750   68.271   27.827    0.473    0.430
   21.000   73.663   27.065    0.446    0.318
   21.250   71.302   28.248    0.407    0.290
   21.500   63.574   29.073    0.397    0.266
   21.750   61.214   29.086    0.383    0.254
   22.000   55.275   27.893    0.410    0.268
   22.250   43.366   26.002    0.573    0.275
   22.500   61.884   23.238    0.584    0.269
   22.750   58.330   20.479    0.515    0.271
   23.000   52.391   19.639    0.516    0.305
   23.250   50.627   19.101    0.515    0.334
   23.500   48.272   17.311    0.501    0.392
   23.750   50.080   19.119    0.506    0.425
   24.000   52.496   20.525    0.519    0.416
   24.250   48.340   21.419    0.514    0.388
   24.500   47.768   20.256    0.544    0.378
   24.750   48.986   19.427    0.513    0.421
   25.000   47.221   19.162    0.473    0.422
   25.250   46.053   19.170    0.472    0.447
   25.500   46.674   19.453    0.508    0.470
   25.750   45.506   19.460    0.527    0.418
   26.000   52.090   19.469    0.536    0.396
   26.250   61.060   19.478    0.526    0.423
   26.500   59.296   19.486    0.499    0.400
   26.750   58.140   19.495    0.502    0.392
   27.000   57.556   19.779    0.492    0.368
   27.250   58.774   20.069    0.510    0.369
   27.500   63.575   20.655    0.504    0.371
   27.750   64.196   20.955    0.497    0.346
   28.000   82.708   21.871    0.509    0.341
   28.250   88.696   21.883    0.515    0.343
   28.500   86.932   22.520    0.525    0.354
   28.750   80.397   24.868    0.548    0.356
   29.000   86.981   25.594    0.528    0.369
   29.250   97.740   22.870    0.562    0.271
   29.500   95.976   19.592    0.569    0.219
   29.750   95.410   17.511    0.582    0.259
   30.000  101.392   16.558    0.564    0.304
   30.250  111.561   15.435    0.534    0.276
   30.500  109.803   14.189    0.540    0.311
   30.750  107.436   14.602    0.535    0.326
   31.000   97.316   15.456    0.522    0.313
   31.250  101.528   15.685    0.507    0.320
   31.500  102.143   15.255    0.502    0.329
   31.750  106.944   15.699    0.501    0.268
   32.000   90.861   17.830    0.461    0.258
   32.250   67.621   22.672    0.448    0.256
   32.500   54.532   29.239    0.476    0.286
   32.750   59.322   34.647    0.486    0.316
   33.000   64.123   45.322    0.482    0.341
   33.250   60.564   72.223    0.449    0.377
   33.500   52.239  113.491    0.446    0.377
   33.750   29.608  127.092    0.440    0.381
   34.000   26.651  173.437    0.445    0.379
   34.250   29.652  183.587    0.422    0.359
   34.500   35.640  191.631    0.412    0.362
   34.750   39.249  186.363    0.470    0.370
   35.000   39.864  176.218    0.472    0.378
   35.250   42.280  138.707    0.500    0.381
   35.500   46.473   57.865    0.511    0.373
   35.750   63.202   44.910    0.494    0.336
   36.000   81.713   39.023    0.500    0.324
   36.250   85.316   38.494    0.511    0.329
   36.500   88.329   37.967    0.515    0.341
   36.750   88.353   33.931    0.496    0.339
   37.000   71.674   30.758    0.484    0.333
   37.250   76.469   30.341    0.496    0.365
   37.500   81.867   28.287    0.487    0.358
   37.750   84.868   26.747    0.464    0.330
   38.000   87.278   26.759    0.463    0.314
   38.250   78.357   28.322    0.482    0.309
   38.500   74.810   31.276    0.489    0.309
   38.750   75.424   35.028    0.500    0.286
   39.000   75.449   50.575    0.486    0.302
   39.250   62.950   56.649    0.504    0.331
   39.500   68.348   52.821    0.497    0.369
   39.750   69.559   49.240    0.488    0.379
   40.000   70.777   46.555    0.488    0.380
   40.250   86.313   42.196    0.491    0.372
   40.500   90.512   37.182    0.493    0.341
   40.750   83.386   32.305    0.466    0.318
   41.000   79.230   27.287    0.471    0.312
   41.250   83.430   24.388    0.508    0.294
   41.500   76.298   24.399    0.534    0.320
   41.750   69.763   25.824    0.533    0.346
   42.000   71.582   29.333    0.538    0.370
   42.250   75.782   32.856    0.541    0.376
   42.500   76.999   32.871    0.530    0.394
   42.750   71.054   32.886    0.582    0.386
   43.000   59.742   35.305    0.585    0.358
   43.250   56.194   37.367    0.585    0.357
