~VERSION INFORMATION
 VERS.                 2.0:   CWLS LOG ASCII STANDARD -VERSION 2.0
 WRAP.                  NO:   ONE LINE PER DEPTH STEP
~WELL INFORMATION BLOCK
#MNEM.UNIT           DATA                    DESCRIPTION OF MNEMONIC
#---------    -------------------            -------------------------------
# Generated from Intellog Unique Number	CN_94_101/WELL/1076
WELL.         11-33-094-06W4                 : Well_name    - WELL
LOC .         AA/11-33-094-06W4/0            : Location     - LOCATION
UWI .         AA/11-33-094-06W400            : Uwi          - UNIQUE WELL ID
ENTR.         JOETTE                         : Entered      - ENTERED BY
SRVC.         SCHLUMBERGER                   : Scn          - SERVICE COMPANY
DATE.         04/14/92                       : Date         - LOG DATE
STRT.M        100                            : top_depth    - START DEPTH
STOP.M        330                            : bot_depth    - STOP DEPTH
STEP.M        0.25                           : increment    - STEP LENGTH
 NULL. -999.2500:NULL Value
~CURVE INFORMATION BLOCK
#MNEM UNIT       ERCB CURVE CODE    CURVE DESCRIPTION
#-----------   ------------------   ----------------------------------
DEPT.M        00 001 00 00         : DEPTH        - DEPTH
ILD .OHMM     00 120 00 00         : RESD         - DEEP RESISTIVITY (DIL)
DPHI.V/V      00 890 00 00         : PHID         - DENSITY POROSITY (SANDSTONE)
NPHI.V/V      00 330 00 00         : PHIN         - NEUTRON POROSITY (SANDSTONE)
GR  .API      00 310 00 00         : GR           - GAMMA RAY
CALI.MM       00 280 01 00         : CAL          - CALIPER
~PARAMETER INFORMATION
#MNEM.UNIT           DATA             DESCRIPTION OF MNEMONIC
#---------         -----------     ------------------------------
GL  .M        597.57               : gl           - GROUND LEVEL ELEVATION
EREF.M        600.27               : kb           - ELEVATION OF DEPTH REFERENCE
DATM.M        600.27               : datum        - DATUM ELEVATION
TDD .M        335                  : tdd          - TOTAL DEPTH DRILLER
RUN .         ONE                  : Run          - RUN NUMBER
ENG .         BILL                 : Engineer     - RECORDING ENGINEER
WIT .         JIM                  : Witness      - WITNESSED BY
MUD .         GEL                  : Mud_type     - MUD TYPE
MATR.         SANDSTONE            : Logunit      - NEUTRON MATRIX
TMAX.C        16                   : BHT          - MAXIMUM RECORDED TEMPERATURE
BHTD.M        335                  : BHTDEP       - MAXIMUM RECORDED TEMPERATURE
RMT .C        19                   : MDTP         - TEMPERATURE OF MUD
MUDD.KG/M     1030                 : MWT          - MUD DENSITY
NEUT.         1                    : NEUTRON      - NEUTRON TYPE
RESI.         0                    : RESIST       - RESISTIVITY TYPE
RM  .OHMM     8.1                  : RM           - RESISTIVITY OF MUD
RMC .OHMM     8.1                  : RMC          - RESISTIVITY OF MUD CAKE
RMF .OHMM     8.1                  : RMF          - RESISTIVITY OF MUD FILTRATE
SUFT.C        4                    : SUFT         - SURFACE TEMPERATURE
~A  DEPTH     RESD     PHID     PHIN       GR      CAL
  100.000   20.099    0.211    0.413   62.712  205.651
  100.250   21.311    0.307    0.430   62.149  203.716
  100.500   22.603    0.327    0.449   65.176  199.791
  100.750   20.562    0.276    0.454   66.992  196.861
  101.000   19.078    0.242    0.441   67.026  195.921
  101.250   20.228    0.221    0.409   64.074  195.977
  101.500   21.861    0.214    0.382   61.121  196.047
  101.750   21.480    0.210    0.375   58.767  196.088
  102.000   21.087    0.202    0.369   57.008  196.144
  102.250   21.942    0.202    0.363   57.639  195.191
  102.500   23.264    0.262    0.392   59.464  195.246
  102.750   22.426    0.283    0.415   61.313  195.302
  103.000   21.209    0.285    0.401   61.927  194.376
  103.250   20.820    0.249    0.392   61.961  194.432
  103.500   20.464    0.294    0.424   61.994  194.474
  103.750   20.088    0.325    0.432   63.222  194.529
  104.000   20.125    0.349    0.421   65.652  194.599
  104.250   20.532    0.368    0.416   65.685  193.673
  104.500   20.551    0.339    0.411   63.927  193.715
  104.750   20.582    0.302    0.408   64.549  193.770
  105.000   21.005    0.280    0.408   66.391  193.826
  105.250   21.024    0.273    0.399   65.222  193.882
  105.500   21.056    0.256    0.385   61.075  193.937
  105.750   20.689    0.224    0.374   62.892  194.007
  106.000   20.708    0.216    0.392   66.507  193.067
  106.250   20.727    0.220    0.406   67.743  193.109
  106.500   21.165    0.216    0.417   65.994  193.193
  106.750   21.198    0.207    0.410   66.027  193.220
  107.000   21.626    0.197    0.384   64.858  193.290
  107.250   21.653    0.232    0.376   61.309  193.332
  107.500   21.679    0.270    0.406   57.163  193.387
  107.750   21.712    0.290    0.425   59.584  194.452
  108.000   21.725    0.310    0.406   62.006  194.508
  108.250   21.752    0.304    0.400   65.033  194.563
  108.500   21.778    0.269    0.408   67.455  194.619
  108.750   22.225    0.229    0.423   68.683  194.688
  109.000   23.126    0.225    0.432   71.710  194.758
  109.250   24.056    0.248    0.434   72.921  193.791
  109.500   24.078    0.235    0.412   74.148  193.860
  109.750   23.659    0.206    0.376   71.196  192.934
  110.000   23.246    0.175    0.373   68.841  192.962
  110.250   22.827    0.170    0.388   66.486  193.032
  110.500   22.848    0.199    0.399   63.542  193.074
  110.750   22.883    0.211    0.399   61.785  193.157
  111.000   22.918    0.210    0.384   63.004  193.199
  111.250   22.945    0.210    0.363   64.853  193.240
  111.500   22.966    0.222    0.369   65.476  193.310
  111.750   23.445    0.249    0.383   66.106  193.352
  112.000   23.919    0.270    0.398   67.334  194.416
  112.250   24.418    0.299    0.416   69.158  194.472
  112.500   24.919    0.260    0.379   66.795  194.528
  112.750   24.942    0.254    0.364   63.246  195.565
  113.000   24.972    0.240    0.355   64.473  195.620
  113.250   25.003    0.201    0.334   65.104  196.699
  113.500   25.033    0.196    0.329   62.749  196.754
  113.750   25.064    0.208    0.344   64.582  196.810
  114.000   25.094    0.213    0.362   66.995  197.861
  114.250   26.615    0.204    0.377   64.640  197.903
  114.500   25.648    0.194    0.346   62.882  197.958
  114.750   24.709    0.197    0.348   64.707  198.014
  115.000   23.361    0.196    0.360   62.352  198.070
  115.250   20.875    0.190    0.373   59.997  198.153
  115.500   20.105    0.176    0.384   60.030  198.181
  115.750   19.369    0.193    0.395   63.057  198.264
  116.000   19.404    0.215    0.390   63.688  198.306
  116.250   20.574    0.245    0.406   64.916  197.366
  116.500   22.235    0.232    0.406   63.174  197.408
  116.750   24.966    0.230    0.378   62.005  197.478
  117.000   29.125    0.231    0.368   64.419  196.552
  117.250   30.872    0.211    0.340   68.035  194.603
  117.500   30.909    0.191    0.282   72.248  190.678
  117.750   30.947    0.178    0.294   71.087  186.753
  118.000   36.102    0.185    0.298   66.941  185.814
  118.250   37.565    0.173    0.270   61.608  183.865
  118.500   37.623    0.161    0.265   60.447  181.958
  118.750   36.267    0.137    0.241   59.884  183.009
  119.000   34.929    0.174    0.264   58.723  183.065
  119.250   30.593    0.241    0.316   55.763  186.092
  119.500   28.394    0.281    0.376   52.819  194.137
  119.750   28.959    0.293    0.382   54.643  195.160
  120.000   29.563    0.292    0.305   57.082  195.215
  120.250   29.030    0.245    0.303   57.696  195.285
  120.500   27.976    0.268    0.333   59.520  195.354
  120.750   28.010    0.277    0.348   60.756  195.382
  121.000   30.280    0.269    0.328   60.790  193.461
  121.250   30.317    0.236    0.300   60.831  190.518
  121.500   28.654    0.190    0.315   60.856  193.573
  121.750   25.597    0.231    0.328   60.284  196.614
  122.000   25.613    0.222    0.336   59.123  196.683
  122.250   28.215    0.197    0.308   56.180  191.749
  122.500   38.374    0.172    0.301   53.816  192.800
  122.750   39.174    0.162    0.294   55.649  185.903
  123.000   33.005    0.160    0.297   57.466  183.955
  123.250   29.466    0.162    0.301   59.904  182.034
  123.500   27.323    0.172    0.309   61.115  184.066
  123.750   25.840    0.181    0.314   60.551  187.107
  124.000   26.371    0.169    0.309   58.196  191.144
  124.250   27.960    0.176    0.305   56.438  194.185
  124.500   29.103    0.197    0.310   55.278  196.231
  124.750   28.569    0.213    0.314   55.916  196.300
  125.000   27.011    0.209    0.315   57.741  196.370
  125.250   25.545    0.131    0.307   63.148  196.411
  125.500   25.092    0.148    0.319   63.182  196.467
  125.750   26.605    0.168    0.330   62.021  195.528
  126.000   26.637    0.154    0.317   61.457  191.589
  126.250   24.707    0.168    0.310   61.491  188.673
  126.500   22.917    0.235    0.331   62.718  190.705
  126.750   22.078    0.267    0.336   64.551  195.764
  127.000   20.880    0.259    0.354   60.397  195.806
  127.250   23.437    0.282    0.383   59.833  195.861
  127.500   39.320    0.295    0.391   63.449  193.927
  127.750   42.508    0.296    0.370   50.346  182.040
  128.000   39.428    0.301    0.348   45.005  169.159
  128.250   35.879    0.289    0.327   49.824  169.228
  128.500   35.923    0.289    0.329   51.640  170.279
  128.750   37.368    0.305    0.345   49.285  173.320
  129.000   37.402    0.327    0.338   48.133  172.381
  129.250   37.459    0.325    0.336   51.740  171.427
  129.500   35.426    0.327    0.342   57.164  171.483
  129.750   34.119    0.313    0.331   61.369  172.548
  130.000   32.879    0.327    0.342   64.985  176.570
  130.250   33.565    0.355    0.378   60.839  179.625
  130.500   35.588    0.322    0.400   56.095  174.691
  130.750   37.020    0.291    0.357   55.548  171.761
  131.000   35.675    0.271    0.320   57.953  171.817
  131.250   34.369    0.264    0.320   62.764  171.872
  131.500   31.285    0.223    0.339   62.805  176.904
  131.750   30.721    0.179    0.364   58.651  189.910
  132.000   30.176    0.261    0.360   51.519  195.951
  132.250   29.659    0.285    0.347   50.955  197.983
  132.500   28.591    0.236    0.329   51.594  200.029
  132.750   28.067    0.248    0.324   52.216  200.085
  133.000   27.569    0.305    0.355   53.444  200.140
  133.250   29.231    0.319    0.375   53.477  197.224
  133.500   32.832    0.310    0.371   53.510  196.285
  133.750   36.853    0.313    0.352   51.752  193.341
  134.000   43.822    0.299    0.341   48.800  190.425
  134.250   53.113    0.200    0.352   42.863  190.481
  134.500   65.635    0.245    0.347   38.716  189.541
  134.750   69.613    0.324    0.353   36.361  186.597
  135.000   71.021    0.339    0.388   34.015  185.658
  135.250   71.107    0.327    0.400   32.854  184.718
  135.500   71.194    0.323    0.381   31.701  184.788
  135.750   67.310    0.322    0.356   31.718  182.853
  136.000   62.452    0.323    0.335   34.745  180.932
  136.250   59.027    0.320    0.354   38.967  179.993
