~VERSION INFORMATION
 VERS.                 2.0:   CWLS LOG ASCII STANDARD -VERSION 2.0
 WRAP.                  NO:   ONE LINE PER DEPTH STEP
~WELL INFORMATION BLOCK
#MNEM.UNIT           DATA                    DESCRIPTION OF MNEMONIC
#---------    -------------------            -------------------------------
# Generated from Intellog Unique Number	CN_94_101/WELL/1069
WELL.         SUNCOR INC.                    : Well_name    - WELL
LOC .         AA/10-20-094-06W4/0            : Location     - LOCATION
UWI .         AA/10-20-094-06W400            : Uwi          - UNIQUE WELL ID
ENTR.         JOETTE                         : Entered      - ENTERED BY
SRVC.         SCHLUMBERGER                   : Scn          - SERVICE COMPANY
DATE.         04/10/92                       : Date         - LOG DATE
STRT.M        50                             : top_depth    - START DEPTH
STOP.M        300                            : bot_depth    - STOP DEPTH
STEP.M        0.25                           : increment    - STEP LENGTH
 NULL. -999.2500:NULL Value
~CURVE INFORMATION BLOCK
#MNEM UNIT       ERCB CURVE CODE    CURVE DESCRIPTION
#-----------   ------------------   ----------------------------------
DEPT.M        00 001 00 00         : DEPTH        - DEPTH
ILD .OHMM     00 120 00 00         : RESD         - DEEP RESISTIVITY (DIL)
DPHI.V/V      00 890 00 00         : PHID         - DENSITY POROSITY (SANDSTONE)
NPHI.V/V      00 330 00 00         : PHIN         - NEUTRON POROSITY (SANDSTONE)
GR  .API      00 310 00 00         : GR           - GAMMA RAY
CALI.MM       00 280 01 00         : CAL          - CALIPER
~PARAMETER INFORMATION
#MNEM.UNIT           DATA             DESCRIPTION OF MNEMONIC
#---------         -----------     ------------------------------
GL  .M        578.2                : gl           - GROUND LEVEL ELEVATION
EREF.M        581.4                : kb           - ELEVATION OF DEPTH REFERENCE
DATM.M        581.4                : datum        - DATUM ELEVATION
TDD .M        304                  : tdd          - TOTAL DEPTH DRILLER
RUN .         ONE                  : Run          - RUN NUMBER
ENG .         BILL                 : Engineer     - RECORDING ENGINEER
WIT .         JIM                  : Witness      - WITNESSED BY
MUD .         GEL                  : Mud_type     - MUD TYPE
MATR.         SANDSTONE            : Logunit      - NEUTRON MATRIX
TMAX.C        15                   : BHT          - MAXIMUM RECORDED TEMPERATURE
BHTD.M        304                  : BHTDEP       - MAXIMUM RECORDED TEMPERATURE
RMT .C        10                   : MDTP         - TEMPERATURE OF MUD
MUDD.KG/M     1050                 : MWT          - MUD DENSITY
NEUT.         1                    : NEUTRON      - NEUTRON TYPE
RESI.         0                    : RESIST       - RESISTIVITY TYPE
RM  .OHMM     13.1                 : RM           - RESISTIVITY OF MUD
RMC .OHMM     13.1                 : RMC          - RESISTIVITY OF MUD CAKE
RMF .OHMM     13.1                 : RMF          - RESISTIVITY OF MUD FILTRATE
SUFT.C        4                    : SUFT         - SURFACE TEMPERATURE
~A  DEPTH     RESD     PHID     PHIN       GR      CAL
# ...
  123.000  136.921    0.157    0.233   70.736  170.811
  123.250  131.942    0.191    0.240   70.133  174.945
  123.500  122.461    0.168    0.251   72.613  178.053
  123.750  101.507    0.163    0.261   70.771  178.072
  124.000   92.427    0.177    0.282   63.370  170.883
  124.250   79.542    0.196    0.306   62.146  164.728
  124.500   69.759    0.219    0.318   57.217  162.682
  124.750   58.911    0.222    0.330   51.047  162.711
  125.000   49.762    0.234    0.338   54.766  166.840
  125.250   47.067    0.228    0.342   64.046  175.097
  125.500   48.012    0.203    0.342   70.236  177.176
  125.750   51.831    0.204    0.333   70.865  173.090
  126.000   54.920    0.215    0.326   65.933  172.070
  126.250   56.009    0.230    0.310   64.709  171.059
  126.500   55.015    0.236    0.293   67.192  171.078
  126.750   50.106    0.205    0.296   72.150  171.107
  127.000   45.635    0.175    0.301   73.397  172.151
  127.250   40.786    0.174    0.295   73.408  172.170
  127.500   36.451    0.208    0.293   74.035  174.249
  127.750   33.824    0.230    0.314   77.757  192.800
  128.000   29.123    0.246    0.338   77.768  193.854
  128.250   27.539    0.244    0.349   77.159  203.136
  128.500   25.566    0.208    0.361   75.316  218.603
  128.750   24.636    0.177    0.370   77.187  234.074
  129.000   24.655    0.163    0.371   79.050  219.671
  129.250   24.217    0.162    0.365   79.061  213.511
  129.500   24.247    0.181    0.338   78.455  216.619
  129.750   24.271    0.176    0.333   79.084  219.733
  130.000   24.295    0.186    0.325   82.803  214.608
  130.250   24.313    0.183    0.317   84.050  210.503
  130.500   24.337    0.188    0.320   84.061  205.372
  130.750   24.361    0.204    0.324   86.544  201.272
  131.000   24.385    0.217    0.329   88.412  199.236
  131.250   24.415    0.207    0.336   88.424  203.375
  131.500   24.439    0.206    0.348   85.343  205.454
  131.750   24.011    0.204    0.345   81.653  203.413
  132.000   24.023    0.204    0.341   81.041  198.278
  132.250   23.602    0.197    0.349   79.201  198.297
  132.500   23.183    0.200    0.352   82.302  204.500
  132.750   23.201    0.205    0.355   82.931  209.663
  133.000   23.224    0.192    0.329   85.415  211.747
  133.250   24.147    0.201    0.320   87.280  204.553
  133.500   24.626    0.212    0.315   86.052  197.363
  133.750   27.105    0.165    0.320   82.359  198.412
  134.000   27.642    0.169    0.314   78.666  196.371
  134.250   29.297    0.175    0.289   79.293  189.181
  134.500   29.319    0.182    0.289   84.865  179.932
  134.750   29.341    0.205    0.326   93.527  178.926
  135.000   28.295    0.202    0.352   96.628  182.030
  135.250   27.786    0.206    0.360   96.640  185.139
  135.500   27.806    0.208    0.365   97.890  185.167
  135.750   28.378    0.176    0.365   96.048  181.072
  136.000   29.486    0.167    0.334   92.349  177.992
  136.250   31.831    0.159    0.300   85.566  172.866
  136.500   35.018    0.145    0.288   81.867  170.821
  136.750   37.097    0.144    0.271   78.171  165.705
  137.000   40.067    0.147    0.273   74.476  164.690
  137.250   40.862    0.151    0.275   73.869  163.674
  137.500   40.892    0.150    0.270   75.734  163.689
  137.750   40.176    0.141    0.269   78.217  164.742
  138.000   39.453    0.140    0.285   79.465  166.821
  138.250   38.772    0.150    0.297   78.858  168.905
  138.500   38.801    0.178    0.302   77.634  168.914
  138.750   41.124    0.187    0.301   76.409  167.913
  139.000   41.929    0.198    0.295   75.185  167.922
  139.250   43.597    0.200    0.271   70.871  164.862
  139.500   42.022    0.186    0.265   65.325  163.846
  139.750   38.282    0.164    0.271   65.954  163.865
  140.000   36.199    0.167    0.280   70.909  163.879
  140.250   34.883    0.157    0.292   75.248  163.899
  140.500   32.384    0.164    0.307   76.495  163.922
  140.750   31.802    0.169    0.320   78.978  164.976
  141.000   31.849    0.153    0.328   83.312  166.015
  141.250   33.100    0.159    0.327   88.885  168.104
  141.500   35.055    0.173    0.332   85.807  169.153
  141.750   38.566    0.172    0.337   81.493  171.231
  142.000   40.854    0.161    0.333   79.033  173.310
  142.250   43.279    0.168    0.298   76.573  174.354
  142.500   45.870    0.178    0.282   72.262  175.403
  142.750   46.768    0.189    0.280   69.799  174.392
  143.000   46.825    0.188    0.286   65.485  172.352
  143.250   46.860    0.188    0.286   63.025  172.371
  143.500   46.918    0.188    0.286   61.800  170.335
  143.750   46.964    0.188    0.286   62.430  167.265
  144.000   46.130    0.186    0.285   64.913  163.169
  144.250   44.464    0.188    0.280   67.396  162.149
  144.500   43.675    0.184    0.276   68.643  160.118
  144.750   41.320    0.173    0.276   70.514  160.132
  145.000   39.827    0.178    0.276   72.994  161.181
  145.250   38.379    0.180    0.278   73.623  162.225
  145.500   36.309    0.169    0.286   76.106  164.304
  145.750   34.989    0.174    0.294   81.061  165.358
  146.000   33.094    0.169    0.298   85.398  166.407
  146.250   30.148    0.134    0.292   89.734  169.520
  146.500   28.515    0.147    0.297   92.835  171.594
  146.750   26.460    0.165    0.315   87.904  172.648
  147.000   24.564    0.185    0.349   87.300  174.722
  147.250   23.228    0.194    0.377   93.488  177.835
  147.500   20.000    0.207    0.403   97.824  179.914
  147.750   20.401    0.228    0.386   97.221  179.928
  148.000   21.203    0.211    0.372   94.140  182.007
  148.250   22.889    0.211    0.380   86.119  184.085
  148.500   25.661    0.227    0.402   83.041  184.104
  148.750   28.231    0.263    0.414   76.255  175.885
  149.000   31.650    0.275    0.380   67.616  165.606
  149.250   34.159    0.304    0.347   60.213  158.421
  149.500   37.580    0.293    0.334   54.663  156.375
  149.750   39.084    0.241    0.326   52.206  155.365
  150.000   39.104    0.219    0.329   57.158  156.423
  150.250   37.700    0.214    0.331   66.440  157.463
  150.500   33.694    0.222    0.332   72.631  159.546
  150.750   30.680    0.219    0.331   77.585  160.590
  151.000   29.579    0.195    0.326   81.922  162.669
  151.250   31.940    0.173    0.324   85.641  166.807
  151.500   35.129    0.163    0.319   86.888  169.925
  151.750   40.920    0.137    0.319   84.428  166.850
  152.000   42.517    0.162    0.325   78.261  160.695
  152.250   41.762    0.238    0.347   71.475  159.680
  152.500   38.036    0.275    0.409   65.926  159.703
  152.750   33.994    0.304    0.429   65.940  159.723
  153.000   29.269    0.300    0.443   65.333  158.712
  153.250   28.736    0.309    0.444   64.109  158.731
  153.500   29.320    0.301    0.435   66.589  157.715
  153.750   33.489    0.307    0.419   69.690  157.749
  154.000   38.261    0.331    0.405   68.466  157.758
  154.250   39.039    0.336    0.399   64.770  157.773
  154.500   37.619    0.305    0.402   65.399  157.796
  154.750   34.279    0.301    0.409   67.885  157.816
  155.000   32.415    0.305    0.434   68.514  157.830
  155.250   30.659    0.312    0.440   68.526  157.849
  155.500   30.115    0.317    0.445   67.305  157.868
  155.750   29.581    0.311    0.451   66.695  157.887
  156.000   30.182    0.306    0.450   66.089  157.911
  156.250   31.367    0.311    0.440   65.488  157.925
  156.500   35.175    0.324    0.424   65.497  156.924
  156.750   36.556    0.337    0.427   64.887  156.938
  157.000   37.281    0.331    0.430   64.899  156.962
  157.250   38.038    0.285    0.430   65.531  156.981
  157.500   38.076    0.255    0.417   64.924  157.000
  157.750   38.104    0.205    0.399   62.464  157.015
  158.000   38.160    0.162    0.362   58.768  158.068
  158.250   38.198    0.267    0.326   61.249  158.083
  158.500   37.520    0.298    0.373   64.967  158.102
  158.750   36.165    0.308    0.409   67.453  158.126
  159.000   34.850    0.311    0.451   66.229  158.145
  159.250   31.748    0.327    0.465   65.623  158.159
