~VERSION INFORMATION
 VERS.                 2.0:   CWLS LOG ASCII STANDARD -VERSION 2.0
 WRAP.                  NO:   ONE LINE PER DEPTH STEP
~WELL INFORMATION BLOCK
#MNEM.UNIT           DATA                    DESCRIPTION OF MNEMONIC
#---------    -------------------            -------------------------------
# Generated from Intellog Unique Number	CX_WELLS/WELL/2301
WELL.         10-35-089-09W4                 : Well_name    - WELL
LOC .         AA/10-35-089-09W4/0            : Location     - LOCATION
UWI .         AA/10-35-089-09W400            : Uwi          - UNIQUE WELL ID
ENTR.         JHS                            : Entered      - ENTERED BY
SRVC.         SCHLUMBERGER                   : Scn          - SERVICE COMPANY
STRT.F        50                             : top_depth    - START DEPTH
STOP.F        489.633                        : bot_depth    - STOP DEPTH
STEP.F        0.8202                         : increment    - STEP LENGTH
 NULL. -999.2500:NULL Value
~CURVE INFORMATION BLOCK
#MNEM UNIT       ERCB CURVE CODE    CURVE DESCRIPTION
#-----------   ------------------   ----------------------------------
DEPT.F        00 001 00 00         : DEPTH        - DEPTH
GR  .API      00 310 00 00         : GR           - GAMMA RAY
DPHI.V/V      00 890 00 00         : PHID         - DENSITY POROSITY (SANDSTONE)
ILD .OHMM     00 120 00 00         : RESD         - DEEP RESISTIVITY (DIL)
~PARAMETER INFORMATION
#MNEM.UNIT           DATA             DESCRIPTION OF MNEMONIC
#---------         -----------     ------------------------------
GL  .M        362.773              : gl           - GROUND LEVEL ELEVATION
EREF.M        363.992              : kb           - ELEVATION OF DEPTH REFERENCE
DATM.M        363.992              : datum        - DATUM ELEVATION
TDD .M        149.657              : tdd          - TOTAL DEPTH DRILLER
RUN .         ONE                  : Run          - RUN NUMBER
ENG .         BILL                 : Engineer     - RECORDING ENGINEER
WIT .         JIM                  : Witness      - WITNESSED BY
MUD .         GEL                  : Mud_type     - MUD TYPE
MATR.         SANDSTONE            : Logunit      - NEUTRON MATRIX
TMAX.F        140                  : BHT          - MAXIMUM RECORDED TEMPERATURE
BHTD.F        491.001              : BHTDEP       - MAXIMUM RECORDED TEMPERATURE
MATR.         1                    : LOGUNIT      - NEUTRON MATRIX
RMT .F        77                   : MDTP         - TEMPERATURE OF MUD
NEUT.         1                    : NEUTRON      - NEUTRON TYPE
RESI.         0                    : RESIST       - RESISTIVITY TYPE
RMC .OHMM     0.25                 : RMC          - RESISTIVITY OF MUD CAKE
RMF .OHMM     0.25                 : RMF          - RESISTIVITY OF MUD FILTRATE
SUFT.F        59                   : SUFT         - SURFACE TEMPERATURE
~A  DEPTH       GR     PHID     RESD
   50.000   58.621    0.208   86.903
   50.820   58.244    0.201   88.613
   51.640   61.431    0.189   88.781
   52.461   63.436    0.183   90.585
   53.281   63.054    0.180   94.065
   54.101   61.886    0.185  101.335
   54.921   60.321    0.190  105.228
   55.742   59.950    0.201  109.305
   56.562   59.969    0.213  109.512
   57.382   59.196    0.210  109.686
   58.202   58.424    0.208  105.896
   59.022   58.839    0.209  104.116
   59.843   58.472    0.213  104.314
   60.663   58.487    0.211  104.479
   61.483   59.694    0.208  104.677
   62.303   59.323    0.214  104.777
   63.123   57.357    0.221  103.113
   63.944   53.422    0.220  101.412
   64.764   55.817    0.215   99.740
   65.584   60.192    0.208   99.866
   66.404   60.608    0.208   98.218
   67.224   59.439    0.206   98.374
   68.045   58.281    0.192  102.153
   68.865   58.290    0.206  110.048
   69.685   58.720    0.213  118.553
   70.505   58.730    0.211  127.716
   71.326   57.566    0.182  135.103
   72.146   56.403    0.188  140.382
   72.966   56.016    0.195  145.775
   73.786   55.249    0.205  154.207
   74.606   54.872    0.211  157.290
   75.427   54.100    0.212  172.616
   76.247   53.337    0.210  185.957
   77.067   52.950    0.212  196.651
   77.887   52.574    0.209  196.962
   78.707   53.390    0.198  193.713
   79.528   55.785    0.204  194.020
   80.348   58.577    0.234  194.388
   81.168   67.704    0.258  201.920
   81.988   78.024    0.273  217.594
   82.808   82.003    0.285  234.337
   83.629   84.799    0.300  247.813
   84.449   85.611    0.308  235.154
   85.269   74.939    0.312  222.930
   86.089   74.562    0.307  203.910
   86.909   78.145    0.303  196.801
   87.730   81.338    0.302  180.067
   88.550   80.169    0.314  176.929
   89.370   74.640    0.328  164.808
   90.190   70.308    0.334  159.164
   91.010   70.333    0.327  156.488
   91.831   70.352    0.312  168.636
   92.651   71.163    0.292  181.612
   93.471   71.970    0.277  206.703
   94.291   72.786    0.252  235.111
   95.112   72.811    0.212  257.938
   95.932   73.221    0.184  272.857
   96.752   75.221    0.161  321.975
   97.572   79.601    0.188  481.604
   98.392   82.397    0.197  681.848
   99.213   84.396    0.224  670.812
  100.033   85.995    0.265  613.384
  100.853   88.395    0.283  540.807
  101.673   90.795    0.295  485.275
  102.493   91.206    0.301  420.133
  103.314   85.285    0.308  357.169
  104.134   86.097    0.311  292.778
  104.954   87.700    0.316  235.739
  105.774   87.729    0.323  163.916
  106.594   87.353    0.331   67.225
  107.415   88.951    0.333   27.570
  108.235   92.139    0.323   22.614
  109.055   93.346    0.313   22.234
  109.875   90.598    0.307   22.269
  110.696   87.846    0.304   22.721
  111.516   85.489    0.293   22.743
  112.336   82.341    0.285   22.786
  113.156   84.736    0.274   22.410
  113.976   84.756    0.271   22.034
  114.797   83.592    0.267   21.677
  115.617   83.225    0.259   20.570
  116.437   84.027    0.256   20.211
  117.257   85.635    0.256   20.250
  118.077   87.243    0.256   20.648
  118.898   87.649    0.256   21.448
  119.718   88.470    0.258   22.286
  120.538   88.891    0.254   23.142
  121.358   89.296    0.245   23.172
  122.178   90.108    0.235   23.208
  122.999   91.711    0.228   22.413
  123.819   88.567    0.225   21.646
  124.639   83.840    0.223   20.904
  125.459   84.651    0.217   20.195
  126.280   83.483    0.211   20.227
  127.100   81.522    0.193   19.887
  127.920   79.557    0.178   19.565
  128.740   77.200    0.166   19.236
  129.560   80.393    0.147   19.273
  130.381   82.392    0.130   18.955
  131.201   80.827    0.157   18.979
  132.021   79.664    0.273   19.015
  132.841   79.287    0.275   19.039
  133.661   79.302    0.275   19.063
  134.482   79.727    0.273   18.754
  135.302   80.538    0.271   18.445
  136.122   81.345    0.270   18.141
  136.942   83.750    0.268   17.836
  137.762   84.552    0.268   17.870
  138.583   86.556    0.265   17.575
  139.403   87.763    0.262   17.280
  140.223   88.575    0.256   16.994
  141.043   88.995    0.253   17.021
  141.864   88.614    0.249   16.746
  142.684   88.643    0.246   16.470
  143.504   89.850    0.243   16.193
  144.324   90.657    0.242   13.513
  145.144   90.681    0.240   10.113
  145.965   89.508    0.239    8.442
  146.785   89.146    0.238    8.936
  147.605   89.551    0.238    9.279
  148.425   89.967    0.238    9.639
  149.245   89.986    0.238    9.654
  150.066   90.406    0.239    8.987
  150.886   91.218    0.239    8.069
  151.706   92.029    0.239    8.698
  152.526   92.058    0.240    9.196
  153.346   92.464    0.241    9.907
  154.167   92.484    0.242   10.675
  154.987   92.107    0.245   11.086
  155.807   90.943    0.248   11.307
  156.627   88.988    0.254   11.124
  157.448   87.027    0.258   10.359
  158.268   85.463    0.267    9.998
  159.088   83.898    0.272    8.815
  159.908   82.730    0.282    8.063
  160.728   82.749    0.291    7.930
  161.549   84.352    0.303    7.661
  162.369   86.748    0.275    7.529
  163.189   88.351    0.254    7.140
  164.009   89.563    0.247    6.773
  164.829   88.796    0.240    6.421
  165.650   87.231    0.227    6.089
  166.470   85.662    0.210    5.883
  167.290   83.305    0.145    5.888
  168.110   80.157    0.129    5.688
  168.930   76.216    0.201    5.494
  169.751   83.760    0.226    5.502
  170.571   86.561    0.249    5.612
  171.391   84.209    0.245    5.830
  172.211   83.427    0.245    6.280
  173.031   81.466    0.249    6.646
  173.852   80.694    0.249    6.774
  174.672   85.074    0.240    7.166
  175.492   86.281    0.228    7.581
  176.312   87.489    0.228    7.874
  177.133   85.929    0.257    8.330
  177.953   84.756    0.284    8.812
  178.773   82.404    0.291    9.496
  179.593   80.448    0.316    9.682
  180.413   81.651    0.323    9.701
  181.234   79.691    0.313   10.838
  182.054   77.730    0.299   12.328
  182.874   75.769    0.273   12.810
  183.694   72.621    0.261   13.302
  184.514   73.037    0.258   18.832
  185.335   74.258    0.255   30.298
  186.155   74.268    0.251   23.091
  186.975   71.520    0.249   16.356
  187.795   68.768    0.245   14.160
  188.615   67.991    0.241   12.485
  189.436   70.386    0.231   10.812
  190.256   73.583    0.195    9.890
  191.076   75.186    0.177    9.548
  191.896   76.790    0.202    9.215
  192.717   78.784    0.257    8.902
  193.537   83.169    0.266    8.442
  194.357   85.560    0.269    8.153
  195.177   87.559    0.269    8.016
  195.997   87.579    0.269    8.176
  196.818   86.816    0.269    9.138
  197.638   86.434    0.268   11.183
  198.458   85.672    0.267   12.720
  199.278   85.681    0.264   12.740
  200.098   84.909    0.259   11.233
  200.919   84.537    0.259   10.274
  201.739   84.160    0.262    9.923
  202.559   83.388    0.265    9.580
  203.379   82.620    0.263    8.923
  204.199   81.452    0.257    9.105
  205.020   80.674    0.242    9.281
  205.840   78.719    0.227    9.466
  206.660   76.753    0.203    9.659
  207.480   73.605    0.226    9.671
  208.301   68.085    0.253    9.868
  209.121   64.546    0.262   10.059
  209.941   64.570    0.275    9.896
  210.761   64.981    0.289    8.567
  211.581   65.401    0.292    7.415
  212.402   66.203    0.275    6.660
  213.222   69.791    0.268    6.670
  214.042   73.379    0.273    7.184
  214.862   76.566    0.282   10.170
  215.682   77.378    0.289   12.447
  216.503   77.001    0.300   12.929
  217.323   77.021    0.310   12.047
  218.143   79.020    0.321   12.062
  218.963   82.207    0.308   12.085
  219.783   86.588    0.291   12.097
  220.604   91.755    0.267   11.897
  221.424   90.982    0.261   11.923
  222.244   85.854    0.271   11.727
  223.064   79.141    0.279   11.742
  223.885   72.825    0.291   11.544
  224.705   66.509    0.294   10.948
  225.525   62.177    0.294    9.649
  226.345   62.588    0.294    7.489
  227.165   65.785    0.295    5.604
