~VERSION INFORMATION
 VERS.                 2.0:   CWLS LOG ASCII STANDARD -VERSION 2.0
 WRAP.                  NO:   ONE LINE PER DEPTH STEP
~WELL INFORMATION BLOCK
#MNEM.UNIT           DATA                    DESCRIPTION OF MNEMONIC
#---------    -------------------            -------------------------------
# Generated from Intellog Unique Number	CS_77_79/WELL/944
LOC .         AA/10-11-077-08W4/0            : Location     - LOCATION
UWI .         AA/10-11-077-08W4/0            : Uwi          - UNIQUE WELL ID
ENTR.         SP                             : Entered      - ENTERED BY
SRVC.         SCHLUMBERGER                   : Scn          - SERVICE COMPANY
STRT.M        140                            : top_depth    - START DEPTH
STOP.M        385                            : bot_depth    - STOP DEPTH
STEP.M        0.25                           : increment    - STEP LENGTH
 NULL. -999.2500:NULL Value
~CURVE INFORMATION BLOCK
#MNEM UNIT       ERCB CURVE CODE    CURVE DESCRIPTION
#-----------   ------------------   ----------------------------------
DEPT.M        00 001 00 00         : DEPTH        - DEPTH
ILD .OHMM     00 120 00 00         : RESD         - DEEP RESISTIVITY (DIL)
DPHI.V/V      00 890 00 00         : PHID         - DENSITY POROSITY (LIMESTONE)
NPHI.V/V      00 330 00 00         : PHIN         - NEUTRON POROSITY (LIMESTONE)
GR  .API      00 310 00 00         : GR           - GAMMA RAY
~PARAMETER INFORMATION
#MNEM.UNIT           DATA             DESCRIPTION OF MNEMONIC
#---------         -----------     ------------------------------
GL  .M        566.83               : gl           - GROUND LEVEL ELEVATION
EREF.M        570.4                : kb           - ELEVATION OF DEPTH REFERENCE
DATM.M        566.83               : datum        - DATUM ELEVATION
TDD .M        391                  : tdd          - TOTAL DEPTH DRILLER
RUN .         ONE                  : Run          - RUN NUMBER
ENG .         BILL                 : Engineer     - RECORDING ENGINEER
WIT .         JIM                  : Witness      - WITNESSED BY
MUD .         GEL                  : Mud_type     - MUD TYPE
MATR.         LIMESTONE            : Logunit      - NEUTRON MATRIX
TMAX.C        16                   : BHT          - MAXIMUM RECORDED TEMPERATURE
BHTD.M        391                  : BHTDEP       - MAXIMUM RECORDED TEMPERATURE
MATR.         1                    : LOGUNIT      - NEUTRON MATRIX
RMT .C        25                   : MDTP         - TEMPERATURE OF MUD
NEUT.         1                    : NEUTRON      - NEUTRON TYPE
RESI.         0                    : RESIST       - RESISTIVITY TYPE
RMC .OHMM     0.25                 : RMC          - RESISTIVITY OF MUD CAKE
RMF .OHMM     0.25                 : RMF          - RESISTIVITY OF MUD FILTRATE
SUFT.C        15                   : SUFT         - SURFACE TEMPERATURE
~A  DEPTH     RESD     PHID     PHIN       GR
# ...
  314.000    4.751    0.179    0.351   81.397
  314.250    5.524    0.164    0.322   69.047
  314.500    7.466    0.185    0.294   65.957
  314.750    9.014    0.208    0.304   64.718
  315.000    9.905    0.222    0.307   65.333
  315.250   10.287    0.218    0.315   65.329
  315.500   10.683    0.214    0.324   65.326
  315.750   11.095    0.209    0.334   65.939
  316.000   11.307    0.203    0.325   67.169
  316.250   12.193    0.198    0.327   69.018
  316.500   12.663    0.192    0.333   70.865
  316.750   13.151    0.189    0.342   72.714
  317.000   13.402    0.195    0.345   58.514
  317.250   13.404    0.254    0.344   49.867
  317.500   16.183    0.263    0.327   41.839
  317.750   19.538    0.273    0.316   33.194
  318.000   24.958    0.277    0.325   44.918
  318.250   30.704    0.274    0.318   46.149
  318.500   42.289    0.272    0.322   44.293
  318.750   55.048    0.272    0.326   43.672
  319.000   60.489    0.266    0.320   45.520
  319.250   64.014    0.265    0.325   46.751
  319.500   65.240    0.267    0.330   44.896
  319.750   66.489    0.268    0.332   42.423
  320.000   60.531    0.268    0.320   43.654
  320.250   58.304    0.268    0.322   48.588
  320.500   58.310    0.268    0.337   51.672
  320.750   57.231    0.268    0.331   51.667
  321.000   57.246    0.267    0.321   52.281
  321.250   57.254    0.267    0.320   52.895
  321.500   57.260    0.267    0.335   58.446
  321.750   56.202    0.267    0.316   60.295
  322.000   54.136    0.267    0.315   60.909
  322.250   52.141    0.267    0.325   57.819
  322.500   50.222    0.265    0.327   62.135
  322.750   45.721    0.264    0.341   66.452
  323.000   43.215    0.257    0.349   65.215
  323.250   38.605    0.262    0.349   59.655
  323.500   31.988    0.267    0.346   60.270
  323.750   26.504    0.262    0.341   64.586
  324.000   22.378    0.245    0.336   70.756
  324.250   18.893    0.229    0.337   75.073
  324.500   15.655    0.217    0.343   80.624
  324.750   13.985    0.210    0.331   85.560
  325.000   12.493    0.207    0.317   89.876
  325.250   11.589    0.211    0.324   94.812
  325.500   11.163    0.215    0.326  103.450
  325.750   10.956    0.218    0.331  109.619
  326.000   11.377    0.226    0.343   90.480
  326.250   12.269    0.251    0.341   75.044
  326.500   13.739    0.255    0.327   65.164
  326.750   14.267    0.240    0.314   73.802
  327.000   14.541    0.221    0.319   79.354
  327.250   13.745    0.190    0.298   83.054
  327.500   13.491    0.179    0.307   82.433
  327.750   13.493    0.184    0.311   89.219
  328.000   14.826    0.201    0.302   87.981
  328.250   16.917    0.210    0.304   83.040
  328.500   19.304    0.212    0.299   66.369
  328.750   20.427    0.206    0.311   71.303
  329.000   22.028    0.218    0.331   78.090
  329.250   22.878    0.231    0.340   73.766
  329.500   22.881    0.243    0.343   70.676
  329.750   21.628    0.248    0.323   78.079
  330.000   19.689    0.242    0.320   70.051
  330.250   18.610    0.206    0.316   72.515
  330.500   17.926    0.185    0.307   78.068
  330.750   17.594    0.188    0.302   86.089
  331.000   17.269    0.194    0.302   82.381
  331.250   17.935    0.214    0.326   70.033
  331.500   18.625    0.228    0.318   66.943
  331.750   19.343    0.226    0.313   72.494
  332.000   21.256    0.222    0.299   79.281
  332.250   22.074    0.215    0.303   81.746
  332.500   22.923    0.210    0.308   72.483
  332.750   25.190    0.225    0.324   63.837
  333.000   27.681    0.236    0.321   60.747
  333.250   30.995    0.244    0.330   57.040
  333.500   34.058    0.257    0.340   52.099
  333.750   35.369    0.270    0.335   47.156
  334.000   36.732    0.268    0.328   47.769
  334.250   36.739    0.257    0.315   52.087
  334.500   34.729    0.247    0.313   53.935
  334.750   32.826    0.243    0.312   58.253
  335.000   31.027    0.242    0.320   61.336
  335.250   27.203    0.243    0.336   57.010
  335.500   24.764    0.241    0.344   54.538
  335.750   23.851    0.236    0.361   51.448
  336.000   21.309    0.225    0.358   62.555
  336.250   20.141    0.214    0.347   67.490
  336.500   19.769    0.216    0.336   74.276
  336.750   24.322    0.238    0.334   69.952
  337.000   27.232    0.265    0.331   50.195
  337.250   31.662    0.270    0.330   40.933
  337.500   36.127    0.274    0.335   37.842
  337.750   38.958    0.273    0.336   40.307
  338.000   40.460    0.271    0.334   48.946
  338.250   42.019    0.268    0.336   56.349
  338.500   43.636    0.275    0.346   51.408
  338.750   43.642    0.279    0.353   48.318
  339.000   42.837    0.286    0.363   52.635
  339.250   42.043    0.279    0.367   43.989
  339.500   39.743    0.276    0.356   45.838
  339.750   36.180    0.275    0.357   51.389
  340.000   34.847    0.276    0.363   53.854
  340.250   34.202    0.280    0.367   56.321
  340.500   36.194    0.281    0.356   60.020
  340.750   36.888    0.281    0.345   61.869
  341.000   36.206    0.278    0.334   59.396
  341.250   31.742    0.286    0.327   42.107
  341.500   28.895    0.291    0.332   37.784
  341.750   26.803    0.283    0.332   42.101
  342.000   25.820    0.259    0.330   53.208
  342.250   25.822    0.232    0.334   60.611
  342.500   26.316    0.241    0.339   58.756
  342.750   25.830    0.243    0.346   59.987
  343.000   26.325    0.247    0.361   63.687
  343.250   25.839    0.257    0.357   54.425
  343.500   24.423    0.264    0.351   55.038
  343.750   21.411    0.279    0.344   50.096
  344.000   16.766    0.278    0.338   56.265
  344.250   14.156    0.210    0.354   76.014
  344.500   14.427    0.182    0.359   95.764
  344.750   15.268    0.201    0.359   77.241
  345.000   16.464    0.237    0.362   66.126
  345.250   18.436    0.263    0.354   60.568
  345.500   21.035    0.264    0.350   51.305
  345.750   24.001    0.232    0.344   59.943
  346.000   27.386    0.256    0.359   51.915
  346.250   31.841    0.283    0.357   45.121
  346.500   34.989    0.291    0.354   45.734
  346.750   37.027    0.289    0.357   51.287
  347.000   36.342    0.253    0.360   59.307
  347.250   35.005    0.237    0.362   63.008
  347.500   35.010    0.246    0.381   54.362
  347.750   39.203    0.291    0.382   40.778
  348.000   44.734    0.304    0.377   37.071
  348.250   49.155    0.299    0.361   40.771
  348.500   53.005    0.296    0.355   46.323
  348.750   57.157    0.298    0.346   40.146
  349.000   54.029    0.295    0.337   36.439
  349.250   58.263    0.283    0.328   35.818
  349.500   65.237    0.282    0.333   41.987
  349.750   70.350    0.284    0.344   41.984
  350.000   53.215    0.278    0.332   42.769
  350.250   45.745    0.258    0.329   49.587
  350.500   38.586    0.229    0.332   57.645
  350.750   33.803    0.214    0.328   60.744
  351.000   35.782    0.223    0.339   55.165
  351.250   40.092    0.252    0.344   44.628
  351.500   50.323    0.275    0.345   37.810
  351.750   55.321    0.299    0.348   36.570
  352.000   69.437    0.295    0.361   30.992
  352.250   79.283    0.295    0.357   39.050
  352.500   87.161    0.294    0.354   35.331
  352.750   85.541    0.293    0.349   36.570
  353.000   82.373    0.295    0.346   36.570
  353.250   74.948    0.293    0.350   40.289
  353.500   65.656    0.288    0.343   40.909
  353.750   57.516    0.280    0.343   39.050
  354.000   50.386    0.270    0.346   44.628
  354.250   37.941    0.263    0.341   52.686
  354.500   33.871    0.264    0.350   55.785
  354.750   28.037    0.261    0.354   58.884
  355.000   25.507    0.252    0.332   63.223
  355.250   21.927    0.252    0.329   62.603
  355.500   18.148    0.264    0.340   59.504
  355.750   15.898    0.275    0.343   58.884
  356.000   14.194    0.254    0.332   71.901
  356.250   13.161    0.165    0.324   93.595
  356.500   12.916    0.165    0.329   97.934
  356.750   13.164    0.170    0.325   87.397
  357.000   13.936    0.190    0.321   78.719
  357.250   14.751    0.203    0.328   72.521
