~Version Information Block
VERS .                 2.00:  CWLS LOG ASCII STANDARD - VERSION 2.00
WRAP .                   NO:  One line per depth step
~Well Information Block
#MNEM.UNIT        Data Type   Information
#---------- ----------------  -----------
STRT .M                 6.1           :  START DEPTH
STOP .M                  73           :  STOP DEPTH
STEP .M                 0.3           :  STEP
NULL .              -999.25           :  NULL VALUE
COMP . BPOG OPERATIONS LTD            :  COMPANY
WELL . BPOG ATHABASCA OV WELL #4-73-5C:  WELL
FLD  . TAR SANDS                      :  FIELD
LOC  . 11-18-095-11W4                 :  LOCATION
PROV . ALBERTA                        :  PROVINCE
SRVC . SCHLUMBERGER                   :  SERVICE COMPANY
DATE . 12 FEB 74                      :  LOG DATE
UWI  . AA/11-18-095-11W4/0            :  UNIQUE WELL ID
~Curve Information Block
#MNEM.UNIT         API CODE   Curve Description
#---------- ----------------  -----------------
DEPTH.M                    :  Transferred from LOGMATE/ESP.
DENS .KG/M3                 :  Loaded from 950216.154427
GR   .API                  :  Loaded from 950216.154427
RESD .OHMM                 :  Loaded from 950216.154427
~Parameter Information Block
#MNEM.UNIT            Value   Description
#---------- ----------------  -----------
PROJECT.            MOS_95_11:
SET  .                  RAW:
~A        DEPTH           DENS             GR           RESD
# ...
        45.7000      2245.2000        66.3200        13.6200
        46.0000      2250.3999        65.0900        17.7700
        46.3000      2200.6001        57.1000        21.4700
        46.6000      2172.8000        53.3900        17.4000
        46.9000      2200.3000        57.8900        13.6700
        47.2000      2242.3999        66.6400        11.5000
        47.5000      2219.6001        72.2400        11.3900
        47.8000      2254.5000        68.5300        11.0800
        48.1000      2245.8999        64.6700        13.1300
        48.4000      2246.8000        70.4700        14.8100
        48.7000      2260.8999        62.6800        14.4300
        49.0000      2253.2000        66.5500        13.3000
        49.3000      2175.1001        60.6000        23.9800
        49.6000      2200.8999        59.0600        32.3700
        49.9000      2165.5000        51.1900        30.9200
        50.2000      2107.3000        48.8100        18.8900
        50.5000      2165.5000        56.0300        17.3700
        50.8000      2220.1001        54.1600        20.2500
        51.1000      2165.3999        60.2400        19.6200
        51.4000      2236.3999        64.8600        15.5000
        51.7000      2246.6001        59.3400        12.5600
        52.0000      2225.5000        67.2200        19.5900
        52.3000      2196.8999        64.8100        26.3500
        52.6000      2148.1001        51.7600        31.2200
        52.9000      2126.8000        52.5300        21.9200
        53.2000      2203.7000        52.7500        18.1500
        53.5000      2203.3000        57.4100        17.1200
        53.8000      2226.6001        60.5700        22.1300
        54.1000      2203.8999        60.3600        24.7900
        54.4000      2178.3000        57.6000        21.9000
        54.7000      2170.1001        52.1600        26.5200
        55.0000      2201.1001        47.4700        29.2800
        55.3000      2146.6001        50.4000        24.7300
        55.6000      2165.0000        52.4700        18.7000
        55.9000      2197.2000        53.5900        27.0000
        56.2000      2171.3000        55.2300        36.9100
        56.5000      2149.3999        44.4500        52.7900
        56.8000      2123.0000        50.0900        82.0700
        57.1000      2113.7000        43.7900       128.5200
        57.4000      2104.3999        38.4800       134.8900
        57.7000      2094.3000        35.5500        84.9600
        58.0000      2072.6001        35.7700        53.0300
        58.3000      2095.1001        38.8200        41.2800
        58.6000      2124.5000        37.9400        45.7500
        58.9000      2134.8999        43.5900        40.7900
        59.2000      2142.5000        40.7400        35.0200
        59.5000      2176.2000        39.3900        27.8600
        59.8000      2198.5000        35.2900        33.3100
        60.1000      2189.3999        46.2800        29.3300
        60.4000      2162.0000        38.8000        24.3300
        60.7000      2184.1001        39.9200        28.1600
        61.0000      2221.6001        37.5100        64.6000
        61.3000      2188.1001        26.5400       115.6600
        61.6000      2197.2000        19.6900       180.8000
        61.9000      2186.8000        15.7000       274.0300
        62.2000      2186.5000        17.1400       187.9400
        62.5000      2166.8999        19.2100       102.4200
        62.8000      2150.8000        34.7500        43.9500
        63.1000      2149.5000        43.1400        18.2500
        63.4000      2170.3000        48.9400        11.7300
        63.7000      2166.8000        57.3700        14.3600
        64.0000      2170.8999        67.2900        13.3700
        64.3000      2153.3000        89.1900        15.9000
        64.6000      2220.6001        87.4100        16.8400
        64.9000      2143.5000        75.0600        13.3700
        65.2000      2222.8000        65.1900        19.4800
        65.5000      2209.2000        48.7900        77.3500
        65.8000      2311.5000        21.9900       147.2900
        66.1000      2605.0000        12.0000       126.6700
        66.4000      2621.6001         8.4500       101.1400
        66.7000      2598.6001         7.2900       131.2000
        67.0000      2556.6001         6.8100       167.4300
        67.3000      2567.3999         7.0300       136.8800
        67.6000      2564.3000         9.4900       142.6200
        67.9000      2519.3000        13.0100       138.9700
        68.2000      2536.8999        17.3100        48.8600
        68.5000      2538.6001        23.2300        14.0800
        68.8000      2474.3999        36.7300        13.2300
        69.1000      2363.5000        30.4700        22.3100
        69.4000      2460.5000        24.9900        82.7300
        69.7000      2569.3000        19.8300        75.6600
        70.0000      2436.2000        24.0200        30.0900
        70.3000      2244.7000        25.8900        19.4700
        70.6000      2107.3000        23.5200        24.7200
        70.9000      2039.0000        23.6500        37.8800
        71.2000      2315.3999        23.7600        30.2400
        71.5000      2551.5000        23.5900        36.2900
        71.8000      2545.6001        23.8400        47.8500
        72.1000      2582.0000        23.9500        11.8100
        72.4000      2554.0000        24.2800        10.5900
        72.7000      2590.8999        24.4700         9.9000
        73.0000      2620.5000        24.9200        10.6300
