~VERSION INFORMATION
 VERS.                 2.0:   CWLS LOG ASCII STANDARD -VERSION 2.0
 WRAP.                  NO:   ONE LINE PER DEPTH STEP
~WELL INFORMATION BLOCK
#MNEM.UNIT           DATA                    DESCRIPTION OF MNEMONIC
#---------    -------------------            -------------------------------
# Generated from Intellog Unique Number	CW_82_90/WELL/927
WELL.         10-26-082-22W4                 : Well_name    - WELL
LOC .         AA/10-26-082-22W4/0            : Location     - LOCATION
UWI .         AA/10-26-082-22W4/0            : Uwi          - UNIQUE WELL ID
ENTR.         JAYE                           : Entered      - ENTERED BY
SRVC.         SCHLUMBERGER                   : Scn          - SERVICE COMPANY
DATE.         18 JAN 82                      : Date         - LOG DATE
STRT.M        225                            : top_depth    - START DEPTH
STOP.M        430                            : bot_depth    - STOP DEPTH
STEP.M        0.25                           : increment    - STEP LENGTH
 NULL. -999.2500:NULL Value
~CURVE INFORMATION BLOCK
#MNEM UNIT       ERCB CURVE CODE    CURVE DESCRIPTION
#-----------   ------------------   ----------------------------------
DEPT.M        00 001 00 00         : DEPTH        - DEPTH
CALI.MM       00 280 01 00         : CAL          - CALIPER
GR  .API      00 310 00 00         : GR           - GAMMA RAY
DPHI.V/V      00 890 00 00         : PHID         - DENSITY POROSITY (SANDSTONE)
NPHI.V/V      00 330 00 00         : PHIN         - NEUTRON POROSITY (SANDSTONE)
ILD .OHMM     00 120 00 00         : RESD         - DEEP RESISTIVITY (DIL)
~PARAMETER INFORMATION
#MNEM.UNIT           DATA             DESCRIPTION OF MNEMONIC
#---------         -----------     ------------------------------
GL  .M        626.3                : gl           - GROUND LEVEL ELEVATION
EREF.M        630.7                : kb           - ELEVATION OF DEPTH REFERENCE
DATM.M        626.3                : datum        - DATUM ELEVATION
TDD .M        436                  : tdd          - TOTAL DEPTH DRILLER
RUN .         ONE                  : Run          - RUN NUMBER
ENG .         GARTH                : Engineer     - RECORDING ENGINEER
WIT .         WALKER               : Witness      - WITNESSED BY
BASE.         EDMONTON             : Branch       - HOME BASE OF LOGGING UNIT
MUD .         GEL CHEM             : Mud_type     - MUD TYPE
MATR.         SANDSTONE            : Logunit      - NEUTRON MATRIX
TMAX.C        23.8                 : BHT          - MAXIMUM RECORDED TEMPERATURE
BHTD.M        436                  : BHTDEP       - MAXIMUM RECORDED TEMPERATURE
RMT .C        23.8                 : MDTP         - TEMPERATURE OF MUD
MUDD.KG/M     0                    : MWT          - MUD DENSITY
NEUT.         1                    : NEUTRON      - NEUTRON TYPE
RESI.         0                    : RESIST       - RESISTIVITY TYPE
RM  .OHMM     3.14                 : RM           - RESISTIVITY OF MUD
RMC .OHMM     0.25                 : RMC          - RESISTIVITY OF MUD CAKE
RMF .OHMM     1.628                : RMF          - RESISTIVITY OF MUD FILTRATE
SUFT.C        4                    : SUFT         - SURFACE TEMPERATURE
~A  DEPTH      CAL       GR     PHID     PHIN     RESD
  225.000  260.830  101.904    0.286    0.552    2.836
  225.250  261.747  104.943    0.273    0.554    2.812
  225.500  260.797  101.759    0.256    0.555    2.883
  225.750  259.641   99.384    0.246    0.553    2.826
  226.000  259.520   97.883    0.247    0.558    2.792
  226.250  259.400  100.922    0.251    0.565    2.799
  226.500  260.111  104.770    0.257    0.572    2.940
  226.750  261.029  105.693    0.259    0.573    3.026
  227.000  261.735  102.322    0.243    0.558    3.109
  227.250  262.032  102.622    0.234    0.545    3.146
  227.500  263.157  105.166    0.231    0.554    3.119
  227.750  265.005  109.948    0.234    0.566    3.018
  228.000  265.716  107.449    0.245    0.577    2.829
  228.250  266.221  102.276    0.264    0.587    2.662
  228.500  266.308  102.390    0.272    0.573    2.490
  228.750  265.047   99.333    0.256    0.527    2.783
  229.000  264.099   90.987    0.243    0.462    3.672
  229.250  262.319   74.304    0.241    0.416    5.606
  229.500  258.260   63.406    0.232    0.372   11.914
  229.750  251.710   56.181    0.228    0.370   16.505
  230.000  248.585   57.288    0.264    0.406   22.523
  230.250  247.014   58.338    0.317    0.440   27.427
  230.500  247.099   60.133    0.347    0.459   29.968
  230.750  247.189   61.179    0.354    0.464   31.956
  231.000  247.068   61.048    0.355    0.489   33.632
  231.250  247.051   58.797    0.345    0.490   35.268
  231.500  246.828   59.908    0.352    0.446   36.914
  231.750  246.603   58.095    0.351    0.454   38.561
  232.000  246.174   55.594    0.340    0.482   39.395
  232.250  246.052   55.213    0.330    0.479   40.314
  232.500  246.040   56.200    0.345    0.461   40.799
  232.750  245.710   60.980    0.350    0.445   40.603
  233.000  245.694   65.512    0.348    0.453   41.012
  233.250  245.472   66.934    0.354    0.481   41.741
  233.500  245.351   62.942    0.360    0.497   42.958
  233.750  245.441   62.000    0.361    0.524   44.875
  234.000  245.423   61.990    0.359    0.513   47.058
  234.250  245.408   60.548    0.356    0.498   49.716
  234.500  245.389   57.305    0.359    0.520   53.313
  234.750  245.687   51.820    0.364    0.524   58.577
  235.000  245.669   50.006    0.363    0.517   65.334
  235.250  245.241   49.872    0.362    0.506   73.002
  235.500  245.222   51.294    0.361    0.491   82.477
  235.750  245.001   56.013    0.360    0.500   89.123
  236.000  245.189   53.763    0.359    0.506   96.836
  236.250  244.865   52.198    0.346    0.496  108.808
  236.500  244.849   52.437    0.349    0.492  118.643
  236.750  244.831   51.618    0.359    0.493  121.209
  237.000  245.021   49.805    0.361    0.494  124.508
  237.250  245.216   50.293    0.361    0.495  125.296
  237.500  245.304   52.770    0.359    0.499  122.396
  237.750  245.183   54.131    0.359    0.506  122.475
  238.000  245.168   50.512    0.362    0.514  120.306
  238.250  245.249   49.072    0.361    0.513  116.619
  238.500  245.029   51.116    0.355    0.507  113.277
  238.750  244.602   55.835    0.353    0.495  106.181
  239.000  244.375   53.896    0.356    0.484   97.488
  239.250  244.356   55.814    0.362    0.482   90.206
  239.500  244.341   55.802    0.366    0.487   82.367
  239.750  244.642   55.423    0.369    0.491   76.930
  240.000  244.622   51.369    0.360    0.491   73.596
  240.250  245.020   48.746    0.356    0.494   74.068
  240.500  245.111   46.809    0.357    0.502   76.802
  240.750  245.186   46.238    0.356    0.493   80.838
  241.000  245.079   46.166    0.353    0.485   84.767
  241.250  244.960   46.156    0.355    0.477   88.061
  241.500  244.837   44.903    0.348    0.477   89.948
  241.750  244.813   44.333    0.348    0.509   90.361
  242.000  244.703   46.004    0.356    0.507   91.609
  242.250  244.479   47.050    0.360    0.497   92.712
  242.500  244.776   46.483    0.360    0.492   93.653
  242.750  244.776   44.794    0.350    0.488   95.844
  243.000  244.635   45.468    0.345    0.478   97.734
  243.250  244.830   46.578    0.345    0.500  100.204
  243.500  245.229   47.129    0.357    0.503  103.329
  243.750  245.229   48.050    0.362    0.487  106.323
  244.000  245.229   47.856    0.355    0.489  108.413
  244.250  245.174   47.037    0.347    0.507  110.129
  244.500  245.163   46.094    0.352    0.511  110.832
  244.750  244.839   45.027    0.364    0.496  109.255
  245.000  244.839   45.577    0.360    0.483  107.521
  245.250  244.276   48.803    0.351    0.476  105.607
  245.500  244.271   49.602    0.348    0.472  100.497
  245.750  244.047   48.159    0.354    0.483   94.020
  246.000  244.047   47.342    0.362    0.506   88.630
  246.250  243.905   48.205    0.372    0.517   81.686
  246.500  243.791   49.813    0.369    0.500   77.292
  246.750  243.875   49.056    0.366    0.494   75.074
  247.000  243.875   46.123    0.368    0.517   75.967
  247.250  243.839   47.481    0.362    0.508   78.044
  247.500  243.833   48.406    0.356    0.497   79.727
  247.750  244.121   47.836    0.351    0.511   78.304
  248.000  244.420   48.324    0.347    0.528   82.727
  248.250  244.300   49.248    0.352    0.518   85.781
  248.500  244.492   49.548    0.363    0.488   68.728
  248.750  244.369   49.540    0.369    0.497   40.076
  249.000  244.358   50.463    0.370    0.505   14.348
  249.250  244.237   56.611    0.352    0.491    6.686
  249.500  244.638   67.303    0.299    0.427    5.037
  249.750  245.449   82.722    0.248    0.460    4.111
  250.000  246.159   94.719    0.250    0.489    4.030
  250.250  246.975   97.695    0.243    0.511    4.202
  250.500  248.410   96.938    0.257    0.518    4.847
  250.750  248.289   94.005    0.274    0.504    5.386
  251.000  246.822   91.571    0.271    0.485    5.744
  251.250  247.325   90.690    0.265    0.468    5.956
  251.500  247.307   88.192    0.265    0.468    6.209
  251.750  245.322   86.688    0.278    0.463    6.697
  252.000  243.231   82.883    0.294    0.458    8.004
  252.250  242.074   81.070    0.305    0.473    9.765
  252.500  241.334   78.075    0.297    0.478   12.069
  252.750  241.110   72.840    0.287    0.471   14.132
  253.000  241.198   69.905    0.307    0.465   16.056
  253.250  241.388   64.545    0.326    0.448   16.806
  253.500  241.785   61.736    0.323    0.462   17.230
  253.750  241.874   61.725    0.324    0.462   17.310
  254.000  241.961   64.765    0.329    0.448   17.030
  254.250  242.049   69.422    0.327    0.434   16.605
  254.500  242.242   66.550    0.330    0.437   16.250
  254.750  242.227   59.822    0.329    0.438   15.989
  255.000  241.897   56.513    0.327    0.435   15.794
  255.250  241.881   58.869    0.333    0.443   15.863
  255.500  241.867   62.095    0.341    0.477   15.994
  255.750  242.161   62.518    0.340    0.486   16.370
  256.000  241.835   63.196    0.334    0.481   16.723
  256.250  241.716   68.536    0.338    0.481   17.402
  256.500  240.973   67.032    0.343    0.469   17.481
  256.750  240.541   64.721    0.347    0.458   17.362
  257.000  239.800   64.588    0.347    0.471   17.672
  257.250  239.471   62.525    0.346    0.470   17.619
  257.500  239.248   66.559    0.345    0.470   17.631
  257.750  239.129   67.544    0.346    0.474   17.809
  258.000  239.114   64.176    0.345    0.480   17.396
  258.250  239.409   65.349    0.346    0.484   17.022
  258.500  239.704   68.823    0.347    0.480   16.906
  258.750  241.244   70.243    0.352    0.473   16.855
  259.000  242.367   70.918    0.352    0.475   17.090
  259.250  243.389   71.096    0.349    0.478   17.557
  259.500  241.610   66.917    0.355    0.457   17.440
  259.750  239.729   65.041    0.363    0.449   16.781
  260.000  239.296   68.453    0.360    0.451   16.512
  260.250  239.383   72.426    0.353    0.481   17.218
  260.500  239.472   66.257    0.354    0.491   17.359
  260.750  239.559   63.883    0.352    0.483   16.925
  261.000  239.543   65.242    0.344    0.484   16.591
  261.250  239.630   62.745    0.337    0.482   17.366
