~VERSION INFORMATION
 VERS.                 2.0:   CWLS LOG ASCII STANDARD -VERSION 2.0
 WRAP.                  NO:   ONE LINE PER DEPTH STEP
~WELL INFORMATION BLOCK
#MNEM.UNIT           DATA                    DESCRIPTION OF MNEMONIC
#---------    -------------------            -------------------------------
# Generated from Intellog Unique Number	CN_91_93/WELL/1077
WELL.         10-11-091-16W4                 : Well_name    - WELL
LOC .         AA/10-11-091-16W4/0            : Location     - LOCATION
UWI .         AA/10-11-091-16W400            : Uwi          - UNIQUE WELL ID
ENTR.         JOETTE                         : Entered      - ENTERED BY
SRVC.         SCHLUMBERGER                   : Scn          - SERVICE COMPANY
STRT.F        213.255                        : top_depth    - START DEPTH
STOP.F        787.402                        : bot_depth    - STOP DEPTH
STEP.F        0.82                           : increment    - STEP LENGTH
 NULL. -999.2500:NULL Value
~CURVE INFORMATION BLOCK
#MNEM UNIT       ERCB CURVE CODE    CURVE DESCRIPTION
#-----------   ------------------   ----------------------------------
DEPT.F        00 001 00 00         : DEPTH        - DEPTH
GR  .API      00 310 00 00         : GR           - GAMMA RAY
DPHI.V/V      00 890 00 00         : PHID         - DENSITY POROSITY (SANDSTONE)
NPHI.V/V      00 330 00 00         : PHIN         - NEUTRON POROSITY (SANDSTONE)
CALI.IN       00 280 01 00         : CAL          - CALIPER
ILD .OHMM     00 120 00 00         : RESD         - DEEP RESISTIVITY (DIL)
~PARAMETER INFORMATION
#MNEM.UNIT           DATA             DESCRIPTION OF MNEMONIC
#---------         -----------     ------------------------------
GL  .M        490.58               : gl           - GROUND LEVEL ELEVATION
EREF.M        493.87               : kb           - ELEVATION OF DEPTH REFERENCE
DATM.M        493.87               : datum        - DATUM ELEVATION
TDD .M        246                  : tdd          - TOTAL DEPTH DRILLER
RUN .         ONE                  : Run          - RUN NUMBER
ENG .         BILL                 : Engineer     - RECORDING ENGINEER
WIT .         JIM                  : Witness      - WITNESSED BY
MUD .         GEL                  : Mud_type     - MUD TYPE
MATR.         SANDSTONE            : Logunit      - NEUTRON MATRIX
TMAX.F        140                  : BHT          - MAXIMUM RECORDED TEMPERATURE
BHTD.F        6797.9               : BHTDEP       - MAXIMUM RECORDED TEMPERATURE
RMT .F        77                   : MDTP         - TEMPERATURE OF MUD
MUDD.LB/G     9.66666              : MWT          - MUD DENSITY
NEUT.         1                    : NEUTRON      - NEUTRON TYPE
RESI.         0                    : RESIST       - RESISTIVITY TYPE
RM  .OHMM     8.75                 : RM           - RESISTIVITY OF MUD
RMC .OHMM     0.25                 : RMC          - RESISTIVITY OF MUD CAKE
RMF .OHMM     6.25                 : RMF          - RESISTIVITY OF MUD FILTRATE
SUFT.F        39.2                 : SUFT         - SURFACE TEMPERATURE
~A  DEPTH       GR     PHID     PHIN      CAL     RESD
  213.255   57.508    0.388    0.556    6.467   62.226
  214.075   56.056    0.408    0.581    6.471   65.160
  214.895   53.696    0.461    0.594    6.474   68.266
  215.715   51.040    0.470    0.581    6.497   76.442
  216.535   49.595    0.326    0.582    6.519   94.233
  217.356   50.243    0.258    0.598    6.662   95.118
  218.176   55.410    0.329    0.569    7.537   90.475
  218.996   60.284    0.370    0.479    7.738   82.345
  219.816   63.954    0.362    0.481    7.840   70.623
  220.636   65.805    0.352    0.507    7.942   66.222
  221.457   69.782    0.375    0.509    8.164   71.461
  222.277   69.540    0.358    0.487    8.603   71.584
  223.097   68.076    0.379    0.504    9.042   70.151
  223.917   66.329    0.399    0.524    8.947   66.743
  224.738   67.278    0.412    0.552    9.247   61.211
  225.558   68.835    0.416    0.522    9.706   57.368
  226.378   66.788    0.426    0.522    9.907   53.384
  227.198   65.029    0.417    0.553   10.128   49.298
  228.018   66.887    0.383    0.511   10.468   45.536
  228.839   66.037    0.395    0.506   10.710   42.688
  229.659   64.886    0.399    0.523   10.653   41.526
  230.479   67.051    0.406    0.518   10.359   40.704
  231.299   68.007    0.395    0.519    9.985   40.474
  232.119   66.260    0.373    0.538    9.572   43.665
  232.940   66.614    0.370    0.558    9.258   52.272
  233.760   66.967    0.344    0.530    9.123   58.952
  234.580   64.606    0.239    0.449    9.146   62.220
  235.400   64.358    0.198    0.389    9.188   62.220
  236.220   64.712    0.279    0.416    9.528   62.480
  237.041   71.698    0.295    0.453    9.670   58.992
  237.861   72.646    0.318    0.462    9.475   54.063
  238.681   69.991    0.340    0.432    9.260   52.603
  239.501   67.336    0.356    0.424    9.006   54.731
  240.322   64.079    0.353    0.434    9.028   54.020
  241.142   69.848    0.356    0.438    9.270   54.020
  241.962   72.321    0.375    0.444    9.471   53.450
  242.782   70.869    0.355    0.464    9.514   52.354
  243.602   68.816    0.355    0.481    9.517   52.134
  244.423   67.056    0.323    0.465    9.461   51.406
  245.243   62.589    0.302    0.463    9.523   51.520
  246.063   59.633    0.313    0.455    9.427   54.753
  246.883   59.685    0.325    0.445    9.152   54.753
  247.703   58.835    0.315    0.462    8.879   57.489
  248.524   57.691    0.333    0.475    8.703   60.200
  249.344   59.255    0.355    0.481    8.647   58.981
  250.164   60.511    0.347    0.494    8.888   54.480
  250.984   60.871    0.343    0.501    8.792   48.485
  251.804   62.114    0.344    0.474    8.775   54.694
  252.625   64.587    0.330    0.457    8.916   55.645
  253.445   65.542    0.325    0.465    8.920   54.922
  254.265   67.701    0.338    0.463    8.903   53.033
  255.085   69.258    0.349    0.443    8.887   50.456
  255.906   69.605    0.345    0.426    8.910   48.350
  256.726   69.664    0.340    0.426    8.953   44.660
  257.546   70.325    0.338    0.446    9.015   41.867
  258.366   73.380    0.325    0.465    9.077   41.333
  259.186   77.351    0.331    0.489    9.179   43.293
  260.007   80.118    0.337    0.496    9.322   42.114
  260.827   80.772    0.343    0.450    9.424   35.589
  261.647   80.524    0.339    0.430    9.566   26.725
  262.467   83.579    0.314    0.450    9.727   21.599
  263.287   92.063    0.264    0.475    9.909   15.285
  264.108  102.960    0.224    0.505   10.031   14.018
  264.928  103.013    0.224    0.535   10.134   13.737
  265.748  100.959    0.244    0.586   10.195   13.761
  266.568  105.224    0.257    0.573   10.298   13.791
  267.388  109.489    0.254    0.555   10.340   13.791
  268.209  111.347    0.264    0.519   10.383   13.747
  269.029  115.017    0.246    0.485   10.427   13.770
  269.849  115.678    0.255    0.530   10.469   14.527
  270.669  118.439    0.233    0.580   10.493   15.223
  271.490  116.679    0.241    0.546   10.534   15.256
  272.310  117.936    0.251    0.569   10.558   15.510
  273.130  116.484    0.239    0.547   10.581   15.885
  273.950  112.926    0.227    0.521   10.584   16.162
  274.770  116.288    0.221    0.502   10.588   16.309
  275.591  119.964    0.227    0.485   10.588   16.585
  276.411  118.807    0.238    0.501   10.594   17.125
  277.231  117.355    0.263    0.547   10.596   16.782
  278.051  118.611    0.241    0.565   10.580   16.782
  278.871  118.062    0.239    0.585   10.543   16.592
  279.692  115.119    0.238    0.596   10.527   15.558
  280.512  113.962    0.241    0.566   10.529   14.690
  281.332  113.713    0.254    0.568   10.533   12.884
  282.152  112.863    0.249    0.602   10.536   12.171
  282.972  112.916    0.262    0.609   10.539   11.320
  283.793  113.564    0.274    0.586   10.542   10.382
  284.613  110.313    0.249    0.573   10.542   10.102
  285.433  111.569    0.251    0.579   10.568    9.824
  286.253  109.516    0.286    0.606   10.611    9.481
  287.073  106.252    0.305    0.599   10.636    9.157
  287.894  106.004    0.323    0.590   10.677    9.157
  288.714  109.981    0.327    0.606   10.740    9.128
  289.534  108.222    0.328    0.582   10.762    9.128
  290.354  106.469    0.326    0.596   10.765    8.835
  291.175  108.935    0.327    0.598   10.729    8.588
  291.995  106.574    0.329    0.612   10.712    8.588
  292.815  108.131    0.325    0.580   10.675    8.379
  293.635  105.777    0.321    0.578   10.658    8.205
  294.455  109.748    0.314    0.601   10.658    7.980
  295.276  108.302    0.318    0.614   10.646    7.820
  296.096  109.251    0.316    0.598   10.649    7.896
  296.916  108.401    0.313    0.589   10.632    8.270
  297.736  106.053    0.274    0.586   10.576    8.664
  298.556  103.391    0.248    0.581   10.519    8.758
  299.377  102.541    0.255    0.567   10.384    8.898
  300.197  106.806    0.276    0.569   10.287    8.977
  301.017  111.680    0.294    0.598   10.271    8.930
  301.837  113.237    0.307    0.612   10.293    8.882
  302.657  109.980    0.305    0.580   10.317    8.764
  303.478  111.837    0.304    0.563   10.339    8.730
  304.298  114.598    0.303    0.537   10.343    8.608
  305.118  111.943    0.304    0.533   10.326    8.561
  305.938  108.986    0.302    0.545   10.309    8.513
  306.759  110.249    0.298    0.565   10.293    9.189
  307.579  109.994    0.299    0.592   10.256    9.765
  308.399  109.746    0.300    0.544   10.219   10.383
  309.219  105.887    0.298    0.525   10.182   11.202
  310.039  102.329    0.285    0.546   10.107   12.639
  310.860   98.169    0.275    0.490   10.050   13.836
  311.680   92.505    0.202    0.427   10.014   14.283
  312.500   90.759    0.173    0.430   10.018   14.524
  313.320   93.513    0.205    0.441   10.040   14.132
  314.140   97.477    0.225    0.464   10.063   13.343
  314.961   93.317    0.295    0.488   10.046   12.325
  315.781   88.255    0.274    0.473   10.050   13.595
  316.601   84.704    0.262    0.483   10.055   16.274
  317.421   82.650    0.227    0.491   10.056   17.815
  318.241   81.800    0.208    0.489   10.056   19.367
  319.062   83.658    0.220    0.474   10.083   20.436
  319.882   87.014    0.244    0.461   10.125   21.410
  320.702   91.593    0.254    0.445   10.128   21.933
  321.522   91.940    0.275    0.459   10.130   22.145
  322.343   90.194    0.277    0.468   10.075   21.696
  323.163   88.735    0.274    0.456   10.057   20.960
  323.983   84.883    0.278    0.466   10.021   20.229
  324.803   77.400    0.266    0.453    9.965   19.533
  325.623   74.745    0.251    0.440    9.888   20.764
  326.444   72.096    0.226    0.427    9.753   23.074
  327.264   72.751    0.251    0.405    9.558   25.837
  328.084   74.609    0.261    0.409    9.621   29.153
  328.904   75.871    0.279    0.406    9.762   29.638
  329.724   74.720    0.295    0.398    9.706   29.924
  330.545   72.058    0.308    0.411    9.630   29.102
  331.365   69.717    0.275    0.438    9.553   27.491
  332.185   69.757    0.300    0.416    9.537   26.735
