~VERSION INFORMATION
 VERS.                 2.0:   CWLS LOG ASCII STANDARD -VERSION 2.0
 WRAP.                  NO:   ONE LINE PER DEPTH STEP
~WELL INFORMATION BLOCK
#MNEM.UNIT           DATA                    DESCRIPTION OF MNEMONIC
#---------    -------------------            -------------------------------
# Generated from Intellog Unique Number	CW_82_90/WELL/875
WELL.         PHILLIPS ET AK GRABIR IV 10-17 : Well_name    - WELL
LOC .         AA/10-17-084-19W4/0            : Location     - LOCATION
UWI .         AA/10-17-084-19W400            : Uwi          - UNIQUE WELL ID
ENTR.         JAYE                           : Entered      - ENTERED BY
SRVC.         SCHLUMBERGER                   : Scn          - SERVICE COMPANY
DATE.         2 MAR 81                       : Date         - LOG DATE
STRT.M        200                            : top_depth    - START DEPTH
STOP.M        365                            : bot_depth    - STOP DEPTH
STEP.M        0.25                           : increment    - STEP LENGTH
 NULL. -999.2500:NULL Value
~CURVE INFORMATION BLOCK
#MNEM UNIT       ERCB CURVE CODE    CURVE DESCRIPTION
#-----------   ------------------   ----------------------------------
DEPT.M        00 001 00 00         : DEPTH        - DEPTH
CALI.MM       00 280 01 00         : CAL          - CALIPER
GR  .API      00 310 00 00         : GR           - GAMMA RAY
DPHI.V/V      00 890 00 00         : PHID         - DENSITY POROSITY (SANDSTONE)
NPHI.V/V      00 330 00 00         : PHIN         - NEUTRON POROSITY (SANDSTONE)
ILD .OHMM     00 120 00 00         : RESD         - DEEP RESISTIVITY (DIL)
~PARAMETER INFORMATION
#MNEM.UNIT           DATA             DESCRIPTION OF MNEMONIC
#---------         -----------     ------------------------------
GL  .M        613                  : gl           - GROUND LEVEL ELEVATION
EREF.M        615.82               : kb           - ELEVATION OF DEPTH REFERENCE
DATM.M        613                  : datum        - DATUM ELEVATION
TDD .M        373                  : tdd          - TOTAL DEPTH DRILLER
RUN .         ONE                  : Run          - RUN NUMBER
ENG .         ISBISTER             : Engineer     - RECORDING ENGINEER
WIT .         THOMAS               : Witness      - WITNESSED BY
BASE.         EDMONTON             : Branch       - HOME BASE OF LOGGING UNIT
MUD .         GEL MUD              : Mud_type     - MUD TYPE
MATR.         SANDSTONE            : Logunit      - NEUTRON MATRIX
TMAX.C        20                   : BHT          - MAXIMUM RECORDED TEMPERATURE
BHTD.M        373                  : BHTDEP       - MAXIMUM RECORDED TEMPERATURE
RMT .C        14                   : MDTP         - TEMPERATURE OF MUD
MUDD.KG/M     1000                 : MWT          - MUD DENSITY
NEUT.         1                    : NEUTRON      - NEUTRON TYPE
RESI.         0                    : RESIST       - RESISTIVITY TYPE
RM  .OHMM     2.6                  : RM           - RESISTIVITY OF MUD
RMC .OHMM     0                    : RMC          - RESISTIVITY OF MUD CAKE
RMF .OHMM     2.11                 : RMF          - RESISTIVITY OF MUD FILTRATE
SUFT.C        0                    : SUFT         - SURFACE TEMPERATURE
~A  DEPTH      CAL       GR     PHID     PHIN     RESD
# ...
  309.500  227.433   52.833    0.171    0.440   31.932
  309.750  225.964   48.760    0.135    0.415   36.046
  310.000  224.494   46.752    0.085    0.345   33.378
  310.250  223.962   53.246    0.041    0.257   28.714
  310.500  224.465   61.617    0.013    0.195   23.959
  310.750  224.972   74.364    0.034    0.196   20.485
  311.000  225.996   83.672    0.043    0.213   18.319
  311.250  226.189   80.162    0.070    0.277   15.664
  311.500  226.695   76.215    0.115    0.339   14.210
  311.750  227.405   74.080    0.191    0.433   13.458
  312.000  227.496   73.260    0.213    0.458   13.494
  312.250  227.691   73.501    0.205    0.470   13.896
  312.500  227.054   73.931    0.219    0.458   14.164
  312.750  226.206   74.048    0.212    0.454   14.377
  313.000  225.154   72.352    0.216    0.478   14.624
  313.250  226.386   71.531    0.230    0.487   14.788
  313.500  228.555   71.961    0.221    0.475   14.856
  313.750  229.162   73.203    0.207    0.468   14.868
  314.000  225.823   74.632    0.220    0.460   14.816
  314.250  225.392   76.062    0.226    0.449   14.828
  314.500  227.973   76.679    0.232    0.449   14.776
  314.750  230.247   76.483    0.219    0.455   14.728
  315.000  230.442   75.475    0.206    0.458   14.652
  315.250  230.012   74.530    0.196    0.457   14.598
  315.500  229.790   73.896    0.188    0.457   14.609
  315.750  229.876   75.451    0.193    0.457   14.649
  316.000  230.176   77.694    0.185    0.451   14.599
  316.250  230.472   78.060    0.175    0.455   14.640
  316.500  230.871   77.552    0.203    0.466   14.649
  316.750  231.068   76.793    0.188    0.470   14.690
  317.000  231.364   76.661    0.202    0.463   14.699
  317.250  231.662   78.214    0.198    0.456   14.802
  317.500  231.854   78.895    0.191    0.451   14.809
  317.750  231.842   78.386    0.185    0.444   14.553
  318.000  231.203   77.502    0.204    0.441   14.325
  318.250  230.253   76.680    0.199    0.444   13.988
  318.500  229.824   76.111    0.198    0.456   13.465
  318.750  230.329   74.602    0.189    0.475   13.013
  319.000  231.665   72.969    0.215    0.464   12.400
  319.250  237.055   71.898    0.212    0.470   11.838
  319.500  240.054   71.075    0.222    0.491   11.120
  319.750  232.038   70.818    0.246    0.479   10.725
  320.000  236.387   71.498    0.246    0.467   10.755
  320.250  249.153   72.053    0.223    0.456   11.608
  320.500  253.607   69.606    0.236    0.506   13.158
  320.750  272.920   67.847    0.287    0.538   15.253
  321.000  259.605   66.025    0.325    0.547   25.752
  321.250  234.342   62.891    0.299    0.507   46.227
  321.500  223.936   59.319    0.243    0.468   62.090
  321.750  223.091   54.809    0.168    0.433   69.802
  322.000  224.946   49.486    0.111    0.335   72.466
  322.250  225.863   45.476    0.052    0.247   61.836
  322.500  226.475   44.843    0.006    0.181   45.641
  322.750  226.874   46.773    0.001    0.183   37.999
  323.000  227.067   50.765    0.002    0.182   26.977
  323.250  226.742   54.010    0.022    0.186   21.785
  323.500  226.211   59.692    0.045    0.200   20.254
  323.750  225.988   66.624    0.076    0.227   19.062
  324.000  226.387   68.679    0.143    0.404   17.797
  324.250  226.684   67.857    0.186    0.405   16.785
  324.500  226.464   66.036    0.198    0.401   16.090
  324.750  225.512   65.277    0.193    0.394   15.906
  325.000  224.770   65.457    0.214    0.400   15.852
  325.250  224.240   64.074    0.228    0.427   16.025
  325.500  222.562   64.690    0.235    0.437   16.603
  325.750  220.262   67.496    0.224    0.445   17.274
  326.000  220.663   71.239    0.208    0.457   17.677
  326.250  221.480   72.794    0.200    0.450   18.131
  326.500  221.878   71.285    0.210    0.441   18.479
  326.750  221.555   68.025    0.209    0.436   18.721
  327.000  220.086   66.392    0.213    0.445   18.504
  327.250  218.198   64.446    0.222    0.450   17.959
  327.500  218.499   62.624    0.219    0.445   16.867
  327.750  219.834   61.990    0.214    0.424   14.630
  328.000  222.105   63.608    0.203    0.405   12.612
  328.250  225.520   66.039    0.189    0.386   11.142
  328.500  232.052   67.531    0.228    0.388    9.924
  328.750  269.652   69.149    0.250    0.419    9.379
  329.000  270.365   73.018    0.336    0.451    9.680
  329.250  265.156   77.261    0.291    0.475   10.172
  329.500  265.245   74.939    0.283    0.481   11.022
  329.750  273.126   68.803    0.310    0.513   12.700
  330.000  301.584   65.106    0.347    0.537   14.426
  330.250  278.086   66.662    0.369    0.538   15.794
  330.500  251.160   70.530    0.361    0.519   16.874
  330.750  232.027   73.085    0.335    0.495   17.093
  331.000  235.129   74.328    0.283    0.484   16.286
  331.250  229.088   75.883    0.218    0.471   15.486
  331.500  229.697   75.999    0.219    0.470   14.726
  331.750  232.903   75.929    0.213    0.476   14.204
  332.000  241.099   75.482    0.230    0.481   13.896
  332.250  253.761   74.849    0.254    0.497   13.569
  332.500  239.926   74.154    0.270    0.508   13.090
  332.750  247.705   73.770    0.257    0.497   12.885
  333.000  244.362   73.823    0.212    0.487   12.533
  333.250  250.377   73.940    0.200    0.476   12.262
  333.500  252.129   74.308    0.221    0.486   12.146
  333.750  240.373   74.550    0.220    0.485   11.980
  334.000  245.346   74.855    0.240    0.468   11.868
  334.250  255.620   80.287    0.212    0.478   11.827
  334.500  249.370   84.531    0.231    0.475   11.764
  334.750  255.279   87.273    0.256    0.475   11.630
  335.000  236.146   83.888    0.245    0.486   11.517
  335.250  251.509   83.880    0.221    0.518   11.364
  335.500  256.065   85.373    0.231    0.530   11.300
  335.750  239.738   87.428    0.224    0.506   11.193
  336.000  250.840   88.858    0.209    0.492   10.975
  336.250  251.242   90.038    0.198    0.477   10.739
  336.500  243.123   91.468    0.177    0.483   10.361
  336.750  251.526   92.773    0.230    0.525   10.156
  337.000  242.680   92.514    0.221    0.516    9.797
  337.250  247.132   93.882    0.223    0.505   11.264
  337.500  242.959   90.747    0.248    0.497   13.220
  337.750  246.376   84.987    0.248    0.483   15.609
  338.000  224.646   81.853    0.232    0.467   17.765
  338.250  222.862   82.032    0.198    0.418   18.370
  338.500  222.950   82.460    0.168    0.409   18.307
  338.750  223.353   82.765    0.182    0.421   18.170
  339.000  224.381   82.632    0.181    0.404   17.348
  339.250  225.611   81.937    0.176    0.421   15.170
  339.500  226.534   80.615    0.220    0.438   14.368
  339.750  227.660   80.982    0.204    0.454   15.100
  340.000  232.635   81.662    0.178    0.453   16.364
  340.250  236.881   79.903    0.214    0.446   17.804
  340.500  227.826   76.143    0.212    0.438   20.852
  340.750  223.135   72.634    0.195    0.426   23.588
  341.000  220.939   69.186    0.174    0.396   24.642
  341.250  219.886   69.303    0.158    0.379   24.809
  341.500  219.243   70.670    0.172    0.366   24.978
  341.750  219.020   70.850    0.215    0.383   25.460
  342.000  218.697   70.342    0.219    0.400   26.488
  342.250  218.581   68.520    0.214    0.399   27.441
  342.500  218.566   63.885    0.201    0.397   29.377
  342.750  218.550   61.376    0.180    0.406   31.511
  343.000  218.640   59.930    0.170    0.390   33.258
  343.250  218.731   59.172    0.124    0.347   33.900
  343.500  218.614   57.850    0.114    0.333   34.269
  343.750  218.910   56.467    0.087    0.323   34.502
  344.000  218.896   56.270    0.086    0.309   33.553
  344.250  218.984   59.889    0.144    0.312   31.450
  344.500  219.180   63.820    0.148    0.332   29.480
  344.750  219.683   67.813    0.140    0.344   27.241
  345.000  220.397   68.179    0.144    0.363   21.776
  345.250  221.422   66.985    0.137    0.397   20.619
  345.500  222.340   67.602    0.146    0.424   20.053
  345.750  222.848   69.718    0.223    0.430   19.662
