~VERSION INFORMATION
 VERS.                 2.0:   CWLS LOG ASCII STANDARD -VERSION 2.0
 WRAP.                  NO:   ONE LINE PER DEPTH STEP
~WELL INFORMATION BLOCK
#MNEM.UNIT           DATA                    DESCRIPTION OF MNEMONIC
#---------    -------------------            -------------------------------
# Generated from Intellog Unique Number	CC_80_83/WELL/2385
NULL.         -999.25                        : NULL_VALUE
COMP.         PETRO CANADA                   : COMPANY
WELL.         PEX PCEJU HOUSE OV             : Well_name    - WELL              
LOC .         10-29-081-13W4                 : Location     - LOCATION          
UWI .         AA/10-29-081-13W400            : Uwi          - UNIQUE WELL ID    
ENTR.         RJA                            : Entered      - ENTERED BY        
SRVC.         SCHLUMBERGER                   : Scn          - SERVICE COMPANY   
DATE.         04 FEB 81                      : Date         - LOG DATE
STRT.M        175                            : top_depth    - START DEPTH       
STOP.M        454.893                        : bot_depth    - STOP DEPTH        
STEP.M        0.3                            : increment    - STEP LENGTH       
~CURVE INFORMATION BLOCK
#MNEM UNIT       ERCB CURVE CODE    CURVE DESCRIPTION
#-----------   ------------------   ----------------------------------
DEPT.M        00 001 00 00         : DEPTH        - DEPTH                       
DPHI.V/V      00 890 00 00         : PHID         - DENSITY POROSITY (LIMESTONE)
NPHI.V/V      00 330 00 00         : PHIN         - NEUTRON POROSITY (LIMESTONE)
GR  .API      00 310 00 00         : GR           - GAMMA RAY                   
ILD .OHMM     00 120 00 00         : RESD         - DEEP RESISTIVITY (DIL)      
~PARAMETER INFORMATION       
#MNEM.UNIT           DATA             DESCRIPTION OF MNEMONIC
#---------         -----------     ------------------------------
GL  .M        656.2                : gl           - GROUND LEVEL ELEVATION      
EREF.M        659.1                : kb           - ELEVATION OF DEPTH REFERENCE
DATM.M        659.1                : datum        - DATUM ELEVATION             
TDD .M        460.2                : tdd          - TOTAL DEPTH DRILLER         
RUN .         ONE                  : Run          - RUN NUMBER                  
ENG .         BILL                 : Engineer     - RECORDING ENGINEER          
WIT .         JIM                  : Witness      - WITNESSED BY                
MUD .         GEL                  : Mud_type     - MUD TYPE                    
MATR.         LIMESTONE            : Logunit      - NEUTRON MATRIX              
TMAX.C        23                   : BHT          - MAXIMUM RECORDED TEMPERATURE
BHTD.M        460.2                : BHTDEP       - MAXIMUM RECORDED TEMPERATURE
MATR.         1                    : LOGUNIT      - NEUTRON MATRIX              
RMT .C        25                   : MDTP         - TEMPERATURE OF MUD          
NEUT.         1                    : NEUTRON      - NEUTRON TYPE                
RESI.         0                    : RESIST       - RESISTIVITY TYPE            
RMC .OHMM     0.25                 : RMC          - RESISTIVITY OF MUD CAKE     
RMF .OHMM     0.25                 : RMF          - RESISTIVITY OF MUD FILTRATE 
SUFT.C        4                    : SUFT         - SURFACE TEMPERATURE         
~A  DEPTH     PHID     PHIN       GR     RESD
  175.000    0.367    0.556   59.354    2.434
  175.300    0.363    0.576   51.804    2.432
  175.600    0.347    0.598   57.381    2.429
  175.900    0.359    0.588   55.469    2.428
  176.200    0.373    0.551   51.681    2.426
  176.500    0.357    0.531   58.510    2.470
  176.800    0.371    0.541   59.098    2.468
  177.100    0.368    0.557   57.815    2.466
  177.400    0.356    0.558   57.761    2.511
  177.700    0.349    0.566   57.100    2.558
  178.000    0.340    0.567   63.309    2.656
  178.300    0.332    0.557   60.141    2.706
  178.600    0.336    0.567   57.607    2.810
  178.900    0.340    0.565   62.566    2.862
  179.200    0.354    0.581   58.772    2.858
  179.500    0.359    0.570   58.725    2.856
  179.800    0.352    0.560   64.317    2.800
  180.100    0.329    0.554   59.267    2.798
  180.400    0.334    0.540   64.862    2.849
  180.700    0.332    0.526   71.684    2.902
  181.000    0.327    0.522   70.396    3.071
  181.300    0.298    0.507   65.356    3.129
  181.600    0.302    0.524   74.680    3.126
  181.900    0.341    0.533   72.150    3.006
  182.200    0.351    0.534   66.482    2.945
  182.500    0.324    0.540   63.933    2.832
  182.800    0.306    0.531   65.784    2.775
  183.100    0.320    0.533   74.489    2.774
  183.400    0.344    0.534   71.940    2.718
  183.700    0.336    0.547   71.277    2.715
  184.000    0.284    0.562   68.719    2.713
  184.300    0.309    0.582   66.822    2.608
  184.600    0.340    0.591   65.531    2.606
  184.900    0.358    0.576   66.111    2.555
  185.200    0.354    0.574   69.194    2.504
  185.500    0.359    0.555   70.407    2.455
  185.800    0.352    0.556   74.742    2.360
  186.100    0.313    0.565   73.444    2.357
  186.400    0.292    0.559   71.519    2.356
  186.700    0.297    0.552   72.732    2.492
  187.000    0.308    0.535   71.441    2.491
  187.300    0.317    0.535   69.539    2.537
  187.600    0.324    0.557   68.246    2.534
  187.900    0.316    0.547   72.574    2.533
  188.200    0.324    0.537   78.153    2.580
  188.500    0.352    0.540   73.737    2.628
  188.800    0.370    0.538   69.326    2.676
  189.100    0.344    0.541   66.157    2.674
  189.400    0.334    0.534   68.003    2.724
  189.700    0.341    0.542   65.455    2.669
  190.000    0.371    0.546   66.046    2.616
  190.300    0.342    0.529   61.612    2.564
  190.600    0.363    0.534   60.338    2.465
  190.900    0.365    0.540   65.924    2.417
  191.200    0.350    0.547   70.880    2.415
  191.500    0.203    0.549   68.341    2.459
  191.800    0.199    0.514   58.301    2.505
  192.100    0.344    0.493   72.632    2.651
  192.400    0.307    0.498   76.962    2.973
  192.700    0.280    0.492   76.919    3.600
  193.000    0.275    0.496   70.623    4.531
  193.300    0.259    0.474   63.721    6.523
  193.600    0.204    0.447   49.301   12.290
  193.900    0.197    0.393   39.890   14.600
  194.200    0.268    0.387   27.360    9.018
  194.500    0.298    0.414   22.933    6.885
  194.800    0.296    0.434   31.024    5.900
  195.100    0.342    0.455   50.351    4.958
  195.400    0.358    0.470   60.309    4.414
  195.700    0.277    0.474   57.767    4.854
  196.000    0.278    0.456   49.584    5.339
  196.300    0.285    0.460   46.438    5.761
  196.600    0.418    0.476   40.143    5.432
  196.900    0.465    0.490   35.736    5.125
  197.200    0.489    0.495   42.564    4.390
  197.500    0.300    0.472   53.144    3.909
  197.800    0.291    0.486   54.354    3.617
  198.100    0.310    0.488   59.932    3.346
  198.400    0.290    0.502   53.641    3.155
  198.700    0.288    0.511   57.964    3.093
  199.000    0.279    0.502   58.551    2.974
  199.300    0.301    0.500   56.643    2.914
  199.600    0.319    0.501   61.600    2.911
  199.900    0.328    0.481   60.929    3.024
  200.200    0.303    0.499   60.896    3.021
  200.500    0.308    0.505   63.360    2.849
  200.800    0.312    0.513   55.805    2.793
  201.100    0.329    0.513   59.519    2.790
  201.400    0.349    0.518   57.580    2.787
  201.700    0.321    0.536   56.321    2.786
  202.000    0.319    0.543   51.903    2.782
  202.300    0.349    0.543   61.230    2.834
  202.600    0.364    0.535   58.053    2.887
  202.900    0.302    0.528   58.031    2.941
  203.200    0.328    0.527   58.595    2.995
  203.500    0.342    0.516   57.939    2.992
  203.800    0.302    0.517   57.894    2.989
  204.100    0.288    0.524   57.239    2.987
  204.400    0.301    0.533   47.817    2.985
  204.700    0.323    0.529   54.657    2.981
  205.000    0.305    0.535   57.115    2.979
  205.300    0.242    0.554   54.569    2.921
  205.600    0.280    0.527   62.031    2.862
  205.900    0.273    0.526   62.609    2.806
  206.200    0.269    0.534   61.321    2.749
  206.500    0.285    0.519   61.901    2.695
  206.800    0.295    0.528   59.366    2.693
  207.100    0.290    0.530   65.575    2.588
  207.400    0.270    0.512   63.647    2.586
  207.700    0.276    0.541   60.492    2.534
  208.000    0.305    0.544   63.581    2.533
  208.300    0.313    0.534   62.911    2.483
  208.600    0.303    0.546   61.001    2.432
  208.900    0.306    0.548   62.832    2.431
  209.200    0.331    0.553   60.274    2.383
  209.500    0.310    0.555   60.250    2.380
  209.800    0.311    0.557   65.835    2.378
  210.100    0.329    0.551   67.667    2.331
  210.400    0.361    0.532   64.501    2.330
  210.700    0.338    0.532   63.819    2.327
  211.000    0.309    0.551   64.415    2.326
  211.300    0.299    0.557   70.003    2.323
  211.600    0.270    0.557   64.955    2.366
  211.900    0.281    0.532   62.407    2.456
  212.200    0.295    0.529   64.249    2.503
  212.500    0.287    0.537   67.961    2.599
  212.800    0.264    0.536   65.420    2.859
  213.100    0.252    0.530   63.509    3.204
  213.400    0.227    0.512   60.334    3.392
  213.700    0.252    0.489   54.675    3.522
  214.000    0.326    0.508   55.261    3.519
  214.300    0.312    0.506   58.970    3.194
  214.600    0.306    0.496   55.804    2.954
  214.900    0.336    0.504   60.752    2.841
  215.200    0.371    0.524   59.472    2.732
  215.500    0.356    0.547   58.802    2.626
  215.800    0.345    0.560   62.505    2.574
  216.100    0.355    0.577   59.348    2.475
  216.400    0.393    0.582   56.183    2.520
  216.700    0.362    0.569   61.758    2.519
  217.000    0.324    0.537   59.220    2.516
  217.300    0.322    0.517   66.683    2.466
  217.600    0.332    0.501   59.761    2.326
  217.900    0.347    0.494   57.843    2.110
  218.200    0.362    0.499   65.308    2.029
  218.500    0.384    0.520   65.255    1.989
  218.800    0.399    0.532   58.971    2.026
  219.100    0.335    0.547   65.804    2.145
  219.400    0.317    0.527   66.383    2.315
  219.700    0.290    0.519   60.721    2.450
  220.000    0.328    0.523   54.429    2.643
  220.300    0.365    0.531   56.885    2.744
  220.600    0.419    0.533   54.356    2.741
  220.900    0.399    0.522   53.064    2.739
  221.200    0.286    0.493   56.152    2.737
  221.500    0.274    0.537   61.733    2.788
  221.800    0.267    0.547   68.552    2.784
  222.100    0.265    0.543   70.384    2.837
  222.400    0.269    0.526   62.852    2.889
  222.700    0.287    0.516   60.318    2.887
  223.000    0.286    0.530   60.903    2.885
  223.300    0.290    0.547   55.865    2.774
  223.600    0.288    0.562   53.941    2.616
  223.900    0.286    0.588   65.149    2.466
  224.201    0.281    0.564   58.861    2.465
  224.501    0.285    0.548   60.070    2.659
  224.801    0.271    0.546   67.523    2.762
  225.101    0.281    0.550   66.853    2.867
  225.401    0.259    0.537   56.822    2.864
  225.701    0.259    0.525   57.406    2.808
  226.001    0.265    0.512   61.729    2.752
  226.301    0.264    0.491   61.687    2.697
  226.601    0.264    0.491   65.404    2.644
  226.901    0.274    0.514   64.099    2.640
