~VERSION INFORMATION
 VERS.                 2.0:   CWLS LOG ASCII STANDARD -VERSION 2.0
 WRAP.                  NO:   ONE LINE PER DEPTH STEP
~WELL INFORMATION BLOCK
#MNEM.UNIT           DATA                    DESCRIPTION OF MNEMONIC
#---------    -------------------            -------------------------------
# Generated from Intellog Unique Number	CN_94_101/WELL/5012
WELL.         10-36-097-12W4                 : Well_name    - WELL
LOC .         AA/10-36-097-12W4/0            : Location     - LOCATION
UWI .         AA/10-36-097-12W400            : Uwi          - UNIQUE WELL ID
ENTR.         JOETTE                         : Entered      - ENTERED BY
SRVC.         SCHLUMBERGER                   : Scn          - SERVICE COMPANY
DATE.         08/17/92                       : Date         - LOG DATE
STRT.M        0                              : top_depth    - START DEPTH
STOP.M        110                            : bot_depth    - STOP DEPTH
STEP.M        0.25                           : increment    - STEP LENGTH
 NULL. -999.2500:NULL Value
~CURVE INFORMATION BLOCK
#MNEM UNIT       ERCB CURVE CODE    CURVE DESCRIPTION
#-----------   ------------------   ----------------------------------
DEPT.M        00 001 00 00         : DEPTH        - DEPTH
ILD .OHMM     00 120 00 00         : RESD         - DEEP RESISTIVITY (DIL)
GR  .API      00 310 00 00         : GR           - GAMMA RAY
DPHI.V/V      00 890 00 00         : PHID         - DENSITY POROSITY (SANDSTONE)
NPHI.V/V      00 330 00 00         : PHIN         - NEUTRON POROSITY (SANDSTONE)
~PARAMETER INFORMATION
#MNEM.UNIT           DATA             DESCRIPTION OF MNEMONIC
#---------         -----------     ------------------------------
GL  .M        331.14               : gl           - GROUND LEVEL ELEVATION
EREF.M        331.14               : kb           - ELEVATION OF DEPTH REFERENCE
DATM.M        331.14               : datum        - DATUM ELEVATION
TDD .M        112                  : tdd          - TOTAL DEPTH DRILLER
RUN .         ONE                  : Run          - RUN NUMBER
ENG .         BILL                 : Engineer     - RECORDING ENGINEER
WIT .         JIM                  : Witness      - WITNESSED BY
MUD .         GEL                  : Mud_type     - MUD TYPE
MATR.         SANDSTONE            : Logunit      - NEUTRON MATRIX
TMAX.C        15                   : BHT          - MAXIMUM RECORDED TEMPERATURE
BHTD.M        112                  : BHTDEP       - MAXIMUM RECORDED TEMPERATURE
RMT .C        15                   : MDTP         - TEMPERATURE OF MUD
MUDD.KG/M     1022                 : MWT          - MUD DENSITY
NEUT.         1                    : NEUTRON      - NEUTRON TYPE
RESI.         0                    : RESIST       - RESISTIVITY TYPE
RM  .OHMM     14.6                 : RM           - RESISTIVITY OF MUD
RMC .OHMM     7.81                 : RMC          - RESISTIVITY OF MUD CAKE
RMF .OHMM     11.3                 : RMF          - RESISTIVITY OF MUD FILTRATE
SUFT.C        4                    : SUFT         - SURFACE TEMPERATURE
~A  DEPTH     RESD       GR     PHID     PHIN
# ...
   87.000   10.354   52.345    0.307    0.584
   87.250    9.661   52.390    0.318    0.540
   87.500   10.249   50.730    0.275    0.512
   87.750   11.346   48.433    0.211    0.512
   88.000   11.356   49.728    0.179    0.541
   88.250   11.226   51.591    0.223    0.516
   88.500   10.926   48.726    0.220    0.493
   88.750   10.786   47.043    0.217    0.499
   89.000   10.810   48.315    0.222    0.510
   89.250   10.989   48.974    0.221    0.514
   89.500   11.156   47.882    0.218    0.512
   89.750   11.498   51.518    0.335    0.503
   90.000   11.694   51.017    0.364    0.429
   90.250   11.221   38.106    0.389    0.398
   90.500   11.898   28.718    0.399    0.411
   90.750   25.678   25.263    0.395    0.417
   91.000   88.632   31.853    0.343    0.438
   91.250   48.875   40.239    0.319    0.450
   91.500   34.328   32.624    0.324    0.424
   91.750   32.017   27.396    0.348    0.404
   92.000   36.448   23.963    0.353    0.398
   92.250   36.513   21.076    0.359    0.375
   92.500   72.395   17.620    0.384    0.370
   92.750  115.942   17.688    0.404    0.394
   93.000   91.232   21.937    0.396    0.416
   93.250   79.258   25.618    0.362    0.394
   93.500   64.163   25.663    0.358    0.364
   93.750   64.306   23.411    0.361    0.342
   94.000   70.121   23.502    0.354    0.339
   94.250   94.701   23.001    0.343    0.364
   94.500  151.666   20.113    0.350    0.407
   94.750  131.819   20.817    0.394    0.435
   95.000   73.730   22.657    0.363    0.462
   95.250   52.502   21.566    0.374    0.464
   95.500   73.993   20.474    0.336    0.457
   95.750   45.068   36.542    0.333    0.442
   96.000   29.471   30.132    0.366    0.445
   96.250   28.697   26.085    0.397    0.451
   96.500   26.015   26.744    0.410    0.450
   96.750   34.151   23.288    0.431    0.426
   97.000   37.255   21.014    0.442    0.414
   97.250   52.505   22.900    0.451    0.401
   97.500   59.772   20.603    0.428    0.392
   97.750   55.773   24.262    0.423    0.393
   98.000  100.116   20.193    0.417    0.395
   98.250  124.165   13.782    0.402    0.398
   98.500  119.144   13.895    0.378    0.399
   98.750  102.092   16.349    0.322    0.407
   99.000   71.673   22.326    0.292    0.429
   99.250   20.554   30.712    0.299    0.474
   99.500   13.633   37.347    0.320    0.481
   99.750   14.663   35.028    0.324    0.460
  100.000   17.920   33.368    0.325    0.458
  100.250   18.209   36.413    0.316    0.459
  100.500   18.519   38.844    0.291    0.468
  100.750   17.762   38.366    0.279    0.494
  101.000   12.476   34.297    0.278    0.469
  101.250   12.322   29.068    0.287    0.445
  101.500   13.252   30.340    0.344    0.437
  101.750   18.154   31.612    0.402    0.444
  102.000   20.374   28.157    0.431    0.453
  102.250   25.619   21.769    0.455    0.455
  102.500   38.216   17.677    0.464    0.455
  102.750   77.954   16.017    0.453    0.456
  103.000   90.052   16.675    0.450    0.464
  103.250  101.069   20.334    0.460    0.466
  103.500  115.056   22.788    0.468    0.436
  103.750  127.368   16.355    0.460    0.386
  104.000  127.595   13.513    0.458    0.359
  104.250  122.436   12.989    0.466    0.326
  104.500  111.046   16.057    0.357    0.322
  104.750  117.747   17.942    0.331    0.342
  105.000  134.162   19.828    0.331    0.347
  105.250  130.637   20.463    0.351    0.347
  105.500  120.072   22.349    0.376    0.325
  105.750   29.440   25.962    0.334    0.319
  106.000   16.702   34.984    0.255    0.312
  106.250   11.893   35.642    0.211    0.315
  106.500   20.459   34.551    0.181    0.323
  106.750   22.004   33.481    0.165    0.317
  107.000   23.332   33.526    0.148    0.309
  107.250   24.047   37.162    0.155    0.335
  107.500   23.085   38.434    0.156    0.323
  107.750   20.064   34.979    0.155    0.310
  108.000   16.475   34.478    0.152    0.313
  108.250   15.586   36.341    0.151    0.321
  108.500   16.534   38.203    0.156    0.341
  108.750   17.300   39.498    0.164    0.341
  109.000   17.071   40.179    0.166    0.299
  109.250   15.265   40.838    0.163    0.182
  109.500   14.250   41.519    0.164    0.127
  109.750   15.538   40.427    0.165    0.126
  110.000   20.388   24.539    0.167    0.135
