~VERSION INFORMATION
 VERS.                 2.0:   CWLS LOG ASCII STANDARD -VERSION 2.0
 WRAP.                  NO:   ONE LINE PER DEPTH STEP
~WELL INFORMATION BLOCK
#MNEM.UNIT           DATA                    DESCRIPTION OF MNEMONIC
#---------    -------------------            -------------------------------
# Generated from Intellog Unique Number	CS_77_79/WELL/933
WELL.         LEISMER OV                     : Well_name    - WELL
LOC .         AA/10-08-079-08W4/0            : Location     - LOCATION
UWI .         AA/10-08-079-08W4/0            : Uwi          - UNIQUE WELL ID
ENTR.         JHS                            : Entered      - ENTERED BY
SRVC.         SCHLUMBERGER                   : Scn          - SERVICE COMPANY
STRT.M        145                            : top_depth    - START DEPTH
STOP.M        400                            : bot_depth    - STOP DEPTH
STEP.M        0.25                           : increment    - STEP LENGTH
 NULL. -999.2500:NULL Value
~CURVE INFORMATION BLOCK
#MNEM UNIT       ERCB CURVE CODE    CURVE DESCRIPTION
#-----------   ------------------   ----------------------------------
DEPT.M        00 001 00 00         : DEPTH        - DEPTH
DPHI.V/V      00 890 00 00         : PHID         - DENSITY POROSITY (LIMESTONE)
NPHI.V/V      00 330 00 00         : PHIN         - NEUTRON POROSITY (LIMESTONE)
GR  .API      00 310 00 00         : GR           - GAMMA RAY
ILD .OHMM     00 120 00 00         : RESD         - DEEP RESISTIVITY (DIL)
RHOB.KG/M3    00 350 00 00         : DENS         - BULK DENSITY
~PARAMETER INFORMATION
#MNEM.UNIT           DATA             DESCRIPTION OF MNEMONIC
#---------         -----------     ------------------------------
GL  .M        611.36               : gl           - GROUND LEVEL ELEVATION
EREF.M        614.94               : kb           - ELEVATION OF DEPTH REFERENCE
DATM.M        614.94               : datum        - DATUM ELEVATION
TDD .M        407                  : tdd          - TOTAL DEPTH DRILLER
RUN .         ONE                  : Run          - RUN NUMBER
ENG .         BILL                 : Engineer     - RECORDING ENGINEER
WIT .         JIM                  : Witness      - WITNESSED BY
MUD .         GEL                  : Mud_type     - MUD TYPE
MATR.         LIMESTONE            : Logunit      - NEUTRON MATRIX
TMAX.C        17                   : BHT          - MAXIMUM RECORDED TEMPERATURE
BHTD.M        407                  : BHTDEP       - MAXIMUM RECORDED TEMPERATURE
MATR.         1                    : LOGUNIT      - NEUTRON MATRIX
RMT .C        25                   : MDTP         - TEMPERATURE OF MUD
NEUT.         1                    : NEUTRON      - NEUTRON TYPE
RESI.         0                    : RESIST       - RESISTIVITY TYPE
RMC .OHMM     0.25                 : RMC          - RESISTIVITY OF MUD CAKE
RMF .OHMM     0.25                 : RMF          - RESISTIVITY OF MUD FILTRATE
SUFT.C        15                   : SUFT         - SURFACE TEMPERATURE
~A  DEPTH     PHID     PHIN       GR     RESD     DENS
# ...
  254.500    0.302    0.341   69.718   17.575    0.000
  254.750    0.302    0.336   70.962   17.581    0.000
  255.000    0.306    0.342   71.588   17.266    0.000
  255.250    0.313    0.350   72.212   17.279    0.000
  255.500    0.315    0.354   73.448   16.968    0.000
  255.750    0.316    0.353   72.241   16.664    0.000
  256.000    0.315    0.349   72.863   16.673    0.000
  256.250    0.312    0.349   75.327   16.681    0.000
  256.500    0.311    0.350   72.285   16.383    0.000
  256.750    0.314    0.343   71.073   16.394    0.000
  257.000    0.314    0.339   70.471   16.098    0.000
  257.250    0.312    0.343   69.872   15.812    0.000
  257.500    0.314    0.347   72.335   15.817    0.000
  257.750    0.312    0.347   76.022   15.829    0.000
  258.000    0.309    0.339   78.485   15.840    0.000
  258.250    0.311    0.327   77.274   15.846    0.000
  258.500    0.312    0.315   76.675   15.562    0.000
  258.750    0.312    0.298   76.081   15.572    0.000
  259.000    0.312    0.274   74.257   15.877    0.000
  259.250    0.313    0.253   71.207   17.122    0.000
  259.500    0.301    0.236   68.773   18.463    0.000
  259.750    0.247    0.195   66.951   21.061    0.000
  260.000    0.184    0.170   63.901   23.579    0.000
  260.250    0.123    0.156   60.242   24.039    0.000
  260.500    0.069    0.163   62.090   23.169    0.000
  260.750    0.102    0.231   65.168   21.514    0.000
  261.000    0.240    0.307   67.631   19.238    0.000
  261.250    0.307    0.373   68.257   16.264    0.000
  261.500    0.309    0.379   65.822   15.388    0.000
  261.750    0.312    0.375   67.673   15.398    0.000
  262.000    0.317    0.371   68.911   15.118    0.000
  262.250    0.324    0.367   69.534   15.415    0.000
  262.500    0.330    0.357   68.936   15.139    0.000
  262.750    0.335    0.350   67.114   15.145    0.000
  263.000    0.341    0.358   65.290   14.874    0.000
  263.250    0.350    0.381   68.368   14.336    0.000
  263.500    0.359    0.394   72.052   14.345    0.000
  263.750    0.375    0.395   75.740   14.625    0.000
  264.000    0.387    0.381   75.758   15.189    0.000
  264.250    0.402    0.372   73.318   16.081    0.000
  264.500    0.424    0.374   70.883   16.091    0.000
  264.750    0.409    0.378   71.511   15.798    0.000
  265.000    0.346    0.360   78.258   14.398    0.000
  265.250    0.319    0.360   80.725   13.117    0.000
  265.500    0.314    0.366   81.959   10.290    0.000
  265.750    0.309    0.377   86.872    7.775    0.000
  266.000    0.299    0.386   91.783    5.251    0.000
  266.250    0.286    0.395   99.148    4.119    0.000
  266.500    0.254    0.393  103.448    3.684    0.000
  266.750    0.232    0.392  105.295    3.618    0.000
  267.000    0.229    0.388  107.757    3.830    0.000
  267.250    0.228    0.379  110.836    3.978    0.000
  267.500    0.231    0.372  112.072    4.132    0.000
  267.750    0.234    0.382  113.922    4.212    0.000
  268.000    0.242    0.399  118.221    4.137    0.000
  268.250    0.248    0.410  120.686    4.062    0.000
  268.500    0.256    0.407  118.253    4.065    0.000
  268.750    0.260    0.399  114.590    4.223    0.000
  269.000    0.262    0.402  110.315    4.469    0.000
  269.250    0.263    0.410  107.883    4.820    0.000
  269.500    0.265    0.410  106.060    5.197    0.000
  269.750    0.268    0.403  102.400    5.501    0.000
  270.000    0.277    0.383   96.902    5.505    0.000
  270.250    0.282    0.371   91.407    5.208    0.000
  270.500    0.282    0.368   89.585    5.018    0.000
  270.750    0.272    0.377   95.720    5.021    0.000
  271.000    0.266    0.378  104.305    5.315    0.000
  271.250    0.258    0.385  109.215    5.841    0.000
  271.500    0.261    0.389  105.558    6.067    0.000
  271.750    0.271    0.394  100.063    5.847    0.000
  272.000    0.272    0.385  100.685    5.328    0.000
  272.250    0.274    0.378  106.823    4.590    0.000
  272.500    0.291    0.383  108.675    4.104    0.000
  272.750    0.295    0.405  116.034    3.603    0.000
  273.000    0.284    0.428  123.395    3.283    0.000
  273.250    0.274    0.445  120.959    3.105    0.000
  273.500    0.265    0.441  119.137    2.883    0.000
  273.750    0.262    0.437  121.600    2.628    0.000
  274.000    0.267    0.435  123.453    2.580    0.000
  274.250    0.269    0.434  124.691    2.630    0.000
  274.500    0.267    0.429  124.707    2.682    0.000
  274.750    0.268    0.421  125.331    2.734    0.000
  275.000    0.271    0.421  124.734    2.894    0.000
  275.250    0.281    0.438  122.909    2.895    0.000
  275.500    0.291    0.439  121.087    2.790    0.000
  275.750    0.308    0.434  121.097    2.898    0.000
  276.000    0.324    0.434  122.340    3.185    0.000
  276.250    0.328    0.435  121.126    3.566    0.000
  276.500    0.320    0.428  118.696    3.845    0.000
  276.750    0.301    0.417  117.478    4.069    0.000
  277.000    0.282    0.411  113.819    3.850    0.000
  277.250    0.277    0.410  111.387    3.508    0.000
  277.500    0.293    0.421  112.624    3.257    0.000
  277.750    0.282    0.430  113.864    2.968    0.000
  278.000    0.277    0.434  112.651    2.860    0.000
  278.250    0.278    0.435  113.278    2.757    0.000
  278.500    0.293    0.440  116.353    2.811    0.000
  278.750    0.311    0.447  116.976    2.976    0.000
  279.000    0.319    0.448  115.766    3.091    0.000
  279.250    0.328    0.441  113.331    3.210    0.000
  279.500    0.328    0.440  107.839    3.593    0.000
  279.750    0.325    0.420  105.401    4.336    0.000
  280.000    0.306    0.404  102.354    4.854    0.000
  280.250    0.287    0.388  100.529    5.235    0.000
  280.500    0.266    0.383   98.094    5.438    0.000
  280.750    0.270    0.381   97.495    5.442    0.000
  281.000    0.287    0.378  103.021    5.548    0.000
  281.250    0.304    0.393  106.096    5.552    0.000
  281.500    0.254    0.381  104.273    5.556    0.000
  281.750    0.224    0.365  102.450    5.558    0.000
  282.000    0.216    0.359  102.465    5.561    0.000
  282.250    0.238    0.366  101.866    5.461    0.000
  282.500    0.282    0.375   99.432    5.263    0.000
  282.750    0.290    0.386   97.608    5.169    0.000
  283.000    0.267    0.376   97.007    5.270    0.000
  283.250    0.236    0.372  100.083    5.683    0.000
  283.500    0.207    0.377  103.158    6.363    0.000
  283.750    0.201    0.367  105.621    6.862    0.000
  284.000    0.198    0.357  104.409    7.263    0.000
  284.250    0.201    0.354   99.526    7.687    0.000
  284.500    0.206    0.356  100.154    7.837    0.000
  284.750    0.212    0.354   99.553    7.989    0.000
  285.000    0.214    0.346   98.341    7.994    0.000
  285.250    0.217    0.347   98.357    7.999    0.000
  285.500    0.223    0.357   98.988    7.857    0.000
  285.750    0.226    0.371   98.997    7.859    0.000
  286.000    0.230    0.375   99.624    7.576    0.000
  286.250    0.234    0.379  101.478    7.034    0.000
  286.500    0.232    0.384  101.488    6.410    0.000
  286.750    0.230    0.390  103.342    6.062    0.000
  287.000    0.227    0.400  103.351    5.525    0.000
  287.250    0.229    0.413  103.366    5.226    0.000
  287.500    0.230    0.412  105.216    5.036    0.000
  287.750    0.235    0.409  106.455    4.855    0.000
  288.000    0.237    0.409  105.246    4.857    0.000
  288.250    0.241    0.404  103.428    4.771    0.000
  288.500    0.246    0.404  102.824    4.864    0.000
  288.750    0.255    0.411  101.001    4.866    0.000
  289.000    0.268    0.420  101.011    4.961    0.000
  289.250    0.281    0.421  102.864    5.059    0.000
  289.500    0.278    0.412  105.938    5.061    0.000
  289.750    0.267    0.407  110.851    4.878    0.000
  290.000    0.261    0.403  115.151    4.445    0.000
  290.250    0.269    0.401  117.612    3.975    0.000
  290.500    0.300    0.407  116.402    3.690    0.000
  290.750    0.331    0.420  114.579    3.239    0.000
