~VERSION INFORMATION
 VERS.                 2.0:   CWLS LOG ASCII STANDARD -VERSION 2.0
 WRAP.                  NO:   ONE LINE PER DEPTH STEP
~WELL INFORMATION BLOCK
#MNEM.UNIT           DATA                    DESCRIPTION OF MNEMONIC
#---------    -------------------            -------------------------------
# Generated from Intellog Unique Number	CX_WELLS/WELL/1170
WELL.         10-11-088-16W4                 : Well_name    - WELL
LOC .         AA/10-11-088-16W4/0            : Location     - LOCATION
UWI .         AA/10-11-088-16W400            : Uwi          - UNIQUE WELL ID
ENTR.         DW                             : Entered      - ENTERED BY
SRVC.         SCHLUMBERGER                   : Scn          - SERVICE COMPANY
STRT.M        75                             : top_depth    - START DEPTH
STOP.M        275                            : bot_depth    - STOP DEPTH
STEP.M        0.25                           : increment    - STEP LENGTH
 NULL. -999.2500:NULL Value
~CURVE INFORMATION BLOCK
#MNEM UNIT       ERCB CURVE CODE    CURVE DESCRIPTION
#-----------   ------------------   ----------------------------------
DEPT.M        00 001 00 00         : DEPTH        - DEPTH
GR  .API      00 310 00 00         : GR           - GAMMA RAY
NPHI.V/V      00 330 00 00         : PHIN         - NEUTRON POROSITY (SANDSTONE)
DPHI.V/V      00 890 00 00         : PHID         - DENSITY POROSITY (SANDSTONE)
ILD .OHMM     00 120 00 00         : RESD         - DEEP RESISTIVITY (DIL)
~PARAMETER INFORMATION
#MNEM.UNIT           DATA             DESCRIPTION OF MNEMONIC
#---------         -----------     ------------------------------
GL  .M        537.9                : gl           - GROUND LEVEL ELEVATION
EREF.M        540.9                : kb           - ELEVATION OF DEPTH REFERENCE
DATM.M        540.9                : datum        - DATUM ELEVATION
TDD .M        283.7                : tdd          - TOTAL DEPTH DRILLER
RUN .         ONE                  : Run          - RUN NUMBER
ENG .         BILL                 : Engineer     - RECORDING ENGINEER
WIT .         JIM                  : Witness      - WITNESSED BY
MUD .         GEL                  : Mud_type     - MUD TYPE
MATR.         SANDSTONE            : Logunit      - NEUTRON MATRIX
TMAX.C        25                   : BHT          - MAXIMUM RECORDED TEMPERATURE
BHTD.M        283.7                : BHTDEP       - MAXIMUM RECORDED TEMPERATURE
MATR.         1                    : LOGUNIT      - NEUTRON MATRIX
RMT .C        25                   : MDTP         - TEMPERATURE OF MUD
NEUT.         1                    : NEUTRON      - NEUTRON TYPE
RESI.         0                    : RESIST       - RESISTIVITY TYPE
RMC .OHMM     0.25                 : RMC          - RESISTIVITY OF MUD CAKE
RMF .OHMM     0.25                 : RMF          - RESISTIVITY OF MUD FILTRATE
SUFT.C        15                   : SUFT         - SURFACE TEMPERATURE
~A  DEPTH       GR     PHIN     PHID     RESD
# ...
  118.500   69.055    0.435    0.350   25.569
  118.750   71.436    0.443    0.349   25.164
  119.000   73.839    0.457    0.344   24.754
  119.250   75.057    0.464    0.339   23.910
  119.500   75.689    0.470    0.334   22.266
  119.750   75.158    0.473    0.334   19.619
  120.000   74.593    0.461    0.339   17.295
  120.250   73.464    0.445    0.345   16.713
  120.500   74.118    0.450    0.348   16.448
  120.750   75.923    0.461    0.351   16.464
  121.000   78.315    0.458    0.341   17.432
  121.250   80.696    0.432    0.334   18.449
  121.500   84.262    0.433    0.320   19.526
  121.750   89.023    0.439    0.303   19.562
  122.000   90.230    0.447    0.290   18.562
  122.250   92.036    0.457    0.262   17.285
  122.500   92.667    0.465    0.239   16.089
  122.750   93.299    0.473    0.220   14.451
  123.000   86.888    0.464    0.241   13.706
  123.250   84.597    0.458    0.250   12.757
  123.500   84.044    0.451    0.271   12.549
  123.750   83.502    0.445    0.301   12.573
  124.000   83.546    0.446    0.323   12.144
  124.250   84.178    0.449    0.321   11.104
  124.500   86.592    0.452    0.312   10.153
  124.750   87.811    0.457    0.308    9.811
  125.000   88.431    0.459    0.308    9.305
  125.250   89.085    0.468    0.311    8.504
  125.500   89.694    0.479    0.316    6.360
  125.750   91.499    0.492    0.327    5.116
  126.000   92.718    0.513    0.327    4.270
  126.250   94.545    0.527    0.317    4.049
  126.500   95.177    0.533    0.325    3.985
  126.750   95.210    0.539    0.327    3.991
  127.000   95.255    0.540    0.314    4.000
  127.250   95.299    0.506    0.310    4.008
  127.500   95.344    0.491    0.312    4.091
  127.750   91.879    0.522    0.308    4.172
  128.000   88.979    0.524    0.304    4.667
  128.250   85.503    0.479    0.302    4.937
  128.500   80.864    0.452    0.312    5.520
  128.750   76.214    0.436    0.319    6.404
  129.000   71.553    0.441    0.325    7.156
  129.250   70.436    0.442    0.333    8.611
  129.500   70.480    0.437    0.338   10.743
  129.750   70.514    0.431    0.343   13.657
  130.000   71.145    0.429    0.348   15.550
  130.250   71.810    0.430    0.350   18.033
  130.500   71.833    0.430    0.350   19.805
  130.750   71.889    0.426    0.346   19.482
  131.000   72.520    0.434    0.341   18.151
  131.250   73.750    0.445    0.325   17.532
  131.500   74.359    0.444    0.322   16.926
  131.750   74.990    0.433    0.318   16.659
  132.000   75.622    0.433    0.305   16.380
  132.250   76.253    0.434    0.304   16.418
  132.500   75.734    0.443    0.309   16.448
  132.750   75.180    0.455    0.313   17.085
  133.000   73.465    0.461    0.315   17.762
  133.250   72.923    0.461    0.317   18.458
  133.500   72.380    0.462    0.321   18.501
  133.750   70.665    0.462    0.316   18.527
  134.000   68.960    0.443    0.285   18.234
  134.250   67.820    0.347    0.247   18.268
  134.500   64.942    0.278    0.191   18.294
  134.750   64.389    0.196    0.096   18.666
  135.000   65.607    0.226    0.075   19.764
  135.250   66.837    0.272    0.092   21.293
  135.500   68.642    0.301    0.143   25.160
  135.750   71.045    0.359    0.170   28.129
  136.000   72.850    0.412    0.280   30.893
  136.250   73.482    0.434    0.314   26.740
  136.500   73.515    0.443    0.325   23.134
  136.750   72.973    0.453    0.326   19.305
  137.000   73.018    0.454    0.317   15.250
  137.250   73.062    0.432    0.297   13.200
  137.500   73.118    0.432    0.292   12.287
  137.750   73.163    0.426    0.284   11.452
  138.000   73.208    0.419    0.263   11.479
  138.250   71.492    0.388    0.231   11.495
  138.500   67.429    0.317    0.180   11.945
  138.750   63.377    0.293    0.096   12.408
  139.000   62.248    0.320    0.077   13.380
  139.250   65.216    0.306    0.100   14.959
  139.500   69.368    0.278    0.135   17.667
  139.750   71.760    0.377    0.185   20.116
  140.000   74.175    0.428    0.245   21.692
  140.250   72.459    0.444    0.291   20.573
  140.500   69.570    0.431    0.282   19.149
  140.750   67.267    0.410    0.222   16.575
  141.000   66.138    0.327    0.200   13.335
  141.250   67.356    0.297    0.180   12.653
  141.500   69.749    0.362    0.186   13.883
  141.750   72.152    0.416    0.231   15.522
  142.000   72.772    0.430    0.241   15.276
  142.250   74.600    0.441    0.288   14.226
  142.500   75.220    0.455    0.313   13.259
  142.750   75.264    0.454    0.308   13.031
  143.000   74.711    0.447    0.304   12.825
  143.250   74.169    0.448    0.307   12.164
  143.500   74.214    0.451    0.307   11.536
  143.750   74.270    0.448    0.308   11.348
  144.000   74.303    0.442    0.313   11.169
  144.250   72.599    0.441    0.316   11.179
  144.500   70.883    0.448    0.318   11.200
  144.750   72.101    0.453    0.323   11.226
  145.000   73.907    0.456    0.325   11.242
  145.250   75.136    0.470    0.328   11.263
  145.500   75.170    0.480    0.324   11.294
  145.750   75.214    0.476    0.317   11.315
  146.000   75.868    0.461    0.317   11.551
  146.250   75.902    0.442    0.318   11.562
  146.500   76.533    0.442    0.320   11.594
  146.750   76.002    0.449    0.320   11.395
  147.000   74.874    0.458    0.320   11.220
  147.250   74.331    0.470    0.317   11.236
  147.500   74.376    0.471    0.316   11.251
  147.750   73.834    0.467    0.315   11.272
  148.000   73.868    0.466    0.316   11.941
  148.250   73.337    0.467    0.317   12.184
  148.500   73.381    0.469    0.316   12.432
  148.750   74.013    0.469    0.315   12.691
  149.000   75.818    0.470    0.313   12.473
  149.250   77.047    0.473    0.317   12.047
  149.500   77.679    0.470    0.319   11.636
  149.750   77.148    0.458    0.320   11.447
  150.000   77.171    0.454    0.318   11.680
  150.250   78.389    0.454    0.316   11.918
  150.500   79.607    0.460    0.315   12.166
  150.750   79.663    0.470    0.320   12.194
  151.000   78.523    0.476    0.321   12.442
  151.250   77.394    0.461    0.316   12.466
  151.500   76.852    0.443    0.310   12.046
  151.750   78.093    0.449    0.305   12.063
  152.000   75.203    0.462    0.307   12.080
  152.250   72.901    0.472    0.308   11.883
  152.500   75.282    0.458    0.307   11.911
  152.750   79.445    0.450    0.306   11.928
  153.000   81.239    0.446    0.308   11.956
  153.250   83.631    0.446    0.309   11.978
  153.500   84.861    0.448    0.308   12.006
  153.750   84.916    0.449    0.304   12.028
  154.000   84.972    0.448    0.303   12.045
  154.250   84.995    0.449    0.303   12.068
  154.500   85.040    0.453    0.304   12.096
  154.750   85.095    0.456    0.306   12.113
  155.000   85.129    0.462    0.306   12.135
  155.250   84.609    0.460    0.303   12.158
  155.500   84.632    0.451    0.300   12.186
  155.750   84.676    0.447    0.295   12.209
  156.000   85.319    0.445    0.299   12.232
  156.250   85.364    0.442    0.307   12.261
  156.500   85.995    0.439    0.307   12.066
  156.750   87.800    0.437    0.298   12.078
  157.000   89.617    0.443    0.296   11.460
  157.250   90.824    0.460    0.292   11.476
  157.500   92.042    0.476    0.278   10.884
  157.750   93.859    0.501    0.273   10.322
  158.000   96.262    0.543    0.297    9.612
  158.250   98.056    0.569    0.303    8.634
  158.500   99.872    0.485    0.271    8.036
  158.750  101.079    0.461    0.243    6.466
  159.000  103.471    0.458    0.247    5.395
  159.250  105.885    0.489    0.252    5.117
  159.500  104.170    0.510    0.253    4.853
  159.750  101.280    0.504    0.260    4.688
  160.000   98.967    0.488    0.238    4.611
  160.250   97.838    0.477    0.217    4.536
  160.500   99.665    0.474    0.202    4.801
  160.750  100.872    0.472    0.195    5.466
  161.000  102.677    0.475    0.205    6.578
  161.250  105.667    0.484    0.220    7.632
  161.500  107.461    0.522    0.212    8.077
  161.750  109.876    0.569    0.194    7.255
