~VERSION INFORMATION
 VERS.                 2.0:   CWLS LOG ASCII STANDARD -VERSION 2.0
 WRAP.                  NO:   ONE LINE PER DEPTH STEP
~WELL INFORMATION BLOCK
#MNEM.UNIT           DATA                    DESCRIPTION OF MNEMONIC
#---------    -------------------            -------------------------------
# Generated from Intellog Unique Number	CN_94_101/WELL/5020
WELL.         11-22-099-14W4                 : Well_name    - WELL
LOC .         AA/11-22-099-14W4/0            : Location     - LOCATION
UWI .         AA/11-22-099-14W400            : Uwi          - UNIQUE WELL ID
ENTR.         TIM                            : Entered      - ENTERED BY
SRVC.         SCHLUMBERGER                   : Scn          - SERVICE COMPANY
DATE.         08/13/92                       : Date         - LOG DATE
STRT.M        370                            : top_depth    - START DEPTH
STOP.M        575                            : bot_depth    - STOP DEPTH
STEP.M        0.25                           : increment    - STEP LENGTH
 NULL. -999.2500:NULL Value
~CURVE INFORMATION BLOCK
#MNEM UNIT       ERCB CURVE CODE    CURVE DESCRIPTION
#-----------   ------------------   ----------------------------------
DEPT.M        00 001 00 00         : DEPTH        - DEPTH
GR  .API      00 310 00 00         : GR           - GAMMA RAY
NPHI.V/V      00 330 00 00         : PHIN         - NEUTRON POROSITY (SANDSTONE)
DPHI.V/V      00 890 00 00         : PHID         - DENSITY POROSITY (SANDSTONE)
ILD .OHMM     00 120 00 00         : RESD         - DEEP RESISTIVITY (DIL)
~PARAMETER INFORMATION
#MNEM.UNIT           DATA             DESCRIPTION OF MNEMONIC
#---------         -----------     ------------------------------
GL  .M        815.9                : gl           - GROUND LEVEL ELEVATION
EREF.M        817.1                : kb           - ELEVATION OF DEPTH REFERENCE
DATM.M        817.1                : datum        - DATUM ELEVATION
TDD .M        578                  : tdd          - TOTAL DEPTH DRILLER
RUN .         ONE                  : Run          - RUN NUMBER
ENG .         BILL                 : Engineer     - RECORDING ENGINEER
WIT .         JIM                  : Witness      - WITNESSED BY
MUD .         GEL                  : Mud_type     - MUD TYPE
MATR.         SANDSTONE            : Logunit      - NEUTRON MATRIX
TMAX.C        21                   : BHT          - MAXIMUM RECORDED TEMPERATURE
BHTD.M        583                  : BHTDEP       - MAXIMUM RECORDED TEMPERATURE
RMT .C        25                   : MDTP         - TEMPERATURE OF MUD
MUDD.KG/M     1090                 : MWT          - MUD DENSITY
NEUT.         1                    : NEUTRON      - NEUTRON TYPE
RESI.         0                    : RESIST       - RESISTIVITY TYPE
RM  .OHMM     4.6                  : RM           - RESISTIVITY OF MUD
RMC .OHMM     4.6                  : RMC          - RESISTIVITY OF MUD CAKE
RMF .OHMM     4.6                  : RMF          - RESISTIVITY OF MUD FILTRATE
SUFT.C        4                    : SUFT         - SURFACE TEMPERATURE
~A  DEPTH       GR     PHIN     PHID     RESD
# ...
  457.000   75.364    0.421    0.323    3.314
  457.250   73.603    0.412    0.322    3.571
  457.500   72.430    0.405    0.324    3.709
  457.750   70.671    0.403    0.330    3.643
  458.000   70.084    0.404    0.329    3.448
  458.250   70.089    0.404    0.328    3.204
  458.500   71.857    0.405    0.322    2.977
  458.750   74.213    0.411    0.314    2.429
  459.000   76.568    0.416    0.311    2.020
  459.250   80.688    0.430    0.308    1.711
  459.500   85.396    0.445    0.316    1.532
  459.750   91.280    0.459    0.329    1.533
  460.000   95.989    0.467    0.329    1.592
  460.250   98.343    0.456    0.326    1.748
  460.500  100.112    0.444    0.324    1.815
  460.750   98.939    0.444    0.323    1.884
  461.000   97.179    0.452    0.324    1.956
  461.250   93.653    0.465    0.324    2.069
  461.500   91.893    0.480    0.320    2.149
  461.750   91.899    0.476    0.318    2.150
  462.000   93.077    0.465    0.317    1.961
  462.250   94.846    0.464    0.319    1.756
  462.500   97.201    0.468    0.325    1.632
  462.750   98.380    0.477    0.328    1.603
  463.000  100.736    0.485    0.330    1.633
  463.250   92.507    0.479    0.335    1.665
  463.500   85.454    0.468    0.342    1.729
  463.750   81.341    0.453    0.340    1.795
  464.000   83.697    0.457    0.329    1.830
  464.250   91.933    0.468    0.323    1.798
  464.500  104.873    0.476    0.318    1.766
  464.750  100.762    0.474    0.319    1.767
  465.000   93.710    0.460    0.320    1.835
  465.250   94.302    0.447    0.320    1.941
  465.500   95.480    0.442    0.318    2.015
  465.750   96.072    0.437    0.317    2.093
  466.000   96.075    0.434    0.313    2.173
  466.250   94.903    0.431    0.304    2.256
  466.500   92.554    0.427    0.298    2.300
  466.750   89.029    0.442    0.301    2.344
  467.000   87.857    0.437    0.306    2.434
  467.250   84.334    0.411    0.303    2.528
  467.500   83.160    0.399    0.300    2.529
  467.750   80.224    0.425    0.297    2.438
  468.000   81.992    0.434    0.308    2.308
  468.250   85.523    0.446    0.332    2.225
  468.500   87.879    0.458    0.333    2.146
  468.750   87.883    0.462    0.325    2.108
  469.000   86.122    0.453    0.319    2.149
  469.250   84.362    0.446    0.310    2.150
  469.500   83.777    0.439    0.310    2.232
  469.750   83.193    0.430    0.313    2.361
  470.000   82.608    0.428    0.315    2.498
  470.250   82.024    0.428    0.318    2.643
  470.500   82.028    0.429    0.315    2.644
  470.750   82.620    0.432    0.313    2.598
  471.000   87.328    0.437    0.314    2.551
  471.250   87.920    0.443    0.318    2.505
  471.500   89.099    0.443    0.322    2.372
  471.750   90.868    0.440    0.321    2.287
  472.000   92.635    0.435    0.318    2.246
  472.250   92.050    0.439    0.316    2.166
  472.500   90.878    0.451    0.320    2.050
  472.750   90.882    0.457    0.333    1.941
  473.000   90.885    0.447    0.308    1.907
  473.250   90.888    0.436    0.293    1.872
  473.500   90.893    0.424    0.305    1.874
  473.750   90.896    0.431    0.319    1.875
  474.000   90.901    0.434    0.319    1.947
  474.250   90.904    0.432    0.307    2.059
  474.500   89.143    0.429    0.287    2.179
  474.750   86.795    0.431    0.292    2.220
  475.000   87.974    0.443    0.293    2.263
  475.250   90.919    0.447    0.297    2.306
  475.500   90.922    0.451    0.298    2.224
  475.750   91.515    0.455    0.298    2.184
  476.000   92.694    0.459    0.297    2.030
  476.250   93.873    0.457    0.297    1.887
  476.500   95.052    0.452    0.299    1.753
  476.750   96.820    0.452    0.300    1.722
  477.000   99.764    0.453    0.302    1.691
  477.250  101.532    0.453    0.300    1.724
  477.500  102.712    0.448    0.299    1.790
  477.750  102.127    0.443    0.298    1.893
  478.000  100.367    0.433    0.298    1.930
  478.250   97.430    0.415    0.293    2.004
  478.500   86.849    0.384    0.283    2.043
  478.750   74.504    0.350    0.283    2.044
  479.000   82.740    0.398    0.283    2.083
  479.250  105.677    0.455    0.282    2.009
  479.500  111.561    0.466    0.281    1.798
  479.750  107.450    0.458    0.282    1.702
  480.000  106.865    0.442    0.283    1.835
  480.250  105.693    0.426    0.281    1.977
  480.500  100.991    0.418    0.294    2.170
  480.750  101.584    0.412    0.310    3.030
  481.000  105.116    0.400    0.306    3.206
  481.250  105.706    0.390    0.297    3.391
  481.500  103.946    0.384    0.279    3.654
  481.750   96.306    0.377    0.265    3.864
  482.000   98.074    0.369    0.256    3.939
  482.250  101.017    0.363    0.252    4.016
  482.500  103.372    0.368    0.268    4.019
  482.750  103.376    0.398    0.288    4.021
  483.000   98.676    0.408    0.294    4.023
  483.250   95.739    0.421    0.301    3.880
  483.500   93.978    0.428    0.312    3.811
  483.750   93.982    0.427    0.320    3.674
  484.000   92.222    0.426    0.322    3.542
  484.250   93.990    0.421    0.314    3.416
  484.500   95.757    0.412    0.292    3.355
  484.750   95.760    0.392    0.275    3.358
  485.000   95.176    0.390    0.275    3.360
  485.250   94.004    0.390    0.275    3.489
  485.500   91.068    0.390    0.287    3.555
  485.750   88.719    0.392    0.292    3.624
  486.000   87.547    0.402    0.276    3.627
  486.250   89.314    0.396    0.245    3.629
  486.500   92.847    0.381    0.224    3.632
  486.750   92.263    0.372    0.258    3.633
  487.000   89.325    0.376    0.274    3.705
  487.250   88.741    0.380    0.280    3.775
  487.500   90.509    0.380    0.281    3.778
  487.750   91.689    0.379    0.281    3.711
  488.000   92.280    0.379    0.288    3.578
  488.250   91.697    0.379    0.295    3.450
  488.500   90.523    0.382    0.288    3.389
  488.750   88.763    0.390    0.295    3.328
  489.000   88.766    0.405    0.304    3.209
  489.250   88.771    0.415    0.301    3.152
  489.500   89.950    0.411    0.273    3.154
  489.750   90.541    0.409    0.259    3.157
  490.000   91.133    0.408    0.265    3.340
  490.250   91.725    0.408    0.288    3.403
  490.500   90.552    0.409    0.295    3.534
  490.750   91.144    0.408    0.300    3.602
  491.000   92.912    0.408    0.302    3.538
  491.250   94.680    0.410    0.306    2.997
  491.500   96.450    0.413    0.317    2.734
  491.750   97.038    0.414    0.319    2.839
  492.000   97.631    0.391    0.289    3.003
  492.250   94.693    0.387    0.230    3.118
  492.500   85.878    0.377    0.255    3.237
  492.750   87.645    0.387    0.279    3.300
  493.000   91.178    0.406    0.284    3.302
  493.250   90.592    0.404    0.282    3.068
  493.500   91.772    0.403    0.279    2.647
  493.750   96.480    0.408    0.292    2.371
  494.000  100.600    0.429    0.314    2.162
  494.250  101.192    0.443    0.323    1.972
  494.500  101.196    0.463    0.328    1.799
  494.750  101.200    0.474    0.331    1.641
  495.000  101.204    0.466    0.325    1.582
  495.250  101.206    0.456    0.312    1.554
  495.500  100.035    0.445    0.306    1.498
  495.750   98.274    0.438    0.308    1.445
  496.000   96.514    0.438    0.312    1.393
  496.250   96.516    0.483    0.314    1.343
  496.500   97.108    0.491    0.316    1.295
  496.750   98.289    0.486    0.316    1.296
  497.000   99.468    0.479    0.318    1.321
  497.250  100.059    0.472    0.317    1.450
  497.500  100.063    0.456    0.303    1.591
  497.750  100.066    0.438    0.225    1.881
  498.000   98.894    0.404    0.233    2.308
  498.250   97.722    0.381    0.245    2.678
  498.500   96.551    0.360    0.251    3.225
  498.750   96.553    0.349    0.255    3.541
  499.000   97.145    0.366    0.261    3.745
  499.250  100.089    0.387    0.266    3.817
  499.500  101.268    0.405    0.264    3.820
  499.750  100.097    0.381    0.264    3.752
  500.000   99.512    0.376    0.267    3.685
  500.250   99.516    0.378    0.268    3.620
