~VERSION INFORMATION
 VERS.                 2.0:   CWLS LOG ASCII STANDARD -VERSION 2.0
 WRAP.                  NO:   ONE LINE PER DEPTH STEP
~WELL INFORMATION BLOCK
#MNEM.UNIT           DATA                    DESCRIPTION OF MNEMONIC
#---------    -------------------            -------------------------------
# Generated from Intellog Unique Number	CC_84_87/WELL/2327
NULL.         -999.25                        : NULL_VALUE
WELL.         SUN CHEECHAM                   : Well_name    - WELL              
LOC .         11-15-084-07W4                 : Location     - LOCATION          
UWI .         AA/11-15-084-07W4/0            : Uwi          - UNIQUE WELL ID    
ENTR.         DW                             : Entered      - ENTERED BY        
SRVC.         SCHLUMBERGER                   : Scn          - SERVICE COMPANY   
DATE.         15 JAN 80                      : Date         - LOG DATE
STRT.M        140                            : top_depth    - START DEPTH       
STOP.M        430.094                        : bot_depth    - STOP DEPTH        
STEP.M        0.3                            : increment    - STEP LENGTH       
~CURVE INFORMATION BLOCK
#MNEM UNIT       ERCB CURVE CODE    CURVE DESCRIPTION
#-----------   ------------------   ----------------------------------
DEPT.M        00 001 00 00         : DEPTH        - DEPTH                       
DPHI.V/V      00 890 00 00         : PHID         - DENSITY POROSITY (LIMESTONE)
NPHI.V/V      00 330 00 00         : PHIN         - NEUTRON POROSITY (LIMESTONE)
GR  .API      00 310 00 00         : GR           - GAMMA RAY                   
ILD .OHMM     00 120 00 00         : RESD         - DEEP RESISTIVITY (DIL)      
~PARAMETER INFORMATION       
#MNEM.UNIT           DATA             DESCRIPTION OF MNEMONIC
#---------         -----------     ------------------------------
GL  .M        591                  : gl           - GROUND LEVEL ELEVATION      
EREF.M        594.35               : kb           - ELEVATION OF DEPTH REFERENCE
DATM.M        594.35               : datum        - DATUM ELEVATION             
TDD .M        435                  : tdd          - TOTAL DEPTH DRILLER         
RUN .         ONE                  : Run          - RUN NUMBER                  
ENG .         BILL                 : Engineer     - RECORDING ENGINEER          
WIT .         JIM                  : Witness      - WITNESSED BY                
MUD .         GEL                  : Mud_type     - MUD TYPE                    
MATR.         LIMESTONE            : Logunit      - NEUTRON MATRIX              
TMAX.C        20.5                 : BHT          - MAXIMUM RECORDED TEMPERATURE
BHTD.M        435                  : BHTDEP       - MAXIMUM RECORDED TEMPERATURE
MATR.         1                    : LOGUNIT      - NEUTRON MATRIX              
RMT .C        25                   : MDTP         - TEMPERATURE OF MUD          
NEUT.         1                    : NEUTRON      - NEUTRON TYPE                
RESI.         0                    : RESIST       - RESISTIVITY TYPE            
RMC .OHMM     0.25                 : RMC          - RESISTIVITY OF MUD CAKE     
RMF .OHMM     0.25                 : RMF          - RESISTIVITY OF MUD FILTRATE 
SUFT.C        4                    : SUFT         - SURFACE TEMPERATURE         
~A  DEPTH     PHID     PHIN       GR     RESD
# ...
  192.201    0.267    0.484   93.316    7.738
  192.501    0.262    0.471   93.323    7.440
  192.801    0.263    0.458   95.749    7.287
  193.101    0.264    0.456   98.174    7.269
  193.401    0.266    0.465   98.184    7.393
  193.701    0.257    0.473   96.377    7.946
  194.001    0.252    0.474   92.761    9.192
  194.301    0.263    0.425   86.120   11.029
  194.601    0.281    0.430   72.831   11.856
  194.901    0.275    0.447   77.072   12.492
  195.201    0.267    0.429   79.497   12.710
  195.501    0.260    0.420   76.485   12.678
  195.801    0.255    0.426   75.887   12.420
  196.101    0.276    0.414   75.894   11.949
  196.401    0.280    0.414   78.321   11.497
  196.701    0.262    0.415   80.748   11.059
  197.001    0.256    0.420   81.359   11.028
  197.301    0.271    0.409   81.971   11.209
  197.601    0.271    0.427   80.166   11.608
  197.901    0.276    0.433   72.318   12.030
  198.201    0.273    0.420   71.724   12.216
  198.501    0.267    0.405   71.127   12.202
  198.801    0.286    0.413   70.531   12.174
  199.101    0.275    0.423   68.725   12.601
  199.401    0.291    0.428   66.315   12.822
  199.701    0.280    0.428   64.512   13.274
  200.001    0.262    0.417   64.520   13.489
  200.301    0.279    0.402   65.738   13.968
  200.601    0.263    0.391   65.141   14.197
  200.901    0.271    0.390   62.732   14.178
  201.201    0.291    0.396   62.135   13.886
  201.501    0.283    0.415   62.749   13.604
  201.801    0.271    0.410   66.987   13.328
  202.101    0.295    0.421   69.415   13.295
  202.401    0.292    0.409   68.816   13.526
  202.701    0.282    0.387   62.781   13.499
  203.001    0.281    0.397   60.976   13.216
  203.301    0.282    0.399   63.402   12.950
  203.601    0.284    0.405   62.201   12.458
  203.901    0.287    0.389   62.209   12.210
  204.201    0.277    0.399   73.097   12.406
  204.501    0.256    0.404   74.918   12.613
  204.801    0.270    0.413   71.906   13.307
  205.101    0.283    0.422   71.913   13.278
  205.401    0.299    0.429   74.340   13.013
  205.701    0.297    0.448   73.138   12.512
  206.001    0.301    0.427   71.334   11.818
  206.301    0.284    0.419   83.429   10.955
  206.601    0.276    0.443   93.109    9.784
  206.901    0.278    0.443   98.556    8.901
  207.201    0.250    0.451  102.796    8.409
  207.501    0.238    0.447  105.826    7.795
  207.801    0.232    0.449  110.669    6.961
  208.101    0.227    0.475  110.679    6.452
  208.401    0.219    0.503  110.686    6.322
  208.701    0.204    0.504  112.507    6.310
  209.001    0.221    0.487  115.538    7.034
  209.301    0.239    0.489  113.129    7.845
  209.601    0.209    0.487  107.697    9.412
  209.901    0.222    0.469  102.871   10.110
  210.201    0.248    0.457  101.066   10.280
  210.501    0.250    0.460  101.677   10.263
  210.801    0.250    0.447   98.665   10.055
  211.101    0.267    0.426   97.464    9.493
  211.401    0.258    0.424  104.121    8.960
  211.701    0.246    0.450  102.318    8.941
  212.001    0.239    0.450  101.719    9.090
  212.301    0.246    0.443  102.937    9.407
  212.601    0.283    0.460  102.946    9.751
  212.901    0.324    0.461   99.326   10.092
  213.201    0.302    0.445   89.060   10.069
  213.501    0.302    0.453   92.695   10.056
  213.801    0.293    0.460   99.956    9.850
  214.101    0.303    0.474   92.108    9.470
  214.401    0.293    0.480   86.676    9.279
  214.701    0.291    0.471   84.872    9.266
  215.001    0.284    0.434   85.484    9.419
  215.301    0.278    0.421   82.470   10.498
  215.601    0.310    0.442   74.622   11.487
  215.901    0.338    0.460   69.190   11.890
  216.201    0.327    0.450   62.550   11.870
  216.501    0.323    0.432   61.351   11.851
  216.801    0.320    0.437   60.755   11.400
  217.101    0.337    0.449   58.950   10.961
  217.401    0.334    0.438   57.144   10.533
  217.701    0.329    0.435   57.155   10.517
  218.001    0.336    0.445   58.372   10.488
  218.301    0.345    0.462   60.193   10.476
  218.601    0.349    0.475   62.618   10.456
  218.901    0.335    0.473   62.021   10.056
  219.201    0.330    0.439   57.799    9.665
  219.501    0.332    0.431   54.183    9.475
  219.801    0.334    0.423   53.584    9.461
  220.101    0.330    0.441   52.386    9.443
  220.401    0.330    0.452   52.391    9.583
  220.701    0.340    0.462   52.400    9.740
  221.001    0.334    0.467   51.805    9.724
  221.301    0.352    0.470   49.396    9.889
  221.601    0.352    0.458   46.987    9.878
  221.901    0.325    0.448   46.391    9.503
  222.201    0.340    0.439   46.398    9.302
  222.501    0.353    0.432   45.198    9.284
  222.801    0.343    0.439   45.206    9.264
  223.101    0.347    0.439   44.007    9.415
  223.401    0.348    0.456   44.013    9.406
  223.701    0.358    0.446   44.023    9.379
  224.001    0.361    0.435   46.447    9.363
  224.301    0.361    0.439   47.061    9.346
  224.601    0.344    0.452   43.442    9.327
  224.901    0.338    0.439   45.265    9.485
  225.201    0.343    0.449   45.877    9.464
  225.501    0.344    0.441   45.886    9.447
  225.801    0.344    0.451   45.894    9.250
  226.101    0.358    0.460   45.903    9.228
  226.401    0.352    0.468   47.119    9.047
  226.701    0.348    0.459   47.732    9.018
  227.001    0.349    0.448   47.136    9.007
  227.301    0.349    0.438   45.935    8.822
  227.601    0.347    0.443   45.340    8.813
  227.901    0.352    0.453   46.555    8.792
  228.201    0.348    0.441   48.378    8.769
  228.501    0.338    0.431   50.200    8.756
  228.801    0.348    0.436   49.000    8.739
  229.101    0.313    0.431   45.984    8.878
  229.401    0.339    0.436   42.366    8.866
  229.701    0.355    0.452   41.166    8.848
  230.001    0.348    0.458   43.594    8.832
  230.301    0.351    0.429   44.810    8.651
  230.601    0.356    0.426   44.216    8.631
  230.901    0.354    0.448   43.617    8.615
  231.201    0.349    0.437   44.835    8.596
  231.501    0.338    0.431   44.843    8.740
  231.801    0.323    0.438   44.852   11.297
  232.101    0.307    0.428   45.463   13.809
  232.401    0.233    0.386   43.658   12.799
  232.701    0.191    0.303   40.645   11.225
  233.001    0.268    0.335   43.072    9.662
  233.301    0.327    0.402   45.497    9.125
  233.601    0.355    0.436   46.109    8.940
  233.901    0.349    0.432   43.095    8.756
  234.201    0.340    0.440   43.104    8.744
  234.501    0.338    0.433   44.926    8.561
  234.801    0.353    0.445   47.956    8.710
  235.101    0.345    0.450   48.568    8.686
  235.401    0.347    0.434   47.369    8.673
  235.701    0.338    0.433   47.376    8.483
  236.001    0.338    0.440   48.593    8.470
  236.301    0.334    0.440   51.021    8.457
  236.601    0.339    0.433   51.633    8.293
  236.901    0.334    0.445   49.223    8.269
  237.201    0.334    0.447   46.816    8.257
  237.501    0.341    0.447   48.032    8.396
  237.801    0.341    0.451   49.852    8.372
  238.101    0.332    0.450   53.488    8.358
  238.401    0.328    0.446   56.517    8.336
  238.701    0.322    0.441   61.360    8.326
  239.001    0.315    0.440   64.995    8.007
  239.301    0.322    0.463   64.398    7.845
  239.601    0.318    0.440   69.847    7.828
  239.901    0.313    0.430   79.525    7.674
  240.201    0.304    0.455   81.347    7.656
  240.501    0.319    0.456   81.355    7.497
  240.801    0.307    0.447   86.198    7.209
  241.101    0.306    0.454   88.624    6.941
  241.401    0.306    0.450   80.172    6.316
  241.701    0.287    0.444   77.763    5.438
  242.001    0.268    0.444   78.980    5.037
  242.301    0.247    0.463   82.615    5.029
  242.601    0.235    0.489   86.249    5.017
  242.901    0.241    0.488   88.071    5.011
  243.201    0.245    0.484   88.683    5.093
  243.501    0.247    0.481   89.297    4.898
  243.801    0.232    0.506   89.305    4.887
  244.101    0.229    0.535   86.291    5.250
