~VERSION INFORMATION
 VERS.                 2.0:   CWLS LOG ASCII STANDARD -VERSION 2.0
 WRAP.                  NO:   ONE LINE PER DEPTH STEP
~WELL INFORMATION BLOCK
#MNEM.UNIT           DATA                    DESCRIPTION OF MNEMONIC
#---------    -------------------            -------------------------------
# Generated from Intellog Unique Number	CS_77_79/WELL/936
WELL.         PEX PCEJ THORNBURY OV          : Well_name    - WELL
LOC .         AA/10-08-079-14W4/0            : Location     - LOCATION
UWI .         AA/10-08-079-14W4/0            : Uwi          - UNIQUE WELL ID
ENTR.         JHS                            : Entered      - ENTERED BY
SRVC.         SCHLUMBERGER                   : Scn          - SERVICE COMPANY
STRT.M        275                            : top_depth    - START DEPTH
STOP.M        525                            : bot_depth    - STOP DEPTH
STEP.M        0.25                           : increment    - STEP LENGTH
 NULL. -999.2500:NULL Value
~CURVE INFORMATION BLOCK
#MNEM UNIT       ERCB CURVE CODE    CURVE DESCRIPTION
#-----------   ------------------   ----------------------------------
DEPT.M        00 001 00 00         : DEPTH        - DEPTH
DPHI.V/V      00 890 00 00         : PHID         - DENSITY POROSITY (LIMESTONE)
NPHI.V/V      00 330 00 00         : PHIN         - NEUTRON POROSITY (LIMESTONE)
GR  .API      00 310 00 00         : GR           - GAMMA RAY
ILD .OHMM     00 120 00 00         : RESD         - DEEP RESISTIVITY (DIL)
RHOB.KG/M3    00 350 00 00         : DENS         - BULK DENSITY
~PARAMETER INFORMATION
#MNEM.UNIT           DATA             DESCRIPTION OF MNEMONIC
#---------         -----------     ------------------------------
GL  .M        700.7                : gl           - GROUND LEVEL ELEVATION
EREF.M        703.6                : kb           - ELEVATION OF DEPTH REFERENCE
DATM.M        703.6                : datum        - DATUM ELEVATION
TDD .M        527                  : tdd          - TOTAL DEPTH DRILLER
RUN .         ONE                  : Run          - RUN NUMBER
ENG .         BILL                 : Engineer     - RECORDING ENGINEER
WIT .         JIM                  : Witness      - WITNESSED BY
MUD .         GEL                  : Mud_type     - MUD TYPE
MATR.         LIMESTONE            : Logunit      - NEUTRON MATRIX
TMAX.C        22                   : BHT          - MAXIMUM RECORDED TEMPERATURE
BHTD.M        527                  : BHTDEP       - MAXIMUM RECORDED TEMPERATURE
MATR.         1                    : LOGUNIT      - NEUTRON MATRIX
RMT .C        25                   : MDTP         - TEMPERATURE OF MUD
NEUT.         1                    : NEUTRON      - NEUTRON TYPE
RESI.         0                    : RESIST       - RESISTIVITY TYPE
RMC .OHMM     0.25                 : RMC          - RESISTIVITY OF MUD CAKE
RMF .OHMM     0.25                 : RMF          - RESISTIVITY OF MUD FILTRATE
SUFT.C        15                   : SUFT         - SURFACE TEMPERATURE
~A  DEPTH     PHID     PHIN       GR     RESD     DENS
# ...
  421.000    0.268    0.418   74.835    7.453    0.000
  421.250    0.272    0.434   76.018    7.728    0.000
  421.500    0.276    0.439   82.806    8.167    0.000
  421.750    0.265    0.413   79.637    8.469    0.000
  422.000    0.250    0.412   75.848    8.614    0.000
  422.250    0.233    0.431   73.306    8.444    0.000
  422.500    0.219    0.415   76.360    8.275    0.000
  422.750    0.226    0.437   76.300    7.809    0.000
  423.000    0.224    0.419   79.346    7.508    0.000
  423.250    0.206    0.408   79.920    7.083    0.000
  423.500    0.195    0.406   83.592    6.810    0.000
  423.750    0.198    0.421   82.298    6.548    0.000
  424.000    0.204    0.446   74.767    6.295    0.000
  424.250    0.205    0.436   81.545    6.169    0.000
  424.500    0.215    0.435   84.614    6.162    0.000
  424.750    0.219    0.432   82.069    6.150    0.000
  425.000    0.231    0.438   82.007    6.144    0.000
  425.250    0.225    0.447   81.334    6.136    0.000
  425.500    0.223    0.431   85.005    6.125    0.000
  425.750    0.236    0.421   86.812    6.230    0.000
  426.000    0.253    0.432   81.775    6.342    0.000
  426.250    0.252    0.416   81.101    6.456    0.000
  426.500    0.233    0.395   76.692    7.083    0.000
  426.750    0.214    0.374   80.370    7.922    0.000
  427.000    0.216    0.367   87.771    8.529    0.000
  427.250    0.215    0.372   92.692    9.178    0.000
  427.500    0.204    0.366   90.775    9.341    0.000
  427.750    0.201    0.381   93.825    9.333    0.000
  428.000    0.211    0.389   88.164    9.312    0.000
  428.250    0.212    0.385   80.648    8.955    0.000
  428.500    0.218    0.393   84.935    8.612    0.000
  428.750    0.217    0.414   84.262    8.127    0.000
  429.000    0.215    0.408   87.312    7.816    0.000
  429.250    0.219    0.397   92.236    7.514    0.000
  429.500    0.235    0.408   86.582    7.500    0.000
  429.750    0.255    0.398   76.576    7.635    0.000
  430.000    0.232    0.383   69.675    7.769    0.000
  430.250    0.221    0.366   75.209    8.058    0.000
  430.500    0.213    0.365   80.751    8.357    0.000
  430.750    0.212    0.390   73.860    8.340    0.000
  431.000    0.240    0.394   78.778    8.174    0.000
  431.250    0.278    0.400   83.075    7.859    0.000
  431.500    0.279    0.403   75.543    7.558    0.000
  431.750    0.285    0.412   67.404    7.407    0.000
  432.000    0.285    0.416   61.757    7.257    0.000
  432.250    0.309    0.411   61.699    7.383    0.000
  432.500    0.321    0.428   58.526    7.372    0.000
  432.750    0.303    0.401   57.230    7.644    0.000
  433.000    0.298    0.391   61.520    7.636    0.000
  433.250    0.276    0.406   66.437    7.771    0.000
  433.500    0.271    0.410   68.259    7.760    0.000
  433.750    0.292    0.396   65.713    8.042    0.000
  434.000    0.289    0.386   75.609    8.498    0.000
  434.250    0.283    0.398   76.778    8.650    0.000
  434.500    0.284    0.393   73.004    7.860    0.000
  434.750    0.291    0.377   63.612    7.278    0.000
  435.000    0.300    0.347   64.185    7.130    0.000
  435.250    0.310    0.327   68.461    7.120    0.000
  435.500    0.321    0.309   65.312    6.848    0.000
  435.750    0.282    0.265   64.001    7.234    0.000
  436.000    0.223    0.192   57.734    8.563    0.000
  436.250    0.005    0.150   59.540   11.136    0.000
  436.500    0.008    0.156   51.397   18.859    0.000
  436.750    0.002    0.159   42.007   35.762    0.000
  437.000    0.004    0.150   36.981   67.817    0.000
  437.250    0.008    0.153   35.053   77.266    0.000
  437.500    0.005    0.165   43.701   63.897    0.000
  437.750    0.010    0.185   44.882   32.351    0.000
  438.000    0.036    0.225   39.852   22.572    0.000
  438.250    0.070    0.255   39.184   18.662    0.000
  438.500    0.114    0.291   39.750   14.585    0.000
  438.750    0.225    0.334   37.199   10.768    0.000
  439.000    0.233    0.422   50.833    8.902    0.000
  439.250    0.276    0.400   51.398    7.938    0.000
  439.500    0.298    0.402   60.664    7.348    0.000
  439.750    0.302    0.420   65.590    7.065    0.000
  440.000    0.290    0.410   66.140    7.059    0.000
  440.250    0.275    0.404   70.452    6.914    0.000
  440.500    0.277    0.400   64.163    7.034    0.000
  440.750    0.252    0.409   71.573    7.027    0.000
  441.000    0.289    0.407   63.432    7.287    0.000
  441.250    0.304    0.413   65.854    7.414    0.000
  441.500    0.317    0.418   65.193    7.688    0.000
  441.750    0.304    0.407   62.023    8.595    0.000
  442.000    0.303    0.355   63.835    9.433    0.000
  442.250    0.280    0.331   63.766   10.551    0.000
  442.500    0.070    0.302   60.611   12.718    0.000
  442.750    0.098    0.278   51.221   14.492    0.000
  443.000    0.153    0.281   58.629   14.200    0.000
  443.250    0.201    0.355   59.187   12.909    0.000
  443.500    0.272    0.392   62.859   10.277    0.000
  443.750    0.272    0.413   62.812    8.497    0.000
  444.000    0.261    0.403   60.263    7.870    0.000
  444.250    0.256    0.395   54.608    7.424    0.000
  444.500    0.285    0.391   60.769    7.272    0.000
  444.750    0.300    0.412   64.451    7.265    0.000
  445.000    0.292    0.426   63.769    7.254    0.000
  445.250    0.287    0.407   71.180    7.240    0.000
  445.500    0.295    0.410   71.738    7.231    0.000
  445.750    0.305    0.443   63.601    7.083    0.000
  446.000    0.303    0.440   66.012    7.077    0.000
  446.250    0.301    0.421   67.216    6.803    0.000
  446.500    0.304    0.418   63.428    6.663    0.000
  446.750    0.300    0.403   68.349    6.783    0.000
  447.000    0.289    0.390   67.040    6.775    0.000
  447.250    0.283    0.391   65.126    6.766    0.000
  447.500    0.281    0.397   62.571    7.008    0.000
  447.750    0.272    0.389   57.549    7.002    0.000
  448.000    0.266    0.401   58.723    7.125    0.000
  448.250    0.270    0.409   63.653    7.254    0.000
  448.500    0.272    0.406   68.575    7.374    0.000
  448.750    0.283    0.397   71.006    7.367    0.000
  449.000    0.300    0.406   75.299    7.221    0.000
  449.250    0.285    0.403   69.642    7.072    0.000
  449.500    0.271    0.409   73.938    6.931    0.000
  449.750    0.257    0.417   67.667    6.923    0.000
  450.000    0.246    0.419   73.209    6.909    0.000
  450.250    0.254    0.421   73.143    6.903    0.000
  450.500    0.271    0.436   76.206    6.889    0.000
  450.750    0.250    0.418   82.368    6.883    0.000
  451.000    0.245    0.417   84.176    6.744    0.000
  451.250    0.257    0.432   77.888    6.364    0.000
  451.500    0.215    0.443   80.321    5.894    0.000
  451.750    0.209    0.428   88.348    5.249    0.000
  452.000    0.204    0.412   92.027    5.145    0.000
  452.250    0.206    0.408   89.489    5.239    0.000
  452.500    0.223    0.402   86.934    5.535    0.000
  452.750    0.220    0.388   78.175    6.075    0.000
  453.000    0.168    0.379   72.516    6.923 2422.030
  453.250    0.057    0.361   69.354    8.347 2612.100
  453.500    0.103    0.318   58.725    9.874 2533.700
  453.750    0.172    0.323   63.022   10.439 2415.100
  454.000    0.192    0.396   74.162   10.037 2381.100
  454.250    0.207    0.411   75.957    9.121 2355.510
  454.500    0.207    0.426   72.185    8.127 2355.350
  454.750    0.195    0.436   77.104    7.969 2376.300
  455.000    0.219    0.408   80.154    7.658 2335.930
  455.250    0.200    0.388   78.230    7.506 2367.440
  455.500    0.198    0.381   76.924    7.782 2371.440
  455.750    0.199    0.377   78.117    8.221 2369.190
  456.000    0.193    0.403   87.389    8.365 2379.590
  456.250    0.197    0.404   83.594    8.514 2373.030
  456.500    0.216    0.393   78.569    8.665 2341.140
  456.750    0.200    0.385   78.509    8.813 2368.440
  457.000    0.196    0.395   82.189    8.804 2374.580
  457.250    0.212    0.383   85.239    8.795 2346.930
