~VERSION INFORMATION
 VERS.                 2.0:   CWLS LOG ASCII STANDARD -VERSION 2.0
 WRAP.                  NO:   ONE LINE PER DEPTH STEP
~WELL INFORMATION BLOCK
#MNEM.UNIT           DATA                    DESCRIPTION OF MNEMONIC
#---------    -------------------            -------------------------------
# Generated from Intellog Unique Number	CC_84_87/WELL/2299
NULL.         -999.25                        : NULL_VALUE
WELL.         PEX PCEJ MCMURRAY OV           : Well_name    - WELL
LOC .         10-08-087-15W4                 : Location     - LOCATION          
UWI .         AA/10-08-087-15W400            : Uwi          - UNIQUE WELL ID    
ENTR.         JOHN                           : Entered      - ENTERED BY        
SRVC.         SCHLUMBERGER                   : Scn          - SERVICE COMPANY   
DATE.         17 MAR 79                      : Date         - LOG DATE
STRT.M        68                             : top_depth    - START DEPTH       
STOP.M        236.902                        : bot_depth    - STOP DEPTH        
STEP.M        0.3                            : increment    - STEP LENGTH       
~CURVE INFORMATION BLOCK
#MNEM UNIT       ERCB CURVE CODE    CURVE DESCRIPTION
#-----------   ------------------   ----------------------------------
DEPT.M        00 001 00 00         : DEPTH        - DEPTH                       
DPHI.V/V      00 890 00 00         : PHID         - DENSITY POROSITY (LIMESTONE)
NPHI.V/V      00 330 00 00         : PHIN         - NEUTRON POROSITY (LIMESTONE)
GR  .API      00 310 00 00         : GR           - GAMMA RAY                   
ILD .OHMM     00 120 00 00         : RESD         - DEEP RESISTIVITY (DIL)      
~PARAMETER INFORMATION       
#MNEM.UNIT           DATA             DESCRIPTION OF MNEMONIC
#---------         -----------     ------------------------------
GL  .M        492.33               : gl           - GROUND LEVEL ELEVATION      
EREF.M        495.33               : kb           - ELEVATION OF DEPTH REFERENCE
DATM.M        495.33               : datum        - DATUM ELEVATION             
TDD .M        245.2                : tdd          - TOTAL DEPTH DRILLER         
RUN .         ONE                  : Run          - RUN NUMBER                  
ENG .         BILL                 : Engineer     - RECORDING ENGINEER          
WIT .         JIM                  : Witness      - WITNESSED BY                
MUD .         GEL                  : Mud_type     - MUD TYPE                    
MATR.         LIMESTONE            : Logunit      - NEUTRON MATRIX              
TMAX.C        60                   : BHT          - MAXIMUM RECORDED TEMPERATURE
BHTD.M        245.2                : BHTDEP       - MAXIMUM RECORDED TEMPERATURE
MATR.         1                    : LOGUNIT      - NEUTRON MATRIX              
RMT .C        25                   : MDTP         - TEMPERATURE OF MUD          
NEUT.         1                    : NEUTRON      - NEUTRON TYPE                
RESI.         0                    : RESIST       - RESISTIVITY TYPE            
RMC .OHMM     0.25                 : RMC          - RESISTIVITY OF MUD CAKE     
RMF .OHMM     0.25                 : RMF          - RESISTIVITY OF MUD FILTRATE 
SUFT.C        15                   : SUFT         - SURFACE TEMPERATURE         
~A  DEPTH     PHID     PHIN       GR     RESD
   68.000    0.429    0.526   63.309   31.338
   68.300    0.427    0.506   63.904   30.796
   68.600    0.392    0.487   66.346   27.542
   68.900    0.459    0.492   70.016   24.167
   69.200    0.500    0.506   66.924   21.611
   69.500    0.539    0.533   69.364   24.232
   69.800    0.500    0.500   73.648   24.259
   70.100    0.323    0.479   76.703   23.831
   70.400    0.341    0.471   72.383   22.977
   70.700    0.346    0.474   71.750   23.446
   71.000    0.326    0.473   72.960   24.373
   71.300    0.308    0.456   70.481   27.840
   71.600    0.131    0.391   68.619   28.400
   71.900    0.154    0.356   71.062   24.923
   72.200    0.247    0.420   80.875   17.784
   72.500    0.284    0.468   88.235    9.748
   72.800    0.246    0.516   97.437    6.329
   73.100    0.247    0.548  105.408    4.779
   73.400    0.267    0.542  105.389    4.273
   73.700    0.257    0.547  107.216    3.969
   74.000    0.257    0.543  104.124    4.127
   74.300    0.268    0.537   97.341    4.539
   74.600    0.287    0.501   99.167    4.899
   74.900    0.304    0.492   97.305    5.810
   75.200    0.311    0.481   92.985    6.155
   75.500    0.292    0.467   93.580    6.164
   75.800    0.272    0.476   96.020    6.054
   76.100    0.293    0.509   94.771    5.948
   76.400    0.283    0.513   94.755    5.737
   76.700    0.286    0.532   99.041    5.530
   77.000    0.276    0.570  107.626    5.137
   77.300    0.281    0.593  111.295    4.770
   77.600    0.274    0.579  107.589    4.429
   77.900    0.290    0.580  105.723    4.192
   78.200    0.284    0.573  107.552    4.041
   78.500    0.271    0.549  105.074    4.045
   78.800    0.277    0.538  100.137    3.974
   79.100    0.291    0.535   97.660    4.133
   79.400    0.298    0.557   97.030    4.215
   79.700    0.308    0.556   94.552    4.221
   80.000    0.305    0.551   91.457    4.147
   80.300    0.324    0.575   90.212    3.999
   80.600    0.314    0.524   86.506    3.784
   80.900    0.318    0.535   83.412    3.649
   81.200    0.337    0.549   84.010    3.866
   81.500    0.308    0.551   81.533    4.414
   81.800    0.317    0.534   77.213    6.086
   82.100    0.288    0.436   71.047    9.219
   82.400    0.304    0.410   65.496   12.474
   82.700    0.318    0.431   61.789   15.951
   83.000    0.334    0.447   64.230   18.567
   83.300    0.348    0.463   66.671   18.244
   83.600    0.355    0.467   69.108   17.591
   83.900    0.357    0.439   69.707   16.644
   84.200    0.348    0.445   69.688   16.047
   84.500    0.358    0.441   66.594   16.072
   84.800    0.359    0.419   63.505   16.088
   85.100    0.367    0.424   62.255   16.106
   85.400    0.360    0.433   62.850   16.438
   85.700    0.357    0.444   62.218   16.458
   86.000    0.345    0.454   61.584   16.474
   86.300    0.342    0.439   59.723   16.188
   86.600    0.350    0.446   60.321   15.608
   86.900    0.337    0.453   63.989   14.766
   87.200    0.331    0.427   63.970   14.508
   87.500    0.323    0.404   64.567   15.083
   87.800    0.309    0.385   66.389   15.979
   88.100    0.319    0.404   65.146   15.118
   88.400    0.291    0.436   63.896   15.138
   88.700    0.085    0.428   63.880   16.338
   89.000    0.041    0.204   57.713   16.364
   89.300    0.073    0.249   54.621   15.775
   89.600    0.165    0.314   58.906   14.924
   89.900    0.276    0.394   64.417   13.350
   90.200    0.323    0.438   61.327   12.871
   90.500    0.328    0.465   58.848   12.646
   90.800    0.330    0.476   59.447   12.424
   91.100    0.326    0.441   59.425   12.680
   91.400    0.332    0.436   60.023   12.933
   91.700    0.343    0.419   61.850   13.444
   92.000    0.344    0.452   63.672   13.464
   92.300    0.331    0.474   61.199   13.478
   92.600    0.329    0.490   59.333   12.999
   92.900    0.333    0.488   61.771   12.767
   93.200    0.328    0.460   62.984   12.311
   93.500    0.333    0.456   62.968   12.096
   93.800    0.322    0.482   61.104   11.664
   94.100    0.315    0.499   60.471   11.457
   94.400    0.303    0.467   59.223   12.138
   94.700    0.276    0.434   56.748   15.525
   95.000    0.116    0.183   53.041   23.513
   95.300    0.018    0.168   49.945   40.637
   95.600    0.046    0.214   49.931   43.056
   95.900    0.118    0.276   52.366   31.893
   96.200    0.174    0.316   55.423   19.574
   96.500    0.294    0.383   57.866   14.503
   96.800    0.340    0.473   60.304   12.725
   97.100    0.335    0.470   63.968   11.168
   97.400    0.328    0.467   65.186   10.569
   97.700    0.340    0.469   63.323   10.383
   98.000    0.337    0.482   59.618   10.396
   98.300    0.330    0.501   61.443   10.217
   98.600    0.330    0.525   63.269   10.425
   98.900    0.334    0.497   62.632   10.636
   99.200    0.330    0.463   61.999   10.847
   99.500    0.339    0.465   61.984   11.278
   99.800    0.339    0.476   60.733   11.289
  100.100    0.328    0.471   58.256   11.303
  100.400    0.332    0.471   57.011   11.318
  100.700    0.341    0.490   61.292   11.333
  101.000    0.349    0.484   64.348   11.136
  101.300    0.350    0.480   64.329   11.145
  101.600    0.342    0.484   61.853   10.954
  101.900    0.350    0.496   64.291   11.175
  102.200    0.350    0.478   64.885   11.403
  102.500    0.347    0.484   66.099   11.415
  102.800    0.364    0.463   66.082   11.426
  103.100    0.343    0.464   63.606   11.443
  103.400    0.333    0.480   63.588   11.456
  103.700    0.339    0.490   64.796   11.255
  104.000    0.355    0.484   64.779   11.266
  104.300    0.355    0.456   64.146   11.072
  104.600    0.352    0.463   62.896   11.296
  104.900    0.348    0.478   64.724   11.307
  105.200    0.351    0.499   66.549   11.539
  105.500    0.352    0.491   67.760   11.549
  105.800    0.353    0.476   67.743   11.785
  106.100    0.340    0.486   67.105   11.797
  106.400    0.343    0.449   68.317   11.593
  106.700    0.350    0.444   70.758   11.609
  107.000    0.352    0.462   70.126   11.403
  107.300    0.344    0.470   65.803   11.416
  107.600    0.344    0.471   67.016   11.872
  107.900    0.339    0.477   66.996   11.884
  108.200    0.344    0.481   64.521   11.678
  108.500    0.338    0.497   63.269   11.691
  108.800    0.341    0.498   64.478   11.486
  109.100    0.349    0.474   65.074   11.288
  109.400    0.340    0.474   66.903   11.091
  109.700    0.332    0.480   68.730   10.895
  110.000    0.339    0.487   69.940   10.708
  110.300    0.343    0.479   68.693   10.717
  110.600    0.324    0.485   69.280   10.730
  110.900    0.311    0.479   69.886   10.350
  111.200    0.319    0.476   68.024   10.360
  111.500    0.332    0.461   66.773    9.986
  111.800    0.334    0.445   68.599    9.811
  112.100    0.328    0.450   69.192    9.643
  112.400    0.322    0.469   67.945    9.654
  112.700    0.323    0.490   68.543    9.666
  113.000    0.314    0.498   70.371    9.860
  113.300    0.320    0.479   70.965    9.871
  113.600    0.327    0.467   72.179    9.883
  113.900    0.321    0.483   74.618    9.898
  114.200    0.317    0.493   73.986    9.724
  114.500    0.319    0.481   73.351    9.734
  114.800    0.332    0.451   75.791    9.566
  115.100    0.322    0.456   75.159    9.575
  115.400    0.329    0.452   73.911    9.410
  115.700    0.330    0.456   75.734    9.600
  116.000    0.342    0.451   78.172    9.610
  116.300    0.341    0.444   78.155    9.622
  116.600    0.325    0.456   75.681    9.457
  116.900    0.315    0.477   78.117    9.289
  117.201    0.325    0.493   81.791    8.625
  117.501    0.298    0.513   88.535    5.496
  117.801    0.310    0.548   88.514    4.228
  118.101    0.328    0.544   84.193    4.480
  118.401    0.325    0.488   81.104    4.835
  118.701    0.319    0.479   78.626    5.627
  119.001    0.319    0.498   77.992    6.676
  119.301    0.325    0.513   79.201    7.342
  119.601    0.308    0.498   76.725    8.076
  119.901    0.316    0.509   76.703    9.227
