~VERSION INFORMATION
 VERS.                 2.0:   CWLS LOG ASCII STANDARD -VERSION 2.0
 WRAP.                  NO:   ONE LINE PER DEPTH STEP
~WELL INFORMATION BLOCK
#MNEM.UNIT           DATA                    DESCRIPTION OF MNEMONIC
#---------    -------------------            -------------------------------
# Generated from Intellog Unique Number	CC_80_83/WELL/2382
NULL.         -999.25                        : NULL_VALUE
WELL.         PEX PCEJ CHARD OV              : Well_name    - WELL
LOC .         10-29-080-08W4                 : Location     - LOCATION          
UWI .         AA/10-29-080-08W400             : Uwi          - UNIQUE WELL ID    
ENTR.         DW                             : Entered      - ENTERED BY        
SRVC.         SCHLUMBERGER                   : Scn          - SERVICE COMPANY   
DATE.         05 FEB 80                      : Date         - LOG DATE
STRT.M        260                            : top_depth    - START DEPTH       
STOP.M        448.092                        : bot_depth    - STOP DEPTH        
STEP.M        0.3                            : increment    - STEP LENGTH       
~CURVE INFORMATION BLOCK
#MNEM UNIT       ERCB CURVE CODE    CURVE DESCRIPTION
#-----------   ------------------   ----------------------------------
DEPT.M        00 001 00 00         : DEPTH        - DEPTH                       
DPHI.V/V      00 890 00 00         : PHID         - DENSITY POROSITY (LIMESTONE)
NPHI.V/V      00 330 00 00         : PHIN         - NEUTRON POROSITY (LIMESTONE)
GR  .API      00 310 00 00         : GR           - GAMMA RAY                   
ILD .OHMM     00 120 00 00         : RESD         - DEEP RESISTIVITY (DIL)      
~PARAMETER INFORMATION       
#MNEM.UNIT           DATA             DESCRIPTION OF MNEMONIC
#---------         -----------     ------------------------------
GL  .M        702.53               : gl           - GROUND LEVEL ELEVATION      
EREF.M        706.18               : kb           - ELEVATION OF DEPTH REFERENCE
DATM.M        706.18               : datum        - DATUM ELEVATION             
TDD .M        456                  : tdd          - TOTAL DEPTH DRILLER         
RUN .         ONE                  : Run          - RUN NUMBER                  
ENG .         BILL                 : Engineer     - RECORDING ENGINEER          
WIT .         JIM                  : Witness      - WITNESSED BY                
MUD .         GEL                  : Mud_type     - MUD TYPE                    
MATR.         LIMESTONE            : Logunit      - NEUTRON MATRIX              
TMAX.C        18                   : BHT          - MAXIMUM RECORDED TEMPERATURE
BHTD.M        456                  : BHTDEP       - MAXIMUM RECORDED TEMPERATURE
MATR.         1                    : LOGUNIT      - NEUTRON MATRIX              
RMT .C        25                   : MDTP         - TEMPERATURE OF MUD          
NEUT.         1                    : NEUTRON      - NEUTRON TYPE                
RESI.         0                    : RESIST       - RESISTIVITY TYPE            
RMC .OHMM     0.25                 : RMC          - RESISTIVITY OF MUD CAKE     
RMF .OHMM     0.25                 : RMF          - RESISTIVITY OF MUD FILTRATE 
SUFT.C        15                   : SUFT         - SURFACE TEMPERATURE         
~A  DEPTH     PHID     PHIN       GR     RESD
# ...
  416.594    0.241    0.500  102.469    5.176
  416.894    0.243    0.473  106.836    5.579
  417.194    0.240    0.457  104.975    6.244
  417.494    0.224    0.431   88.792    6.604
  417.794    0.209    0.424   96.273    6.855
  418.094    0.220    0.445   99.395    6.850
  418.394    0.192    0.445  102.517    6.720
  418.694    0.122    0.416   92.560    7.107
  418.994    0.170    0.384   82.604    7.517
  419.294    0.208    0.381   85.727    7.513
  419.594    0.244    0.398   87.601    6.964
  419.893    0.252    0.393   85.742    5.551
  420.193    0.262    0.382   72.049    5.549
  420.493    0.284    0.371   84.511    6.449
  420.793    0.308    0.334   81.407    7.495
  421.093    0.324    0.314   81.413    8.877
  421.393    0.291    0.327   90.140    9.934
  421.693    0.264    0.352   93.883    9.929
  421.993    0.279    0.355   72.096    8.862
  422.293    0.285    0.355   71.483    8.372
  422.593    0.286    0.354   75.850    7.906
  422.893    0.282    0.360   74.610    7.756
  423.193    0.271    0.358   74.619    7.899
  423.493    0.248    0.357   80.853    8.674
  423.793    0.226    0.356   90.202    9.176
  424.093    0.221    0.353   95.814    9.890
  424.393    0.211    0.357  108.899   10.659
  424.693    0.221    0.361   95.207   11.063
  424.993    0.245    0.371   89.611    9.875
  425.293    0.249    0.380  105.187    8.982
  425.593    0.243    0.406  110.799    7.721
  425.893    0.237    0.454  122.638    7.292
  426.193    0.236    0.445  125.759    7.153
  426.493    0.234    0.443  120.163    7.565
  426.793    0.254    0.426  122.041    8.792
  427.093    0.260    0.393  121.425   10.218
  427.393    0.247    0.386  113.336   12.102
  427.693    0.188    0.363   93.417   15.455
  427.993    0.227    0.303   82.215   19.370
  428.293    0.275    0.296   63.542   20.486
  428.593    0.299    0.296   52.965   18.633
  428.893    0.331    0.316   61.066   16.323
  429.193    0.322    0.347   74.151   14.297
  429.493    0.294    0.361   79.141   12.761
  429.793    0.261    0.352   72.299   12.055
  430.093    0.265    0.353   78.535   11.173
  430.393    0.222    0.347   82.901   10.754
  430.693    0.225    0.353   82.910   10.954
  430.993    0.260    0.367   72.330   12.491
  431.293    0.283    0.373   53.034   13.982
  431.593    0.262    0.367   53.041   16.248
  431.893    0.218    0.362   64.259   17.513
  432.193    0.233    0.351   67.380   17.178
  432.493    0.249    0.349   79.842   15.922
  432.793    0.222    0.380   87.946   15.036
  433.093    0.212    0.374   91.067   15.317
  433.393    0.222    0.347   89.206   16.823
  433.693    0.260    0.337   69.910   21.082
  433.993    0.266    0.327   49.990   22.300
  434.293    0.262    0.336   57.471   22.711
  434.593    0.262    0.365   50.629   23.131
  434.893    0.262    0.381   63.091   23.562
  435.193    0.260    0.380   76.176   26.371
  435.493    0.261    0.431   76.184   31.827
  435.793    0.282    0.414   54.396   39.886
  436.093    0.289    0.415   45.686   33.645
  436.393    0.290    0.403   57.526   28.378
  436.693    0.283    0.395   63.760   25.811
  436.993    0.273    0.393   66.883   26.291
  437.293    0.267    0.413   74.986   29.427
  437.593    0.268    0.420   49.461   39.763
  437.893    0.310    0.418   42.620   44.505
  438.193    0.311    0.397   42.627   42.837
  438.493    0.307    0.391   51.977   35.459
  438.793    0.295    0.413   60.702   30.482
  439.093    0.277    0.414   72.541   26.698
  439.393    0.268    0.394  106.799   24.282
  439.693    0.285    0.403   94.353   21.675
  439.993    0.284    0.418   94.983   19.349
  440.293    0.268    0.399  104.333   17.271
  440.593    0.259    0.392  106.207   16.009
  440.893    0.251    0.405  111.821   14.288
  441.193    0.245    0.397  115.563   12.282
  441.493    0.236    0.404  124.289    9.976
  441.793    0.230    0.409  125.543    8.416
  442.093    0.231    0.413  131.155    7.098
  442.393    0.247    0.408  136.767    6.833
  442.693    0.263    0.349  136.777    6.830
  442.993    0.257    0.298  134.292    7.789
  443.293    0.232    0.229  131.187   10.526
  443.593    0.132    0.187  114.381   16.540
  443.893    0.030    0.139   91.347   22.780
  444.193    0.011    0.105   42.160   39.333
  444.492    0.000    0.095   30.337   48.373
  444.792    0.000    0.097   27.233   47.443
  445.092    0.001    0.096   30.353   43.974
  445.392    0.006    0.096   34.719   40.003
  445.692    0.017    0.095   37.842   36.385
  445.992    0.021    0.097   35.982   35.689
  446.292    0.019    0.102   29.761   33.710
  446.592    0.015    0.113   29.769   32.445
  446.892    0.014    0.129   34.758   31.229
  447.192    0.016    0.142   42.240   30.627
  447.492    0.022    0.139   50.344   30.614
  447.792    0.025    0.133   50.974   30.596
  448.092    0.025    0.128   42.886   30.582
