~VERSION INFORMATION
 VERS.                 2.0:   CWLS LOG ASCII STANDARD -VERSION 2.0
 WRAP.                  NO:   ONE LINE PER DEPTH STEP
~WELL INFORMATION BLOCK
#MNEM.UNIT           DATA                    DESCRIPTION OF MNEMONIC
#---------    -------------------            -------------------------------
# Generated from Intellog Unique Number	CN_94_101/WELL/2704
WELL.         THE CALIFORNIA STANDARD CO.    : Well_name    - WELL
LOC .         AA/10-03-094-13W4/0            : Location     - LOCATION
UWI .         AA/10-03-094-13W400            : Uwi          - UNIQUE WELL ID
ENTR.         JOETTE                         : Entered      - ENTERED BY
SRVC.         SCHLUMBERGER                   : Scn          - SERVICE COMPANY
DATE.         06/19/92                       : Date         - LOG DATE
STRT.F        50                             : top_depth    - START DEPTH
STOP.F        350.197                        : bot_depth    - STOP DEPTH
STEP.F        0.8202                         : increment    - STEP LENGTH
 NULL. -999.2500:NULL Value
~CURVE INFORMATION BLOCK
#MNEM UNIT       ERCB CURVE CODE    CURVE DESCRIPTION
#-----------   ------------------   ----------------------------------
DEPT.F        00 001 00 00         : DEPTH        - DEPTH
GR  .API      00 310 00 00         : GR           - GAMMA RAY
NPHI.V/V      00 330 00 00         : PHIN         - NEUTRON POROSITY (SANDSTONE)
ILD .OHMM     00 120 00 00         : RESD         - DEEP RESISTIVITY (DIL)
~PARAMETER INFORMATION
#MNEM.UNIT           DATA             DESCRIPTION OF MNEMONIC
#---------         -----------     ------------------------------
GL  .F        1222                 : gl           - GROUND LEVEL ELEVATION
EREF.F        1222                 : kb           - ELEVATION OF DEPTH REFERENCE
DATM.F        1222                 : datum        - DATUM ELEVATION
TDD .F        358                  : tdd          - TOTAL DEPTH DRILLER
RUN .         ONE                  : Run          - RUN NUMBER
ENG .         BILL                 : Engineer     - RECORDING ENGINEER
WIT .         JIM                  : Witness      - WITNESSED BY
MUD .         GEL                  : Mud_type     - MUD TYPE
MATR.         SANDSTONE            : Logunit      - NEUTRON MATRIX
TMAX.F        48                   : BHT          - MAXIMUM RECORDED TEMPERATURE
BHTD.F        358                  : BHTDEP       - MAXIMUM RECORDED TEMPERATURE
RMT .F        48                   : MDTP         - TEMPERATURE OF MUD
MUDD.LB/G     1.12                 : MWT          - MUD DENSITY
NEUT.         1                    : NEUTRON      - NEUTRON TYPE
RESI.         0                    : RESIST       - RESISTIVITY TYPE
RM  .OHMM     13                   : RM           - RESISTIVITY OF MUD
RMC .OHMM     13                   : RMC          - RESISTIVITY OF MUD CAKE
RMF .OHMM     13                   : RMF          - RESISTIVITY OF MUD FILTRATE
SUFT.F        39.2                 : SUFT         - SURFACE TEMPERATURE
~A  DEPTH       GR     PHIN     RESD
   50.000   67.887    0.510   19.875
   50.820   73.108    0.523   19.878
   51.640   79.194    0.509   22.355
   52.461   85.297    0.510   24.397
   53.281   84.459    0.520   24.109
   54.101   86.222    0.504   22.582
   54.921   84.097    0.496   24.404
   55.742   84.141    0.514   26.736
   56.562   85.040    0.549   22.008
   57.382   87.236    0.531   23.756
   58.202   85.110    0.496   24.123
   59.022   85.145    0.506   23.908
   59.843   82.587    0.500   24.857
   60.663   84.351    0.485   25.587
   61.483   85.250    0.479   23.187
   62.303   82.692    0.499   22.681
   63.123   79.702    0.510   24.284
   63.944   81.043    0.499   25.670
   64.764   82.374    0.492   24.508
   65.584   81.986    0.505   24.000
   66.404   78.996    0.535   21.746
   67.224   76.420    0.531   23.131
   68.045   71.701    0.491   23.717
   68.865   74.779    0.491   21.535
   69.685   74.806    0.507   24.959
   70.505   73.976    0.504   23.069
   71.326   75.740    0.502   24.892
   72.146   76.640    0.493   22.419
   72.966   76.243    0.480   24.678
   73.786   77.583    0.492   24.098
   74.606   81.948    0.524   20.388
   75.427   83.704    0.482   16.605
   76.247   81.145    0.485   21.703
   77.067   74.698    0.479   23.526
   77.887   71.708    0.494   21.564
   78.707   69.582    0.452   23.240
   79.528   67.897    0.423   25.135
   80.348   67.923    0.279   26.813
   81.168   61.908    0.255   27.179
   81.988   61.952    0.323   25.216
   82.808   62.843    0.374   23.544
   83.629   64.174    0.344   23.110
   84.449   62.481    0.313   23.404
   85.269   59.490    0.257   23.624
   86.089   59.526    0.304   23.044
   86.909   61.289    0.426   23.120
   87.730   64.799    0.444   23.850
   88.550   63.529    0.438   24.289
   89.370   65.293    0.458   22.326
   90.190   69.218    0.445   23.130
   91.010   70.117    0.439   24.225
   91.831   64.966    0.428   24.882
   92.651   61.120    0.429   24.376
   93.471   59.418    0.441   24.887
   94.291   55.572    0.463   25.617
   95.112   58.191    0.463   26.931
   95.932   62.989    0.485   26.570
   96.752   68.219    0.477   24.242
   97.572   70.406    0.467   23.663
   98.392   72.611    0.481   18.787
   99.213   75.239    0.480   19.445
  100.033   80.893    0.560   20.904
  100.853   83.953    0.557   19.450
  101.673   81.836    0.559   13.847
  102.493   79.701    0.572   14.578
  103.314   81.042    0.563   13.851
  104.134   84.102    0.533   13.053
  104.954   83.705    0.526   12.764
  105.774   81.147    0.524   12.621
  106.594   79.886    0.539   12.624
  107.415   80.353    0.549   14.884
  108.235   79.091    0.553   13.431
  109.055   77.398    0.543   13.434
  109.875   78.297    0.497   13.581
  110.696   82.231    0.500   16.131
  111.516   86.155    0.538   15.187
  112.336   85.758    0.545   14.170
  113.156   82.768    0.546   13.664
  113.976   84.532    0.505   14.322
  114.797   87.601    0.470   15.125
  115.617   83.738    0.480   17.384
  116.437   78.154    0.512   13.892
  117.257   79.054    0.547   11.784
  118.077   83.419    0.563   12.805
  118.898   83.455    0.557   13.027
  119.718   96.040    0.559   12.956
  120.538   96.499    0.555   12.303
  121.358   93.076    0.530   11.141
  122.178   88.358    0.548   10.780
  122.999   82.334    0.564   10.709
  123.819   85.403    0.578   10.785
  124.639   83.277    0.580   10.642
  125.459   78.999    0.586    9.843
  126.280   77.296    0.572    9.773
  127.100   76.476    0.535   10.503
  127.920   78.240    0.506   11.306
  128.740   79.139    0.545   11.964
  129.560   80.030    0.560   11.530
  130.381   81.802    0.570   11.169
  131.201   83.566    0.554   11.171
  132.021   90.093    0.545   11.756
  132.841   91.424    0.534   13.943
  133.661   93.612    0.516   14.746
  134.482   87.173    0.493   12.928
  135.302   89.792    0.500   12.494
  136.122   89.836    0.528   12.496
  136.942   92.473    0.488   14.756
  137.762   92.067    0.429   14.832
  138.583   83.026    0.427   17.091
  139.403   75.706    0.515   17.093
  140.223   81.800    0.546   16.295
  141.043   92.207    0.534   15.205
  141.864   97.446    0.477   14.626
  142.684   89.684    0.480   14.119
  143.504   89.305    0.496   13.975
  144.324   89.772    0.507   15.070
  145.144   88.502    0.514   15.000
  145.965   88.969    0.519   13.910
  146.785   89.869    0.526   12.966
  147.605   90.336    0.526   12.460
  148.425   90.371    0.492   12.462
  149.245   83.923    0.492   16.104
  150.066   81.365    0.487   17.418
  150.886   82.265    0.538   14.363
  151.706   88.359    0.565   13.419
  152.526   90.555    0.528   12.766
  153.346   91.455    0.523   13.060
  154.167   94.515    0.532   13.863
  154.987   94.118    0.489   13.501
  155.807   91.992    0.474   12.849
  156.627   87.273    0.483   12.342
  157.448   84.292    0.487   14.528
  158.268   86.911    0.508   18.316
  159.088   92.573    0.496   22.178
  159.908   90.880    0.494   18.758
  160.728   84.000    0.518   13.082
  161.549   89.230    0.559   11.702
  162.369   90.985    0.592    9.884
  163.189   92.325    0.591    9.596
  164.009   89.758    0.573   10.035
  164.829   87.633    0.558    9.964
  165.650   85.084    0.537   11.861
  166.470   84.686    0.526   12.226
  167.290   86.882    0.514   12.156
  168.110   89.078    0.572   10.338
  168.930   93.003    0.569   10.486
  169.751   89.581    0.537   13.183
  170.571   85.294    0.520   17.189
  171.391   82.736    0.558   16.682
  172.211   86.228    0.561   10.715
  173.031   86.272    0.566   10.572
  173.852   81.545    0.586   10.138
  174.672   73.368    0.611    7.883
  175.492   66.921    0.631    6.794
  176.312   61.338    0.638    7.524
  177.133   60.941    0.600    7.673
  177.953   65.297    0.591    7.093
  178.773   69.222    0.575    7.750
  179.593   67.537    0.520   15.688
  180.413   57.623    0.491   18.749
  181.234   50.744    0.496   24.430
  182.054   46.457    0.483   27.563
  182.874   45.204    0.473   30.478
  183.694   49.561    0.477   31.791
  184.514   52.630    0.487   28.590
  185.335   50.496    0.480   25.680
  186.155   52.692    0.562   25.829
  186.975   63.108    0.595    9.960
  187.795   68.761    0.556    9.162
  188.615   75.720    0.561    9.383
  189.436   77.907    0.592   10.550
  190.256   83.137    0.592   11.280
  191.076   88.358    0.558   11.137
  191.896   82.775    0.531   10.703
  192.717   82.387    0.512   13.108
  193.537   81.117    0.546   15.659
  194.357   82.448    0.565    9.911
  195.177   87.246    0.582    9.912
  195.997   88.154    0.562   10.134
  196.818   85.587    0.551   10.354
  197.638   85.631    0.538   10.502
  198.458   89.115    0.532   10.941
  199.278   85.260    0.548   13.420
  200.098   70.593    0.495   15.315
  200.919   61.984    0.434   16.992
  201.739   54.672    0.424   18.815
  202.559   49.953    0.458   20.783
  203.379   54.310    0.484   24.499
  204.199   56.083    0.429   26.321
  205.020   48.762    0.397   26.105
  205.840   41.450    0.381   26.253
  206.660   30.249    0.308   27.202
  207.480   19.471    0.273   23.200
  208.301   15.625    0.246   22.839
  209.121   18.677    0.305   24.516
  209.941   26.500    0.308   25.247
  210.761   33.449    0.349   18.770
  211.581   39.976    0.390   13.967
  212.402   45.629    0.419    7.272
  213.222   41.343    0.291   17.175
  214.042   21.921    0.284   19.799
  214.862   15.041    0.308   20.311
  215.682   19.830    0.326   14.416
  216.503   25.925    0.323   10.852
  217.323   25.960    0.332   14.640
  218.143   24.698    0.365   16.754
  218.963   26.462    0.374   14.281
  219.783   29.090    0.365   12.682
  220.604   29.998    0.382    9.117
  221.424   30.474    0.388    8.100
  222.244   30.950    0.366    7.448
  223.064   30.977    0.381    6.941
  223.885   31.003    0.408    6.142
  224.705   31.056    0.464    5.271
  225.525   31.082    0.555    4.765
  226.345   30.676    0.542    5.131
  227.165   31.576    0.440    5.279
