~Version : LASO    vs 4.00
VERS.                2.00:   CWLS Log ASCII Standard -VERSION 2.0
WRAP.                  NO:
~Well Information Block
#MNEM.UNIT       Data                        Description of Mnemonic
#----.----      -------------------------- : -----------------------------
STRT.M             3.0000:
STOP.M           202.0000:
STEP.M             0.1250:
NULL.           -999.2500:
COMP.  MOBILOIL CANADA             :COMPANY
WELL.  MOBIL CLARKE OV 10-26       :WELL
FLD.   CLARKE                      :FIELD
LOC.   10-26-090-07W4              :LOCATION
CTRY.  CANADA                      :COUNTRY
PROV.  ALBERTA                     :PROVINCE
SRVC.  DRESSER ATLAS               :SERVICE COMPANY
DATE.  31-JAN-81                   :LOG DATE
UWI.   AA/10-26-090-07W400         :UNIQUE WELL ID
~Parameter Information Block
#MNEM.UNIT       Data                        Description of Mnemonic
#----.----      -------------------------- : -----------------------------
RUN .                   1                 : Run Number
GL  .M           456.0000                 : Ground Level Elevation
DREF.                  KB                 : Depth Reference
EREF.M           456.0000                 : Elevation of Depth Reference
TDL .M           201.0000                 : Total Depth Logger
TDD .M           203.0000                 : Total Depth Driller
CSGL.M            13.0000                 : Casing Bottom Logger
CSGD.M            12.0000                 : Casing Bottom Driller
CSGS.MM          219.0000                 : Casing Size
CSGW.KG/M          0.0000                 : Casing Weight
BHT .DEGC         18.0000                 : Bottom Hole Temperature
BS  .MM          171.4000                 : Bit Size
DFD .              9.7000                 : Mud Weight (Density)
DFV .             85.0000                 : Mud Viscosity
RM  .OHMM          4.0000                 : Mud Resistivity
RMT .DEGC         18.0000                 : Mud Resistivity Temperature
RMF .OHMM          6.2000                 : Mud Filtrate Resistivity
RMFT.DEGC         12.0000                 : RMF Temperature
RMC .OHMM         11.6000                 : Mud Cake Resistivity
RMCT.DEGC         12.0000                 : RMC Temperature
~Curve Information Block
#MNEM.UNIT        API CODE    Curve Description
#---------    ------------    -------------------------------------------
DEPT.M                    :   DEPTH
CALI.MM       42 280  1  1:   3 DENSITY CALIPER
DPHI.V/V                  :   DPHI
DT  .US/M     60 520 42  1:   2 SONIC INTERVAL TRANSIT TIME (COMPENSATED)
GR  .GAPI     42 310  1  1:   4 GAMMA RAY
LLD .Ohmm                 :   LLD
NPHI.V/V      42 890  3  1:   5 NEUTRON POROSITY (SANDSTONE)
RHOB.K/M3     42 350  1  1:   6 BULK DENSITY
~A  Depth           CALI        DPHI          DT          GR         LLD        NPHI        RHOB
# ...
44.5000         254.4500      0.3851    481.1600     67.8300    251.2656      0.3638   2037.2000
44.6250         224.7500      0.3791    458.3600     69.4800    260.5518      0.3537   2146.7000
44.7500         212.8000      0.3626    439.2400     68.5650    268.3056      0.3488   2217.1001
44.8750         215.5500      0.3416    438.7600     66.9000    276.7753      0.3515   2241.6001
45.0000         217.4000      0.3142    434.3200     65.9850    285.3787      0.3511   2245.2000
45.1250         216.1750      0.2974    426.9600     65.4300    293.0247      0.3492   2248.3000
45.2500         213.7250      0.2827    419.1200     67.8300    303.6259      0.3503   2247.7000
45.3750         214.0250      0.2721    427.2400     68.9250    314.0468      0.3541   2237.8999
45.5000         214.6250      0.2566    439.9600     66.1650    322.1079      0.3575   2217.7000
45.6250         211.8750      0.2516    450.7600     63.2250    328.7955      0.3590   2202.3999
45.7500         204.5250      0.2561    438.7600     58.2450    336.2072      0.3567   2202.3999
45.8750         195.6250      0.2628    443.6400     55.1100    342.7373      0.3612   2220.1001
46.0000         192.5750      0.2695    449.2800     52.5300    342.3418      0.3650   2255.0000
46.1250         190.7250      0.2667    449.0400     50.6850    336.8444      0.3661   2267.8999
46.2500         191.0500      0.2578    463.7600     49.7700    336.4247      0.3668   2256.2000
46.3750         190.1250      0.2455    477.4800     48.4800    335.7261      0.3627   2248.8999
46.5000         188.2750      0.2440    490.7200     47.5500    331.9051      0.3601   2244.6001
46.6250         187.9750      0.2467    499.2800     47.5500    326.2290      0.3586   2237.3000
46.7500         193.5000      0.2518    487.5200     48.2850    322.0960      0.3477   2229.8999
46.8750         198.1000      0.2546    476.9600     50.1300    320.7503      0.3425   2226.3000
47.0000         199.3250      0.2527    463.2400     50.1300    319.2396      0.3342   2231.8000
47.1250         196.2500      0.2437    450.0000     49.3950    317.0190      0.3263   2255.6001
47.2500         194.4000      0.2368    482.8800     49.0350    316.7905      0.3114   2293.6001
47.3750         195.0250      0.2294    476.0000     47.3700    318.6260      0.3061   2318.7000
47.5000         194.7250      0.2218    452.2400     47.1900    318.9422      0.3069   2313.8000
47.6250         195.0250      0.2153    451.0000     46.2600    318.1706      0.3129   2304.6001
47.7500         196.8750      0.2120    484.5600     46.6350    315.4998      0.3298   2294.2000
47.8750         196.2500      0.2140    492.9200     48.2850    317.0271      0.3335   2285.0000
48.0000         195.0250      0.2179    464.0000     50.6850    318.0068      0.3361   2284.3999
48.1250         194.4000      0.2206    464.7200     54.1950    318.3990      0.3383   2293.6001
48.2500         194.7250      0.2189    472.8000     57.5100    318.5279      0.3331   2303.3999
48.3750         195.3250      0.2166    457.6000     59.1600    316.8109      0.3313   2313.2000
48.5000         195.0250      0.2125    446.8400     59.7150    314.5310      0.3248   2319.3000
48.6250         196.5500      0.2095    438.5200     60.4500    311.1558      0.3241   2317.5000
48.7500         196.2500      0.2093    446.8400     59.7150    305.5840      0.3188   2312.6001
48.8750         194.1000      0.2115    444.1200     58.2450    297.2831      0.3188   2308.3000
49.0000         187.6750      0.2116    462.2800     57.3150    290.0737      0.3193   2310.1001
49.1250         188.2750      0.2093    510.0800     54.7350    283.5410      0.3178   2323.0000
49.2500         189.5000      0.2068    472.5600     53.8200    276.7008      0.3278   2329.7000
49.3750         188.6000      0.2021    465.4800     55.1100    269.8585      0.3316   2337.0000
49.5000         191.3500      0.1994    455.9200     56.4000    263.0161      0.3368   2345.6001
49.6250         193.8000      0.1958    445.6000     56.2200    256.7107      0.3410   2349.8999
49.7500         197.1750      0.1920    443.8800     55.6650    250.2598      0.3458   2350.5000
49.8750         198.1000      0.1902    440.4800     55.8450    246.8731      0.3473   2350.5000
50.0000         197.1750      0.1891    444.1200     59.5350    249.1675      0.3470   2349.3000
50.1250         193.8000      0.1879    424.5200     64.5150    254.1302      0.3477   2348.1001
50.2500         193.8000      0.1886    447.5600     67.4550    259.4388      0.3473   2341.8999
50.3750         198.1000      0.1932    439.0000     68.3850    264.7840      0.3488   2334.0000
50.5000         201.4500      0.2004    437.7600     68.9250    278.4758      0.3515   2322.3000
50.6250         201.1500      0.2072    441.4400     70.0350    287.1556      0.3552   2310.7000
50.7500         196.5500      0.2152    446.8400     69.4800    297.6678      0.3578   2302.2000
50.8750         192.8750      0.2209    447.5600     65.2500    305.5495      0.3575   2296.0000
51.0000         189.8250      0.2246    461.0400     60.6450    316.1504      0.3571   2291.7000
51.1250         183.3750      0.2290    481.8800     56.7750    331.9329      0.3488   2288.7000
51.2500         179.4000      0.2317    504.6800     53.8200    346.5060      0.3342   2282.6001
51.3750         180.3250      0.2350    503.4000     51.2400    358.8244      0.3290   2277.1001
51.5000         178.4750      0.2392    507.8800     48.6600    374.0824      0.3256   2274.0000
51.6250         182.1500      0.2428    520.1200     47.1900    388.1670      0.3275   2264.8000
51.7500         183.0750      0.2471    523.0400     46.0800    399.5206      0.3293   2256.2000
51.8750         183.3750      0.2516    513.2400     45.1650    414.5516      0.3308   2250.7000
52.0000         184.3000      0.2572    507.1200     44.9700    426.0059      0.3372   2244.6001
52.1250         184.9250      0.2638    503.1600     44.4150    439.7650      0.3432   2235.3999
52.2500         185.2250      0.2706    515.7200     42.7650    448.1700      0.3548   2224.3999
52.3750         185.8250      0.2765    523.5600     39.6300    454.3839      0.3623   2211.6001
52.5000         186.7500      0.2822    530.6400     35.5800    460.2499      0.3721   2185.3000
52.6250         184.3000      0.2944    536.8000     33.0000    459.7007      0.3721   2155.8999
52.7500         183.7000      0.2990    548.0400     32.4450    454.1108      0.3724   2135.1001
52.8750         184.3000      0.3115    548.8000     33.9150    440.5016      0.3747   2121.0000
53.0000         184.9250      0.3219    548.0400     36.1350    410.9367      0.3728   2114.3000
53.1250         187.6750      0.3277    548.0400     39.0750    378.2335      0.3709   2106.8999
53.2500         190.1250      0.3334    556.4000     42.5850    309.4287      0.3702   2097.1001
53.3750         189.2000      0.3375    557.6000     45.5250    232.3492      0.3728   2091.6001
53.5000         188.6000      0.3406    556.1600     47.5500    188.6273      0.3728   2087.3000
53.6250         189.2000      0.3452    554.4400     50.6850    164.3615      0.3706   2083.7000
53.7500         190.1250      0.3476    546.0800     54.1950    143.7443      0.3754   2077.5000
53.8750         191.6500      0.3499    525.2800     58.9800    125.9407      0.3837   2065.3000
54.0000         192.5750      0.3531    489.0000     65.9850    114.6280      0.3938   2047.6000
54.1250         188.2750      0.3565    463.7600     70.4100    108.0041      0.4021   2038.4000
54.2500         184.3000      0.3591    439.0000     74.6400    102.8309      0.4230   2048.8000
54.3750         187.9750      0.3657    440.2000     80.7300     98.6943      0.4365   2054.8999
54.5000         190.1250      0.3806    459.3200     86.8050     89.7536      0.4448   2039.0000
54.6250         189.8250      0.3874    492.6800     91.5900     84.8184      0.4410   2012.1000
54.7500         188.2750      0.3809    524.2800     93.9900     82.8065      0.4309   2018.8000
