~VERSION INFORMATION
 VERS.                 2.0:   CWLS LOG ASCII STANDARD -VERSION 2.0
 WRAP.                  NO:   ONE LINE PER DEPTH STEP
~WELL INFORMATION BLOCK
#MNEM.UNIT           DATA                    DESCRIPTION OF MNEMONIC
#---------    -------------------            -------------------------------
# Generated from Intellog Unique Number	CC_80_83/WELL/2376
NULL.         -999.25                        : NULL_VALUE
WELL.         ARCO ACI MCMURRAY              : Well_name    - WELL
LOC .         10-26-083-10W4                 : Location     - LOCATION          
UWI .         AA/10-26-083-10W400            : Uwi          - UNIQUE WELL ID    
ENTR.         DW                             : Entered      - ENTERED BY        
SRVC.         SCHLUMBERGER                   : Scn          - SERVICE COMPANY   
DATE.         23 FEB 74                      : Date         - LOG DATE
STRT.M        249.936                        : top_depth    - START DEPTH       
STOP.M        484.639                        : bot_depth    - STOP DEPTH        
STEP.M        0.305                          : increment    - STEP LENGTH       
~CURVE INFORMATION BLOCK
#MNEM UNIT       ERCB CURVE CODE    CURVE DESCRIPTION
#-----------   ------------------   ----------------------------------
DEPT.M        00 001 00 00         : DEPTH        - DEPTH                       
DPHI.V/V      00 890 00 00         : PHID         - DENSITY POROSITY (LIMESTONE)
GR  .API      00 310 00 00         : GR           - GAMMA RAY                   
ILD .OHMM     00 120 00 00         : RESD         - DEEP RESISTIVITY (DIL)      
NPHI.V/V      00 330 00 00         : PHIN         - NEUTRON POROSITY (LIMESTONE)
~PARAMETER INFORMATION       
#MNEM.UNIT           DATA             DESCRIPTION OF MNEMONIC
#---------         -----------     ------------------------------
GL  .M        716.615              : gl           - GROUND LEVEL ELEVATION      
EREF.M        719.663              : kb           - ELEVATION OF DEPTH REFERENCE
DATM.M        719.663              : datum        - DATUM ELEVATION             
TDD .M        486.461              : tdd          - TOTAL DEPTH DRILLER         
RUN .         ONE                  : Run          - RUN NUMBER                  
ENG .         BILL                 : Engineer     - RECORDING ENGINEER          
WIT .         JIM                  : Witness      - WITNESSED BY                
MUD .         GEL                  : Mud_type     - MUD TYPE                    
MATR.         LIMESTONE            : Logunit      - NEUTRON MATRIX              
TMAX.C        23.3333              : BHT          - MAXIMUM RECORDED TEMPERATURE
BHTD.M        486.461              : BHTDEP       - MAXIMUM RECORDED TEMPERATURE
MATR.         1                    : LOGUNIT      - NEUTRON MATRIX              
RMT .C        25                   : MDTP         - TEMPERATURE OF MUD          
NEUT.         1                    : NEUTRON      - NEUTRON TYPE                
RESI.         0                    : RESIST       - RESISTIVITY TYPE            
RMC .OHMM     0.25                 : RMC          - RESISTIVITY OF MUD CAKE     
RMF .OHMM     0.25                 : RMF          - RESISTIVITY OF MUD FILTRATE 
SUFT.C        15                   : SUFT         - SURFACE TEMPERATURE         
~A  DEPTH     PHID       GR     RESD     PHIN
# ...
  356.009    0.357   56.220   10.842    0.414
  356.314    0.358   55.809   10.830    0.420
  356.619    0.360   53.384   10.820    0.425
  356.924    0.361   52.574   11.222    0.425
  357.229    0.365   50.955   11.630    0.413
  357.533    0.369   50.544   11.622    0.410
  357.838    0.364   50.535   11.610    0.408
  358.143    0.364   50.932   11.593    0.388
  358.448    0.365   51.729   11.582    0.414
  358.753    0.360   53.332   11.789    0.409
  359.058    0.360   54.533   11.773    0.425
  359.362    0.366   54.931   11.754    0.404
  359.667    0.373   53.715   11.738    0.407
  359.972    0.367   54.916   11.726    0.416
  360.277    0.361   55.712   11.716    0.427
  360.582    0.359   52.485   11.709    0.416
  360.886    0.363   52.074   11.688    0.413
  361.191    0.371   54.884   11.462    0.396
  361.496    0.373   56.086   11.240    0.403
  361.801    0.369   54.469   11.016    0.412
  362.106    0.365   50.434   10.805    0.427
  362.410    0.364   51.233   10.797    0.440
  362.715    0.366   52.434   10.782    0.435
  363.020    0.333   51.219   10.970    0.400
  363.325    0.282   45.977   11.377    0.373
  363.630    0.017   40.333   12.244    0.310
  363.934    0.007   37.508   13.674    0.277
  364.239    0.043   39.914   18.060    0.088
  364.544    0.145   43.531   22.981    0.091
  364.849    0.219   50.772   24.732    0.169
  365.154    0.280   58.816   22.083    0.292
  365.459    0.354   57.601   17.982    0.334
  365.763    0.363   53.164   15.767    0.400
  366.068    0.367   51.949   12.364    0.393
  366.373    0.366   51.940   11.464    0.389
  366.678    0.361   52.738   11.239    0.385
  366.983    0.360   52.733   11.226    0.371
  367.287    0.363   54.739   11.426    0.433
  367.592    0.361   57.145   11.619    0.424
  367.897    0.360   57.945   11.828    0.395
  368.202    0.367   55.923   11.601    0.417
  368.507    0.373   52.695   11.586    0.429
  368.811    0.372   51.480   11.148    0.398
  369.116    0.371   51.067   11.136    0.401
  369.421    0.364   51.063   11.127    0.407
  369.726    0.355   51.459   11.314    0.418
  370.031    0.353   51.448   11.515    0.395
  370.335    0.356   51.846   11.725    0.396
  370.640    0.365   51.838   12.155    0.393
  370.945    0.363   53.038   12.369    0.399
  371.250    0.353   54.239   12.128    0.426
  371.555    0.337   53.427   11.245    0.422
  371.860    0.314   49.797   11.658    0.401
  372.164    0.279   47.374   12.547    0.383
  372.469    0.182   50.989   14.012    0.364
  372.774    0.270   52.995   14.528    0.327
  373.079    0.321   53.391   14.509    0.289
  373.384    0.348   56.201   13.963    0.309
  373.688    0.355   56.193   13.439    0.410
  373.993    0.357   54.576   12.460    0.427
  374.298    0.352   53.361   11.552    0.405
  374.603    0.354   54.965   11.121    0.387
  374.908    0.360   55.359   10.700    0.392
  375.212    0.362   54.950   10.493    0.416
  375.517    0.357   52.929   10.283    0.402
  375.822    0.348   50.504   10.274    0.425
  376.127    0.363   50.497   10.266    0.392
  376.432    0.367   52.907   10.445    0.398
  376.736    0.358   55.316   10.825    0.405
  377.041    0.350   58.126   10.817    0.422
  377.346    0.350   56.510   11.009    0.427
  377.651    0.336   55.697   10.789    0.403
  377.956    0.293   53.273   10.781    0.393
  378.261    0.250   48.837   11.178    0.380
  378.565    0.145   47.220   12.030    0.351
  378.870    0.278   48.017   13.689    0.318
  379.175    0.300   54.855   15.289    0.278
  379.480    0.325   62.900   15.274    0.381
  379.785    0.341   53.632   14.159    0.415
  380.089    0.346   50.403   12.650    0.394
  380.394    0.327   58.046   11.302    0.396
  380.699    0.309   66.896   10.284    0.403
  381.004    0.296   74.538    9.713    0.429
  381.309    0.293   72.115    9.174    0.424
  381.613    0.299   75.328    8.350    0.417
  381.918    0.294   76.931    7.322    0.437
  382.223    0.284   69.677    6.420    0.473
  382.528    0.284   65.242    5.737    0.447
  382.833    0.305   62.818    5.946    0.446
  383.137    0.282   69.656    7.021    0.454
  383.442    0.286   73.272    7.417    0.445
  383.747    0.303   72.862    7.408    0.476
  384.052    0.292   73.659    6.997    0.515
  384.357    0.287   77.677    6.738    0.481
  384.662    0.288   80.085    6.018    0.510
  384.966    0.299   80.883    5.579    0.486
  385.271    0.315   78.864    5.077    0.496
  385.576    0.315   65.168    4.796    0.481
  385.881    0.314   66.368    4.790    0.463
  386.186    0.317   74.411    5.061    0.413
  386.490    0.324   74.808    5.446    0.412
  386.795    0.327   72.789    6.081    0.416
  387.100    0.313   71.171    6.307    0.437
  387.405    0.314   70.356    6.913    0.450
  387.710    0.316   68.738    7.303    0.422
  388.014    0.308   69.940    7.858    0.418
  388.319    0.281   78.790    8.453    0.416
  388.624    0.267   71.132    8.606    0.428
  388.929    0.293   76.763    8.279    0.425
  389.234    0.266   77.961    8.122    0.448
  389.538    0.279   77.554    7.388    0.453
  389.843    0.323   76.337    7.114    0.524
  390.148    0.337   80.758    6.594    0.576
  390.453    0.304   86.789    6.344    0.535
  390.758    0.266   88.393    6.339    0.462
  391.063    0.272   85.971    6.331    0.476
  391.367    0.291   82.340    6.095    0.479
  391.672    0.289   81.528    5.757    0.484
  391.977    0.273   84.339    5.049    0.482
  392.282    0.273   88.760    4.507    0.466
  392.587    0.297   89.961    4.340    0.460
  392.891    0.306   89.953    3.532    0.464
  393.196    0.314   86.726    3.155    0.517
  393.501    0.302   78.263    3.094    0.493
  393.806    0.285   73.826    3.208    0.494
  394.111    0.256   79.858    3.788    0.541
  394.415    0.276   88.306    4.392    0.572
  394.720    0.288   86.688    5.185    0.573
  395.025    0.291   80.641    5.685    0.573
  395.330    0.282   77.011    6.006    0.574
  395.635    0.264   79.820    6.708    0.533
  395.939    0.265   81.023    7.492    0.489
  396.244    0.298   85.846    8.212    0.470
  396.549    0.298   90.267    9.002    0.481
  396.854    0.272   89.454    9.511    0.522
  397.159    0.247   87.033   10.233    0.474
  397.464    0.241   85.414   10.418    0.361
  397.768    0.238   85.004   11.001    0.340
  398.073    0.237   85.399   11.193    0.365
  398.378    0.253   84.184   11.396    0.391
  398.683    0.249   81.358   11.380    0.369
  398.988    0.255   78.933   10.949    0.374
  399.292    0.287   78.927   10.543    0.383
  399.597    0.335   79.323    9.776    0.379
  399.902    0.394   83.343    8.410    0.419
  400.207    0.380   89.775    7.797    0.490
  400.512    0.338   90.172    7.506    0.489
  400.816    0.272   86.541    7.358    0.480
  401.121    0.297   76.469    7.488    0.472
  401.426    0.259   77.265    8.059    0.457
  401.731    0.259   78.062    9.001    0.376
  402.036    0.269   78.859    9.868    0.388
  402.340    0.271   79.257   10.619    0.395
  402.645    0.269   76.430   11.008    0.379
  402.950    0.280   75.217   10.791    0.381
  403.255    0.290   80.442   10.389    0.416
  403.560    0.281   82.449    9.812    0.438
  403.865    0.286   81.636    8.927    0.482
  404.169    0.315   73.577    8.435    0.529
  404.474    0.284   69.542    7.968    0.514
  404.779    0.273   73.960    7.526    0.460
  405.084    0.308   75.164    7.517    0.432
  405.389    0.282   76.767    7.941    0.483
  405.693    0.269   76.760    8.391    0.484
  405.998    0.281   78.364    9.198    0.409
  406.303    0.301   80.366    9.714    0.415
  406.608    0.347   80.360    9.348    0.478
  406.913    0.364   77.536    9.000    0.559
  407.217    0.338   69.074    8.342    0.575
  407.522    0.262   71.080    8.490    0.552
  407.827    0.232   74.696    9.306    0.396
  408.132    0.262   75.091   10.202    0.375
  408.437    0.272   73.473   10.190    0.371
  408.741    0.288   76.685    9.994    0.376
