~VERSION INFORMATION
 VERS.                 2.0:   CWLS LOG ASCII STANDARD -VERSION 2.0
 WRAP.                  NO:   ONE LINE PER DEPTH STEP
~WELL INFORMATION BLOCK
#MNEM.UNIT           DATA                    DESCRIPTION OF MNEMONIC
#---------    -------------------            -------------------------------
# Generated from Intellog Unique Number	CC_80_83/WELL/2347
NULL.         -999.25                        : NULL_VALUE
WELL.         ARCO ACI MCMURRAY OV           : Well_name    - WELL
LOC .         10-11-080-11W4                 : Location     - LOCATION          
UWI .         AA/10-11-080-11W400            : Uwi          - UNIQUE WELL ID    
ENTR.         DW                             : Entered      - ENTERED BY        
SRVC.         SCHLUMBERGER                   : Scn          - SERVICE COMPANY   
DATE.         05 FEB 76                      : Date         - LOG DATE
STRT.M        249.936                        : top_depth    - START DEPTH       
STOP.M        474.885                        : bot_depth    - STOP DEPTH        
STEP.M        0.305                          : increment    - STEP LENGTH       
~CURVE INFORMATION BLOCK
#MNEM UNIT       ERCB CURVE CODE    CURVE DESCRIPTION
#-----------   ------------------   ----------------------------------
DEPT.M        00 001 00 00         : DEPTH        - DEPTH                       
RHOB.KG/M3    00 350 00 00         : DENS         - BULK DENSITY                
GR  .API      00 310 00 00         : GR           - GAMMA RAY                   
NPHI.V/V      00 330 00 00         : PHIN         - NEUTRON POROSITY (LIMESTONE)
ILD .OHMM     00 120 00 00         : RESD         - DEEP RESISTIVITY (DIL)      
~PARAMETER INFORMATION       
#MNEM.UNIT           DATA             DESCRIPTION OF MNEMONIC
#---------         -----------     ------------------------------
GL  .M        686.105              : gl           - GROUND LEVEL ELEVATION      
EREF.M        689.153              : kb           - ELEVATION OF DEPTH REFERENCE
DATM.M        689.153              : datum        - DATUM ELEVATION             
TDD .M        474.878              : tdd          - TOTAL DEPTH DRILLER         
RUN .         ONE                  : Run          - RUN NUMBER                  
ENG .         BILL                 : Engineer     - RECORDING ENGINEER          
WIT .         JIM                  : Witness      - WITNESSED BY                
MUD .         GEL                  : Mud_type     - MUD TYPE                    
MATR.         LIMESTONE            : Logunit      - NEUTRON MATRIX              
TMAX.C        21.1111              : BHT          - MAXIMUM RECORDED TEMPERATURE
BHTD.M        474.878              : BHTDEP       - MAXIMUM RECORDED TEMPERATURE
MATR.         1                    : LOGUNIT      - NEUTRON MATRIX              
RMT .C        25                   : MDTP         - TEMPERATURE OF MUD          
NEUT.         0                    : NEUTRON      - NEUTRON TYPE                
RESI.         0                    : RESIST       - RESISTIVITY TYPE            
RMC .OHMM     0.25                 : RMC          - RESISTIVITY OF MUD CAKE     
RMF .OHMM     0.25                 : RMF          - RESISTIVITY OF MUD FILTRATE 
SUFT.C        15                   : SUFT         - SURFACE TEMPERATURE         
~A  DEPTH     DENS       GR     PHIN     RESD
# ...
  356.009 2211.570   77.283    0.387    8.028
  356.314 2211.620   80.338    0.373    8.180
  356.619 2225.800   80.350    0.368    7.735
  356.924 2227.850   80.970    0.363    6.300
  357.229 2235.960   80.373    0.366    6.301
  357.533 2248.120   76.124    0.373    6.186
  357.838 2268.350   74.309    0.394    5.849
  358.143 2294.630   76.757    0.451    5.329
  358.448 2246.210   80.422    0.446    4.340
  358.753 2228.080   84.693    0.430    3.281
  359.058 2236.200   94.445    0.424    3.281
  359.362 2286.720   93.239    0.422    3.406
  359.667 2323.090   88.991    0.423    3.811
  359.972 2323.150   87.783    0.428    4.107
  360.277 2317.120   91.450    0.434    4.263
  360.582 2311.100   88.418    0.441    4.264
  360.886 2329.320   85.993    0.438    4.108
  361.191 2335.410   86.008    0.426    3.885
  361.496 2299.100   86.627    0.416    3.474
  361.801 2246.650   86.637    0.423    3.410
  362.106 2234.580   84.214    0.431    3.675
  362.410 2246.730   81.791    0.420    4.035
  362.715 2271.000   78.758    0.409    4.349
  363.020 2244.790   76.948    0.401    4.865
  363.325 2248.880   77.570    0.402    5.243
  363.630 2252.940   79.406    0.398    5.545
  363.934 2248.940   80.632    0.385    5.651
  364.239 2281.290   80.644    0.375    5.547
  364.544 2311.620   74.572    0.383    5.867
  364.849 2329.820   73.364    0.392    5.868
  365.154 2269.290   73.984    0.395    5.979
  365.459 2235.010   80.083    0.397    5.980
  365.763 2271.400   76.443    0.398    6.094
  366.068 2255.290   75.845    0.408    6.209
  366.373 2247.240   77.075    0.401    6.096
  366.678 2261.410   79.523    0.394    5.873
  366.983 2291.730   81.365    0.397    5.658
  367.287 2263.510   81.980    0.410    5.155
  367.592 2241.340   83.817    0.424    4.121
  367.897 2237.340   88.702    0.429    4.045
  368.202 2245.460   91.148    0.412    4.200
  368.507 2310.110   92.985    0.405    4.360
  368.811 2306.110   93.609    0.405    4.527
  369.116 2300.090   94.225    0.407    4.699
  369.421 2267.820   96.674    0.405    4.879
  369.726 2251.710   96.076    0.401    4.879
  370.031 2261.850   86.349    0.400    4.445
  370.335 2245.730   85.751    0.402    4.446
  370.640 2213.470   85.762    0.402    4.703
  370.945 2098.420   86.387    0.402    4.882
  371.250 2146.910   86.396    0.384    5.462
  371.555 2235.790   84.584    0.374    5.777
  371.860 2300.440   82.159    0.378    6.343
  372.164 2272.210   78.519    0.382    7.366
  372.469 2252.060   77.920    0.388    7.938
  372.774 2235.970   79.150    0.390    7.940
  373.079 2225.900   81.598    0.391    7.794
  373.384 2225.940   81.001    0.389    7.650
  373.688 2250.210   79.794    0.386    7.235
  373.993 2260.340   79.196    0.389    6.971
  374.298 2264.410   81.645    0.389    6.842
  374.603 2272.530   85.919    0.389    6.843
  374.908 2278.640   88.363    0.389    6.974
  375.212 2282.720   85.940    0.389    6.974
  375.517 2286.790   81.693    0.386    7.106
  375.822 2290.860   82.314    0.381    6.976
  376.127 2290.900   83.545    0.380    6.848
  376.432 2276.800   84.775    0.409    6.476
  376.736 2258.680   84.780    0.422    6.477
  377.041 2250.640   85.401    0.424    6.240
  377.346 2242.600   89.066    0.426    5.792
  377.651 2224.470   93.951    0.433    4.806
  377.956 2254.800   95.788    0.438    3.248
  378.261 2254.840   95.800    0.444    2.746
  378.565 2242.760   95.201    0.439    2.456
  378.870 2218.570   95.213    0.425    2.410
  379.175 2218.620   94.007    0.425    2.502
  379.480 2218.650   88.539    0.423    2.906
  379.785 2198.500   80.028    0.411    3.503
  380.089 2220.740   83.696    0.406    4.222
  380.394 2247.040   86.140    0.411    4.903
  380.699 2279.380   84.934    0.409    5.485
  381.004 2247.120   86.165    0.401    5.911
  381.309 2226.960   84.960    0.388    6.490
  381.613 2202.770   84.970    0.378    6.865
  381.918 2225.020   86.809    0.375    7.127
  382.223 2231.110   86.820    0.372    7.399
  382.528 2269.510   86.835    0.366    7.682
  382.833 2263.500   88.062    0.334    7.828
  383.137 2257.490   86.248    0.320    8.595
  383.442 2257.520   83.217    0.314    9.263
  383.747 2441.290   80.792    0.308    9.983
  384.052 2528.150   78.370    0.304   10.172
  384.357 2651.350   78.379    0.297   10.172
  384.662 2243.540   88.740    0.291    9.096
  384.966 2275.890   84.494    0.295    7.548
  385.271 2302.180   82.675    0.373    6.148
  385.576 2302.220   85.125    0.395    5.706
  385.881 2245.720   86.965    0.401    5.707
  386.186 2213.460   87.586    0.405    6.037
  386.490 2205.420   86.985    0.407    6.267
  386.795 2264.020   84.564    0.405    6.881
  387.100 2258.000   79.704    0.394    7.556
  387.405 2247.940   76.063    0.377    7.844
  387.710 2250.000   76.682    0.351    7.845
  388.014 2254.070   79.133    0.340    7.701
  388.319 2246.050   79.144    0.345    7.420
  388.624 2233.960   78.548    0.349    6.887
  388.929 2201.700   78.556    0.355    6.761
  389.234 2213.850   76.742    0.356    6.762
  389.538 2228.040   76.145    0.356    6.890
  389.843 2222.010   77.375    0.354    7.153
  390.148 2187.720   79.214    0.352    7.154
  390.453 2216.020   82.270    0.354    7.155
  390.758 2250.390   83.497    0.356    7.024
  391.063 2250.430   84.120    0.356    6.895
  391.367 2246.430   82.915    0.354    6.896
  391.672 2258.590   82.931    0.352    6.897
  391.977 2262.670   82.937    0.348    7.027
  392.282 2258.670   78.078    0.346    7.161
  392.587 2254.670   76.872    0.345    7.162
  392.891 2248.640   75.666    0.346    7.435
  393.196 2236.570   76.288    0.346    7.164
  393.501 2214.400   76.907    0.344    7.032
  393.806 2129.640   76.311    0.352    7.166
  394.111 2103.440   71.456    0.371    7.580
  394.415 2119.620   68.421    0.371    8.168
  394.720 2580.010   65.390    0.366    8.803
  395.025 2539.660   62.356    0.329    9.848
  395.330 2471.060   65.412    0.168   10.416
  395.635 2364.080   66.032    0.160   10.814
  395.939 2624.580   58.739    0.242   10.419
  396.244 2578.180   56.926    0.264    8.646
  396.549 2432.850   64.851    0.130    7.310
  396.854 2259.260   71.558    0.133    6.297
  397.159 2279.490   75.222    0.348    6.067
  397.464 2275.490   75.846    0.365    5.955
  397.768 2229.080   75.250    0.370    6.183
  398.073 2160.480   74.044    0.369    6.183
  398.378 2170.620   72.836    0.371    6.301
  398.683 2172.670   72.848    0.371    6.071
  398.988 2138.390   72.862    0.373    5.959
  399.292 2122.270   73.478    0.378    5.636
  399.597 2188.940   74.099    0.382    5.636
  399.902 2184.950   77.155    0.380    5.637
  400.207 2195.080   78.386    0.377    5.041
  400.512 2205.210   79.613    0.379    4.767
  400.816 2128.530   80.238    0.391    5.042
  401.121 2126.550   83.290    0.415    5.640
  401.426 2166.970   82.694    0.424    6.193
  401.731 2259.880   77.835    0.403    6.674
  402.036 2261.940   74.803    0.383    6.801
  402.340 2239.770   73.599    0.369    6.931
  402.645 2175.200   69.958    0.368    6.931
  402.950 2161.110   67.534    0.372    6.804
  403.255 2177.300   68.763    0.370    6.555
  403.560 2169.260   68.165    0.362    7.197
  403.865 2163.260   65.134    0.348    8.515
  404.169 2171.360   63.319    0.326    9.350
  404.474 2750.860   60.898    0.306   10.076
  404.779 2427.860   59.690    0.173   10.268
  405.084 2359.250   70.661    0.137    9.353
  405.389 2258.340   75.542    0.235    7.203
  405.693 2238.190   79.819    0.379    6.686
  405.998 2232.170   80.439    0.388    6.563
  406.303 2228.170   79.844    0.385    6.688
  406.608 2260.510   80.458    0.378    6.689
  406.913 2298.920   81.688    0.369    6.690
  407.217 2311.080   79.268    0.360    6.567
  407.522 2309.100   80.493    0.358    6.568
  407.827 2309.130   82.337    0.363    6.693
  408.132 2317.240   82.955    0.375    6.693
  408.437 2313.250   81.143    0.387    6.949
  408.741 2311.270   81.155    0.395    7.215
