~VERSION INFORMATION
 VERS.                 2.0:   CWLS LOG ASCII STANDARD -VERSION 2.0
 WRAP.                  NO:   ONE LINE PER DEPTH STEP
~WELL INFORMATION BLOCK
#MNEM.UNIT           DATA                    DESCRIPTION OF MNEMONIC
#---------    -------------------            -------------------------------
# Generated from Intellog Unique Number	CN_94_101/WELL/5014
WELL.         11-08-101-14W4                 : Well_name    - WELL
LOC .         AA/11-08-101-14W4/0            : Location     - LOCATION
UWI .         AA/11-08-101-14W400            : Uwi          - UNIQUE WELL ID
ENTR.         TIM                            : Entered      - ENTERED BY
SRVC.         SCHLUMBERGER                   : Scn          - SERVICE COMPANY
DATE.         08/13/92                       : Date         - LOG DATE
STRT.M        300                            : top_depth    - START DEPTH
STOP.M        506                            : bot_depth    - STOP DEPTH
STEP.M        0.25                           : increment    - STEP LENGTH
NULL. -999.2500:NULL Value
~CURVE INFORMATION BLOCK
#MNEM UNIT       ERCB CURVE CODE    CURVE DESCRIPTION
#-----------   ------------------   ----------------------------------
DEPT.M        00 001 00 00         : DEPTH        - DEPTH
GR  .API      00 310 00 00         : GR           - GAMMA RAY
ILD .OHMM     00 120 00 00         : RESD         - DEEP RESISTIVITY (DIL)
NPHI.V/V      00 330 00 00         : PHIN         - NEUTRON POROSITY (SANDSTONE)
DPHI.V/V      00 890 00 00         : PHID         - DENSITY POROSITY (SANDSTONE)
~PARAMETER INFORMATION
#MNEM.UNIT           DATA             DESCRIPTION OF MNEMONIC
#---------         -----------     ------------------------------
GL  .M        734.7                : gl           - GROUND LEVEL ELEVATION
EREF.M        737.96               : kb           - ELEVATION OF DEPTH REFERENCE
DATM.M        737.96               : datum        - DATUM ELEVATION
TDD .M        508                  : tdd          - TOTAL DEPTH DRILLER
RUN .         ONE                  : Run          - RUN NUMBER
ENG .         BILL                 : Engineer     - RECORDING ENGINEER
WIT .         JIM                  : Witness      - WITNESSED BY
MUD .         GEL                  : Mud_type     - MUD TYPE
MATR.         SANDSTONE            : Logunit      - NEUTRON MATRIX
TMAX.C        20                   : BHT          - MAXIMUM RECORDED TEMPERATURE
BHTD.M        508                  : BHTDEP       - MAXIMUM RECORDED TEMPERATURE
RMT .C        12                   : MDTP         - TEMPERATURE OF MUD
MUDD.KG/M     1150                 : MWT          - MUD DENSITY
NEUT.         1                    : NEUTRON      - NEUTRON TYPE
RESI.         0                    : RESIST       - RESISTIVITY TYPE
RM  .OHMM     1.01                 : RM           - RESISTIVITY OF MUD
RMC .OHMM     1.01                 : RMC          - RESISTIVITY OF MUD CAKE
RMF .OHMM     1.01                 : RMF          - RESISTIVITY OF MUD FILTRATE
SUFT.C        4                    : SUFT         - SURFACE TEMPERATURE
~A  DEPTH       GR     RESD     PHIN     PHID
# ...
  343.500  120.768    3.280    0.520    0.267
  343.750  121.384    3.075    0.546    0.259
  344.000  117.677    3.481    0.557    0.251
  344.250  112.117    4.295    0.537    0.243
  344.500  109.645    4.702    0.509    0.237
  344.750  115.202    4.903    0.500    0.243
  345.000  120.141    4.901    0.505    0.247
  345.250  121.992    4.490    0.507    0.249
  345.500  122.608    4.489    0.510    0.249
  345.750  123.224    4.281    0.522    0.248
  346.000  123.840    4.280    0.555    0.248
  346.250  123.839    4.277    0.557    0.251
  346.500  121.984    4.275    0.557    0.256
  346.750  120.748    4.273    0.555    0.255
  347.000  119.510    4.271    0.536    0.248
  347.250  118.892    4.268    0.533    0.245
  347.500  118.272    4.266    0.533    0.245
  347.750  117.036    4.264    0.535    0.260
  348.000  116.416    4.261    0.532    0.269
  348.250  120.120    4.259    0.525    0.264
  348.500  121.971    3.848    0.517    0.260
  348.750  122.587    3.437    0.515    0.256
  349.000  121.967    3.436    0.522    0.256
  349.250  121.348    3.840    0.527    0.260
  349.500  120.730    4.043    0.520    0.261
  349.750  119.492    4.246    0.510    0.260
  350.000  118.874    4.651    0.509    0.258
  350.250  120.108    4.649    0.511    0.259
  350.500  122.576    4.851    0.514    0.258
  350.750  126.897    4.644    0.514    0.253
  351.000  129.367    4.439    0.514    0.247
  351.250  132.453    3.824    0.520    0.244
  351.500  136.774    3.413    0.526    0.242
  351.750  138.008    3.205    0.536    0.242
  352.000  136.771    3.204    0.544    0.241
  352.250  136.152    3.202    0.551    0.239
  352.500  134.914    3.199    0.554    0.237
  352.750  134.296    3.198    0.557    0.236
  353.000  134.294    3.194    0.559    0.236
  353.250  135.528    3.193    0.564    0.241
  353.500  136.144    3.394    0.570    0.242
  353.750  136.142    3.393    0.576    0.245
  354.000  135.523    3.390    0.583    0.248
  354.250  134.287    3.388    0.589    0.248
  354.500  132.432    3.385    0.590    0.243
  354.750  129.343    3.180    0.588    0.248
  355.000  126.871    3.178    0.584    0.274
  355.250  124.399    3.174    0.580    0.284
  355.500  123.780    3.172    0.577    0.280
  355.750  123.161    3.375    0.573    0.268
  356.000  123.159    3.985    0.565    0.254
  356.250  123.157    4.596    0.554    0.247
  356.500  120.685    4.797    0.529    0.241
  356.750  115.126    4.999    0.517    0.238
  357.000  112.036    4.588    0.504    0.238
  357.250  114.505    4.382    0.493    0.237
  357.500  118.208    3.971    0.522    0.236
  357.750  119.443    3.561    0.533    0.236
  358.000  121.294    3.354    0.538    0.234
  358.250  122.527    3.148    0.543    0.234
  358.500  123.143    3.146    0.547    0.238
  358.750  123.759    3.143    0.547    0.254
  359.000  121.904    3.140    0.546    0.263
  359.250  121.286    3.138    0.542    0.267
  359.500  120.666    3.137    0.541    0.269
  359.750  121.900    3.134    0.543    0.268
  360.000  124.369    3.132    0.545    0.267
  360.250  123.749    3.129    0.545    0.260
  360.500  123.131    3.127    0.551    0.258
  360.750  124.364    3.125    0.556    0.253
  361.000  128.068    3.122    0.561    0.248
  361.250  128.067    3.121    0.570    0.248
  361.500  128.065    3.322    0.579    0.252
  361.750  127.446    3.321    0.579    0.253
  362.000  126.826    3.521    0.572    0.253
  362.250  125.590    3.520    0.564    0.253
  362.500  123.118    3.518    0.559    0.257
  362.750  123.733    3.312    0.553    0.262
  363.000  122.497    3.309    0.546    0.263
  363.250  121.260    3.307    0.540    0.262
  363.500  119.406    3.508    0.530    0.259
  363.750  121.257    3.506    0.527    0.258
  364.000  124.344    3.709    0.531    0.259
  364.250  127.429    3.706    0.541    0.263
  364.500  128.045    3.704    0.553    0.262
  364.750  127.427    3.497    0.558    0.254
  365.000  127.425    3.495    0.553    0.249
  365.250  128.041    3.288    0.550    0.253
  365.500  129.892    3.286    0.543    0.257
  365.750  132.978    3.286    0.537    0.253
  366.000  134.830    3.281    0.540    0.243
  366.250  136.063    3.484    0.552    0.232
  366.500  135.444    3.481    0.563    0.226
  366.750  136.060    3.479    0.580    0.227
  367.000  138.528    3.476    0.592    0.236
  367.250  140.997    3.474    0.600    0.238
  367.500  142.231    3.472    0.566    0.242
  367.750  139.759    3.469    0.536    0.242
  368.000  136.052    3.468    0.519    0.246
  368.250  133.580    3.465    0.497    0.246
  368.500  136.049    3.667    0.525    0.246
  368.750  138.518    3.869    0.541    0.246
  369.000  139.751    3.867    0.547    0.251
  369.250  139.750    4.069    0.545    0.256
  369.500  138.513    4.067    0.563    0.262
  369.750  133.571    4.064    0.579    0.254
  370.000  129.246    4.063    0.530    0.246
  370.250  131.715    4.060    0.496    0.240
  370.500  132.948    3.854    0.497    0.241
  370.750  132.329    3.647    0.542    0.243
  371.000  131.093    3.441    0.581    0.246
  371.250  128.003    3.234    0.617    0.252
  371.500  127.384    3.232    0.613    0.256
  371.750  126.147    3.230    0.598    0.259
  372.000  127.380    3.228    0.588    0.258
  372.250  128.614    3.429    0.576    0.251
  372.500  131.083    3.428    0.551    0.242
  372.750  136.022    3.425    0.545    0.232
  373.000  139.108    3.423    0.553    0.224
  373.250  142.194    2.195    0.578    0.226
  373.500  144.046    2.192    0.620    0.234
  373.750  143.426    2.395    0.598    0.237
  374.000  143.425    2.801    0.574    0.232
  374.250  143.423    3.003    0.554    0.224
  374.500  144.656    3.000    0.547    0.215
  374.750  146.508    2.589    0.556    0.218
  375.000  147.124    2.791    0.568    0.225
  375.250  144.652    2.585    0.611    0.235
  375.500  142.798    2.583    0.615    0.241
  375.750  141.561    2.377    0.602    0.248
  376.000  140.324    2.375    0.604    0.255
  376.250  137.852    2.576    0.611    0.262
  376.500  134.146    2.779    0.621    0.268
  376.750  131.674    2.980    0.625    0.273
  377.000  131.672    3.182    0.620    0.282
  377.250  131.670    3.384    0.618    0.287
  377.500  130.434    3.382    0.615    0.288
  377.750  131.050    3.584    0.609    0.289
  378.000  131.048    3.581    0.607    0.290
  378.250  131.047    3.580    0.603    0.293
  378.500  128.574    3.577    0.598    0.294
  378.750  127.338    3.575    0.594    0.294
  379.000  126.102    3.573    0.587    0.294
  379.250  123.630    4.387    0.578    0.293
  379.500  119.923    4.792    0.566    0.290
  379.750  116.215    4.995    0.549    0.284
  380.000  118.066    5.197    0.504    0.276
  380.250  117.447    5.604    0.488    0.277
  380.500  116.210    6.213    0.485    0.277
  380.750  113.120    6.416    0.480    0.274
  381.000  110.649    7.025    0.470    0.269
  381.250  107.560    7.227    0.464    0.272
  381.500  105.088    7.020    0.458    0.282
  381.750  108.791    5.589    0.460    0.278
  382.000  111.261    4.975    0.466    0.272
  382.250  117.435    4.564    0.470    0.265
  382.500  127.932    4.153    0.476    0.263
  382.750  130.401    3.946    0.493    0.265
  383.000  129.781    3.944    0.524    0.268
  383.250  128.545    3.942    0.541    0.268
  383.500  123.603    4.349    0.559    0.269
  383.750  119.278    5.163    0.506    0.271
  384.000  119.894    5.977    0.492    0.273
  384.250  121.127    5.770    0.485    0.276
  384.500  122.978    5.565    0.490    0.278
  384.750  123.595    4.950    0.492    0.273
  385.000  123.593    4.539    0.500    0.263
  385.250  122.356    4.740    0.505    0.263
  385.500  118.031    4.943    0.513    0.265
  385.750  113.089    5.349    0.517    0.270
  386.000  105.677    6.163    0.517    0.271
  386.250   92.707    6.774    0.512    0.281
  386.500   87.765    6.975    0.454    0.288
  386.750   84.675    6.974    0.436    0.293
