~Version : LASO    vs 4.00
VERS.                2.00:   CWLS Log ASCII Standard -VERSION 2.0
WRAP.                  NO:
~Well Information Block
#MNEM.UNIT       Data                        Description of Mnemonic
#----.----      -------------------------- : -----------------------------
STRT.M            15.0000:
STOP.M           206.4000:
STEP.M             0.2000:
NULL.           -999.2500:
COMP.  MOBIL OIL OF CANADA     :COMPANY
WELL.  MOBIL CLARKE OV 13-4    :WELL
FLD.                           :FIELD
LOC.   13-04-090-07W4          :LOCATION
CTRY.  CANADA                  :COUNTRY
PROV.  ALBERTA                 :PROVINCE
SRVC.  SCHLUMBERGER            :SERVICE COMPANY
DATE.  06-MAR-81               :LOG DATE
UWI.   AA/13-04-090-07W400     :UNIQUE WELL ID
~Parameter Information Block
#MNEM.UNIT       Data                        Description of Mnemonic
#----.----      -------------------------- : -----------------------------
RUN .                   1                 : Run Number
GL  .M           458.6000                 : Ground Level Elevation
DREF.                  KB                 : Depth Reference
EREF.M           458.6000                 : Elevation of Depth Reference
TDL .M           206.5000                 : Total Depth Logger
TDD .M           207.0000                 : Total Depth Driller
CSGL.M             0.0000                 : Casing Bottom Logger
CSGD.M             8.0000                 : Casing Bottom Driller
CSGS.MM          219.0000                 : Casing Size
CSGW.KG/M          0.0000                 : Casing Weight
BS  .MM          159.0000                 : Bit Size
DFD .            999.0000                 : Mud Weight (Density)
~Curve Information Block
#MNEM.UNIT        API CODE    Curve Description
#---------    ------------    ------------------------------
DEPT.M                    :   DEPTH
CALI.MM       42 280  1  1:   2 DENSITY CALIPER
DPHI.V/V                  :   DPHI
GR  .GAPI     42 310  1  1:   3 GAMMA RAY
LLD .Ohmm                 :   LLD
NPHI.V/V      42 890  3  1:   4 NEUTRON POROSITY (SANDSTONE)
RHOB.K/M3     42 350  1  1:   5 BULK DENSITY
~A  Depth           CALI        DPHI          GR         LLD        NPHI        RHOB
# ...
72.0000         194.3500      0.2077     63.4200    224.7515      0.2734   2451.0000
72.2000         194.3500      0.2222     60.1200    231.1034      0.2880   2437.0000
72.4000         199.7250      0.2302     59.9250    234.4370      0.2928   2460.0000
72.6000         200.8000      0.2290     58.8150    236.8833      0.2844   2489.0000
72.8000         198.6500      0.2257     58.5150    240.7670      0.2674   2483.0000
73.0000         192.2000      0.2283     59.7150    248.4124      0.2728   2478.0000
73.2000         196.5000      0.2269     60.2250    256.7726      0.2772   2462.0000
73.4000         197.5750      0.2286     61.4250    259.6998      0.2758   2478.0000
73.6000         204.0250      0.2263     68.5200    261.3973      0.2734   2463.0000
73.8000         191.1250      0.2254     73.9350    264.9889      0.2706   2458.0000
74.0000         185.7500      0.2241     77.8350    270.7158      0.2696   2450.0000
74.2000         178.2250      0.2288     86.3400    278.6264      0.2802   2431.0000
74.4000         184.6750      0.2372     92.1450    285.2994      0.2926   2406.0000
74.6000         190.0500      0.2440     98.1450    291.7363      0.3150   2371.0000
74.8000         185.7500      0.2422     97.9350    299.9873      0.3870   2223.0000
75.0000         186.8250      0.2373     89.2350    308.4583      0.4222   2196.0000
75.2000         188.9750      0.2470     82.4400    316.9483      0.4464   2218.0000
75.4000         186.8250      0.2584     71.1300    321.7784      0.3980   2380.0000
75.6000         193.2750      0.2691     67.5300    327.8213      0.3320   2449.0000
75.8000         185.7500      0.2581     66.2250    332.4495      0.2824   2493.0000
76.0000         191.1250      0.2371     63.9300    335.0060      0.2854   2443.0000
76.2000         191.1250      0.2098     62.8200    336.7120      0.2902   2432.0000
76.4000         188.9750      0.1955     61.9200    337.3738      0.2912   2460.0000
76.6000         186.8250      0.1849     60.4200    338.6577      0.2816   2460.0000
76.8000         187.9000      0.1793     60.7200    339.2884      0.2712   2484.0000
77.0000         184.6750      0.1772     62.2200    341.1386      0.2708   2466.0000
77.2000         180.3750      0.1795     62.1300    341.4411      0.2668   2429.0000
77.4000         184.6750      0.1882     61.1250    341.4801      0.2650   2418.0000
77.6000         183.6000      0.1887     61.7250    339.4734      0.2650   2404.0000
77.8000         180.3750      0.1802     63.3300    339.4582      0.2624   2405.0000
78.0000         185.7500      0.1714     64.4250    338.1243      0.2548   2461.0000
78.2000         185.7500      0.1658     64.2300    335.7494      0.2476   2501.8999
78.4000         186.8250      0.1572     64.3200    333.5580      0.2420   2464.0000
78.6000         183.6000      0.1615     61.1250    331.3936      0.2508   2420.0000
78.8000         187.9000      0.1764     59.4150    329.7607      0.2558   2449.0000
79.0000         187.9000      0.1825     58.7250    327.7233      0.2556   2455.0000
79.2000         184.6750      0.1793     58.1250    325.5860      0.2560   2406.0000
79.4000         181.4500      0.1810     59.1150    325.2628      0.2634   2467.0000
79.6000         183.6000      0.1918     59.5200    325.2310      0.2648   2478.0000
79.8000         190.0500      0.2027     61.0200    322.1251      0.2608   2493.0000
80.0000         193.2750      0.1993     62.7300    319.7290      0.2630   2512.0000
80.2000         187.9000      0.1936     64.4250    317.9807      0.2624   2478.0000
80.4000         192.2000      0.1914     65.0250    317.2031      0.2604   2456.0000
80.6000         190.0500      0.1836     64.8300    313.3114      0.2496   2485.0000
80.8000         191.1250      0.1781     64.9200    313.0354      0.2460   2475.0000
81.0000         193.2750      0.1774     64.1250    311.4352      0.2512   2485.0000
81.2000         185.7500      0.1858     63.5250    307.7095      0.2616   2441.0000
81.4000         188.9750      0.1947     64.3200    305.7894      0.2604   2461.0000
81.6000         188.9750      0.1887     64.7250    304.9757      0.2612   2495.0000
81.8000         190.0500      0.1794     65.9250    303.4135      0.2614   2472.0000
82.0000         191.1250      0.1904     67.4250    301.4144      0.2640   2456.0000
82.2000         184.6750      0.1964     67.9200    299.7242      0.2626   2444.0000
82.4000         184.6750      0.1993     73.0350    297.7357      0.2618   2457.0000
82.6000         186.8250      0.2004     76.9350    295.0370      0.2684   2478.0000
82.8000         187.9000      0.1998     81.3300    292.8180      0.2788   2481.0000
83.0000         190.0500      0.2005     83.5350    291.1749      0.2894   2416.0000
83.2000         191.1250      0.2038     84.1350    289.1413      0.3242   2346.0000
83.4000         193.2750      0.2021     84.7350    285.2820      0.3436   2316.0000
83.6000         190.0500      0.2018     86.7300    282.8403      0.3618   2337.0000
83.8000         187.9000      0.2042     92.4450    279.6636      0.3756   2293.0000
84.0000         188.9750      0.2080     90.5400    276.4405      0.3818   2277.0000
84.2000         188.9750      0.2089     84.6300    274.8170      0.3982   2261.8999
84.4000         186.8250      0.2031     63.9300    272.7716      0.4590   2189.0000
84.6000         188.9750      0.1968     50.3250    270.6303      0.4758   2187.0000
84.8000         186.8250      0.1915     40.7100    268.9590      0.4776   2226.0000
85.0000         182.5250      0.2042     38.0100    266.9426      0.4382   2213.0000
85.2000         182.5250      0.2006     40.7100    263.2131      0.4094   2197.0000
85.4000         182.5250      0.1909     44.7150    260.6985      0.3816   2176.8999
85.6000         182.5250      0.1820     54.3150    256.6938      0.3730   2179.0000
85.8000         181.4500      0.1829     64.1250    252.3961      0.3756   2207.0000
86.0000         177.1500      0.1901     77.9250    250.0532      0.3702   2184.0000
86.2000         178.2250      0.2001     92.0400    246.8219      0.3722   2155.0000
86.4000         188.9750      0.2094    110.4450    244.4153      0.3946   2198.0000
86.6000         186.8250      0.2162    112.7550    250.8743      0.4242   2191.0000
86.8000         186.8250      0.2172    113.8500    250.0964      0.4582   2140.0000
87.0000         191.1250      0.2136    110.0400    246.1580      0.5028   2095.0000
87.2000         194.3500      0.2068    106.3500    242.8770      0.5142   2097.0000
87.4000         191.1250      0.2065    103.7400    242.0713      0.5162   2103.0000
87.6000         191.1250      0.2129     96.3450    243.5994      0.5182   2126.0000
87.8000         193.2750      0.2115     89.0400    243.8711      0.5356   2141.0000
88.0000         193.2750      0.2090     82.7400    245.7717      0.5240   2158.0000
88.2000         182.5250      0.2125     71.9250    245.9474      0.4798   2178.0000
88.4000         182.5250      0.2234     66.0300    245.9561      0.4712   2190.0000
88.6000         181.4500      0.2372     62.1300    244.3166      0.4582   2194.0000
88.8000         180.3750      0.2552     69.1200    242.2606      0.4174   2192.0000
89.0000         179.3000      0.2453     76.1250    240.1158      0.3862   2213.0000
89.2000         181.4500      0.2273     79.7250    236.0205      0.3586   2213.0000
89.4000         187.9000      0.2155     79.2300    213.2444      0.3638   2187.8999
89.6000         180.3750      0.2052     67.4250    179.5690      0.4302   2163.0000
89.8000         187.9000      0.2022     60.0150    143.1158      0.4400   2163.0000
90.0000         179.3000      0.2145     53.3250    124.3106      0.4328   2179.0000
90.2000         180.3750      0.2275     47.1150    100.7636      0.4236   2171.0000
90.4000         182.5250      0.2384     42.9150     74.0711      0.4068   2167.0000
90.6000         182.5250      0.2466     41.8200     55.3710      0.3880   2187.8999
90.8000         182.5250      0.2574     48.3150     40.9084      0.3610   2234.0000
