~VERSION INFORMATION
 VERS.                 2.0:   CWLS LOG ASCII STANDARD -VERSION 2.0
 WRAP.                  NO:   ONE LINE PER DEPTH STEP
~WELL INFORMATION BLOCK
#MNEM.UNIT           DATA                    DESCRIPTION OF MNEMONIC
#---------    -------------------            -------------------------------
# Generated from Intellog Unique Number	CX_WELLS/WELL/1076
WELL.         10-08-088-15W4                 : Well_name    - WELL
LOC .         AA/10-08-088-15W4/0            : Location     - LOCATION
UWI .         AA/10-08-088-15W400            : Uwi          - UNIQUE WELL ID
ENTR.         T                              : Entered      - ENTERED BY
SRVC.         SCHLUMBERGER                   : Scn          - SERVICE COMPANY
STRT.M        75                             : top_depth    - START DEPTH
STOP.M        275                            : bot_depth    - STOP DEPTH
STEP.M        0.25                           : increment    - STEP LENGTH
 NULL. -999.2500:NULL Value
~CURVE INFORMATION BLOCK
#MNEM UNIT       ERCB CURVE CODE    CURVE DESCRIPTION
#-----------   ------------------   ----------------------------------
DEPT.M        00 001 00 00         : DEPTH        - DEPTH
GR  .API      00 310 00 00         : GR           - GAMMA RAY
NPHI.V/V      00 330 00 00         : PHIN         - NEUTRON POROSITY (SANDSTONE)
DPHI.V/V      00 890 00 00         : PHID         - DENSITY POROSITY (SANDSTONE)
ILD .OHMM     00 120 00 00         : RESD         - DEEP RESISTIVITY (DIL)
~PARAMETER INFORMATION
#MNEM.UNIT           DATA             DESCRIPTION OF MNEMONIC
#---------         -----------     ------------------------------
GL  .M        535.9                : gl           - GROUND LEVEL ELEVATION
EREF.M        535.9                : kb           - ELEVATION OF DEPTH REFERENCE
DATM.M        535.9                : datum        - DATUM ELEVATION
TDD .M        283                  : tdd          - TOTAL DEPTH DRILLER
RUN .         ONE                  : Run          - RUN NUMBER
ENG .         BILL                 : Engineer     - RECORDING ENGINEER
WIT .         JIM                  : Witness      - WITNESSED BY
MUD .         GEL                  : Mud_type     - MUD TYPE
MATR.         SANDSTONE            : Logunit      - NEUTRON MATRIX
TMAX.C        8                    : BHT          - MAXIMUM RECORDED TEMPERATURE
BHTD.M        1.28367e+06          : BHTDEP       - MAXIMUM RECORDED TEMPERATURE
MATR.         1                    : LOGUNIT      - NEUTRON MATRIX
RMT .C        9                    : MDTP         - TEMPERATURE OF MUD
NEUT.         1                    : NEUTRON      - NEUTRON TYPE
RESI.         0                    : RESIST       - RESISTIVITY TYPE
RMC .OHMM     8.86                 : RMC          - RESISTIVITY OF MUD CAKE
RMF .OHMM     7.09                 : RMF          - RESISTIVITY OF MUD FILTRATE
SUFT.C        4                    : SUFT         - SURFACE TEMPERATURE
~A  DEPTH       GR     PHIN     PHID     RESD
# ...
  205.500  120.698    0.410    0.201    9.910
  205.750  123.117    0.410    0.201    9.921
  206.000  124.360    0.421    0.207    9.935
  206.250  121.998    0.422    0.214    9.954
  206.500  120.850    0.419    0.221    9.969
  206.750  121.485    0.380    0.223    9.980
  207.000  120.926    0.409    0.210    9.821
  207.250  118.583    0.425    0.211    9.835
  207.500  116.818    0.442    0.207    9.854
  207.750  119.835    0.446    0.199    9.682
  208.000  124.663    0.452    0.200    9.528
  208.250  124.701    0.464    0.210    9.538
  208.500  124.739    0.478    0.224    9.376
  208.750  123.582    0.488    0.230    9.219
  209.000  118.241    0.499    0.229    8.581
  209.250  112.901    0.516    0.225    7.703
  209.500  115.329    0.506    0.221    7.299
  209.750  117.758    0.471    0.214    6.794
  210.000  118.991    0.435    0.193    6.681
  210.250  119.626    0.446    0.195    6.822
  210.500  119.067    0.455    0.203    6.956
  210.750  116.126    0.448    0.210    6.961
  211.000  112.578    0.444    0.207    7.234
  211.250  109.628    0.449    0.201    7.378
  211.500  113.849    0.457    0.190    7.255
  211.750  118.668    0.463    0.174    7.010
  212.000  124.692    0.473    0.161    6.891
  212.250  126.522    0.482    0.194    6.776
  212.500  127.158    0.485    0.214    6.786
  212.750  126.598    0.478    0.217    6.793
  213.000  127.234    0.471    0.209    6.806
  213.250  126.086    0.462    0.205    7.070
  213.500  123.734    0.453    0.193    7.345
  213.750  121.381    0.441    0.193    7.771
  214.000  119.626    0.428    0.198    8.228
  214.250  116.667    0.412    0.202    8.544
  214.500  114.912    0.403    0.189    8.876
  214.750  117.938    0.381    0.148    9.217
  215.000  121.571    0.356    0.142    9.936
  215.250  121.609    0.364    0.171   10.321
  215.500  120.442    0.377    0.190   10.531
  215.750  118.687    0.388    0.210   10.356
  216.000  117.539    0.397    0.203   10.183
  216.250  117.577    0.405    0.194   10.013
  216.500  117.027    0.410    0.199    9.664
  216.750  117.056    0.418    0.199    9.503
  217.000  116.515    0.424    0.195    9.344
  217.250  115.936    0.434    0.199    9.192
  217.500  114.798    0.435    0.204    9.202
  217.750  114.219    0.426    0.213    9.386
  218.000  113.062    0.406    0.214    9.934
  218.250  111.905    0.381    0.210   10.705
  218.500  110.757    0.375    0.206   11.120
  218.750  110.188    0.364    0.193   11.552
  219.000  110.245    0.381    0.185   11.787
  219.250  110.273    0.410    0.203   11.801
  219.500  110.302    0.421    0.210   11.604
  219.750  110.947    0.417    0.214   11.207
  220.000  110.985    0.408    0.218   11.021
  220.250  111.620    0.405    0.221   10.636
  220.500  116.439    0.410    0.214   10.459
  220.750  116.496    0.413    0.209   10.105
  221.000  115.320    0.417    0.209   10.117
  221.250  111.772    0.420    0.210   10.132
  221.500  108.822    0.423    0.207   10.143
  221.750  106.469    0.423    0.205    9.977
  222.000  104.733    0.419    0.201    9.818
  222.250  104.752    0.417    0.196    9.651
  222.500  108.386    0.406    0.192    9.486
  222.750  114.400    0.393    0.186    9.159
  223.000  117.426    0.400    0.179    8.525
  223.250  119.256    0.414    0.191    7.511
  223.500  117.501    0.459    0.211    6.618
  223.750  111.573    0.488    0.220    5.830
  224.000  106.223    0.498    0.215    5.137
  224.250  101.480    0.491    0.216    5.241
  224.500   94.944    0.491    0.223    5.856
  224.750   84.225    0.498    0.228    6.915
  225.000   71.704    0.500    0.245    8.627
  225.250   65.177    0.488    0.279   10.965
  225.500   67.596    0.429    0.279   16.736
  225.750   72.425    0.392    0.276   18.367
  226.000   70.072    0.375    0.251   21.688
  226.250   65.927    0.370    0.212   25.155
  226.500   61.184    0.375    0.201   27.096
  226.750   63.015    0.379    0.236   29.197
  227.000   64.845    0.382    0.255   29.241
  227.250   65.481    0.392    0.266   29.295
  227.500   66.117    0.398    0.272   27.267
  227.750   68.545    0.398    0.278   25.380
  228.000   69.778    0.403    0.248   23.195
  228.250   68.042    0.407    0.233   21.589
  228.500   67.473    0.414    0.227   21.621
  228.750   67.520    0.419    0.221   21.661
  229.000   66.961    0.436    0.275   22.918
  229.250   66.392    0.438    0.292   25.142
  229.500   66.439    0.438    0.301   29.161
  229.750   66.468    0.437    0.306   33.197
  230.000   67.710    0.435    0.300   37.119
  230.250   68.346    0.434    0.293   38.560
  230.500   69.579    0.432    0.296   37.230
  230.750   70.802    0.429    0.296   34.653
  231.000   72.643    0.429    0.289   32.850
  231.250   72.681    0.428    0.287   30.576
  231.500   72.130    0.427    0.291   29.510
  231.750   71.571    0.423    0.289   26.989
  232.000   71.609    0.426    0.290   26.048
  232.250   72.244    0.436    0.290   24.254
  232.500   74.085    0.443    0.286   23.831
  232.750   75.299    0.434    0.278   21.788
  233.000   78.334    0.446    0.276   20.646
  233.250   80.763    0.463    0.274   18.191
  233.500   87.374    0.470    0.242   15.451
  233.750   93.388    0.461    0.203   10.738
  234.000  102.390    0.443    0.156    9.987
  234.250  112.000    0.461    0.160    8.483
  234.500  119.209    0.482    0.190    7.203
  234.750  116.856    0.499    0.259    5.791
  235.000  114.504    0.533    0.262    4.172
  235.250  114.561    0.543    0.261    3.543
  235.500  115.784    0.540    0.259    3.238
  235.750  118.232    0.533    0.251    3.129
  236.000  118.848    0.534    0.237    3.189
  236.250  115.908    0.541    0.236    3.315
  236.500  111.762    0.548    0.234    3.443
  236.750  112.996    0.546    0.225    3.778
  237.000  116.610    0.529    0.203    4.304
  237.250  120.233    0.470    0.226    4.307
  237.500  122.074    0.485    0.250    4.085
  237.750  117.321    0.503    0.268    4.166
  238.000  108.993    0.516    0.276    4.328
  238.250  101.859    0.531    0.259    4.579
  238.500   95.333    0.549    0.246    5.405
  238.750   92.373    0.540    0.238    6.503
  239.000   90.030    0.428    0.228    7.137
  239.250   89.471    0.376    0.224    7.833
  239.500   88.313    0.374    0.241    8.596
  239.750   86.558    0.381    0.241    9.612
  240.000   83.608    0.394    0.223    9.985
  240.250   81.256    0.409    0.193    9.648
  240.500   78.306    0.416    0.172    9.480
  240.750   76.551    0.417    0.224    9.673
  241.000   74.189    0.414    0.271   10.048
  241.250   77.224    0.405    0.289   10.434
  241.500   82.053    0.397    0.299   11.663
  241.750   85.667    0.399    0.268   14.037
  242.000   89.888    0.403    0.210   16.881
  242.250   94.716    0.402    0.201   16.900
  242.500   98.331    0.396    0.214   14.620
  242.750  103.168    0.403    0.223   12.647
  243.000  103.804    0.413    0.228   11.558
  243.250  103.851    0.419    0.228   10.758
  243.500  103.880    0.424    0.227   10.198
  243.750  105.113    0.424    0.230   10.032
  244.000  105.748    0.421    0.230   10.043
  244.250  105.189    0.421    0.228   10.058
  244.500  105.227    0.420    0.216   10.456
  244.750  105.265    0.417    0.220   10.858
  245.000  105.312    0.415    0.225   11.071
  245.250  105.350    0.414    0.227   12.164
  245.500  102.998    0.412    0.228   12.398
  245.750  100.038    0.411    0.231   13.122
  246.000   93.502    0.410    0.232   14.134
  246.250   86.369    0.401    0.233   14.954
  246.500   74.445    0.343    0.236   16.412
  246.750   66.117    0.328    0.236   19.035
  247.000   63.764    0.335    0.240   21.678
  247.250   66.192    0.339    0.244   22.927
  247.500   68.621    0.346    0.249   25.161
  247.750   72.851    0.357    0.255   27.123
  248.000   74.682    0.366    0.242   28.166
  248.250   74.123    0.369    0.238   27.204
  248.500   74.768    0.373    0.238   26.274
  248.750   74.796    0.379    0.240   25.358
