~VERSION INFORMATION
 VERS.                 2.0:   CWLS LOG ASCII STANDARD -VERSION 2.0
 WRAP.                  NO:   ONE LINE PER DEPTH STEP
~WELL INFORMATION BLOCK
#MNEM.UNIT           DATA                    DESCRIPTION OF MNEMONIC
#---------    -------------------            -------------------------------
# Generated from Intellog Unique Number	CX_WELLS/WELL/3772
WELL.         REGENT HORSE                   : Well_name    - WELL
LOC .         AA/11-05-086-12W4/0            : Location     - LOCATION
UWI .         AA/11-05-086-12W400            : Uwi          - UNIQUE WELL ID
ENTR.         T                              : Entered      - ENTERED BY
SRVC.         SCHLUMBERGER                   : Scn          - SERVICE COMPANY
STRT.F        200                            : top_depth    - START DEPTH
STOP.F        710.171                        : bot_depth    - STOP DEPTH
STEP.F        0.82                           : increment    - STEP LENGTH
 NULL. -999.2500:NULL Value
~CURVE INFORMATION BLOCK
#MNEM UNIT       ERCB CURVE CODE    CURVE DESCRIPTION
#-----------   ------------------   ----------------------------------
DEPT.F        00 001 00 00         : DEPTH        - DEPTH
GR  .API      00 310 00 00         : GR           - GAMMA RAY
NPHI.V/V      00 330 00 00         : PHIN         - NEUTRON POROSITY (SANDSTONE)
ILD .OHMM     00 120 00 00         : RESD         - DEEP RESISTIVITY (DIL)
~PARAMETER INFORMATION
#MNEM.UNIT           DATA             DESCRIPTION OF MNEMONIC
#---------         -----------     ------------------------------
GL  .F        1663                 : gl           - GROUND LEVEL ELEVATION
EREF.F        1663                 : kb           - ELEVATION OF DEPTH REFERENCE
DATM.F        1663                 : datum        - DATUM ELEVATION
TDD .F        706                  : tdd          - TOTAL DEPTH DRILLER
RUN .         ONE                  : Run          - RUN NUMBER
ENG .         BILL                 : Engineer     - RECORDING ENGINEER
WIT .         JIM                  : Witness      - WITNESSED BY
MUD .         GEL                  : Mud_type     - MUD TYPE
MATR.         SANDSTONE            : Logunit      - NEUTRON MATRIX
TMAX.F        56                   : BHT          - MAXIMUM RECORDED TEMPERATURE
BHTD.F        706                  : BHTDEP       - MAXIMUM RECORDED TEMPERATURE
MATR.         1                    : LOGUNIT      - NEUTRON MATRIX
RMT .F        44                   : MDTP         - TEMPERATURE OF MUD
NEUT.         1                    : NEUTRON      - NEUTRON TYPE
RESI.         11                   : RESIST       - RESISTIVITY TYPE
RMC .OHMM     8.6                  : RMC          - RESISTIVITY OF MUD CAKE
RMF .OHMM     8.6                  : RMF          - RESISTIVITY OF MUD FILTRATE
SUFT.F        39.2                 : SUFT         - SURFACE TEMPERATURE
~A  DEPTH       GR     PHIN     RESD
# ...
  377.986   64.460    0.360   12.821
  378.806   65.505    0.344   13.992
  379.626   67.596    0.325   14.432
  380.446   68.990    0.326   16.260
  381.266   70.383    0.337   18.745
  382.087   70.732    0.359   21.304
  382.907   71.777    0.379   17.580
  383.727   72.125    0.383   14.076
  384.547   73.519    0.406   12.324
  385.367   74.913    0.416   11.669
  386.188   74.564    0.423   11.452
  387.008   73.868    0.418   11.307
  387.828   72.125    0.401   11.163
  388.648   68.990    0.353   11.530
  389.469   62.718    0.319   13.285
  390.289   58.188    0.299   14.456
  391.109   54.355    0.324   18.695
  391.929   54.007    0.337   19.866
  392.749   56.446    0.356   18.114
  393.570   62.369    0.372   17.385
  394.390   69.686    0.380   16.364
  395.210   73.519    0.387   14.540
  396.030   74.913    0.397   11.985
  396.850   73.868    0.407   10.161
  397.671   72.474    0.423    9.505
  398.491   69.686    0.433    9.654
  399.311   64.808    0.409   10.897
  400.131   64.112    0.389   12.944
  400.951   69.338    0.372   16.672
  401.772   73.868    0.376   18.573
  402.592   72.474    0.376   16.383
  403.412   69.338    0.369   12.659
  404.232   66.550    0.360   12.004
  405.052   62.718    0.349   13.467
  405.873   60.279    0.351   14.345
  406.693   58.537    0.355   15.296
  407.513   59.233    0.366   15.518
  408.333   59.930    0.360   15.446
  409.154   58.537    0.347   15.448
  409.974   54.355    0.330   15.815
  410.794   50.871    0.337   16.475
  411.614   52.962    0.357   16.696
  412.434   55.052    0.365   16.113
  413.255   57.840    0.351   15.458
  414.075   58.537    0.353   14.876
  414.895   58.885    0.359   14.440
  415.715   60.627    0.364   14.221
  416.535   62.369    0.368   13.931
  417.356   63.415    0.372   13.714
  418.176   64.460    0.372   13.351
  418.996   59.930    0.344   13.206
  419.816   54.355    0.296   13.865
  420.636   50.871    0.257   15.839
  421.457   44.948    0.138   20.297
  422.277   46.342    0.145   22.491
  423.097   48.781    0.216   25.122
  423.917   51.568    0.261   28.631
  424.738   55.052    0.291   30.678
  425.558   56.446    0.320   32.725
  426.378   59.233    0.351   31.339
  427.198   62.369    0.391   13.955
  428.018   61.672    0.385   11.912
  428.839   63.415    0.383   11.986
  429.659   72.125    0.384   12.427
  430.479   74.216    0.381   13.013
  431.299   78.049    0.385   12.065
  432.119   83.972    0.395   11.629
  432.940   86.760    0.403   11.338
  433.760   86.063    0.419   10.537
  434.580   82.578    0.430    9.370
  435.400   76.307    0.411    9.664
  436.220   73.868    0.397   10.688
  437.041   73.868    0.389   10.982
  437.861   71.429    0.391   10.911
  438.681   67.944    0.396   11.716
  439.501   63.415    0.365   13.983
  440.322   63.066    0.332   15.884
  441.142   63.415    0.338   17.274
  441.962   64.460    0.366   15.815
  442.782   65.854    0.371   15.232
  443.602   67.596    0.372   14.066
  444.423   68.293    0.379   13.775
  445.243   66.550    0.410   13.411
  446.063   64.808    0.418   13.340
  446.883   63.763    0.379   12.538
  447.703   60.627    0.362   11.956
  448.524   59.582    0.355   12.688
  449.344   60.279    0.344   13.493
  450.164   58.188    0.312   14.153
  450.984   56.446    0.281   15.835
  451.804   54.355    0.306   16.056
  452.625   54.704    0.332   15.254
  453.445   57.143    0.357   14.233
  454.265   57.491    0.357   13.359
  455.085   59.582    0.362   13.068
  455.906   65.157    0.371   13.216
  456.726   69.686    0.381   13.072
  457.546   70.732    0.388   12.783
  458.366   69.338    0.392   12.564
  459.186   67.944    0.396   12.275
  460.007   66.550    0.381   12.276
  460.827   66.899    0.370   12.643
  461.647   68.293    0.373   13.084
  462.467   70.383    0.381   13.597
  463.287   70.732    0.381   14.036
  464.108   70.383    0.375   13.673
  464.928   69.686    0.381   12.433
  465.748   70.732    0.393   11.924
  466.568   72.474    0.409   10.684
  467.388   76.307    0.432   10.320
  468.209   78.397    0.438    9.738
  469.029   79.094    0.443    9.083
  469.849   78.397    0.442    8.281
  470.669   74.913    0.367    8.355
  471.490   67.944    0.352    9.161
  472.310   62.369    0.351   10.258
  473.130   59.582    0.351   11.940
  473.950   62.369    0.352   11.869
  474.770   64.112    0.361   11.287
  475.591   64.808    0.372   10.777
  476.411   65.854    0.372    9.902
  477.231   66.899    0.376    9.612
  478.051   66.202    0.380    9.541
  478.871   63.066    0.382   11.296
  479.692   58.537    0.371   12.320
  480.512   52.962    0.362   12.980
  481.332   50.174    0.352   12.325
  482.152   51.568    0.341   12.034
  482.972   52.265    0.332   12.839
  483.793   52.962    0.340   14.156
  484.613   53.310    0.347   14.158
  485.433   55.052    0.344   14.306
  486.253   57.143    0.332   14.746
  487.073   60.279    0.324   15.332
  487.894   63.415    0.330   16.503
  488.714   70.383    0.333   16.505
  489.534   78.746    0.338   14.900
  490.354   81.185    0.340   14.025
  491.175   78.746    0.345   13.662
  491.995   75.610    0.351   13.590
  492.815   70.035    0.352   13.227
  493.635   64.460    0.341   12.571
  494.455   64.112    0.344   12.135
  495.276   62.369    0.348   12.940
  496.096   59.582    0.351   13.964
  496.916   56.446    0.356   13.966
  497.736   54.355    0.355   14.041
  498.556   55.052    0.347   14.701
  499.377   53.658    0.319   15.360
  500.197   52.613    0.318   15.947
  501.017   50.174    0.313   15.583
  501.837   49.129    0.269   14.270
  502.657   50.174    0.295   12.884
  503.478   49.826    0.300   12.521
  504.298   49.129    0.313   12.888
  505.118   48.084    0.329   13.108
  505.938   47.387    0.335   13.549
  506.759   46.342    0.337   13.843
  507.579   47.387    0.340   13.844
  508.399   49.477    0.341   13.993
  509.219   51.219    0.342   14.141
  510.039   55.749    0.333   13.923
  510.860   55.052    0.311   13.633
  511.680   55.052    0.318   13.708
  512.500   54.704    0.321   14.075
  513.320   50.871    0.316   14.222
  514.140   48.781    0.324   13.859
  514.961   48.432    0.338   13.350
  515.781   48.084    0.348   13.645
  516.601   46.342    0.347   13.792
  517.421   46.342    0.331   13.867
  518.241   48.432    0.307   13.796
  519.062   51.916    0.291   14.017
  519.882   51.916    0.320   13.799
  520.702   52.613    0.332   13.437
  521.522   53.310    0.346   13.292
  522.343   53.658    0.337   13.147
  523.163   53.658    0.330   13.076
  523.983   52.613    0.333   13.297
  524.803   51.568    0.338   13.665
  525.623   50.523    0.351   13.812
  526.444   50.871    0.359   13.303
  527.264   52.613    0.359   11.625
  528.084   54.704    0.366   10.239
  528.904   58.188    0.385    8.998
  529.724   61.324    0.394    8.270
  530.545   63.066    0.405    7.249
  531.365   64.112    0.435    7.032
  532.185   65.854    0.427    7.033
  533.005   67.944    0.415    7.692
  533.825   67.944    0.406    9.083
  534.646   67.944    0.395   11.933
  535.466   67.944    0.384   12.227
  536.286   66.550    0.373   13.033
  537.106   62.718    0.347   14.422
  537.927   57.491    0.302   15.228
  538.747   54.704    0.299   14.573
  539.567   56.098    0.307   14.209
  540.387   55.401    0.308   13.919
  541.207   54.007    0.315   14.505
  542.028   54.007    0.318   15.310
  542.848   56.098    0.308   15.897
  543.668   56.794    0.311   16.117
  544.488   57.491    0.312   14.439
  545.308   59.233    0.307   13.930
  546.129   60.279    0.312   12.982
  546.949   60.279    0.331   12.911
  547.769   59.582    0.350   12.912
  548.589   56.794    0.371   12.768
  549.409   54.355    0.386    9.483
  550.230   48.084    0.417    9.412
  551.050   42.160    0.418   10.728
  551.870   37.631    0.391   12.922
  552.690   30.662    0.358   13.362
  553.510   29.268    0.346   12.488
  554.331   34.146    0.354   11.612
  555.151   39.721    0.357   11.030
