~VERSION INFORMATION
 VERS.                 2.0:   CWLS LOG ASCII STANDARD -VERSION 2.0
 WRAP.                  NO:   ONE LINE PER DEPTH STEP
~WELL INFORMATION BLOCK
#MNEM.UNIT           DATA                    DESCRIPTION OF MNEMONIC
#---------    -------------------            -------------------------------
# Generated from Intellog Unique Number	CC_80_83/WELL/2372
NULL.         -999.25                        : NULL_VALUE
WELL.         PEX PCEJU KEANE OV             : Well_name    - WELL              
LOC .         10-26-080-14W4                 : Location     - LOCATION          
UWI .         AA/10-26-080-14W4/0            : Uwi          - UNIQUE WELL ID    
ENTR.         DW                             : Entered      - ENTERED BY        
SRVC.         SCHLUMBERGER                   : Scn          - SERVICE COMPANY   
DATE.         25 JAN 81                      : Date         - LOG DATE
STRT.M        240                            : top_depth    - START DEPTH       
STOP.M        484.791                        : bot_depth    - STOP DEPTH        
STEP.M        0.3                            : increment    - STEP LENGTH       
~CURVE INFORMATION BLOCK
#MNEM UNIT       ERCB CURVE CODE    CURVE DESCRIPTION
#-----------   ------------------   ----------------------------------
DEPT.M        00 001 00 00         : DEPTH        - DEPTH                       
DPHI.V/V      00 890 00 00         : PHID         - DENSITY POROSITY (LIMESTONE)
NPHI.V/V      00 330 00 00         : PHIN         - NEUTRON POROSITY (LIMESTONE)
GR  .API      00 310 00 00         : GR           - GAMMA RAY                   
ILD .OHMM     00 120 00 00         : RESD         - DEEP RESISTIVITY (DIL)      
~PARAMETER INFORMATION       
#MNEM.UNIT           DATA             DESCRIPTION OF MNEMONIC
#---------         -----------     ------------------------------
GL  .M        669.37               : gl           - GROUND LEVEL ELEVATION      
EREF.M        672.27               : kb           - ELEVATION OF DEPTH REFERENCE
DATM.M        672.27               : datum        - DATUM ELEVATION             
TDD .M        492                  : tdd          - TOTAL DEPTH DRILLER         
RUN .         ONE                  : Run          - RUN NUMBER                  
ENG .         BILL                 : Engineer     - RECORDING ENGINEER          
WIT .         JIM                  : Witness      - WITNESSED BY                
MUD .         GEL                  : Mud_type     - MUD TYPE                    
MATR.         LIMESTONE            : Logunit      - NEUTRON MATRIX              
TMAX.C        28                   : BHT          - MAXIMUM RECORDED TEMPERATURE
BHTD.M        492                  : BHTDEP       - MAXIMUM RECORDED TEMPERATURE
MATR.         1                    : LOGUNIT      - NEUTRON MATRIX              
RMT .C        25                   : MDTP         - TEMPERATURE OF MUD          
NEUT.         1                    : NEUTRON      - NEUTRON TYPE                
RESI.         0                    : RESIST       - RESISTIVITY TYPE            
RMC .OHMM     0.25                 : RMC          - RESISTIVITY OF MUD CAKE     
RMF .OHMM     0.25                 : RMF          - RESISTIVITY OF MUD FILTRATE 
SUFT.C        4                    : SUFT         - SURFACE TEMPERATURE         
~A  DEPTH     PHID     PHIN       GR     RESD
# ...
  344.397    0.264    0.447   83.632   15.165
  344.697    0.270    0.475   69.134   15.180
  344.997    0.281    0.447   67.241   15.792
  345.297    0.283    0.457   66.608   16.115
  345.597    0.283    0.441   65.345   16.441
  345.897    0.283    0.436   60.931   16.456
  346.197    0.283    0.446   65.340   16.157
  346.496    0.285    0.430   69.750   14.970
  346.796    0.286    0.431   76.050   14.141
  347.096    0.286    0.460   79.829   13.615
  347.396    0.285    0.445   74.784   11.905
  347.696    0.285    0.429   71.001   10.016
  347.996    0.290    0.444   68.478    8.263
  348.296    0.285    0.474   75.408    6.952
  348.596    0.284    0.470   91.162    6.442
  348.896    0.288    0.501   97.462    6.447
  349.196    0.287    0.516  106.284    6.453
  349.496    0.293    0.515  105.651    6.213
  349.796    0.333    0.525  103.127    5.433
  350.096    0.331    0.570  105.015    4.571
  350.396    0.284    0.548  115.098    3.921
  350.696    0.296    0.540  105.641    3.702
  350.996    0.315    0.570  111.311    3.566
  351.296    0.311    0.561  118.872    3.500
  351.596    0.339    0.583  110.046    3.504
  351.896    0.350    0.602  119.497    3.506
  352.196    0.370    0.606  124.537    3.510
  352.496    0.369    0.605  128.316    3.582
  352.796    0.373    0.605  128.944    3.655
  353.096    0.373    0.600  124.530    3.803
  353.396    0.360    0.580  110.662    3.955
  353.696    0.369    0.586  116.332    4.114
  353.996    0.355    0.600  120.742    4.280
  354.296    0.353    0.590  123.260    4.719
  354.596    0.355    0.572  107.501    5.004
  354.896    0.344    0.591  112.541    5.517
  355.196    0.334    0.544   98.043    6.081
  355.496    0.302    0.535  101.192    6.326
  355.796    0.319    0.542  106.231    6.840
  356.096    0.316    0.534  110.011    7.540
  356.396    0.280    0.500  106.857    7.844
  356.696    0.250    0.504  108.115    8.005
  356.996    0.242    0.494  104.331    7.859
  357.296    0.268    0.495   98.026    7.714
  357.596    0.245    0.520  108.108    7.011
  357.896    0.227    0.516  102.434    6.013
  358.196    0.239    0.490  105.582    5.258
  358.496    0.272    0.499  108.731    4.597
  358.796    0.278    0.494  103.057    3.943
  359.096    0.302    0.492  106.206    3.724
  359.396    0.280    0.505  113.766    3.518
  359.696    0.278    0.566  129.520    3.453
  359.996    0.302    0.593  126.366    3.138
  360.296    0.302    0.586  114.389    2.692
  360.596    0.282    0.587  117.538    2.221
  360.896    0.270    0.601  124.469    1.763
  361.196    0.267    0.598  130.138    1.048
  361.496    0.267    0.591  128.246    0.576
  361.796    0.273    0.586  118.789    0.485
  362.096    0.294    0.597  113.745    0.786
  362.396    0.318    0.595  126.348    2.656
  362.696    0.328    0.588  128.236    4.839
  362.996    0.329    0.586  108.696    5.761
  363.296    0.299    0.588  120.038    5.767
  363.596    0.289    0.569  109.952    5.241
  363.896    0.292    0.565  108.689    5.047
  364.196    0.293    0.560  101.754    4.676
  364.496    0.293    0.588  101.121    4.416
  364.796    0.293    0.601  104.270    4.253
  365.096    0.279    0.597  105.528    4.176
  365.396    0.280    0.601  103.635    4.429
  365.696    0.299    0.541  106.783    4.882
  365.996    0.312    0.584  106.781    5.078
  366.296    0.327    0.587  101.107    5.598
  366.596    0.358    0.591  104.256    5.938
  366.896    0.352    0.567  106.144    6.177
  367.196    0.330    0.547  100.470    6.552
  367.496    0.319    0.526  102.988    6.816
  367.796    0.313    0.534  105.507    6.563
  368.096    0.317    0.549  102.353    6.199
  368.396    0.307    0.547  104.242    5.970
  368.696    0.304    0.525  105.500    6.092
  368.996    0.307    0.544  108.649    5.431
  369.296    0.318    0.536  108.646    5.229
  369.596    0.332    0.509  102.971    5.234
  369.896    0.334    0.509  100.448    5.551
  370.196    0.338    0.496  104.228    6.119
  370.496    0.343    0.483  108.007    7.011
  370.796    0.330    0.497  113.046    8.190
  371.095    0.254    0.516  115.565    9.027
  371.395    0.257    0.481  119.974    9.574
  371.695    0.258    0.451  111.779   10.554
  371.995    0.254    0.451  106.734   11.412
  372.295    0.262    0.443  111.144   11.873
  372.595    0.274    0.456   99.797   11.434
  372.895    0.284    0.440   92.862   10.389
  373.195    0.277    0.404   82.775    9.261
  373.495    0.065    0.284   68.907    8.581
  373.795    0.174    0.365   83.401    8.264
  374.095    0.229    0.428  102.936    8.112
  374.395    0.238    0.446  102.304    7.964
  374.695    0.258    0.451  106.082    7.972
  374.995    0.309    0.446  102.299    8.293
  375.295    0.337    0.480  101.666    8.301
  375.595    0.377    0.473  101.034    8.150
  375.895    0.343    0.491  105.443    7.703
  376.195    0.258    0.473  104.811    7.270
  376.495    0.264    0.451  105.438    6.000
  376.795    0.262    0.466   95.982    5.666
  377.095    0.263    0.453  102.913    5.352
  377.395    0.275    0.446  106.692    5.255
  377.695    0.370    0.488  108.580    5.260
  377.995    0.373    0.508   97.864    5.265
  378.295    0.330    0.510  104.794    5.371
  378.595    0.329    0.484  107.313    5.697
  378.895    0.365    0.496  109.201    6.527
  379.195    0.403    0.536  109.829    7.336
  379.495    0.380    0.518  113.608    8.093
  379.795    0.335    0.475  109.824    8.252
  380.095    0.232    0.459  104.150    8.419
  380.395    0.186    0.448   90.912    8.108
  380.695    0.188    0.453   89.649    7.659
  380.995    0.231    0.493   99.100    6.962
  381.295    0.271    0.480  103.509    6.575
  381.595    0.380    0.484  107.289    6.210
  381.895    0.369    0.529  118.631    5.866
  382.195    0.310    0.525  124.301    5.871
  382.495    0.303    0.531  109.173    6.227
  382.795    0.299    0.535  105.389    6.605
  383.095    0.304    0.509  121.143    6.870
  383.395    0.355    0.506  115.468    7.428
  383.695    0.362    0.510  112.944    8.513
  383.995    0.349    0.491  123.026    9.203
  384.295    0.332    0.473  123.024    9.951
  384.595    0.257    0.449  117.979   10.353
  384.895    0.232    0.424  121.759   10.768
  385.195    0.202    0.399  123.647   11.203
  385.495    0.157    0.390  104.107   10.582
  385.795    0.182    0.404  113.558    9.433
  386.095    0.216    0.425  115.447    8.249
  386.395    0.224    0.434  115.445    7.495
  386.695    0.352    0.470  107.879    6.945
  386.995    0.329    0.511  107.877    6.818
  387.295    0.337    0.500  121.110    6.824
  387.595    0.327    0.519  114.805    6.963
  387.895    0.323    0.524  111.651    7.529
  388.195    0.330    0.473  112.909    8.300
  388.495    0.368    0.494  112.277    8.803
  388.795    0.369    0.485  104.081    9.704
  389.095    0.345    0.459   91.474   10.095
  389.395    0.279    0.432   85.169    9.534
  389.695    0.165    0.417   88.318    8.834
  389.995    0.145    0.363   90.836    8.507
  390.295    0.148    0.408   92.725    8.515
  390.595    0.253    0.448   91.462    8.200
  390.895    0.263    0.446   92.720    8.366
  391.195    0.263    0.471   90.827    8.374
  391.495    0.256    0.479   95.867    8.382
  391.795    0.231    0.443  106.579    8.229
  392.095    0.236    0.437  119.812    7.925
  392.395    0.276    0.442  102.792    7.779
  392.695    0.261    0.478  107.831    7.787
  392.995    0.266    0.468  109.090    7.645
  393.295    0.264    0.476  105.306    7.652
  393.595    0.243    0.455  116.648    7.808
  393.895    0.268    0.438  115.386    8.122
  394.195    0.253    0.443  108.450    8.450
  394.495    0.242    0.415  102.776    9.498
  394.795    0.247    0.427   97.731   10.268
  395.095    0.247    0.442   89.536    9.332
  395.395    0.241    0.422   86.382    8.987
  395.694    0.216    0.392   75.035    8.655
  395.994    0.187    0.377   97.722    8.174
  396.294    0.231    0.425  100.240    7.428
