~VERSION INFORMATION
 VERS.                 2.0:   CWLS LOG ASCII STANDARD -VERSION 2.0
 WRAP.                  NO:   ONE LINE PER DEPTH STEP
~WELL INFORMATION BLOCK
#MNEM.UNIT           DATA                    DESCRIPTION OF MNEMONIC
#---------    -------------------            -------------------------------
# Generated from Intellog Unique Number	CW_82_90/WELL/995
WELL.         11-17-082-19W4                 : Well_name    - WELL
LOC .         AA/11-17-082-19W4/0            : Location     - LOCATION
UWI .         AA/11-17-082-19W400            : Uwi          - UNIQUE WELL ID
ENTR.         JAYE                           : Entered      - ENTERED BY
SRVC.         SCHLUMBERGER                   : Scn          - SERVICE COMPANY
DATE.         28 JAN 78                      : Date         - LOG DATE
STRT.M        173.736                        : top_depth    - START DEPTH
STOP.M        363.986                        : bot_depth    - STOP DEPTH
STEP.M        0.25                           : increment    - STEP LENGTH
 NULL. -999.2500:NULL Value
~CURVE INFORMATION BLOCK
#MNEM UNIT       ERCB CURVE CODE    CURVE DESCRIPTION
#-----------   ------------------   ----------------------------------
DEPT.M        00 001 00 00         : DEPTH        - DEPTH
CALI.MM       00 280 01 00         : CAL          - CALIPER
GR  .API      00 310 00 00         : GR           - GAMMA RAY
NPHI.V/V      00 330 00 00         : PHIN         - NEUTRON POROSITY (SANDSTONE)
DPHI.V/V      00 890 00 00         : PHID         - DENSITY POROSITY (SANDSTONE)
ILD .OHMM     00 120 00 00         : RESD         - DEEP RESISTIVITY (DIL)
~PARAMETER INFORMATION
#MNEM.UNIT           DATA             DESCRIPTION OF MNEMONIC
#---------         -----------     ------------------------------
GL  .M        585.216              : gl           - GROUND LEVEL ELEVATION
EREF.M        588.569              : kb           - ELEVATION OF DEPTH REFERENCE
DATM.M        585.216              : datum        - DATUM ELEVATION
TDD .M        366.37               : tdd          - TOTAL DEPTH DRILLER
RUN .         ONE                  : Run          - RUN NUMBER
ENG .         GUNN                 : Engineer     - RECORDING ENGINEER
WIT .         BICKHAM              : Witness      - WITNESSED BY
BASE.         EDMONTON             : Branch       - HOME BASE OF LOGGING UNIT
MUD .         GEL CHEM             : Mud_type     - MUD TYPE
MATR.         SANDSTONE            : Logunit      - NEUTRON MATRIX
TMAX.C        27.7778              : BHT          - MAXIMUM RECORDED TEMPERATURE
BHTD.M        366.37               : BHTDEP       - MAXIMUM RECORDED TEMPERATURE
RMT .C        18.3333              : MDTP         - TEMPERATURE OF MUD
MUDD.KG/M     9300                 : MWT          - MUD DENSITY
NEUT.         0                    : NEUTRON      - NEUTRON TYPE
RESI.         0                    : RESIST       - RESISTIVITY TYPE
RM  .OHMM     4.82                 : RM           - RESISTIVITY OF MUD
RMC .OHMM     0                    : RMC          - RESISTIVITY OF MUD CAKE
RMF .OHMM     0                    : RMF          - RESISTIVITY OF MUD FILTRATE
SUFT.C        4                    : SUFT         - SURFACE TEMPERATURE
~A  DEPTH      CAL       GR     PHIN     PHID     RESD
# ...
  319.736  153.919  105.356    0.454    0.179    8.544
  319.986  153.081  109.492    0.448    0.168    8.545
  320.236  152.033  108.319    0.448    0.154    8.546
  320.486  153.290  108.319    0.461    0.148    8.548
  320.736  155.699  109.369    0.473    0.149    8.549
  320.986  156.118  110.110    0.506    0.165    8.503
  321.236  156.433  111.900    0.483    0.145    8.472
  321.486  156.433  107.887    0.480    0.141    8.379
  321.736  156.852  102.579    0.474    0.142    8.412
  321.986  158.108   97.270    0.471    0.150    8.556
  322.236  158.946   94.184    0.478    0.156    8.589
  322.486  159.889  110.172    0.465    0.149    8.510
  322.736  160.308  114.987    0.454    0.135    8.464
  322.986  161.355  112.518    0.463    0.134    8.324
  323.236  162.822  119.184    0.468    0.145    8.187
  323.486  165.231  121.962    0.455    0.139    7.843
  323.736  165.755  120.357    0.451    0.163    7.486
  323.986  164.602  120.851    0.451    0.144    7.200
  324.236  161.460  121.777    0.463    0.145    7.160
  324.486  160.099  119.617    0.480    0.158    7.746
  324.736  161.041  111.037    0.488    0.142    8.287
  324.986  157.271  104.308    0.486    0.145    8.555
  325.236  153.081  107.889    0.456    0.127    8.702
  325.486  151.405  107.148    0.431    0.114    8.526
  325.736  155.909  112.272    0.442    0.156    8.292
  325.986  158.946  116.531    0.441    0.170    8.109
  326.236  161.460  118.877    0.429    0.175    7.842
  326.486  162.612  116.284    0.437    0.158    8.327
  326.736  162.927  111.222    0.451    0.155    8.924
  326.986  161.670  102.395    0.444    0.147    9.475
  327.236  159.156   97.828    0.390    0.152    9.819
  327.486  154.128   97.766    0.406    0.172   10.195
  327.736  148.786   97.149    0.417    0.181   10.585
  327.986  148.891   95.667    0.427    0.190   10.990
  328.236  150.043   93.322    0.435    0.195   11.867
  328.486  151.405   91.161    0.436    0.194   12.482
  328.736  151.719   88.754    0.430    0.186   13.353
  328.986  152.033   86.532    0.416    0.168   14.046
  329.236  152.033   86.532    0.395    0.142   13.892
  329.486  152.033   87.828    0.382    0.130   13.334
  329.736  152.033   90.668    0.405    0.164   12.515
  329.986  153.081   91.100    0.429    0.182   11.879
  330.236  152.033   87.520    0.447    0.216   11.403
  330.486  151.405   84.495    0.439    0.209   11.928
  330.736  150.043   84.310    0.441    0.185   12.594
  330.986  149.729   84.619    0.415    0.159   13.573
  331.236  149.939   85.174    0.384    0.049   14.385
  331.486  150.148   81.656    0.352    0.063   14.907
  331.736  150.776   80.977    0.371    0.111   15.077
  331.986  151.405   80.977    0.380    0.148   15.052
  332.236  151.824   81.101    0.374    0.149   14.638
  332.486  152.452   81.903    0.361    0.138   14.103
  332.736  152.767   83.076    0.367    0.149   13.512
  332.986  152.767   86.471    0.387    0.168   12.588
  333.236  152.452   89.805    0.398    0.178   11.815
  333.486  152.243   92.336    0.406    0.160   11.447
  333.736  151.929   94.620    0.392    0.192   11.470
  333.986  151.614   96.719    0.374    0.189   12.066
  334.236  152.662  100.361    0.359    0.164   12.692
  334.486  154.338  104.188    0.339    0.134   12.909
  334.736  154.966  112.089    0.338    0.121   12.460
  334.986  155.699  113.633    0.417    0.176   11.960
  335.236  155.595  104.620    0.418    0.188   11.963
  335.486  155.071  100.917    0.403    0.165   12.537
  335.736  154.338  103.633    0.349    0.138   12.967
  335.986  153.814  105.114    0.337    0.114   12.777
  336.236  153.919  110.114    0.342    0.110   12.356
  336.486  153.919  110.794    0.349    0.155   11.794
  336.736  154.338  104.744    0.407    0.161   11.111
  336.986  154.966  103.880    0.421    0.155   10.410
  337.236  156.223  104.621    0.417    0.166   10.180
  337.486  157.375  106.164    0.424    0.177    9.919
  337.736  158.423  103.819    0.420    0.161    9.791
  337.986  159.156  103.016    0.429    0.150    9.666
  338.236  159.470  104.127    0.440    0.144    9.542
  338.486  159.470  101.844    0.430    0.136    9.507
  338.736  158.737  104.807    0.413    0.119    9.368
  338.986  157.375  109.622    0.420    0.174    8.925
  339.236  156.852  112.585    0.441    0.191    8.631
  339.486  156.747  111.906    0.442    0.178    8.300
  339.736  157.166  111.042    0.441    0.160    8.239
  339.986  157.689  110.424    0.445    0.167    8.303
  340.236  158.004  110.980    0.456    0.166    8.588
  340.486  159.261  111.165    0.467    0.156    8.686
  340.736  160.518  110.054    0.446    0.166    8.276
  340.986  161.355  112.894    0.448    0.164    7.899
  341.236  162.193  114.437    0.458    0.157    7.414
  341.486  163.136  116.721    0.463    0.153    7.237
  341.736  162.927  120.548    0.458    0.153    6.960
  341.986  163.241  120.857    0.451    0.148    6.643
  342.236  162.927  124.190    0.454    0.143    6.365
  342.486  162.193  123.697    0.465    0.144    6.201
  342.736  161.565  123.018    0.468    0.151    6.179
  342.986  160.936  122.894    0.461    0.154    6.192
  343.236  161.041  122.895    0.450    0.151    6.251
  343.486  163.869  121.104    0.440    0.131    6.637
  343.736  167.431  119.068    0.438    0.117    6.994
  343.986  168.373  118.450    0.443    0.125    7.141
  344.236  162.508  110.981    0.456    0.141    7.812
  344.486  157.061  103.450    0.461    0.122   10.595
  344.736  152.976   96.846    0.442    0.066   13.385
  344.986  152.033   96.907    0.358    0.049   16.168
  345.236  152.452  108.142    0.372    0.147   20.235
  345.486  154.024  109.871    0.416    0.197   19.532
  345.736  156.118  109.871    0.434    0.169   19.354
  345.986  157.271  113.451    0.408    0.166   19.465
  346.236  157.689  112.278    0.408    0.150   19.837
  346.486  158.737  104.500    0.406    0.140   20.481
  346.736  159.365  103.081    0.377    0.126   20.869
  346.986  159.889  102.896    0.379    0.111   21.993
  347.236  160.622  103.143    0.387    0.122   22.706
  347.486  162.717  103.328    0.397    0.140   22.881
  347.736  154.128   98.081    0.415    0.182   23.491
  347.986  160.622   88.266    0.407    0.189   24.756
  348.236  159.261   76.600    0.414    0.206   27.905
  348.486  155.804   56.353    0.420    0.235   34.214
  348.736  152.138   51.909    0.419    0.250   44.953
  348.986  147.948   46.785    0.409    0.225   53.494
  349.236  145.435   45.119    0.404    0.218   57.332
  349.486  143.549   43.637    0.389    0.219   58.642
  349.736  143.235   43.576    0.384    0.234   57.350
  349.986  144.178   45.304    0.390    0.248   54.639
  350.236  145.016   47.403    0.393    0.253   52.348
  350.486  145.749   49.502    0.390    0.245   50.720
  350.736  146.796   51.971    0.391    0.243   49.417
  350.986  148.263   53.267    0.399    0.240   47.083
  351.236  148.577   55.058    0.410    0.240   44.940
  351.486  146.796   58.206    0.409    0.241   42.101
  351.736  145.749   61.663    0.409    0.231   38.423
  351.986  145.225   66.478    0.414    0.231   33.278
  352.236  143.654   69.934    0.413    0.241   25.911
  352.486  143.340   73.515    0.407    0.228   22.027
  352.736  143.026   77.712    0.412    0.226   19.078
  352.986  143.968   82.280    0.416    0.224   15.220
  353.236  145.749   89.379    0.410    0.203   12.627
  353.486  148.682   99.071    0.415    0.180   10.321
  353.736  152.033  106.046    0.418    0.148    8.628
  353.986  154.757  110.799    0.410    0.130    7.515
  354.236  156.433  114.318    0.396    0.120    6.631
  354.486  157.585  111.849    0.409    0.124    5.885
  354.736  157.061  113.639    0.431    0.133    5.222
  354.986  156.118  114.812    0.452    0.147    4.704
  355.236  155.490  115.614    0.480    0.151    4.532
  355.486  155.490  120.800    0.502    0.145    4.921
  355.736  155.909  116.849    0.480    0.137    5.579
  355.986  155.804  109.257    0.426    0.099    6.455
