~VERSION INFORMATION
 VERS.                 2.0:   CWLS LOG ASCII STANDARD -VERSION 2.0
 WRAP.                  NO:   ONE LINE PER DEPTH STEP
~WELL INFORMATION BLOCK
#MNEM.UNIT           DATA                    DESCRIPTION OF MNEMONIC
#---------    -------------------            -------------------------------
# Generated from Intellog Unique Number	CN_91_93/WELL/1149
WELL.         10-26-091-15W4                 : Well_name    - WELL
LOC .         AA/10-26-091-15W4/0            : Location     - LOCATION
UWI .         AA/10-26-091-15W400            : Uwi          - UNIQUE WELL ID
ENTR.         JOETTE                         : Entered      - ENTERED BY
SRVC.         SCHLUMBERGER                   : Scn          - SERVICE COMPANY
STRT.F        213.255                        : top_depth    - START DEPTH
STOP.F        672.572                        : bot_depth    - STOP DEPTH
STEP.F        0.82                           : increment    - STEP LENGTH
 NULL. -999.2500:NULL Value
~CURVE INFORMATION BLOCK
#MNEM UNIT       ERCB CURVE CODE    CURVE DESCRIPTION
#-----------   ------------------   ----------------------------------
DEPT.F        00 001 00 00         : DEPTH        - DEPTH
ILD .OHMM     00 120 00 00         : RESD         - DEEP RESISTIVITY (DIL)
DPHI.V/V      00 890 00 00         : PHID         - DENSITY POROSITY (SANDSTONE)
NPHI.V/V      00 330 00 00         : PHIN         - NEUTRON POROSITY (SANDSTONE)
CALI.IN       00 280 01 00         : CAL          - CALIPER
GR  .API      00 310 00 00         : GR           - GAMMA RAY
~PARAMETER INFORMATION
#MNEM.UNIT           DATA             DESCRIPTION OF MNEMONIC
#---------         -----------     ------------------------------
GL  .M        474.15               : gl           - GROUND LEVEL ELEVATION
EREF.M        477.15               : kb           - ELEVATION OF DEPTH REFERENCE
DATM.M        477.15               : datum        - DATUM ELEVATION
TDD .M        216                  : tdd          - TOTAL DEPTH DRILLER
RUN .         ONE                  : Run          - RUN NUMBER
ENG .         BILL                 : Engineer     - RECORDING ENGINEER
WIT .         JIM                  : Witness      - WITNESSED BY
MUD .         GEL                  : Mud_type     - MUD TYPE
MATR.         SANDSTONE            : Logunit      - NEUTRON MATRIX
TMAX.F        140                  : BHT          - MAXIMUM RECORDED TEMPERATURE
BHTD.F        6797.9               : BHTDEP       - MAXIMUM RECORDED TEMPERATURE
RMT .F        77                   : MDTP         - TEMPERATURE OF MUD
MUDD.LB/G     9.04166              : MWT          - MUD DENSITY
NEUT.         1                    : NEUTRON      - NEUTRON TYPE
RESI.         0                    : RESIST       - RESISTIVITY TYPE
RM  .OHMM     7.6                  : RM           - RESISTIVITY OF MUD
RMC .OHMM     0.25                 : RMC          - RESISTIVITY OF MUD CAKE
RMF .OHMM     6.9                  : RMF          - RESISTIVITY OF MUD FILTRATE
SUFT.F        39.2                 : SUFT         - SURFACE TEMPERATURE
~A  DEPTH     RESD     PHID     PHIN      CAL       GR
# ...
  572.507   54.242    0.309    0.440    7.844   64.451
  573.327   59.745    0.301    0.420    7.964   69.893
  574.147   60.168    0.293    0.413    8.044   72.923
  574.967   57.080    0.282    0.416    8.143   73.233
  575.787   48.779    0.266    0.409    8.223   71.436
  576.608   45.587    0.257    0.401    8.264   67.525
  577.428   42.286    0.274    0.406    8.284   59.394
  578.248   48.354    0.283    0.426    8.285   53.675
  579.068   61.841    0.288    0.454    8.306   49.465
  579.888   71.776    0.297    0.431    8.405   47.968
  580.709  111.466    0.313    0.416    8.525   49.185
  581.529  117.393    0.307    0.410    8.644   49.500
  582.349  122.723    0.304    0.413    8.764   48.304
  583.169  123.592    0.300    0.416    8.844   46.807
  583.990  119.900    0.301    0.424    8.884   46.215
  584.810  109.579    0.304    0.438    8.885   45.925
  585.630  100.902    0.307    0.439    8.886   47.444
  586.450   95.013    0.302    0.462    8.886   50.172
  587.270   93.566    0.302    0.474    8.808   50.181
  588.091   94.926    0.313    0.454    8.729   48.988
  588.911   95.589    0.308    0.461    8.611   46.889
  589.731   94.844    0.300    0.424    8.513   45.994
  590.551   92.015    0.289    0.421    8.455   47.817
  591.371   87.298    0.282    0.432    8.337   50.542
  592.192   78.605    0.289    0.422    8.199   51.759
  593.012   72.912    0.294    0.413    8.081   53.581
  593.832   73.983    0.297    0.420    8.022   53.894
  594.652   74.503    0.301    0.419    7.944   53.303
  595.472   72.827    0.303    0.427    7.885   52.410
  596.293   73.343    0.308    0.422    7.787   51.213
  597.113   73.859    0.315    0.408    7.669   49.718
  597.933   73.859    0.312    0.398    7.571   49.426
  598.753   73.799    0.293    0.403    7.413   50.646
  599.573   68.461    0.293    0.416    7.276   51.560
  600.394   68.939    0.299    0.407    7.177   51.271
  601.214   69.955    0.293    0.402    7.138   52.489
  602.034   65.378    0.294    0.419    7.120   54.311
  602.854   63.907    0.291    0.471    7.101   53.419
  603.675   60.628    0.287    0.460    7.101   52.525
  604.495   61.051    0.293    0.400    7.122   55.550
  605.315   62.409    0.283    0.403    7.162   60.387
  606.135   63.800    0.287    0.405    7.202   57.685
  606.955   64.249    0.276    0.417    7.262   56.490
  607.776   64.203    0.278    0.412    7.323   54.089
  608.596   64.197    0.270    0.380    7.383   52.894
  609.416   63.219    0.267    0.389    7.443   58.034
  610.236   63.219    0.267    0.384    7.503   59.250
  611.056   61.759    0.244    0.396    7.583   61.373
  611.877   59.481    0.249    0.397    7.663   67.417
  612.697   57.275    0.257    0.390    7.723   67.130
  613.517   55.153    0.267    0.395    7.823   65.933
  614.337   54.704    0.260    0.406    7.903   67.753
  615.157   53.888    0.266    0.403    8.002   70.478
  615.978   53.888    0.269    0.395    8.082   72.601
  616.798   51.096    0.266    0.385    8.123   77.439
  617.618   45.668    0.272    0.376    8.123   82.579
  618.438   41.118    0.270    0.367    8.203   86.509
  619.259   42.033    0.250    0.379    8.323   95.267
  620.079   46.644    0.281    0.413    8.304   81.105
  620.899   50.616    0.297    0.412    8.186   76.894
  621.719   53.713    0.303    0.411    7.929   72.683
  622.539   58.284    0.304    0.421    7.792   71.788
  623.360   62.781    0.299    0.431    7.752   75.420
  624.180   68.124    0.285    0.416    7.714   79.050
  625.000   71.751    0.292    0.411    7.635   83.887
  625.820   75.562    0.295    0.396    7.498   88.724
  626.640   79.589    0.288    0.398    7.380   86.624
  627.461   84.454    0.280    0.392    7.242   80.906
  628.281   88.950    0.295    0.403    7.064   75.789
  629.101   85.655    0.308    0.401    6.808   68.865
  629.921   60.732    0.296    0.392    6.729   71.894
  630.741   44.693    0.282    0.375    6.711   75.523
  631.562   41.154    0.273    0.359    6.790   82.772
  632.382   33.126    0.246    0.348    6.930   90.625
  633.202   31.426    0.210    0.339    7.049   96.668
  634.022   30.714    0.182    0.351    7.248  101.205
  634.843   30.714    0.202    0.358    7.367  105.440
  635.663   30.458    0.213    0.364    7.487  108.469
  636.483   29.333    0.214    0.383    7.686  107.875
  637.303   29.988    0.219    0.390    7.825  100.647
  638.123   32.298    0.226    0.378    7.944   97.642
  638.944   31.808    0.220    0.381    7.945   95.544
  639.764   29.948    0.220    0.391    7.945   99.174
  640.584   30.616    0.205    0.376    7.966  103.108
  641.404   32.244    0.202    0.366    8.007  100.406
  642.224   33.207    0.236    0.363    8.265   98.608
  643.045   31.037    0.237    0.355    8.226   99.823
  643.865   31.037    0.237    0.358    8.207  109.485
  644.685   30.554    0.233    0.373    8.168  113.118
  645.505   28.130    0.225    0.382    8.189  115.845
  646.325   28.120    0.206    0.364    8.209  117.968
  647.146   29.617    0.181    0.351    8.190  119.183
  647.966   31.661    0.207    0.373    8.072  110.448
  648.786   33.597    0.233    0.398    7.835  107.142
  649.606   35.124    0.316    0.423    7.539  102.026
  650.427   35.108    0.337    0.430    7.164  101.736
  651.247   34.316    0.357    0.469    7.066  102.350
  652.067   34.049    0.347    0.476    7.245   92.409
  652.887   34.033    0.308    0.445    7.384   92.119
  653.707   32.529    0.313    0.420    7.325  101.179
  654.528   29.951    0.282    0.433    7.227  106.318
  655.348   27.784    0.270    0.431    7.149   94.567
  656.168   26.162    0.259    0.427    6.971   83.419
  656.988   24.821    0.294    0.423    6.497   73.779
  657.808   22.346    0.299    0.455    6.379   67.759
  658.629   19.528    0.243    0.510    6.538   75.008
  659.449   24.240    0.196    0.585    6.757   81.353
  660.269   27.924    0.004    0.547    7.133   66.285
  661.089   31.221   -0.022    0.369    7.035   55.439
  661.909   53.032   -0.029    0.404    6.165   36.450
  662.730  187.261   -0.022    0.399    6.146   28.320
  663.550  192.850   -0.015   -0.024    6.186   27.426
  664.370  128.802   -0.000   -0.038    6.227   30.754
  665.190  114.251    0.024   -0.016    6.247   39.814
  666.010   75.735    0.032    0.003    6.248   49.476
  666.831   61.418    0.038    0.024    6.248   59.742
  667.651   51.707    0.047    0.039    6.270   66.690
  668.471   46.551    0.051    0.039    6.290   66.101
  669.291   46.186    0.043    0.027    6.311   64.302
  670.112   46.516    0.033    0.027    6.311   60.998
  670.932   49.359    0.037    0.034    6.292   58.596
  671.752   53.164    0.036    0.036    6.293   55.890
  672.572   54.346    0.029    0.029    6.274   52.283
