~VERSION INFORMATION
 VERS.                 2.0:   CWLS LOG ASCII STANDARD -VERSION 2.0
 WRAP.                  NO:   ONE LINE PER DEPTH STEP
~WELL INFORMATION BLOCK
#MNEM.UNIT           DATA                    DESCRIPTION OF MNEMONIC
#---------    -------------------            -------------------------------
# Generated from Intellog Unique Number	CN_94_101/WELL/5020
WELL.         11-22-099-14W4                 : Well_name    - WELL
LOC .         AA/11-22-099-14W4/0            : Location     - LOCATION
UWI .         AA/11-22-099-14W400            : Uwi          - UNIQUE WELL ID
ENTR.         TIM                            : Entered      - ENTERED BY
SRVC.         SCHLUMBERGER                   : Scn          - SERVICE COMPANY
DATE.         08/13/92                       : Date         - LOG DATE
STRT.M        370                            : top_depth    - START DEPTH
STOP.M        575                            : bot_depth    - STOP DEPTH
STEP.M        0.25                           : increment    - STEP LENGTH
 NULL. -999.2500:NULL Value
~CURVE INFORMATION BLOCK
#MNEM UNIT       ERCB CURVE CODE    CURVE DESCRIPTION
#-----------   ------------------   ----------------------------------
DEPT.M        00 001 00 00         : DEPTH        - DEPTH
GR  .API      00 310 00 00         : GR           - GAMMA RAY
NPHI.V/V      00 330 00 00         : PHIN         - NEUTRON POROSITY (SANDSTONE)
DPHI.V/V      00 890 00 00         : PHID         - DENSITY POROSITY (SANDSTONE)
ILD .OHMM     00 120 00 00         : RESD         - DEEP RESISTIVITY (DIL)
~PARAMETER INFORMATION
#MNEM.UNIT           DATA             DESCRIPTION OF MNEMONIC
#---------         -----------     ------------------------------
GL  .M        815.9                : gl           - GROUND LEVEL ELEVATION
EREF.M        817.1                : kb           - ELEVATION OF DEPTH REFERENCE
DATM.M        817.1                : datum        - DATUM ELEVATION
TDD .M        578                  : tdd          - TOTAL DEPTH DRILLER
RUN .         ONE                  : Run          - RUN NUMBER
ENG .         BILL                 : Engineer     - RECORDING ENGINEER
WIT .         JIM                  : Witness      - WITNESSED BY
MUD .         GEL                  : Mud_type     - MUD TYPE
MATR.         SANDSTONE            : Logunit      - NEUTRON MATRIX
TMAX.C        21                   : BHT          - MAXIMUM RECORDED TEMPERATURE
BHTD.M        583                  : BHTDEP       - MAXIMUM RECORDED TEMPERATURE
RMT .C        25                   : MDTP         - TEMPERATURE OF MUD
MUDD.KG/M     1090                 : MWT          - MUD DENSITY
NEUT.         1                    : NEUTRON      - NEUTRON TYPE
RESI.         0                    : RESIST       - RESISTIVITY TYPE
RM  .OHMM     4.6                  : RM           - RESISTIVITY OF MUD
RMC .OHMM     4.6                  : RMC          - RESISTIVITY OF MUD CAKE
RMF .OHMM     4.6                  : RMF          - RESISTIVITY OF MUD FILTRATE
SUFT.C        4                    : SUFT         - SURFACE TEMPERATURE
~A  DEPTH       GR     PHIN     PHID     RESD
# ...
  500.500  100.107    0.384    0.265    3.623
  500.750  100.698    0.387    0.263    3.625
  501.000  101.290    0.388    0.261    3.626
  501.250  102.469    0.388    0.261    3.629
  501.500  102.475    0.388    0.260    3.631
  501.750  100.714    0.389    0.257    3.702
  502.000   99.542    0.389    0.253    3.703
  502.250   98.956    0.380    0.248    3.705
  502.500   98.372    0.360    0.242    3.921
  502.750   98.963    0.346    0.238    3.996
  503.000  101.319    0.375    0.238    4.148
  503.250  104.263    0.370    0.238    4.229
  503.500  105.443    0.363    0.239    4.155
  503.750  104.858    0.354    0.240    4.157
  504.000  104.274    0.355    0.242    4.083
  504.250  102.515    0.382    0.244    4.010
  504.500  101.929    0.392    0.249    3.939
  504.750  100.170    0.393    0.252    3.942
  505.000   99.585    0.389    0.260    3.944
  505.250   97.825    0.402    0.267    3.944
  505.500   97.239    0.412    0.272    3.807
  505.750   98.419    0.425    0.312    3.602
  506.000   99.011    0.422    0.295    3.604
  506.250   97.251    0.411    0.281    3.607
  506.500   96.666    0.392    0.254    3.608
  506.750   96.669    0.383    0.252    3.612
  507.000   96.673    0.370    0.262    3.613
  507.250   96.088    0.367    0.284    3.616
  507.500   94.328    0.365    0.295    3.618
  507.750   91.981    0.362    0.304    3.620
  508.000   91.396    0.359    0.309    3.759
  508.250   89.048    0.358    0.303    3.831
  508.500   86.699    0.354    0.286    3.978
  508.750   84.939    0.349    0.270    4.131
  509.000   86.707    0.342    0.254    4.369
  509.250   89.062    0.389    0.249    4.623
  509.500   89.654    0.400    0.275    4.540
  509.750   90.246    0.401    0.284    4.298
  510.000   92.013    0.406    0.291    3.993
  510.250   94.370    0.414    0.290    3.710
  510.500   96.724    0.419    0.284    3.511
  510.750  102.021    0.424    0.280    3.088
  511.000  106.140    0.426    0.279    2.976
  511.250  109.085    0.429    0.278    2.766
  511.500  107.324    0.431    0.275    2.570
  511.750  104.975    0.431    0.279    2.478
  512.000  102.038    0.430    0.275    2.480
  512.250  100.278    0.429    0.247    2.575
  512.500   98.518    0.422    0.251    2.673
  512.750   98.522    0.418    0.278    2.881
  513.000  101.466    0.420    0.280    2.992
  513.250  104.409    0.430    0.289    2.993
  513.500  106.176    0.449    0.292    2.730
  513.750  107.946    0.463    0.298    2.444
  514.000  108.537    0.464    0.301    2.188
  514.250  108.541    0.463    0.304    1.996
  514.500  108.544    0.458    0.307    1.821
  514.750  107.960    0.452    0.310    1.692
  515.000  106.787    0.447    0.308    1.601
  515.250  105.614    0.453    0.304    1.602
  515.500  103.853    0.458    0.297    1.633
  515.750  101.506    0.453    0.293    1.861
  516.000   97.981    0.443    0.302    2.159
  516.250   97.396    0.423    0.311    2.505
  516.500  103.280    0.413    0.308    2.854
  516.750  108.577    0.411    0.300    3.251
  517.000  110.345    0.408    0.290    3.376
  517.250  109.761    0.403    0.284    3.378
  517.500  106.237    0.398    0.287    3.380
  517.750  104.475    0.397    0.291    3.446
  518.000  100.952    0.398    0.293    3.447
  518.250   99.777    0.401    0.299    3.514
  518.500   97.429    0.373    0.297    3.582
  518.750   95.080    0.391    0.288    3.651
  519.000   96.849    0.430    0.274    3.722
  519.250  100.969    0.432    0.270    3.724
  519.500  103.324    0.429    0.274    3.659
  519.750  106.857    0.425    0.279    3.593
  520.000  109.213    0.420    0.280    3.338
  520.250  109.216    0.420    0.280    2.989
  520.500  108.632    0.420    0.279    2.726
  520.750  107.459    0.421    0.280    2.629
  521.000  106.287    0.423    0.280    2.631
  521.250  105.114    0.421    0.281    2.633
  521.500  103.941    0.419    0.282    2.634
  521.750  103.357    0.413    0.285    2.636
  522.000  102.184    0.414    0.294    2.637
  522.250   99.835    0.435    0.300    2.543
  522.500   97.489    0.444    0.309    2.407
  522.750   96.902    0.445    0.316    2.155
  523.000   97.494    0.447    0.317    2.078
  523.250  100.439    0.448    0.317    1.895
  523.500  101.619    0.445    0.303    1.761
  523.750   99.270    0.443    0.288    1.667
  524.000   98.097    0.441    0.288    1.668
  524.250   98.101    0.433    0.282    1.700
  524.500   98.104    0.430    0.276    1.733
  524.750   98.108    0.424    0.278    1.766
  525.000   98.112    0.437    0.283    1.834
  525.250   97.527    0.462    0.293    1.870
  525.500   96.943    0.455    0.299    1.906
  525.750   96.359    0.449    0.307    1.980
  526.000   96.363    0.439    0.315    1.980
  526.250   97.543    0.427    0.315    1.946
  526.500   99.899    0.420    0.307    1.911
  526.750  101.666    0.427    0.301    1.877
  527.000  106.962    0.447    0.297    1.777
  527.250  110.493    0.459    0.295    1.745
  527.500  110.498    0.467    0.297    1.714
  527.750  106.973    0.478    0.298    1.684
  528.000  103.448    0.484    0.298    1.684
  528.250   95.807    0.490    0.320    1.686
  528.500   88.754    0.494    0.346    1.656
  528.750   81.701    0.484    0.341    1.657
  529.000   72.296    0.430    0.333    1.597
  529.250   58.187    0.414    0.339    1.569
  529.500   41.726    0.408    0.350    1.755
  529.750   40.555    0.407    0.398    2.152
  530.000   41.145    0.405    0.405    3.006
  530.250   43.501    0.404    0.402    5.146
  530.500   45.269    0.398    0.381    7.738
  530.750   44.096    0.387    0.367   12.534
  531.000   42.923    0.375    0.347   15.093
  531.250   42.927    0.363    0.336   15.675
  531.500   43.519    0.356    0.334   14.299
  531.750   44.698    0.352    0.338   13.786
  532.000   46.467    0.351    0.345   13.048
  532.250   47.059    0.351    0.342   12.353
  532.500   47.649    0.354    0.339   11.909
  532.750   49.418    0.360    0.338   11.696
  533.000   49.421    0.367    0.335   11.074
  533.250   50.014    0.377    0.335   10.676
  533.500   51.782    0.385    0.335    9.921
  533.750   54.137    0.392    0.336    9.563
  534.000   56.492    0.393    0.336    8.104
  534.250   60.612    0.394    0.336    7.669
  534.500   61.792    0.394    0.336    6.996
  534.750   62.383    0.392    0.333    6.620
  535.000   64.739    0.386    0.325    5.607
  535.250   74.151    0.376    0.321    4.577
  535.500   85.916    0.408    0.312    3.667
  535.750   94.153    0.431    0.306    2.678
  536.000   97.097    0.450    0.302    2.268
  536.250   95.336    0.441    0.302    1.921
  536.500   94.164    0.437    0.308    1.853
  536.750   94.167    0.438    0.316    1.889
  537.000   93.584    0.439    0.317    1.925
  537.250   93.587    0.438    0.313    1.999
  537.500   93.590    0.431    0.311    2.037
  537.750   93.006    0.421    0.308    2.116
  538.000   91.833    0.412    0.310    2.197
  538.250   89.484    0.405    0.311    2.324
  538.500   83.019    0.391    0.310    2.458
  538.750   72.439    0.382    0.306    2.600
  539.000   68.327    0.391    0.305    2.962
  539.250   73.622    0.401    0.305    3.312
  539.500   77.155    0.412    0.307    3.772
  539.750   73.629    0.411    0.313    4.459
  540.000   67.752    0.405    0.316    5.271
  540.250   60.700    0.395    0.323    6.466
  540.500   54.823    0.384    0.339    7.932
  540.750   53.650    0.376    0.342    9.378
  541.000   53.066    0.371    0.335   10.682
  541.250   53.070    0.368    0.330   12.170
  541.500   52.486    0.364    0.329   12.177
  541.750   51.901    0.358    0.330   12.183
  542.000   48.965    0.349    0.331   12.190
  542.250   42.500    0.337    0.329   12.197
  542.500   34.271    0.326    0.322   12.437
  542.750   26.630    0.323    0.317   12.910
  543.000   25.457    0.326    0.308   13.407
  543.250   25.461    0.330    0.307   14.449
  543.500   25.465    0.331    0.308   14.999
  543.750   25.468    0.329    0.311   15.868
