~VERSION INFORMATION
 VERS.                 2.0:   CWLS LOG ASCII STANDARD -VERSION 2.0
 WRAP.                  NO:   ONE LINE PER DEPTH STEP
~WELL INFORMATION BLOCK
#MNEM.UNIT           DATA                    DESCRIPTION OF MNEMONIC
#---------    -------------------            -------------------------------
# Generated from Intellog Unique Number	CN_91_93/WELL/3678
WELL.         10-02-093-08W4                 : Well_name    - WELL
LOC .         AA/10-02-093-08W4/0            : Location     - LOCATION
UWI .         AA/10-02-093-08W400            : Uwi          - UNIQUE WELL ID
ENTR.         JOETTE                         : Entered      - ENTERED BY
SRVC.         SCHLUMBERGER                   : Scn          - SERVICE COMPANY
DATE.         03/22/92                       : Date         - LOG DATE
STRT.M        75                             : top_depth    - START DEPTH
STOP.M        205                            : bot_depth    - STOP DEPTH
STEP.M        0.25                           : increment    - STEP LENGTH
 NULL. -999.2500:NULL Value
~CURVE INFORMATION BLOCK
#MNEM UNIT       ERCB CURVE CODE    CURVE DESCRIPTION
#-----------   ------------------   ----------------------------------
DEPT.M        00 001 00 00         : DEPTH        - DEPTH
CALI.MM       00 280 01 00         : CAL          - CALIPER
GR  .API      00 310 00 00         : GR           - GAMMA RAY
ILD .OHMM     00 120 00 00         : RESD         - DEEP RESISTIVITY (DIL)
NPHI.V/V      00 330 00 00         : PHIN         - NEUTRON POROSITY (SANDSTONE)
DPHI.V/V      00 890 00 00         : PHID         - DENSITY POROSITY (SANDSTONE)
~PARAMETER INFORMATION
#MNEM.UNIT           DATA             DESCRIPTION OF MNEMONIC
#---------         -----------     ------------------------------
GL  .M        454.8                : gl           - GROUND LEVEL ELEVATION
EREF.M        454.8                : kb           - ELEVATION OF DEPTH REFERENCE
DATM.M        454.8                : datum        - DATUM ELEVATION
TDD .M        205.4                : tdd          - TOTAL DEPTH DRILLER
RUN .         ONE                  : Run          - RUN NUMBER
ENG .         BILL                 : Engineer     - RECORDING ENGINEER
WIT .         JIM                  : Witness      - WITNESSED BY
MUD .         GEL                  : Mud_type     - MUD TYPE
MATR.         SANDSTONE            : Logunit      - NEUTRON MATRIX
TMAX.C        16                   : BHT          - MAXIMUM RECORDED TEMPERATURE
BHTD.M        205.4                : BHTDEP       - MAXIMUM RECORDED TEMPERATURE
RMT .C        14                   : MDTP         - TEMPERATURE OF MUD
MUDD.KG/M     9583.33              : MWT          - MUD DENSITY
NEUT.         1                    : NEUTRON      - NEUTRON TYPE
RESI.         0                    : RESIST       - RESISTIVITY TYPE
RM  .OHMM     4.8                  : RM           - RESISTIVITY OF MUD
RMC .OHMM     4.8                  : RMC          - RESISTIVITY OF MUD CAKE
RMF .OHMM     4.8                  : RMF          - RESISTIVITY OF MUD FILTRATE
SUFT.C        4                    : SUFT         - SURFACE TEMPERATURE
~A  DEPTH      CAL       GR     RESD     PHIN     PHID
   75.000  204.767  141.110    8.877    0.580    0.341
   75.250  204.805  137.452    8.149    0.588    0.318
   75.500  204.833  135.634    7.164    0.595    0.298
   75.750  208.961  136.271    6.210    0.601    0.286
   76.000  238.658  145.495    6.393    0.607    0.297
   76.250  216.203  144.291    6.970    0.610    0.304
   76.500  208.062  145.541    7.075    0.613    0.309
   76.750  209.132  144.950    6.978    0.612    0.279
   77.000  209.170  140.679    6.979    0.608    0.235
   77.250  210.240  139.475    7.289    0.590    0.242
   77.500  209.237  134.595    9.856    0.539    0.253
   77.750  205.194  140.747   12.056    0.552    0.249
   78.000  203.178  143.224   13.145    0.542    0.251
   78.250  199.136  135.885   12.416    0.550    0.257
   78.500  198.142  132.846   12.070    0.588    0.264
   78.750  195.122  134.704   11.079    0.607    0.269
   79.000  194.128  139.634    9.602    0.587    0.273
   79.250  193.154  136.595    8.322    0.598    0.275
   79.500  192.169  133.545    7.530    0.595    0.248
   79.750  191.175  131.120    7.752    0.578    0.265
   80.000  188.165  134.823    7.429    0.573    0.268
   80.250  186.149  139.754    7.539    0.579    0.274
   80.500  185.155  144.071    9.626    0.592    0.279
   80.750  182.135  141.640   10.647    0.599    0.285
   81.000  179.115  142.276    9.361    0.593    0.291
   81.250  178.112  147.820    9.366    0.574    0.293
   81.500  177.127  147.843   10.816    0.545    0.297
   81.750  176.152  141.731   10.364    0.537    0.300
   82.000  175.178  130.706    9.790    0.522    0.302
   82.250  175.206  119.073   11.306    0.537    0.308
   82.500  175.235  114.189   15.070    0.551    0.301
   82.750  176.323  108.696   16.434    0.563    0.250
   83.000  176.352  105.032   15.301    0.556    0.219
   83.250  176.380   98.921   13.261    0.539    0.181
   83.500  176.418  106.918   12.707    0.551    0.241
   83.750  176.447  109.395   13.658    0.564    0.292
   84.000  176.513  107.577   13.861    0.580    0.289
   84.250  176.542  119.261   11.182    0.603    0.285
   84.500  176.570  131.553    9.283    0.603    0.273
   84.750  176.599  145.685    8.280    0.598    0.262
   85.000  176.637  134.053    7.821    0.598    0.267
   85.250  176.675  135.302    7.495    0.601    0.274
   85.500  176.722  135.944    7.941    0.597    0.285
   85.750  176.789  134.127    8.910    0.551    0.298
   86.000  176.798  123.102    9.999    0.579    0.300
   86.250  176.836  115.769   10.004    0.589    0.296
   86.500  176.874  124.988    9.587    0.602    0.279
   86.750  176.922  131.758    9.055    0.611    0.279
   87.000  176.960  130.560    8.431    0.606    0.284
   87.250  176.988  131.804    7.413    0.598    0.285
   87.500  177.036  139.188    6.517    0.601    0.274
   87.750  177.074  142.284    6.427    0.606    0.138
   88.000  177.121  137.393    7.638    0.605    0.079
   88.250  177.140  136.189   10.181    0.528    0.104
   88.500  177.188  124.557   10.943    0.440    0.131
   88.750  177.235  115.997   11.932    0.491    0.157
   89.000  176.232  121.535   11.937    0.605    0.205
   89.250  176.279  124.631    8.709    0.594    0.309
   89.500  176.317  121.581    7.994    0.585    0.307
   89.750  176.355  118.542    7.771    0.564    0.297
   90.000  176.384  123.472    8.846    0.535    0.250
   90.250  176.422  121.047    9.927    0.519    0.237
   90.500  176.488  117.383   10.220    0.505    0.266
   90.750  176.517  113.112   11.470    0.554    0.272
   91.000  176.536  109.448   10.083    0.606    0.282
   91.250  178.628  124.813    8.491    0.581    0.297
   91.500  179.679  137.105    7.254    0.575    0.305
   91.750  180.740  138.974    6.198    0.584    0.315
   92.000  181.828  139.610    5.854    0.598    0.310
   92.250  182.879  136.565    5.611    0.607    0.278
   92.500  183.930  133.515    6.030    0.612    0.223
   92.750  185.000  129.250    6.575    0.610    0.192
   93.000  185.038  128.046    7.927    0.604    0.095
   93.250  185.076  130.516    9.154    0.595    0.059
   93.500  185.114  135.447   10.724    0.578    0.042
   93.750  185.152  133.016    9.294    0.487    0.069
   94.000  185.190  126.910    8.290    0.430    0.099
   94.250  185.228  126.933   10.285    0.455    0.286
   94.500  185.266  133.698    8.062    0.572    0.305
   94.750  185.295  141.695    6.229    0.599    0.316
   95.000  186.355  146.018    5.098    0.596    0.322
   95.250  187.416  145.427    4.482    0.620    0.329
   95.500  188.476  144.223    4.420    0.617    0.341
   95.750  190.578  144.865    4.422    0.601    0.347
   96.000  191.629  143.661    4.424    0.602    0.345
   96.250  192.699  145.524    4.426    0.605    0.345
   96.500  193.749  146.155    4.364    0.596    0.342
   96.750  193.797  146.177    4.494    0.587    0.309
   97.000  193.825  143.746    4.627    0.593    0.301
   97.250  194.886  145.610    4.763    0.605    0.294
   97.500  195.937  148.086    5.046    0.609    0.295
   97.750  196.997  147.496    5.744    0.611    0.303
   98.000  197.035  142.611    6.086    0.618    0.316
   98.250  195.028  138.345    5.507    0.634    0.345
   98.500  191.999  137.135    6.639    0.642    0.289
   98.750  187.947  141.452    6.271    0.608    0.257
   99.000  187.995  146.996    5.924    0.558    0.250
   99.250  189.065  147.025    6.648    0.545    0.249
   99.500  189.103  145.815    7.043    0.563    0.243
   99.750  188.109  144.611    7.462    0.569    0.080
  100.000  186.112  148.928    8.494    0.464    0.105
  100.250  185.127  151.410   10.240    0.391    0.129
  100.500  184.133  145.906   14.049    0.358    0.153
  100.750  183.158  138.567   18.997    0.306    0.178
  101.000  182.174  126.321   28.813    0.420    0.227
  101.250  182.212  121.437   21.946    0.627    0.262
  101.500  182.250  128.207   13.674    0.595    0.277
  101.750  182.288  134.364    9.420    0.581    0.285
  102.000  182.326  136.841    7.598    0.579    0.269
  102.250  183.386  134.416    7.494    0.589    0.269
  102.500  183.424  141.186    6.979    0.594    0.273
  102.750  183.462  140.596    7.288    0.560    0.249
  103.000  183.491  136.325    8.416    0.540    0.199
  103.250  184.570  134.513    8.299    0.530    0.191
  103.500  185.621  128.395    7.953    0.535    0.198
  103.750  188.736  130.258    7.621    0.577    0.202
  104.000  189.777  136.416    7.409    0.605    0.231
  104.250  191.860  143.186    7.306    0.602    0.294
  104.500  194.965  143.823    7.102    0.591    0.276
  104.750  198.071  146.305    6.807    0.581    0.283
  105.000  201.195  138.347    6.429    0.591    0.297
  105.250  204.291  143.283    6.074    0.593    0.294
  105.500  210.463  145.146    5.904    0.601    0.287
  105.750  209.479  145.169    5.577    0.566    0.211
  106.000  206.459  146.419    5.268    0.545    0.201
  106.250  202.417  143.374    4.976    0.530    0.207
  106.500  201.423  145.851    4.837    0.522    0.212
  106.750  200.448  146.482    5.428    0.556    0.242
  107.000  200.467  147.118    6.930    0.604    0.271
  107.250  201.537  147.760    7.343    0.631    0.282
  107.500  203.620  148.396    6.456    0.631    0.299
  107.750  207.747  149.038    5.516    0.624    0.296
  108.000  210.852  149.674    4.920    0.613    0.302
  108.250  205.778  149.703    4.715    0.599    0.305
  108.500  200.695  149.714    4.717    0.588    0.281
  108.750  196.643  149.737    4.651    0.593    0.288
  109.000  193.623  146.085    4.788    0.600    0.285
  109.250  192.630  144.881    5.856    0.595    0.218
  109.500  191.664  147.357    5.612    0.582    0.178
  109.750  191.693  148.607    5.006    0.589    0.225
  110.000  191.721  146.170    5.303    0.606    0.299
  110.250  192.791  144.353    6.124    0.607    0.302
  110.500  193.842  148.056    5.384    0.605    0.286
  110.750  194.902  148.692    5.014    0.592    0.291
  111.000  200.052  149.942    5.089    0.550    0.297
  111.250  215.446  150.578    5.469    0.540    0.288
