~VERSION INFORMATION
 VERS.                 2.0:   CWLS LOG ASCII STANDARD -VERSION 2.0
 WRAP.                  NO:   ONE LINE PER DEPTH STEP
~WELL INFORMATION BLOCK
#MNEM.UNIT           DATA                    DESCRIPTION OF MNEMONIC
#---------    -------------------            -------------------------------
# Generated from Intellog Unique Number	CW_79_81/WELL/2487
WELL.         13-06-081-21W4                 : Well_name    - WELL
LOC .         AA/13-06-081-21W4/0            : Location     - LOCATION
UWI .         AA/13-06-081-21W4/0            : Uwi          - UNIQUE WELL ID
ENTR.         MAX                            : Entered      - ENTERED BY
SRVC.         SCHLUMBERGER                   : Scn          - SERVICE COMPANY
STRT.M        185                            : top_depth    - START DEPTH
STOP.M        434.75                         : bot_depth    - STOP DEPTH
STEP.M        0.25                           : increment    - STEP LENGTH
 NULL. -999.2500:NULL Value
~CURVE INFORMATION BLOCK
#MNEM UNIT       ERCB CURVE CODE    CURVE DESCRIPTION
#-----------   ------------------   ----------------------------------
DEPT.M        00 001 00 00         : DEPTH        - DEPTH
ILD .OHMM     00 120 00 00         : RESD         - DEEP RESISTIVITY (DIL)
NPHI.V/V      00 330 00 00         : PHIN         - NEUTRON POROSITY (SANDSTONE)
DPHI.V/V      00 890 00 00         : PHID         - DENSITY POROSITY (SANDSTONE)
GR  .API      00 310 00 00         : GR           - GAMMA RAY
CALI.MM       00 280 01 00         : CAL          - CALIPER
~PARAMETER INFORMATION
#MNEM.UNIT           DATA             DESCRIPTION OF MNEMONIC
#---------         -----------     ------------------------------
GL  .M        604.15               : gl           - GROUND LEVEL ELEVATION
EREF.M        608.75               : kb           - ELEVATION OF DEPTH REFERENCE
DATM.M        604.15               : datum        - DATUM ELEVATION
TDD .M        442                  : tdd          - TOTAL DEPTH DRILLER
RUN .         ONE                  : Run          - RUN NUMBER
ENG .         BILL                 : Engineer     - RECORDING ENGINEER
WIT .         JIM                  : Witness      - WITNESSED BY
MUD .         GEL                  : Mud_type     - MUD TYPE
MATR.         SANDSTONE            : Logunit      - NEUTRON MATRIX
TMAX.C        28.9                 : BHT          - MAXIMUM RECORDED TEMPERATURE
BHTD.M        442                  : BHTDEP       - MAXIMUM RECORDED TEMPERATURE
MATR.         1                    : LOGUNIT      - NEUTRON MATRIX
RMT .C        23.9                 : MDTP         - TEMPERATURE OF MUD
NEUT.         1                    : NEUTRON      - NEUTRON TYPE
RESI.         0                    : RESIST       - RESISTIVITY TYPE
RMC .OHMM     5.54                 : RMC          - RESISTIVITY OF MUD CAKE
RMF .OHMM     3.27                 : RMF          - RESISTIVITY OF MUD FILTRATE
SUFT.C        -20                  : SUFT         - SURFACE TEMPERATURE
~A  DEPTH     RESD     PHIN     PHID       GR      CAL
# ...
  367.500   13.844    0.422    0.220  107.936  163.323
  367.750   13.594    0.432    0.235  106.869  163.388
  368.000   13.382    0.430    0.246  106.361  163.787
  368.250   13.481    0.425    0.223  108.025  163.375
  368.500   13.504    0.413    0.202  108.973  163.263
  368.750   13.451    0.413    0.202  109.444  163.249
  369.000   13.299    0.424    0.218  109.436  163.134
  369.250   12.982    0.429    0.222  108.609  162.633
  369.500   12.880    0.431    0.206  108.102  162.202
  369.750   12.782    0.432    0.205  111.679  162.187
  370.000   12.614    0.427    0.208  114.899  162.174
  370.250   12.518    0.415    0.216  116.445  162.161
  370.500   12.516    0.404    0.223  116.197  162.148
  370.750   12.514    0.410    0.213  114.782  162.130
  371.000   12.512    0.444    0.203  112.532  162.116
  371.250   12.510    0.447    0.201  111.327  162.499
  371.500   12.439    0.434    0.190  111.736  162.882
  371.750   12.298    0.424    0.182  111.369  164.064
  372.000   12.137    0.422    0.185  109.747  165.744
  372.250   12.025    0.422    0.199  108.302  166.525
  372.500   11.930    0.437    0.208  108.293  166.508
  372.750   11.751    0.450    0.207  109.002  166.495
  373.000   11.641    0.452    0.204  110.248  166.481
  373.250   11.553    0.444    0.201  110.599  167.064
  373.500   11.508    0.435    0.198  109.994  168.245
  373.750   11.610    0.443    0.196  110.192  169.093
  374.000   11.699    0.473    0.199  112.424  167.415
  374.250   11.351    0.464    0.204  116.958  167.402
  374.500   10.766    0.436    0.204  122.210  168.582
  374.750   10.337    0.411    0.206  123.995  170.759
  375.000   10.145    0.414    0.213  121.477  173.136
  375.250   10.099    0.474    0.222  116.565  173.734
  375.500   10.256    0.472    0.227  113.567  170.815
  375.750   10.722    0.439    0.209  114.514  168.410
  376.000   11.148    0.417    0.203  115.641  168.096
  376.250   11.612    0.414    0.205  117.186  169.476
  376.500   12.208    0.425    0.209  119.211  171.952
  376.750   13.370    0.430    0.204  120.148  174.143
  377.000   15.161    0.424    0.196  112.916  171.224
  377.250   16.928    0.427    0.200  104.061  166.425
  377.500   18.022    0.394    0.184   98.253  164.020
  377.750   19.048    0.362    0.167   98.005  163.209
  378.000   20.549    0.363    0.174  101.045  163.192
  378.250   23.568    0.427    0.245   99.570  163.094
  378.500   28.038    0.439    0.231   95.825  162.665
  378.750   32.220    0.412    0.217   91.752  162.647
  379.000   36.693    0.401    0.207   88.037  162.633
  379.250   39.209    0.406    0.221   84.084  162.619
  379.500   38.832    0.419    0.239   79.951  162.605
  379.750   36.871    0.413    0.182   76.602  162.589
  380.000   34.392    0.341    0.095   77.838  162.576
  380.250   29.086    0.234    0.039   83.568  162.563
  380.500   23.311    0.223    0.032   87.864  163.145
  380.750   20.097    0.281    0.118   91.442  164.922
  381.000   18.443    0.361    0.236   95.198  167.099
  381.250   16.622    0.390    0.223  101.106  167.400
  381.500   15.988    0.389    0.223  105.580  166.970
  381.750   15.985    0.402    0.218  104.376  166.158
  382.000   16.342    0.419    0.221  101.917  165.049
  382.250   16.957    0.430    0.233   99.159  163.838
  382.500   17.733    0.434    0.247   97.296  162.925
  382.750   18.689    0.431    0.242   96.918  162.826
  383.000   19.430    0.419    0.221   92.676  162.397
  383.250   19.865    0.399    0.193   90.276  161.584
  383.500   19.529    0.367    0.152   90.207  161.072
  383.750   18.662    0.352    0.136   89.840  160.860
  384.000   17.581    0.359    0.142   89.891  160.946
  384.250   16.592    0.366    0.133   95.221  161.576
  384.500   16.719    0.363    0.179   99.196  162.803
  384.750   17.999    0.381    0.208   97.276  165.182
  385.000   20.014    0.401    0.218   94.458  167.858
  385.250   22.780    0.421    0.213   90.743  167.645
  385.500   25.473    0.431    0.196   85.295  164.343
  385.750   25.538    0.410    0.152   75.441  160.571
  386.000   24.947    0.365    0.101   70.451  159.727
  386.250   22.611    0.246    0.052   79.767  160.111
  386.500   19.200    0.245    0.040   85.139  160.197
  386.750   16.588    0.293    0.078   88.358  160.183
  387.000   15.091    0.342    0.147   90.680  160.368
  387.250   14.691    0.369    0.194   92.473  161.396
  387.500   14.920    0.379    0.216   90.721  162.626
  387.750   16.062    0.395    0.216   88.082  161.816
  388.000   17.112    0.405    0.209   87.775  161.603
  388.250   18.097    0.407    0.205   88.006  161.587
  388.500   18.896    0.400    0.204   87.818  161.573
  388.750   19.208    0.386    0.196   86.990  161.475
  389.000   19.354    0.379    0.187   86.482  161.045
  389.250   19.208    0.355    0.181   89.583  160.632
  389.500   18.529    0.340    0.185   93.939  160.515
  389.750   17.440    0.361    0.195   95.484  160.500
  390.000   16.318    0.400    0.201   94.578  160.487
  390.250   15.456    0.391    0.186   96.450  160.471
  390.500   14.752    0.382    0.190   98.685  160.455
  390.750   14.315    0.388    0.183  102.740  160.441
  391.000   13.970    0.392    0.170  107.334  160.427
  391.250   13.710    0.392    0.167  111.390  160.414
  391.500   13.505    0.389    0.180  113.772  160.398
  391.750   13.282    0.388    0.206  112.437  160.295
  392.000   13.177    0.395    0.211  108.195  159.868
  392.250   13.175    0.425    0.215  107.708  159.855
  392.500   13.173    0.437    0.216  108.476  159.841
  392.750   13.269    0.426    0.214  109.664  159.825
  393.000   13.367    0.403    0.211  109.296  159.809
  393.250   13.020    0.392    0.200  103.467  159.792
  393.500   12.332    0.391    0.168   99.472  159.777
  393.750   11.787    0.394    0.104  107.116  160.163
  394.000   11.527    0.398    0.076  112.966  160.548
  394.250   11.354    0.400    0.100  117.978  161.730
  394.500   11.206    0.400    0.154  121.495  163.309
  394.750   11.155    0.401    0.168  120.996  163.771
  395.000   11.328    0.407    0.146  119.743  164.171
  395.250   11.496    0.406    0.128  119.975  166.947
  395.500   11.473    0.396    0.143  119.308  165.540
  395.750   11.301    0.384    0.172  118.821  163.732
  396.000   11.153    0.375    0.194  118.931  164.015
  396.250   11.439    0.384    0.181  119.997  167.917
  396.500   12.081    0.403    0.180  122.977  169.560
  396.750   13.488    0.389    0.184  121.296  167.554
  397.000   15.712    0.383    0.165  112.620  166.147
  397.250   18.594    0.404    0.144  102.091  164.739
  397.500   21.842    0.430    0.122   95.088  163.129
  397.750   25.531    0.398    0.085   98.724  161.267
  398.000   27.176    0.377    0.060  106.187  160.008
  398.250   28.408    0.354    0.142  107.134  159.198
  398.500   29.053    0.376    0.175  105.391  156.891
  398.750   29.159    0.394    0.191  102.395  155.283
  399.000   28.661    0.391    0.192   99.518  155.568
  399.250   26.923    0.384    0.134   99.267  157.857
  399.500   24.731    0.377    0.073  105.237  157.426
  399.750   22.415    0.387    0.140  108.335  157.810
  400.000   20.447    0.383    0.185  111.076  158.195
  400.250   19.284    0.375    0.207  113.340  158.182
  400.500   18.996    0.370    0.209  115.244  157.870
  400.750   20.034    0.371    0.200  117.047  157.936
  401.000   22.718    0.377    0.189  116.539  158.337
  401.250   28.825    0.371    0.190  111.033  158.721
  401.500   35.843    0.375    0.200   89.923  158.506
  401.750   43.333    0.377    0.217   71.263  157.495
  402.000   50.902    0.371    0.236   61.393  155.688
  402.250   59.760    0.358    0.260   53.681  153.112
  402.500   65.132    0.351    0.283   47.444  152.269
  402.750   60.397    0.342    0.280   45.285  152.652
  403.000   54.730    0.352    0.282   44.020  153.635
  403.250   49.885    0.369    0.286   43.534  154.419
  403.500   46.058    0.380    0.290   44.004  154.403
  403.750   42.291    0.374    0.288   46.453  152.939
