~VERSION INFORMATION
 VERS.                 2.0:   CWLS LOG ASCII STANDARD -VERSION 2.0
 WRAP.                  NO:   ONE LINE PER DEPTH STEP
~WELL INFORMATION BLOCK
#MNEM.UNIT           DATA                    DESCRIPTION OF MNEMONIC
#---------    -------------------            -------------------------------
# Generated from Intellog Unique Number	CC_80_83/WELL/2417
NULL.         -999.25                        : NULL_VALUE
WELL.         ARCO ACI MCMURRAY              : Well_name    - WELL
LOC .         11-29-082-10W4                 : Location     - LOCATION          
UWI .         AA/11-29-082-10W400            : Uwi          - UNIQUE WELL ID    
ENTR.         DW                             : Entered      - ENTERED BY        
SRVC.         DRESSER ATLAS                  : Scn          - SERVICE COMPANY   
DATE.         27 FEB 76                      : Date         - LOG DATE
STRT.M        252.984                        : top_depth    - START DEPTH       
STOP.M        481.591                        : bot_depth    - STOP DEPTH        
STEP.M        0.305                          : increment    - STEP LENGTH       
~CURVE INFORMATION BLOCK
#MNEM UNIT       ERCB CURVE CODE    CURVE DESCRIPTION
#-----------   ------------------   ----------------------------------
DEPT.M        00 001 00 00         : DEPTH        - DEPTH                       
NPHI.V/V      00 330 00 00         : PHIN         - NEUTRON POROSITY (LIMESTONE)
GR  .API      00 310 00 00         : GR           - GAMMA RAY                   
RHOB.KG/M3    00 350 00 00         : DENS         - BULK DENSITY                
ILD .OHMM     00 120 00 00         : RESD         - DEEP RESISTIVITY (DIL)      
~PARAMETER INFORMATION       
#MNEM.UNIT           DATA             DESCRIPTION OF MNEMONIC
#---------         -----------     ------------------------------
GL  .M        710.794              : gl           - GROUND LEVEL ELEVATION      
EREF.M        713.842              : kb           - ELEVATION OF DEPTH REFERENCE
DATM.M        713.842              : datum        - DATUM ELEVATION             
TDD .M        484.022              : tdd          - TOTAL DEPTH DRILLER         
RUN .         ONE                  : Run          - RUN NUMBER                  
ENG .         BILL                 : Engineer     - RECORDING ENGINEER          
WIT .         JIM                  : Witness      - WITNESSED BY                
MUD .         GEL                  : Mud_type     - MUD TYPE                    
MATR.         LIMESTONE            : Logunit      - NEUTRON MATRIX              
TMAX.C        23.3333              : BHT          - MAXIMUM RECORDED TEMPERATURE
BHTD.M        484.022              : BHTDEP       - MAXIMUM RECORDED TEMPERATURE
MATR.         1                    : LOGUNIT      - NEUTRON MATRIX              
RMT .C        25                   : MDTP         - TEMPERATURE OF MUD          
NEUT.         0                    : NEUTRON      - NEUTRON TYPE                
RESI.         0                    : RESIST       - RESISTIVITY TYPE            
RMC .OHMM     0.25                 : RMC          - RESISTIVITY OF MUD CAKE     
RMF .OHMM     0.25                 : RMF          - RESISTIVITY OF MUD FILTRATE 
SUFT.C        15                   : SUFT         - SURFACE TEMPERATURE         
~A  DEPTH     PHIN       GR     DENS     RESD
# ...
  412.094    0.354  129.771 2258.480    4.849
  412.399    0.344  127.345 2250.360    6.537
  412.704    0.332  124.317 2236.160    7.879
  413.009    0.320  120.684 2215.890    9.858
  413.314    0.309  115.841 2201.690   12.106
  413.618    0.298  112.207 2396.060   13.046
  413.923    0.287  107.362 2620.810   13.046
  414.228    0.268  104.939 2618.750   12.806
  414.533    0.113  103.118 2604.550   10.236
  414.838    0.106  106.136 2553.910    8.653
  415.143    0.146  112.780 2515.410    6.917
  415.447    0.210  118.819 2499.190    6.301
  415.752    0.269  122.440 2284.520    5.634
  416.057    0.334  125.456 2274.350    5.634
  416.362    0.348  127.266 2274.340    5.634
  416.667    0.353  126.655 2274.310    5.740
  416.971    0.355  126.649 2276.310    6.072
  417.276    0.351  126.642 2290.460    6.186
  417.581    0.341  127.844 2300.570    6.187
  417.886    0.337  129.651 2310.670    5.960
  418.191    0.334  131.461 2332.920    5.850
  418.495    0.335  132.058 2351.110    5.430
  418.800    0.339  132.053 2357.160    4.855
  419.105    0.341  132.043 2359.170    4.340
  419.410    0.342  131.435 2324.720    2.344
  419.715    0.354  130.219 2296.340    2.217
  420.020    0.368  121.144 2284.170    2.434
  420.324    0.375  115.091 2332.740    3.045
  420.629    0.371  113.873 2348.920    4.182
  420.934    0.343  115.078 2359.020    5.136
  421.239    0.323  118.699 2371.140    5.432
  421.544    0.310  119.904 2354.920    5.433
  421.848    0.311  121.107 2318.450    5.332
  422.153    0.316  122.914 2304.250    4.680
  422.458    0.322  121.698 2300.170    3.811
  422.763    0.328  122.295 2283.940    3.344
  423.068    0.341  124.103 2267.720    3.283
  423.372    0.357  125.910 2267.700    3.672
  423.677    0.348  126.511 2285.900    4.859
  423.982    0.338  124.691 2245.370    5.236
  424.287    0.338  118.639 2210.930    5.335
  424.592    0.341  118.633 2162.300    4.770
  424.896    0.347  124.672 2186.580    3.742
  425.201    0.351  129.501 2295.900    3.284
  425.506    0.351  130.098 2289.790    2.882
  425.811    0.361  129.490 2277.620    2.829
  426.116    0.356  128.879 2267.470    2.829
  426.421    0.350  129.475 2265.430    2.992
  426.725    0.345  128.866 2291.720    3.347
  427.030    0.340  129.463 2299.800    3.410
  427.335    0.339  130.668 2291.670    3.607
  427.640    0.339  130.661 2295.710    3.744
  427.945    0.339  131.260 2311.880    3.815
  428.249    0.337  130.649 2332.110    3.815
  428.554    0.334  131.851 2360.420    3.745
  428.859    0.333  133.657 2348.250    3.676
  429.164    0.333  134.862 2311.780    3.745
  429.469    0.335  136.064 2299.600    3.816
  429.773    0.337  135.453 2291.480    4.036
  430.078    0.337  134.842 2295.510    4.600
  430.383    0.334  133.022 2297.510    5.242
  430.688    0.328  130.597 2277.230    7.615
  430.993    0.304  128.175 2240.760    9.891
  431.297    0.288  122.727 2236.670   10.658
  431.602    0.282  111.838 2230.580   12.375
  431.907    0.276  105.786 2228.530   14.641
  432.212    0.269   99.128 2295.340   15.198
  432.517    0.256   99.725 2382.380   15.486
  432.822    0.246  100.325 2311.490   13.845
  433.126    0.257  102.131 2289.180   11.276
  433.431    0.262  104.545 2303.340   10.271
  433.736    0.261  109.980 2287.110    9.014
  434.041    0.259  121.461 2293.160    7.910
  434.346    0.263  127.500 2313.390    7.620
  434.650    0.274  132.329 2270.840    7.206
  434.955    0.285  134.741 2270.810    7.206
  435.260    0.282  134.736 2341.660    7.343
  435.565    0.258  135.334 2367.960    7.343
  435.870    0.278  137.744 2361.850    7.074
  436.174    0.297  139.553 2359.810    7.343
  436.479    0.293  140.757 2369.910    7.913
  436.784    0.285  141.354 2369.890    9.019
  437.089    0.275  141.349 2351.640   10.088
  437.394    0.273  138.924 2365.790   11.076
  437.698    0.293  136.501 2347.540   13.103
  438.003    0.302  128.030 2302.970   13.602
  438.308    0.286  111.096 2244.220   13.603
  438.613    0.264  107.462 2219.890   12.625
  438.918    0.263  109.874 2223.920   10.476
  439.223    0.262  113.495 2302.870    9.023
  439.527    0.263  120.139 2355.490    7.918
  439.832    0.267  124.365 2387.860    7.487
  440.137    0.267  126.777 2397.970    7.487
  440.442    0.263  128.584 2387.820    7.629
  440.747    0.262  127.973 2375.640    7.920
  441.051    0.262  124.945 2369.540    8.221
  441.356    0.262  115.869 2353.320    8.859
  441.661    0.263  117.070 2335.070    9.370
  441.966    0.263  118.878 2369.470    9.727
  442.271    0.263  119.478 2430.190    9.548
  442.575    0.263  118.866 2383.600    9.372
  442.880    0.260  116.442 2332.950    9.729
  443.185    0.254  114.621 2318.750   10.290
  443.490    0.251  114.615 2341.000   10.290
  443.795    0.250  114.611 2357.170   10.291
  444.099    0.251  119.441 2391.570    9.914
  444.404    0.257  124.268 2389.520    9.201
  444.709    0.265  124.868 2377.350    8.701
  445.014    0.270  125.467 2381.370    8.540
  445.319    0.274  126.668 2419.820    8.702
  445.624    0.276  124.245 2458.270    9.734
  445.928    0.271  120.613 2423.820   11.093
  446.233    0.267  115.768 2322.550   11.303
  446.538    0.267  112.740 2298.220   11.304
  446.843    0.267  110.316 2284.020   10.890
  447.148    0.270  109.099 2273.880   10.107
  447.452    0.271  107.884 2241.450    9.557
  447.757    0.272  107.878 2231.310    9.381
  448.062    0.271  112.102 2221.160    9.381
  448.367    0.269  116.932 2265.680   10.299
  448.672    0.266  119.950 2271.730   11.099
  448.976    0.265  122.362 2287.900   11.739
  449.281    0.264  123.567 2310.150   11.522
  449.586    0.264  124.164 2318.230   12.416
  449.891    0.266  123.553 2324.270   14.966
  450.196    0.274  121.734 2318.180   16.431
  450.500    0.275  112.659 2255.380   17.057
  450.805    0.272  103.584 2243.200   16.433
  451.110    0.270  104.182 2237.110   16.130
  451.415    0.261  109.615 2263.400   15.540
  451.720    0.259  110.820 2281.610   15.540
  452.025    0.260  111.416 2261.340   17.062
  452.329    0.265  110.808 2228.910   18.732
  452.634    0.270  107.172 2230.910   19.812
  452.939    0.274  105.958 2241.010   20.567
  453.244    0.275  106.555 2216.680   20.568
  453.549    0.275  107.156 2200.460   18.736
  453.853    0.275  110.172 2206.520   16.442
  454.158    0.276  116.212 2279.390   15.260
  454.463    0.277  119.832 2297.590   15.548
  454.768    0.279  118.617 2279.340   15.842
  455.073    0.276  109.542 2246.920   15.262
  455.377    0.270  112.558 2232.720   14.432
  455.682    0.259  121.017 2297.490   13.394
  455.987    0.259  124.034 2335.940   12.431
  456.292    0.263  121.607 2305.540   12.431
  456.597    0.273  118.578 2295.390   13.148
  456.901    0.279  113.736 2311.570   15.267
  457.206    0.299  104.032 2425.300   18.898
  457.511    0.302   99.194 2227.730   18.898
  457.816    0.305   98.589 2205.500   17.866
  458.121    0.304  103.427 2233.680   14.007
  458.426    0.300  114.315 2288.050   11.400
  458.730    0.289  117.944 2294.050   10.981
  459.035    0.285  117.944 2283.930   12.059
  459.340    0.281  115.524 2227.440   14.541
  459.645    0.273  108.266 2199.170   17.866
  459.950    0.272   85.282 2195.090   22.366
  460.254    0.272   88.911 2221.250   25.025
  460.559    0.274   94.960 2239.340   23.220
  460.864    0.278   99.194 2253.410   18.204
  461.169    0.282  104.032 2309.800   13.747
  461.474    0.285  109.476 2410.540   10.778
  461.778    0.283  116.129 2430.650   10.000
  462.083    0.280  122.177 2343.930   10.189
  462.388    0.284  120.363 2277.360   11.400
  462.693    0.290  112.500 2289.410   12.519
  462.998    0.290  107.661 2303.470   14.007
  463.302    0.286  107.056 2299.390   14.007
  463.607    0.278   93.750 2232.830   14.007
  463.912    0.274   90.121 2301.320   17.210
  464.217    0.269  104.637 2327.470   18.548
  464.522    0.272   96.169 2228.650   19.619
  464.827    0.284   84.073 2210.460   25.025
