~VERSION INFORMATION
 VERS.                 2.0:   CWLS LOG ASCII STANDARD -VERSION 2.0
 WRAP.                  NO:   ONE LINE PER DEPTH STEP
~WELL INFORMATION BLOCK
#MNEM.UNIT           DATA                    DESCRIPTION OF MNEMONIC
#---------    -------------------            -------------------------------
# Generated from Intellog Unique Number	CX_WELLS/WELL/3217
WELL.         ATLANTIC RICHFIELD             : Well_name    - WELL
LOC .         AA/10-11-083-11W4/0            : Location     - LOCATION
UWI .         AA/10-11-083-11W4/0            : Uwi          - UNIQUE WELL ID
ENTR.         T                              : Entered      - ENTERED BY
SRVC.         SCHLUMBERGER                   : Scn          - SERVICE COMPANY
STRT.F        900                            : top_depth    - START DEPTH
STOP.F        1639.83                        : bot_depth    - STOP DEPTH
STEP.F        0.82                           : increment    - STEP LENGTH
 NULL. -999.2500:NULL Value
~CURVE INFORMATION BLOCK
#MNEM UNIT       ERCB CURVE CODE    CURVE DESCRIPTION
#-----------   ------------------   ----------------------------------
DEPT.F        00 001 00 00         : DEPTH        - DEPTH
GR  .API      00 310 00 00         : GR           - GAMMA RAY
NPHI.V/V      00 330 00 00         : PHIN         - NEUTRON POROSITY (SANDSTONE)
ILD .OHMM     00 120 00 00         : RESD         - DEEP RESISTIVITY (DIL)
~PARAMETER INFORMATION
#MNEM.UNIT           DATA             DESCRIPTION OF MNEMONIC
#---------         -----------     ------------------------------
GL  .F        2392                 : gl           - GROUND LEVEL ELEVATION
EREF.F        2402                 : kb           - ELEVATION OF DEPTH REFERENCE
DATM.F        2402                 : datum        - DATUM ELEVATION
TDD .F        1635                 : tdd          - TOTAL DEPTH DRILLER
RUN .         ONE                  : Run          - RUN NUMBER
ENG .         BILL                 : Engineer     - RECORDING ENGINEER
WIT .         JIM                  : Witness      - WITNESSED BY
MUD .         GEL                  : Mud_type     - MUD TYPE
MATR.         SANDSTONE            : Logunit      - NEUTRON MATRIX
TMAX.F        70                   : BHT          - MAXIMUM RECORDED TEMPERATURE
BHTD.F        1632                 : BHTDEP       - MAXIMUM RECORDED TEMPERATURE
MATR.         1                    : LOGUNIT      - NEUTRON MATRIX
RMT .F        43                   : MDTP         - TEMPERATURE OF MUD
NEUT.         1                    : NEUTRON      - NEUTRON TYPE
RESI.         4.68                 : RESIST       - RESISTIVITY TYPE
RMC .OHMM     4.68                 : RMC          - RESISTIVITY OF MUD CAKE
RMF .OHMM     4.68                 : RMF          - RESISTIVITY OF MUD FILTRATE
SUFT.F        32                   : SUFT         - SURFACE TEMPERATURE
~A  DEPTH       GR     PHIN     RESD
# ...
 1433.960   75.797    0.331    3.284
 1434.780   76.308    0.329    3.306
 1435.600   76.865    0.326    3.570
 1436.420   75.964    0.322    4.541
 1437.240   75.575    0.321    5.174
 1438.060   76.086    0.326    5.704
 1438.880   77.603    0.353    5.838
 1439.700   79.121    0.356    5.764
 1440.520   80.127    0.366    5.584
 1441.340   81.644    0.381    5.140
 1442.160   82.666    0.385    4.797
 1442.980   82.727    0.371    4.266
 1443.800   83.283    0.372    4.132
 1444.620   83.824    0.382    3.937
 1445.440   83.885    0.403    3.963
 1446.260   83.946    0.408    3.979
 1447.080   84.487    0.383    4.145
 1447.900   86.500    0.369    4.319
 1448.720   87.491    0.363    4.664
 1449.540   89.955    0.361    4.954
 1450.360   93.409    0.356    5.071
 1451.180   93.966    0.353    4.751
 1452.000   94.011    0.359    4.368
 1452.820   94.537    0.362    4.082
 1453.640   95.078    0.366    3.889
 1454.460   96.115    0.366    3.772
 1455.280   97.137    0.373    3.725
 1456.100   97.213    0.358    3.817
 1456.920   96.793    0.333    3.902
 1457.740   95.877    0.308    4.076
 1458.560   94.512    0.266    4.092
 1459.380   93.611    0.317    4.125
 1460.200   97.036    0.365    4.136
 1461.020  101.421    0.373    4.163
 1461.840  101.497    0.373    4.180
 1462.660  101.077    0.380    4.213
 1463.480   99.216    0.409    4.229
 1464.300   94.952    0.434    4.334
 1465.120   83.960    0.448    4.430
 1465.940   81.123    0.458    4.616
 1466.770   78.796    0.412    5.180
 1467.590   81.740    0.426    5.695
 1468.410   84.203    0.414    6.375
 1469.230   85.225    0.390    7.144
 1470.050   84.805    0.383    7.865
 1470.870   84.881    0.376    8.060
 1471.690   84.926    0.367    8.092
 1472.510   84.522    0.359    8.012
 1473.330   84.582    0.352    8.033
 1474.150   85.124    0.355    8.075
 1474.970   85.695    0.378    8.287
 1475.790   86.221    0.384    8.331
 1476.610   88.204    0.397    8.848
 1477.430   91.628    0.371    9.032
 1478.250   94.107    0.346    9.606
 1479.070   94.633    0.338    9.644
 1479.890   96.180    0.337    9.695
 1480.710   97.172    0.346    9.586
 1481.530  100.115    0.343    9.466
 1482.350  100.191    0.332    9.516
 1483.170  100.237    0.315    9.384
 1483.990  108.001    0.309    9.630
 1484.810  108.062    0.337   10.047
 1485.630   86.484    0.348   10.455
 1486.450   75.973    0.361   11.090
 1487.270   69.292    0.359   11.555
 1488.090   60.223    0.352   12.495
 1488.910   60.779    0.326   13.737
 1489.730   62.266    0.320   17.451
 1490.550   66.667    0.305   20.637
 1491.370   70.091    0.312   23.130
 1492.190   75.452    0.342   22.434
 1493.010   78.396    0.346   21.023
 1493.830   76.550    0.346   20.786
 1494.650   75.169    0.332   21.246
 1495.470   76.686    0.326   21.358
 1496.290   80.576    0.306   21.471
 1497.110   84.481    0.287   19.763
 1497.930   89.842    0.279   18.143
 1498.750   95.669    0.305   16.655
 1499.570  101.031    0.308   15.587
 1500.390  103.974    0.314   13.824
 1501.210  101.152    0.317   12.920
 1502.030   90.672    0.326   12.531
 1502.850   86.858    0.333   13.091
 1503.670   81.618    0.317   13.887
 1504.490   78.811    0.300   15.287
 1505.310   79.832    0.302   15.908
 1506.140   85.179    0.316   16.619
 1506.960   93.904    0.317   16.076
 1507.780   99.730    0.311   14.778
 1508.600  105.092    0.306   12.874
 1509.420  103.711    0.302   11.819
 1510.240  100.904    0.301   10.482
 1511.060   98.547    0.304    9.822
 1511.880   96.685    0.303    9.527
 1512.700   95.800    0.303    9.241
 1513.520   94.900    0.306    9.277
 1514.340   94.945    0.313    9.679
 1515.160   95.006    0.340    9.893
 1515.980   95.097    0.349   10.920
 1516.800   94.197    0.357   11.989
 1517.620   83.671    0.364   13.420
 1518.440   78.431    0.357   15.040
 1519.260   73.686    0.344   15.120
 1520.080   78.072    0.323   15.240
 1520.900   89.199    0.297   15.556
 1521.720   95.522    0.290   15.361
 1522.540   99.442    0.295   14.919
 1523.360   99.037    0.306   14.214
 1524.180   98.587    0.308   13.066
 1525.000   98.678    0.301   12.448
 1525.820  102.102    0.308   11.634
 1526.640  105.511    0.319   11.084
 1527.460  105.122    0.311   10.779
 1528.280  105.183    0.302   10.808
 1529.100  105.228    0.288   10.894
 1529.920  103.847    0.252   10.923
 1530.740  101.025    0.204   11.411
 1531.560   90.499    0.246   11.874
 1532.380   87.211    0.289   13.566
 1533.200   94.960    0.302   15.164
 1534.020  102.739    0.305   17.302
 1534.840  105.203    0.306   16.804
 1535.660  106.705    0.313   16.031
 1536.480  109.168    0.335   16.095
 1537.300   99.138    0.340   15.914
 1538.120   90.534    0.367   16.244
 1538.940   81.465    0.378   16.948
 1539.760   78.643    0.397   18.633
 1540.580   69.078    0.390   23.670
 1541.400   62.892    0.378   26.092
 1542.220   60.055    0.363   25.731
 1543.040   64.455    0.339   24.515
 1543.860   70.762    0.346   23.002
 1544.690   71.799    0.357   22.252
 1545.510   64.652    0.369   21.583
 1546.330   60.854    0.366   24.189
 1547.150   57.070    0.354   26.595
 1547.970   60.029    0.342   27.254
 1548.790   66.817    0.338   25.932
 1549.610   80.347    0.329   23.445
 1550.430   78.020    0.313   21.941
 1551.250   76.624    0.313   20.876
 1552.070   77.181    0.335   20.248
 1552.890   76.761    0.346   20.356
 1553.710   67.196    0.359   21.237
 1554.530   63.413    0.371   22.965
 1555.350   63.489    0.367   24.328
 1556.170   66.928    0.363   27.266
 1556.990   69.872    0.363   30.518
 1557.810   71.389    0.390   34.821
 1558.630   71.420    0.398   39.026
 1559.450   70.550    0.405   44.470
 1560.270   69.634    0.402   49.840
 1561.090   68.268    0.399   51.009
 1561.910   66.888    0.389   48.662
 1562.730   66.948    0.377   47.199
 1563.550   67.489    0.363   44.287
 1564.370   69.007    0.354   41.281
 1565.190   71.470    0.340   37.274
 1566.010   73.438    0.330   33.611
 1566.830   76.381    0.323   29.280
 1567.650   79.821    0.313   26.438
 1568.470   82.780    0.306   24.302
 1569.290   85.228    0.302   23.123
 1570.110   89.163    0.298   21.284
 1570.930   90.665    0.295   20.251
 1571.750   91.206    0.296   19.001
 1572.570   91.747    0.318   18.406
 1573.390   73.038    0.322   17.853
 1574.210   67.347    0.333   17.605
 1575.030   66.928    0.345   17.769
 1575.850   68.430    0.346   17.839
 1576.670   70.893    0.350   18.258
 1577.490   73.837    0.359   18.661
 1578.310   71.975    0.371   19.444
 1579.130   64.348    0.379   21.405
 1579.950   62.502    0.355   26.746
 1580.770   64.950    0.339   28.883
 1581.590   65.521    0.343   29.036
 1582.410   64.621    0.344   28.710
 1583.230   65.643    0.341   28.312
 1584.060   68.091    0.335   26.974
 1584.880   71.530    0.331   25.699
 1585.700   76.877    0.326   24.082
 1586.520   79.340    0.334   22.913
 1587.340   77.959    0.338   21.443
 1588.160   76.608    0.325   20.067
 1588.980   79.537    0.313   19.093
 1589.800   85.844    0.301   17.868
 1590.620   97.933    0.299   17.046
 1591.440   99.466    0.327   16.555
 1592.260   97.109    0.335   16.643
 1593.080   87.559    0.354   16.988
 1593.900   85.232    0.361   18.044
 1594.720   84.302    0.368   19.140
 1595.540   82.936    0.366   20.330
 1596.360   84.453    0.360   21.955
 1597.180   86.436    0.352   22.906
 1598.000   89.365    0.347   22.217
 1598.820   94.726    0.342   21.167
 1599.640   96.709    0.333   21.279
 1600.460   82.819    0.358   22.980
 1601.280   76.153    0.384   24.849
 1602.100   71.409    0.396   27.392
 1602.920   67.144    0.389   28.503
 1603.740   64.322    0.379   29.698
 1604.560   64.383    0.361   30.985
 1605.380   66.366    0.335   30.053
 1606.200   72.207    0.320   28.088
 1607.020   83.816    0.293   24.469
 1607.840   94.013    0.294   22.869
 1608.660   87.301    0.304   20.282
 1609.480   83.052    0.314   17.356
 1610.300   78.773    0.299   16.221
 1611.120   72.106    0.301   15.733
