~VERSION INFORMATION
 VERS.                 2.0:   CWLS LOG ASCII STANDARD -VERSION 2.0
 WRAP.                  NO:   ONE LINE PER DEPTH STEP
~WELL INFORMATION BLOCK
#MNEM.UNIT           DATA                    DESCRIPTION OF MNEMONIC
#---------    -------------------            -------------------------------
# Generated from Intellog Unique Number	CS_77_79/WELL/943
WELL.         PEX PCEJ THORNBURY OV          : Well_name    - WELL
LOC .         AA/10-10-079-14W4/0            : Location     - LOCATION
UWI .         AA/10-10-079-14W4/0            : Uwi          - UNIQUE WELL ID
ENTR.         JHS                            : Entered      - ENTERED BY
SRVC.         SCHLUMBERGER                   : Scn          - SERVICE COMPANY
STRT.M        265                            : top_depth    - START DEPTH
STOP.M        505                            : bot_depth    - STOP DEPTH
STEP.M        0.25                           : increment    - STEP LENGTH
 NULL. -999.2500:NULL Value
~CURVE INFORMATION BLOCK
#MNEM UNIT       ERCB CURVE CODE    CURVE DESCRIPTION
#-----------   ------------------   ----------------------------------
DEPT.M        00 001 00 00         : DEPTH        - DEPTH
DPHI.V/V      00 890 00 00         : PHID         - DENSITY POROSITY (LIMESTONE)
NPHI.V/V      00 330 00 00         : PHIN         - NEUTRON POROSITY (LIMESTONE)
GR  .API      00 310 00 00         : GR           - GAMMA RAY
ILD .OHMM     00 120 00 00         : RESD         - DEEP RESISTIVITY (DIL)
~PARAMETER INFORMATION
#MNEM.UNIT           DATA             DESCRIPTION OF MNEMONIC
#---------         -----------     ------------------------------
GL  .M        690.52               : gl           - GROUND LEVEL ELEVATION
EREF.M        693.42               : kb           - ELEVATION OF DEPTH REFERENCE
DATM.M        693.42               : datum        - DATUM ELEVATION
TDD .M        504.5                : tdd          - TOTAL DEPTH DRILLER
RUN .         ONE                  : Run          - RUN NUMBER
ENG .         BILL                 : Engineer     - RECORDING ENGINEER
WIT .         JIM                  : Witness      - WITNESSED BY
MUD .         GEL                  : Mud_type     - MUD TYPE
MATR.         LIMESTONE            : Logunit      - NEUTRON MATRIX
TMAX.C        19                   : BHT          - MAXIMUM RECORDED TEMPERATURE
BHTD.M        504.5                : BHTDEP       - MAXIMUM RECORDED TEMPERATURE
MATR.         1                    : LOGUNIT      - NEUTRON MATRIX
RMT .C        25                   : MDTP         - TEMPERATURE OF MUD
NEUT.         1                    : NEUTRON      - NEUTRON TYPE
RESI.         0                    : RESIST       - RESISTIVITY TYPE
RMC .OHMM     0.25                 : RMC          - RESISTIVITY OF MUD CAKE
RMF .OHMM     0.25                 : RMF          - RESISTIVITY OF MUD FILTRATE
SUFT.C        15                   : SUFT         - SURFACE TEMPERATURE
~A  DEPTH     PHID     PHIN       GR     RESD
# ...
  395.500    0.271    0.457   93.296    5.978
  395.750    0.270    0.459   97.703    5.987
  396.000    0.288    0.446  100.853    6.107
  396.250    0.271    0.421  100.235    6.473
  396.500    0.250    0.437   87.065    7.124
  396.750    0.250    0.430   92.101    7.691
  397.000    0.278    0.419   86.464    8.304
  397.250    0.295    0.395   78.941    8.798
  397.500    0.276    0.368   63.264    9.149
  397.750    0.218    0.371   62.650    9.336
  398.000    0.078    0.364   70.189    9.356
  398.250    0.041    0.305   62.670    9.018
  398.500    0.114    0.334   67.702    8.693
  398.750    0.214    0.432   74.618    8.388
  399.000    0.217    0.441   81.534    8.394
  399.250    0.237    0.431   91.587    8.897
  399.500    0.230    0.432   92.856    9.430
  399.750    0.210    0.447   85.334   10.184
  400.000    0.170    0.411   74.067   10.252
  400.250    0.240    0.400   76.566   10.246
  400.500    0.232    0.398   80.309    9.858
  400.750    0.244    0.409   79.073    9.484
  401.000    0.257    0.415   82.817    9.127
  401.250    0.255    0.414   81.580    8.617
  401.500    0.246    0.406   76.611    8.292
  401.750    0.248    0.419   88.444    8.131
  402.000    0.251    0.426   92.189    7.973
  402.250    0.235    0.440   84.729    7.968
  402.500    0.219    0.418   79.137    8.115
  402.750    0.211    0.429   80.389    8.109
  403.000    0.223    0.431   87.244    8.257
  403.250    0.238    0.438   84.143    8.252
  403.500    0.246    0.441   89.130    8.246
  403.750    0.247    0.430   83.538    8.239
  404.000    0.244    0.424   76.700    8.235
  404.250    0.244    0.419   68.617    8.074
  404.500    0.250    0.425   72.982    8.071
  404.750    0.250    0.422   72.993    7.767
  405.000    0.242    0.426   71.132    7.616
  405.250    0.231    0.425   75.498    7.191
  405.500    0.221    0.433   74.886    6.661
  405.750    0.256    0.436   78.629    6.290
  406.000    0.315    0.459   78.637    5.828
  406.250    0.289    0.475   77.402    5.502
  406.500    0.274    0.458   83.012    5.294
  406.750    0.287    0.460   89.246    5.191
  407.000    0.300    0.474   94.232    5.287
  407.250    0.306    0.467   96.732    5.807
  407.500    0.301    0.442   90.516    6.142
  407.750    0.299    0.437   80.567    6.875
  408.000    0.280    0.436   87.422    7.137
  408.250    0.288    0.433   84.318    7.548
  408.500    0.279    0.418   74.368    7.834
  408.750    0.269    0.409   72.511    8.130
  409.000    0.266    0.395   66.919    8.281
  409.250    0.252    0.389   74.396    8.276
  409.500    0.245    0.397   76.895    8.116
  409.750    0.250    0.406   82.505    7.809
  410.000    0.257    0.432   88.115    7.514
  410.250    0.250    0.450   93.104    7.230
  410.500    0.246    0.445   88.756    6.825
  410.750    0.263    0.445   92.499    6.567
  411.000    0.270    0.437   88.150    6.441
  411.250    0.257    0.434   83.802    6.198
  411.500    0.243    0.449   93.771    6.077
  411.750    0.238    0.470   89.423    6.072
  412.000    0.242    0.481   82.584    6.067
  412.250    0.270    0.475   89.440    6.181
  412.500    0.300    0.477   91.316    6.414
  412.750    0.286    0.461   91.948    6.533
  413.000    0.251    0.440   84.488    6.910
  413.250    0.243    0.450   89.477    7.447
  413.500    0.238    0.449   90.729    7.877
  413.750    0.223    0.428   87.626    8.024
  414.000    0.218    0.427   94.481    8.647
  414.250    0.232    0.404   87.021    8.975
  414.500    0.232    0.401   90.143    9.140
  414.750    0.217    0.397   90.151    9.134
  415.000    0.210    0.393   87.047    9.129
  415.250    0.220    0.386   93.281    8.784
  415.500    0.234    0.393   88.933    8.292
  415.750    0.243    0.417   84.585    7.980
  416.000    0.237    0.413   76.502    7.534
  416.250    0.237    0.402   82.735    7.250
  416.500    0.239    0.390   92.080    7.244
  416.750    0.250    0.388   87.109    7.240
  417.000    0.239    0.375   78.404    7.515
  417.250    0.217    0.366   85.884    7.799
  417.500    0.233    0.361   83.403    8.094
  417.750    0.236    0.365   87.769    8.560
  418.000    0.265    0.351   94.001    8.886
  418.250    0.272    0.328   72.847    9.761
  418.500    0.144    0.300   49.827   10.928
  418.750    0.051    0.250   33.653   11.779
  419.000    0.074    0.309   48.600   11.771
  419.250    0.271    0.407   58.568   10.498
  419.500    0.322    0.415   55.465    9.912
  419.750    0.307    0.416   62.319    9.185
  420.000    0.295    0.410   66.685    7.742
  420.250    0.291    0.414   70.429    7.309
  420.500    0.315    0.418   65.458    7.303
  420.750    0.314    0.414   64.845    7.725
  421.000    0.307    0.426   65.477    7.868
  421.250    0.323    0.424   58.638    8.013
  421.500    0.314    0.411   71.096    8.006
  421.750    0.238    0.427   75.461    7.851
  422.000    0.182    0.413   66.135    7.700
  422.250    0.212    0.413   72.367    7.551
  422.500    0.287    0.414   69.886    7.544
  422.750    0.320    0.420   72.384    7.399
  423.000    0.308    0.429   68.661    6.986
  423.250    0.303    0.397   61.199    6.722
  423.500    0.312    0.378   65.565    6.716
  423.750    0.314    0.358   72.422    6.842
  424.000    0.310    0.342   78.653    6.967
  424.250    0.289    0.323   72.438    7.231
  424.500    0.270    0.304   68.093    7.943
  424.750    0.277    0.283   65.609    9.236
  425.000    0.244    0.244   57.527   12.260
  425.250    0.187    0.196   45.088   20.420
  425.500    0.034    0.167   44.474   26.595
  425.750    0.022    0.169   47.595   31.515
  426.000    0.023    0.191   51.960   34.617
  426.250    0.061    0.210   52.592   30.880
  426.500    0.101    0.225   49.488   24.590
  426.750    0.090    0.237   60.703   17.814
  427.000    0.085    0.247   63.199   13.152
  427.250    0.146    0.343   64.454   10.472
  427.500    0.199    0.405   68.196    9.168
  427.750    0.305    0.422   70.073    8.179
  428.000    0.317    0.411   78.796    7.296
  428.250    0.306    0.432   72.580    6.887
  428.500    0.300    0.426   66.989    6.882
  428.750    0.306    0.417   70.110    6.877
  429.000    0.312    0.410   70.117    7.005
  429.250    0.300    0.415   68.881    6.998
  429.500    0.287    0.409   70.759    7.129
  429.750    0.273    0.426   66.409    7.126
  430.000    0.294    0.427   58.327    7.118
  430.250    0.315    0.444   62.071    7.115
  430.500    0.305    0.432   61.457    7.109
  430.750    0.289    0.445   61.465    7.106
  431.000    0.282    0.434   70.810    7.099
  431.250    0.295    0.427   75.799    7.095
  431.500    0.275    0.422   70.206    7.092
  431.750    0.262    0.422   60.257    6.952
  432.000    0.280    0.450   63.999    6.949
  432.250    0.288    0.429   68.365    6.812
  432.500    0.288    0.424   68.375    6.809
  432.750    0.309    0.443   72.739    6.803
  433.000    0.312    0.431   67.146    6.800
  433.250    0.317    0.423   69.024    6.794
  433.500    0.320    0.442   72.766    6.791
  433.750    0.315    0.439   64.063    6.784
  434.000    0.317    0.440   60.958    6.781
  434.250    0.297    0.451   68.439    6.776
  434.500    0.273    0.444   69.069    6.774
  434.750    0.260    0.435   67.831    6.898
  435.000    0.271    0.456   70.329    6.892
  435.250    0.308    0.437   77.186    6.888
  435.500    0.305    0.434   82.795    6.883
  435.750    0.289    0.429   70.356    6.880
  436.000    0.278    0.424   76.589    6.873
  436.250    0.268    0.434   76.598    6.870
  436.500    0.265    0.425   74.117    6.865
  436.750    0.260    0.408   77.241    6.605
  437.000    0.250    0.438   82.227    6.357
  437.250    0.259    0.446   86.592    6.002
  437.500    0.286    0.439   82.245    5.666
  437.750    0.292    0.452   86.612    5.556
  438.000    0.293    0.450   91.598    5.552
  438.250    0.280    0.434   90.362    5.762
  438.500    0.265    0.420   95.976    5.982
  438.750    0.242    0.407   91.625    6.569
