~VERSION INFORMATION
 VERS.                 2.0:   CWLS LOG ASCII STANDARD -VERSION 2.0
 WRAP.                  NO:   ONE LINE PER DEPTH STEP
~WELL INFORMATION BLOCK
#MNEM.UNIT           DATA                    DESCRIPTION OF MNEMONIC
#---------    -------------------            -------------------------------
# Generated from Intellog Unique Number	CN_94_101/WELL/2668
WELL.         10-08-094-14W4                 : Well_name    - WELL
LOC .         AA/10-08-094-14W4/0            : Location     - LOCATION
UWI .         AA/10-08-094-14W400            : Uwi          - UNIQUE WELL ID
ENTR.         JOETTE                         : Entered      - ENTERED BY
SRVC.         SCHLUMBERGER                   : Scn          - SERVICE COMPANY
DATE.         06/18/92                       : Date         - LOG DATE
STRT.M        50                             : top_depth    - START DEPTH
STOP.M        160                            : bot_depth    - STOP DEPTH
STEP.M        0.25                           : increment    - STEP LENGTH
 NULL. -999.2500:NULL Value
~CURVE INFORMATION BLOCK
#MNEM UNIT       ERCB CURVE CODE    CURVE DESCRIPTION
#-----------   ------------------   ----------------------------------
DEPT.M        00 001 00 00         : DEPTH        - DEPTH
CALI.MM       00 280 01 00         : CAL          - CALIPER
GR  .API      00 310 00 00         : GR           - GAMMA RAY
NPHI.V/V      00 330 00 00         : PHIN         - NEUTRON POROSITY (SANDSTONE)
DPHI.V/V      00 890 00 00         : PHID         - DENSITY POROSITY (SANDSTONE)
ILD .OHMM     00 120 00 00         : RESD         - DEEP RESISTIVITY (DIL)
~PARAMETER INFORMATION
#MNEM.UNIT           DATA             DESCRIPTION OF MNEMONIC
#---------         -----------     ------------------------------
GL  .M        428.8                : gl           - GROUND LEVEL ELEVATION
EREF.M        434.05               : kb           - ELEVATION OF DEPTH REFERENCE
DATM.M        434.05               : datum        - DATUM ELEVATION
TDD .M        201.5                : tdd          - TOTAL DEPTH DRILLER
RUN .         ONE                  : Run          - RUN NUMBER
ENG .         BILL                 : Engineer     - RECORDING ENGINEER
WIT .         JIM                  : Witness      - WITNESSED BY
MUD .         GEL                  : Mud_type     - MUD TYPE
MATR.         SANDSTONE            : Logunit      - NEUTRON MATRIX
TMAX.C        19                   : BHT          - MAXIMUM RECORDED TEMPERATURE
BHTD.M        201.5                : BHTDEP       - MAXIMUM RECORDED TEMPERATURE
RMT .C        19                   : MDTP         - TEMPERATURE OF MUD
MUDD.KG/M     1120                 : MWT          - MUD DENSITY
NEUT.         1                    : NEUTRON      - NEUTRON TYPE
RESI.         0                    : RESIST       - RESISTIVITY TYPE
RM  .OHMM     3.15                 : RM           - RESISTIVITY OF MUD
RMC .OHMM     3.15                 : RMC          - RESISTIVITY OF MUD CAKE
RMF .OHMM     3.15                 : RMF          - RESISTIVITY OF MUD FILTRATE
SUFT.C        4                    : SUFT         - SURFACE TEMPERATURE
~A  DEPTH      CAL       GR     PHIN     PHID     RESD
# ...
   86.500  211.605   78.794    0.412    0.169    9.904
   86.750  217.700   77.115    0.429    0.204    9.736
   87.000  222.840   75.989    0.457    0.229    9.405
   87.250  224.895   76.053    0.456    0.237    9.422
   87.500  232.054   75.522    0.451    0.231    9.262
   87.750  236.201   75.034    0.434    0.225    9.283
   88.000  238.257   73.907    0.433    0.222    9.296
   88.250  241.376   72.802    0.447    0.228    9.143
   88.500  244.495   72.293    0.451    0.240    9.159
   88.750  246.622   72.421    0.443    0.243    9.176
   89.000  246.765   73.081    0.443    0.241    9.201
   89.250  245.987   73.145    0.449    0.236    9.213
   89.500  245.102   73.868    0.453    0.231    9.230
   89.750  243.225   73.933    0.442    0.232    9.247
   90.000  239.435   74.018    0.435    0.232    9.264
   90.250  233.624   73.530    0.430    0.225    9.453
   90.500  229.834   73.616    0.431    0.223    9.651
   90.750  227.921   73.680    0.437    0.224    9.668
   91.000  225.087   73.787    0.450    0.234    9.862
   91.250  222.254   74.489    0.446    0.242   10.645
   91.500  218.428   75.127    0.434    0.236   11.266
   91.750  214.602   76.999    0.443    0.226   11.928
   92.000  209.748   78.870    0.457    0.226   12.172
   92.250  204.930   73.598    0.457    0.226   12.194
   92.500  195.151   68.326    0.446    0.218   11.779
   92.750  186.365   64.819    0.400    0.167   11.363
   93.000  178.570   64.926    0.389    0.187   10.575
   93.250  171.768   67.371    0.366    0.223    9.850
   93.500  169.891   71.050    0.429    0.256    9.863
   93.750  165.073   75.303    0.436    0.248   10.252
   94.000  164.259   78.386    0.413    0.248   10.656
   94.250  163.374   77.877    0.410    0.246   10.869
   94.500  163.552   74.964    0.414    0.258   10.695
   94.750  163.731   70.883    0.422    0.269   10.524
   95.000  163.802   71.564    0.433    0.270   10.341
   95.250  163.980   72.862    0.434    0.261    9.984
   95.500  164.123   73.521    0.428    0.258    9.469
   95.750  164.266   74.202    0.422    0.269    9.308
   96.000  165.365   74.309    0.428    0.270    9.503
   96.250  169.512   72.013    0.448    0.249   10.444
   96.500  172.596   70.887    0.463    0.219   12.120
   96.750  181.703   68.039    0.462    0.206   14.601
   97.000  185.850   66.296    0.369    0.194   20.772
   97.250  178.020   63.405    0.337    0.139   16.990
   97.500  172.210   65.872    0.285    0.102   12.667
   97.750  177.313   68.934    0.271    0.037   10.366
   98.000  198.327   72.613    0.300    0.091    7.584
   98.250  204.458   75.058    0.345    0.135    6.318
   98.500  222.424   78.142    0.376    0.163    5.775
   98.750  227.563   81.842    0.459    0.194    5.682
   99.000  247.620   83.075    0.509    0.225    5.688
   99.250  252.688   81.397    0.505    0.218    5.700
   99.500  274.730   77.932    0.501    0.209    5.606
   99.750  280.789   76.210    0.506    0.183    5.517
  100.000  304.815   73.341    0.515    0.166    5.522
  100.250  310.875   72.215    0.526    0.187    5.958
  100.500  333.909   72.257    0.522    0.218    5.958
  100.750  338.976   71.790    0.508    0.227    6.325
  101.000  345.072   71.855    0.504    0.226    6.571
  101.250  351.168   71.367    0.537    0.219    6.703
  101.500  359.283   70.814    0.539    0.213    6.970
  101.750  365.379   66.754    0.544    0.208    7.113
  102.000  369.526   66.223    0.553    0.234    7.129
  102.250  371.617   68.116    0.560    0.233    7.268
  102.500  372.788   71.199    0.553    0.233    7.288
  102.750  372.895   73.071    0.544    0.234    7.165
  103.000  369.069   71.966    0.536    0.235    7.174
  103.250  364.251   71.435    0.535    0.241    6.930
  103.500  363.401   71.542    0.537    0.248    6.569
  103.750  367.549   72.201    0.538    0.263    6.114
  104.000  365.707   74.116    0.544    0.267    5.585
  104.250  358.869   74.775    0.561    0.263    5.103
  104.500  347.106   74.861    0.569    0.263    4.660
  104.750  341.260   73.161    0.557    0.271    4.103
  105.000  332.473   72.651    0.548    0.283    3.750
  105.250  319.718   75.118    0.578    0.288    3.757
  105.500  299.982   76.968    0.589    0.290    3.903
  105.750  287.227   80.647    0.585    0.228    4.451
  106.000  267.491   83.135    0.547    0.217    4.800
  106.250  259.661   83.794    0.523    0.195    4.990
  106.500  251.866   83.880    0.510    0.219    4.999
  106.750  242.088   83.987    0.511    0.232    5.099
  107.000  233.301   84.051    0.567    0.232    5.305
  107.250  224.479   85.328    0.576    0.234    5.617
  107.500  219.696   87.794    0.547    0.238    5.729
  107.750  220.831   89.092    0.539    0.251    5.851
  108.000  222.958   89.177    0.510    0.256    5.752
  108.250  219.097   89.263    0.486    0.232    5.657
  108.500  212.294   89.370    0.463    0.239    5.773
  108.750  201.523   89.413    0.457    0.234    6.110
  109.000  204.643   89.520    0.455    0.205    7.497
  109.250  227.640   89.627    0.447    0.178    8.393
  109.500  226.791   89.075    0.440    0.191    8.111
  109.750  215.984   87.374    0.423    0.112    7.541
  110.000  205.213   85.079    0.422    0.183    6.640
  110.250  214.285   86.376    0.448    0.191    6.179
  110.500  234.343   88.248    0.467    0.195    5.966
  110.750  243.379   87.738    0.473    0.205    5.761
  111.000  255.463   84.847    0.471    0.206    5.560
  111.250  262.551   82.552    0.465    0.212    5.889
  111.500  271.623   80.256    0.484    0.208    6.352
  111.750  295.649   78.578    0.498    0.212    6.487
  112.000  299.724   78.025    0.496    0.215    6.378
  112.250  309.824   75.156    0.512    0.202    6.386
  112.500  321.873   74.051    0.508    0.192    5.946
  112.750  330.981   75.901    0.497    0.198    5.633
  113.000  336.084   75.413    0.523    0.204    4.960
  113.250  336.262   73.117    0.548    0.207    4.366
  113.500  334.385   71.417    0.560    0.213    3.844
  113.750  332.544   72.098    0.554    0.271    3.385
  114.000  329.746   72.779    0.543    0.305    3.150
  114.250  328.860   72.843    0.596    0.342    3.157
  114.500  333.964   72.971    0.601    0.361    3.344
  114.750  345.020   73.014    0.573    0.361    3.539
  115.000  335.241   73.695    0.566    0.266    3.746
  115.250  313.521   74.376    0.545    0.252    4.516
  115.500  284.856   72.676    0.534    0.234    4.959
  115.750  270.116   66.213    0.454    0.222    5.757
  116.000  254.385   63.896    0.424    0.216    6.687
  116.250  250.523   59.836    0.413    0.199    7.483
  116.500  241.772   58.710    0.411    0.216    8.224
  116.750  222.072   57.626    0.405    0.248    8.235
  117.000  219.202   56.522    0.403    0.275    8.250
  117.250  212.364   55.395    0.425    0.278    8.423
  117.500  204.534   53.100    0.431    0.278    8.751
  117.750  192.771   49.061    0.428    0.283    9.266
  118.000  184.977   49.104    0.424    0.270   10.378
  118.250  177.218   49.806    0.426    0.279   10.777
  118.500  175.412   51.061    0.423    0.282   12.076
  118.750  174.527   52.337    0.452    0.239   12.087
  119.000  174.670   53.635    0.444    0.239   12.340
  119.250  175.769   54.316    0.437    0.258   12.838
  119.500  177.932   53.806    0.441    0.275   13.089
  119.750  182.043   52.680    0.442    0.286   13.852
  120.000  185.126   50.406    0.442    0.279   14.673
  120.250  191.222   49.301    0.438    0.288   14.966
  120.500  201.322   49.365    0.440    0.286   15.563
  120.750  209.438   50.089    0.444    0.277   15.882
  121.000  215.497   50.153    0.451    0.266   15.918
  121.250  226.590   50.217    0.454    0.267   15.648
  121.500  231.693   50.919    0.449    0.277   14.562
  121.750  237.789   51.005    0.448    0.290   14.054
  122.000  243.884   51.069    0.445    0.294   13.328
  122.250  247.003   50.581    0.439    0.282   12.863
  122.500  253.206   51.857    0.435    0.274   11.752
  122.750  255.262   53.707    0.433    0.262   10.540
