~VERSION INFORMATION
 VERS.                 2.0:   CWLS LOG ASCII STANDARD -VERSION 2.0
 WRAP.                  NO:   ONE LINE PER DEPTH STEP
~WELL INFORMATION BLOCK
#MNEM.UNIT           DATA                    DESCRIPTION OF MNEMONIC
#---------    -------------------            -------------------------------
# Generated from Intellog Unique Number	CN_94_101/WELL/1075
WELL.         11-32-094-06W4                 : Well_name    - WELL
LOC .         AA/11-32-094-06W4/0            : Location     - LOCATION
UWI .         AA/11-32-094-06W400            : Uwi          - UNIQUE WELL ID
ENTR.         JOETTE                         : Entered      - ENTERED BY
SRVC.         SCHLUMBERGER                   : Scn          - SERVICE COMPANY
DATE.         04/10/92                       : Date         - LOG DATE
STRT.M        100                            : top_depth    - START DEPTH
STOP.M        310                            : bot_depth    - STOP DEPTH
STEP.M        0.25                           : increment    - STEP LENGTH
 NULL. -999.2500:NULL Value
~CURVE INFORMATION BLOCK
#MNEM UNIT       ERCB CURVE CODE    CURVE DESCRIPTION
#-----------   ------------------   ----------------------------------
DEPT.M        00 001 00 00         : DEPTH        - DEPTH
ILD .OHMM     00 120 00 00         : RESD         - DEEP RESISTIVITY (DIL)
DPHI.V/V      00 890 00 00         : PHID         - DENSITY POROSITY (SANDSTONE)
NPHI.V/V      00 330 00 00         : PHIN         - NEUTRON POROSITY (SANDSTONE)
GR  .API      00 310 00 00         : GR           - GAMMA RAY
CALI.MM       00 280 01 00         : CAL          - CALIPER
~PARAMETER INFORMATION
#MNEM.UNIT           DATA             DESCRIPTION OF MNEMONIC
#---------         -----------     ------------------------------
GL  .M        588.65               : gl           - GROUND LEVEL ELEVATION
EREF.M        591.35               : kb           - ELEVATION OF DEPTH REFERENCE
DATM.M        591.35               : datum        - DATUM ELEVATION
TDD .M        313                  : tdd          - TOTAL DEPTH DRILLER
RUN .         ONE                  : Run          - RUN NUMBER
ENG .         BILL                 : Engineer     - RECORDING ENGINEER
WIT .         JIM                  : Witness      - WITNESSED BY
MUD .         GEL                  : Mud_type     - MUD TYPE
MATR.         SANDSTONE            : Logunit      - NEUTRON MATRIX
TMAX.C        16                   : BHT          - MAXIMUM RECORDED TEMPERATURE
BHTD.M        313                  : BHTDEP       - MAXIMUM RECORDED TEMPERATURE
RMT .C        19                   : MDTP         - TEMPERATURE OF MUD
MUDD.KG/M     1050                 : MWT          - MUD DENSITY
NEUT.         1                    : NEUTRON      - NEUTRON TYPE
RESI.         0                    : RESIST       - RESISTIVITY TYPE
RM  .OHMM     8.17                 : RM           - RESISTIVITY OF MUD
RMC .OHMM     8.17                 : RMC          - RESISTIVITY OF MUD CAKE
RMF .OHMM     8.17                 : RMF          - RESISTIVITY OF MUD FILTRATE
SUFT.C        4                    : SUFT         - SURFACE TEMPERATURE
~A  DEPTH     RESD     PHID     PHIN       GR      CAL
# ...
  282.500   42.400    0.284    0.440   62.929  167.514
  282.750   58.573    0.311    0.496   56.842  167.614
  283.000   73.655    0.306    0.467   58.143  167.739
  283.250   79.589    0.300    0.433   54.509  168.811
  283.500   64.775    0.302    0.406   58.876  168.961
  283.750   54.723    0.299    0.405   64.455  169.036
  284.000   78.546    0.282    0.407   71.260  168.088
  284.250  102.527    0.277    0.410   75.628  168.213
  284.500  144.406    0.309    0.410   61.569  168.338
  284.750  184.967    0.319    0.404   58.563  167.391
  285.000  228.133    0.316    0.399   52.491  167.516
  285.250  298.068    0.314    0.390   46.418  166.594
  285.500  315.903    0.316    0.385   42.201  166.693
  285.750  334.964    0.313    0.398   42.261  166.793
  286.000  317.257    0.308    0.413   42.306  166.918
  286.250  263.006    0.307    0.413   42.979  167.990
  286.500  206.115    0.308    0.415   47.959  168.115
  286.750  202.641    0.303    0.418   51.070  168.190
  287.000  210.947    0.305    0.415   51.743  169.312
  287.250  219.488    0.307    0.408   46.898  170.459
  287.500  228.375    0.303    0.400   41.454  171.580
  287.750  237.509    0.299    0.401   39.046  171.680
  288.000  242.731    0.301    0.411   36.668  169.761
  288.250  243.077    0.297    0.418   34.305  167.842
  288.500  234.508    0.291    0.413   33.707  167.892
  288.750  217.746    0.275    0.404   33.169  170.036
  289.000   65.098    0.260    0.400   33.842  172.180
  289.250   62.744    0.234    0.387   36.953  174.348
  289.500   47.348    0.202    0.355   44.386  175.495
  289.750   23.566    0.202    0.345   53.031  174.523
  290.000   19.198    0.189    0.361   73.955  171.582
  290.250   19.956    0.172    0.376   96.105  167.619
  290.500   21.564    0.184    0.376  101.086  166.647
  290.750   22.865    0.186    0.377   98.708  165.749
  291.000   23.346    0.187    0.387   97.511  165.849
  291.250   23.836    0.185    0.389   96.345  164.902
  291.500   23.836    0.181    0.381   99.471  165.027
  291.750   25.359    0.190    0.368  103.838  164.155
  292.000   22.673    0.194    0.358  103.285  164.230
  292.250   21.474    0.183    0.385  103.345  164.305
  292.500   20.707    0.172    0.393  105.244  164.404
  292.750   20.349    0.160    0.414  104.691  164.554
  293.000   20.015    0.145    0.425  102.911  164.654
  293.250   20.053    0.149    0.420   99.292  164.704
  293.500   20.875    0.155    0.413   95.059  164.804
  293.750   21.294    0.162    0.407   82.840  164.929
  294.000   22.589    0.210    0.401   71.877  165.029
  294.250   23.053    0.241    0.398   71.937  165.103
  294.500   23.053    0.247    0.388   73.822  165.203
  294.750   21.886    0.228    0.395   80.029  165.328
  295.000   22.336    0.204    0.401   86.221  165.403
  295.250   22.367    0.227    0.392   85.683  165.528
  295.500   22.001    0.198    0.387   84.501  165.653
  295.750   21.630    0.173    0.397   91.306  165.753
  296.000   21.661    0.158    0.403   95.060  166.849
  296.250   21.296    0.160    0.402   96.347  166.974
  296.500   20.947    0.154    0.411   96.407  167.049
  296.750   20.977    0.146    0.425   97.080  168.221
  297.000   22.243    0.158    0.434   98.366  168.271
  297.250   26.429    0.219    0.445   97.200  168.421
  297.500   31.987    0.216    0.434   90.514  168.471
  297.750   38.713    0.227    0.410   60.512  168.595
  298.000   52.504    0.293    0.395   46.453  168.720
  298.250   57.871    0.283    0.379   48.966  168.770
  298.500   56.842    0.238    0.383   58.239  168.870
  298.750   52.829    0.210    0.417   70.563  168.995
  299.000   46.372    0.200    0.414   79.223  168.073
  299.250   41.461    0.201    0.404   83.575  166.154
  299.500   41.539    0.201    0.385   73.824  165.256
  299.750   48.433    0.197    0.380   73.270  168.422
  300.000   51.331    0.228    0.374   79.462  169.494
  300.250   48.594    0.230    0.380   88.107  170.641
  300.500   33.985    0.220    0.395  105.352  170.741
  300.750   14.270    0.175    0.405  112.157  169.819
  301.000   11.614    0.152    0.412  118.364  169.894
  301.250   11.210    0.091    0.417  123.345  168.996
  301.500   11.445    0.096    0.417  120.937  168.099
  301.750   12.603    0.059    0.413  111.185  170.218
  302.000   14.695    0.054    0.412  106.968  171.315
  302.250   16.174    0.064    0.393  102.720  171.440
  302.500   18.496    0.071    0.344   97.860  169.546
  302.750   21.977    0.073    0.307   89.948  168.599
  303.000   23.303    0.056    0.306   93.687  168.674
  303.250   23.347    0.038    0.314   98.054  167.751
  303.500   23.838    0.055    0.314   98.727  166.829
  303.750   25.288    0.047    0.300   91.414  165.957
  304.000   26.814    0.024    0.271   74.917  166.007
  304.250   27.365    0.020    0.275   60.858  166.107
  304.500   29.016    0.018    0.279   56.013  166.232
  304.750   29.626    0.012    0.273   70.804  166.306
  305.000   29.696    0.047    0.266   88.662  166.431
  305.250   28.649    0.040    0.258   96.081  166.531
  305.500   27.109    0.032    0.264   94.914  166.656
  305.750   25.195    0.027    0.280   91.923  166.731
  306.000   25.243    0.052    0.305   92.626  166.831
  306.250   26.753    0.064    0.319   93.269  166.956
  306.500   31.179    0.065    0.326   95.184  167.030
  306.750   39.207    0.043    0.317   95.827  166.133
  307.000   48.357    0.024    0.299   97.128  166.233
  307.250   60.780    0.005    0.302   97.188  166.333
  307.500   73.597    0.002    0.337   96.037  165.411
  307.750   87.447    0.009    0.370   94.242  165.511
  308.000   89.327    0.013    0.364   90.623  165.586
  308.250   89.412    0.002    0.366   86.375  165.710
  308.500   89.582   -0.001    0.366   81.529  165.810
  308.750   86.465    0.002    0.362   80.363  164.863
  309.000   86.630   -0.001    0.347   79.825  165.013
  309.250   86.794   -0.002    0.330   79.885  165.088
  309.500   82.128   -0.002    0.317   78.718  165.213
  309.750   72.124   -0.001    0.326   76.938  165.288
  310.000   64.516   -0.003    0.337   74.546  165.363
