~VERSION INFORMATION
 VERS.                 2.0:   CWLS LOG ASCII STANDARD -VERSION 2.0
 WRAP.                  NO:   ONE LINE PER DEPTH STEP
~WELL INFORMATION BLOCK
#MNEM.UNIT           DATA                    DESCRIPTION OF MNEMONIC
#---------    -------------------            -------------------------------
# Generated from Intellog Unique Number	CN_94_101/WELL/3194
WELL.         THE CALIFORNIA STANDARD COMPAN : Well_name    - WELL
LOC .         AA/10-26-095-13W4/0            : Location     - LOCATION
UWI .         AA/10-26-095-13W4/0            : Uwi          - UNIQUE WELL ID
ENTR.         JOETTE                         : Entered      - ENTERED BY
SRVC.         SCHLUMBERGER                   : Scn          - SERVICE COMPANY
DATE.         07/17/92                       : Date         - LOG DATE
STRT.F        50                             : top_depth    - START DEPTH
STOP.F        570.013                        : bot_depth    - STOP DEPTH
STEP.F        0.8202                         : increment    - STEP LENGTH
 NULL. -999.2500:NULL Value
~CURVE INFORMATION BLOCK
#MNEM UNIT       ERCB CURVE CODE    CURVE DESCRIPTION
#-----------   ------------------   ----------------------------------
DEPT.F        00 001 00 00         : DEPTH        - DEPTH
ILD .OHMM     00 120 00 00         : RESD         - DEEP RESISTIVITY (DIL)
GR  .API      00 310 00 00         : GR           - GAMMA RAY
NPHI.V/V      00 330 00 00         : PHIN         - NEUTRON POROSITY (SANDSTONE)
~PARAMETER INFORMATION
#MNEM.UNIT           DATA             DESCRIPTION OF MNEMONIC
#---------         -----------     ------------------------------
GL  .F        1282.7               : gl           - GROUND LEVEL ELEVATION
EREF.F        1282.7               : kb           - ELEVATION OF DEPTH REFERENCE
DATM.F        1282.7               : datum        - DATUM ELEVATION
TDD .F        572                  : tdd          - TOTAL DEPTH DRILLER
RUN .         ONE                  : Run          - RUN NUMBER
ENG .         BILL                 : Engineer     - RECORDING ENGINEER
WIT .         JIM                  : Witness      - WITNESSED BY
MUD .         GEL                  : Mud_type     - MUD TYPE
MATR.         SANDSTONE            : Logunit      - NEUTRON MATRIX
TMAX.F        46                   : BHT          - MAXIMUM RECORDED TEMPERATURE
BHTD.F        572                  : BHTDEP       - MAXIMUM RECORDED TEMPERATURE
RMT .F        32                   : MDTP         - TEMPERATURE OF MUD
MUDD.LB/G     1.13                 : MWT          - MUD DENSITY
NEUT.         1                    : NEUTRON      - NEUTRON TYPE
RESI.         0                    : RESIST       - RESISTIVITY TYPE
RM  .OHMM     12.5                 : RM           - RESISTIVITY OF MUD
RMC .OHMM     12.5                 : RMC          - RESISTIVITY OF MUD CAKE
RMF .OHMM     12.5                 : RMF          - RESISTIVITY OF MUD FILTRATE
SUFT.F        39.2                 : SUFT         - SURFACE TEMPERATURE
~A  DEPTH     RESD       GR     PHIN
   50.000    8.665   89.617    0.597
   50.820    8.580   86.159    0.592
   51.640    9.956   81.838    0.592
   52.461    9.905   82.736    0.586
   53.281    9.837   87.113    0.578
   54.101   10.491   90.185    0.576
   54.921    9.684   93.264    0.581
   55.742   10.355   88.508    0.581
   56.562   11.731   81.136    0.567
   57.382   13.107   78.120    0.545
   58.202   13.039   73.365    0.527
   59.022   11.510   70.783    0.534
   59.843   10.720   78.211    0.546
   60.663   10.635   83.892    0.560
   61.483   10.567   83.050    0.563
   62.303   11.221   80.034    0.533
   63.123   11.892   78.323    0.523
   63.944   13.990   75.307    0.502
   64.764   16.088   69.247    0.452
   65.584   18.204   59.708    0.420
   66.404   21.024   55.387    0.428
   67.224   20.234   54.117    0.451
   68.045   14.355   56.312    0.479
   68.865   12.121   61.124    0.499
   69.685   10.608   68.552    0.526
   70.505   10.540   76.414    0.539
   71.326   10.472   77.747    0.552
   72.146   11.143   76.463    0.543
   72.966   11.075   69.968    0.518
   73.786   13.174   70.873    0.522
   74.606   15.255   73.945    0.531
   75.427   15.187   77.458    0.541
   76.247   15.136   79.654    0.553
   77.067   15.790   80.993    0.550
   77.887   15.722   78.405    0.546
   78.707   15.654   75.831    0.547
   79.528   16.308   74.112    0.536
   80.348   17.667   74.575    0.512
   81.168   16.877   74.603    0.496
   81.988   15.382   76.812    0.498
   82.808   14.591   80.319    0.511
   83.629   14.523   79.477    0.522
   84.449   14.455   77.773    0.531
   85.269   14.370   79.105    0.538
   86.089   14.302   79.133    0.551
   86.909   14.956   80.031    0.561
   87.730   14.888   79.189    0.567
   88.550   15.542   77.912    0.572
   89.370   14.752   77.941    0.580
   90.190   13.962   81.447    0.585
   91.010   14.599   85.389    0.586
   91.831   16.009   88.026    0.579
   92.651   18.829   90.670    0.568
   93.471   14.412   86.350    0.544
   94.291   13.622   80.717    0.560
   95.112   13.554   84.666    0.580
   95.932   12.764   93.391    0.580
   96.752   12.678   98.645    0.577
   97.572   12.627   98.680    0.587
   98.392   12.559   92.605    0.583
   99.213   12.491   87.857    0.585
  100.033   12.406   91.371    0.582
  100.853   12.338   93.131    0.569
  101.673   12.287   96.203    0.561
  102.493   12.202  100.587    0.564
  103.314   12.117   99.745    0.571
  104.134   12.066  101.519    0.582
  104.954   12.015  101.982    0.583
  105.774   12.652   97.219    0.570
  106.594   14.011   89.413    0.579
  107.415   14.699   88.143    0.589
  108.235   15.353   92.085    0.593
  109.055   15.285   97.766    0.570
  109.875   15.217  100.845    0.563
  110.696   15.149   94.343    0.561
  111.516   15.081   81.760    0.554
  112.336   15.013   81.788    0.538
  113.156   16.389   78.772    0.520
  113.976   17.765   81.409    0.487
  114.797   19.847   84.053    0.444
  115.617   21.240   81.465    0.449
  116.437   21.172   75.847    0.484
  117.257   21.104   76.302    0.499
  118.077   21.036   72.417    0.443
  118.898   19.523   73.321    0.446
  119.718   18.733   76.828    0.456
  120.538   18.665   80.770    0.468
  121.358   18.580   79.928    0.487
  122.178   18.512   80.833    0.508
  122.999   19.166   84.340    0.521
  123.819   19.098   86.977    0.511
  124.639   19.013   89.186    0.500
  125.459   18.945   86.598    0.496
  126.280   18.877   80.544    0.506
  127.100   18.087   79.703    0.520
  127.920   17.280   82.775    0.529
  128.740   17.246   86.275    0.518
  129.560   17.177   80.215    0.508
  130.381   17.110   77.198    0.498
  131.201   17.041   75.487    0.507
  132.021   16.973   75.080    0.517
  132.841   16.888   67.280    0.520
  133.661   16.837   63.829    0.511
  134.482   16.769   68.206    0.499
  135.302   17.406   68.241    0.489
  136.122   18.782   70.008    0.504
  136.942   20.159   76.124    0.513
  137.762   22.996   77.022    0.502
  138.583   27.243   72.708    0.481
  139.403   27.898   72.301    0.461
  140.223   23.514   70.155    0.432
  141.043   21.279   68.002    0.434
  141.864   19.750   64.993    0.472
  142.684   18.960   68.934    0.487
  143.504   18.892   75.485    0.504
  144.324   18.824   79.427    0.529
  145.144   18.756   77.281    0.546
  145.965   18.705   76.881    0.554
  146.785   17.915   78.655    0.547
  147.605   17.847   79.111    0.529
  148.425   17.057   82.183    0.511
  149.245   16.989   86.559    0.511
  150.066   16.887   84.420    0.509
  150.886   16.818   87.050    0.504
  151.706   16.733   90.129    0.495
  152.526   16.699   85.374    0.478
  153.346   16.631   81.053    0.491
  154.167   17.285   76.732    0.503
  154.987   17.200   80.674    0.513
  155.807   18.576   85.920    0.532
  156.627   19.953   90.739    0.543
  157.448   20.607   87.716    0.516
  158.268   20.539   80.786    0.511
  159.088   20.488   74.298    0.489
  159.908   18.975   73.463    0.465
  160.728   16.019   73.477    0.504
  161.549   13.784   75.686    0.538
  162.369   12.994   78.323    0.577
  163.189   13.648   83.570    0.564
  164.009   14.286   87.946    0.534
  164.829   15.662   87.974    0.526
  165.650   17.038   87.567    0.509
  166.470   16.970   82.812    0.512
  167.290   16.919   79.796    0.543
  168.110   16.128   78.968    0.558
  168.930   14.616   80.735    0.572
  169.751   13.087   82.930    0.579
  170.571   13.019   86.872    0.588
  171.391   13.690   86.465    0.594
  172.211   14.344   81.710    0.604
  173.031   15.720   83.477    0.604
  173.852   17.079   86.998    0.590
  174.672   19.178   84.410    0.569
  175.492   19.110   80.082    0.529
  176.312   17.614   81.421    0.509
  177.133   15.346   86.233    0.512
  177.953   16.722   88.877    0.515
  178.773   18.098   87.593    0.512
  179.593   18.752   89.803    0.511
  180.413   20.163   93.751    0.518
  181.234   20.060   94.207    0.520
  182.054   19.253   91.626    0.516
  182.874   19.219   89.480    0.501
  183.694   19.151   88.203    0.473
  184.514   19.066   89.977    0.482
  185.335   19.720   90.440    0.479
  186.155   21.096   93.070    0.475
  186.975   22.473   91.808    0.466
  187.795   23.127   89.661    0.474
  188.615   23.764   87.943    0.480
  189.436   23.007   87.536    0.478
  190.256   21.478   87.136    0.474
  191.076   21.410   86.722    0.474
  191.896   21.359   85.880    0.473
  192.717   22.735   85.473    0.472
  193.537   22.667   85.501    0.470
  194.357   21.877   84.225    0.463
  195.177   21.087   87.296    0.458
  195.997   20.297   91.245    0.455
  196.818   20.212   89.099    0.461
  197.638   20.144   86.525    0.472
  198.458   21.520   87.857    0.467
  199.278   22.174   88.320    0.455
  200.098   22.106   86.167    0.457
  200.919   22.038   83.592    0.454
  201.739   21.248   85.788    0.460
  202.559   20.457   88.425    0.474
  203.379   20.372   87.597    0.483
  204.199   20.321   86.313    0.479
  205.020   20.270   92.429    0.465
  205.840   19.446   93.762    0.468
  206.660   18.690   90.311    0.461
  207.480   17.883   85.121    0.452
  208.301   17.815   85.148    0.445
  209.121   19.191   86.046    0.431
  209.941   19.845   83.900    0.426
  210.761   20.499   83.500    0.431
  211.581   20.414   79.614    0.446
  212.402   20.363   78.330    0.459
  213.222   20.295   75.749    0.478
  214.042   20.227   75.349    0.473
  214.862   20.142   80.603    0.468
  215.682   20.796   81.928    0.466
  216.503   21.450   88.479    0.462
  217.323   22.104   83.723    0.458
  218.143   22.758   79.838    0.453
  218.963   27.762   79.431    0.444
  219.783   71.775   68.587    0.427
  220.604   65.931   56.446    0.369
  221.424   43.461   55.597    0.325
  222.244   19.529   59.974    0.392
  223.064   18.739   64.785    0.423
  223.885   18.671   70.473    0.466
  224.705   20.787   76.589    0.451
  225.525   22.163   74.008    0.438
  226.345   22.817   66.208    0.435
  227.165   22.749   59.720    0.460
