~VERSION INFORMATION
 VERS.                 2.0:   CWLS LOG ASCII STANDARD -VERSION 2.0
 WRAP.                  NO:   ONE LINE PER DEPTH STEP
~WELL INFORMATION BLOCK
#MNEM.UNIT           DATA                    DESCRIPTION OF MNEMONIC
#---------    -------------------            -------------------------------
# Generated from Intellog Unique Number	CC_80_83/WELL/2376
NULL.         -999.25                        : NULL_VALUE
WELL.         ARCO ACI MCMURRAY              : Well_name    - WELL
LOC .         10-26-083-10W4                 : Location     - LOCATION          
UWI .         AA/10-26-083-10W400            : Uwi          - UNIQUE WELL ID    
ENTR.         DW                             : Entered      - ENTERED BY        
SRVC.         SCHLUMBERGER                   : Scn          - SERVICE COMPANY   
DATE.         23 FEB 74                      : Date         - LOG DATE
STRT.M        249.936                        : top_depth    - START DEPTH       
STOP.M        484.639                        : bot_depth    - STOP DEPTH        
STEP.M        0.305                          : increment    - STEP LENGTH       
~CURVE INFORMATION BLOCK
#MNEM UNIT       ERCB CURVE CODE    CURVE DESCRIPTION
#-----------   ------------------   ----------------------------------
DEPT.M        00 001 00 00         : DEPTH        - DEPTH                       
DPHI.V/V      00 890 00 00         : PHID         - DENSITY POROSITY (LIMESTONE)
GR  .API      00 310 00 00         : GR           - GAMMA RAY                   
ILD .OHMM     00 120 00 00         : RESD         - DEEP RESISTIVITY (DIL)      
NPHI.V/V      00 330 00 00         : PHIN         - NEUTRON POROSITY (LIMESTONE)
~PARAMETER INFORMATION       
#MNEM.UNIT           DATA             DESCRIPTION OF MNEMONIC
#---------         -----------     ------------------------------
GL  .M        716.615              : gl           - GROUND LEVEL ELEVATION      
EREF.M        719.663              : kb           - ELEVATION OF DEPTH REFERENCE
DATM.M        719.663              : datum        - DATUM ELEVATION             
TDD .M        486.461              : tdd          - TOTAL DEPTH DRILLER         
RUN .         ONE                  : Run          - RUN NUMBER                  
ENG .         BILL                 : Engineer     - RECORDING ENGINEER          
WIT .         JIM                  : Witness      - WITNESSED BY                
MUD .         GEL                  : Mud_type     - MUD TYPE                    
MATR.         LIMESTONE            : Logunit      - NEUTRON MATRIX              
TMAX.C        23.3333              : BHT          - MAXIMUM RECORDED TEMPERATURE
BHTD.M        486.461              : BHTDEP       - MAXIMUM RECORDED TEMPERATURE
MATR.         1                    : LOGUNIT      - NEUTRON MATRIX              
RMT .C        25                   : MDTP         - TEMPERATURE OF MUD          
NEUT.         1                    : NEUTRON      - NEUTRON TYPE                
RESI.         0                    : RESIST       - RESISTIVITY TYPE            
RMC .OHMM     0.25                 : RMC          - RESISTIVITY OF MUD CAKE     
RMF .OHMM     0.25                 : RMF          - RESISTIVITY OF MUD FILTRATE 
SUFT.C        15                   : SUFT         - SURFACE TEMPERATURE         
~A  DEPTH     PHID       GR     RESD     PHIN
# ...
  409.046    0.311   79.498    9.440    0.397
  409.351    0.314   81.100    8.593    0.470
  409.656    0.302   81.496    6.994    0.461
  409.961    0.301   80.279    5.484    0.436
  410.266    0.303   81.078    4.808    0.427
  410.570    0.301   81.876    4.543    0.441
  410.875    0.290   80.659    4.454    0.426
  411.180    0.279   79.043    4.975    0.446
  411.485    0.299   75.410    6.098    0.438
  411.790    0.274   73.390    7.755    0.430
  412.094    0.254   72.580    8.196    0.408
  412.399    0.268   70.961    8.656    0.403
  412.704    0.239   70.551    8.487    0.377
  413.009    0.233   68.531    8.635    0.344
  413.314    0.255   64.094    8.953    0.355
  413.618    0.275   64.491    9.457    0.346
  413.923    0.261   63.275   10.177    0.357
  414.228    0.229   54.813   11.156    0.321
  414.533    0.123   55.208   11.786    0.201
  414.838    0.129   76.940   12.215    0.191
  415.142    0.174   78.546   12.208    0.321
  415.447    0.229   80.952   11.316    0.356
  415.752    0.252   80.140   10.110    0.380
  416.057    0.247   78.119    8.702    0.385
  416.362    0.240   77.307    7.771    0.378
  416.667    0.230   79.314    7.481    0.389
  416.971    0.242   82.525    7.063    0.402
  417.276    0.234   83.727    7.056    0.391
  417.581    0.260   83.717    7.051    0.415
  417.886    0.272   82.506    7.307    0.417
  418.191    0.292   80.081    7.579    0.416
  418.495    0.275   78.463    7.710    0.405
  418.800    0.286   75.235    7.560    0.399
  419.105    0.314   68.384    7.142    0.452
  419.410    0.331   63.143    6.147    0.514
  419.715    0.315   62.330    4.559    0.478
  420.019    0.274   63.930    3.381    0.428
  420.324    0.261   65.134    3.194    0.395
  420.629    0.259   68.345    3.634    0.380
  420.934    0.258   71.158    4.539    0.360
  421.239    0.253   73.566    5.667    0.361
  421.543    0.256   71.143    6.330    0.346
  421.848    0.253   72.344    6.560    0.326
  422.153    0.251   77.166    6.554    0.348
  422.458    0.284   78.771    6.077    0.403
  422.763    0.290   75.140    5.041    0.422
  423.068    0.289   70.299    3.953    0.425
  423.372    0.279   69.084    4.022    0.413
  423.677    0.226   67.468    4.410    0.388
  423.982    0.199   67.057    5.113    0.364
  424.287    0.229   69.466    5.819    0.376
  424.592    0.268   71.875    6.621    0.413
  424.896    0.269   75.492    6.491    0.403
  425.201    0.278   82.327    5.282    0.428
  425.506    0.313   86.346    4.463    0.447
  425.811    0.288   86.740    3.632    0.459
  426.116    0.271   84.317    3.185    0.450
  426.420    0.252   81.896    3.240    0.402
  426.725    0.257   79.514    3.487    0.386
  427.030    0.250   83.941    3.895    0.378
  427.335    0.241   86.349    4.270    0.416
  427.640    0.215   83.506    4.427    0.427
  427.944    0.173   78.244    4.422    0.420
  428.249    0.165   75.806    4.586    0.423
  428.554    0.224   80.233    4.933    0.415
  428.859    0.262   88.694    4.928    0.404
  429.164    0.255   85.852    4.830    0.408
  429.469    0.263   81.800    4.479    0.429
  429.773    0.242   84.204    4.394    0.442
  430.078    0.236   84.998    4.150    0.408
  430.383    0.248   81.755    4.222    0.378
  430.688    0.266   72.050    4.629    0.361
  430.993    0.261   72.035    5.269    0.351
  431.297    0.271   67.985    6.340    0.361
  431.602    0.271   60.297    8.373    0.363
  431.907    0.317   60.688    9.886    0.340
  432.212    0.299   66.325   10.643    0.329
  432.517    0.294   71.553   12.333    0.317
  432.821    0.269   68.716   13.029    0.305
  433.126    0.274   71.525   13.507    0.315
  433.431    0.274   74.739   13.490    0.327
  433.736    0.269   70.684   12.988    0.315
  434.041    0.277   70.267   11.814    0.296
  434.345    0.262   70.245   11.589    0.288
  434.650    0.240   70.641   11.787    0.297
  434.955    0.228   79.505   12.000    0.307
  435.260    0.233   87.159   12.210    0.315
  435.565    0.274   89.969   11.755    0.331
  435.870    0.259   89.951   10.301    0.327
  436.174    0.343   85.499    9.918    0.315
  436.479    0.421   67.320    9.370    0.329
  436.784    0.466   71.742    8.851    0.399
  437.089    0.421   78.992    8.051    0.534
  437.394    0.342   85.842    7.606    0.517
  437.698    0.308  105.605    7.053    0.465
  438.003    0.244  104.783    6.541    0.393
  438.308    0.227   99.115    6.179    0.369
  438.613    0.228   91.028    6.057    0.358
  438.918    0.211   94.646    5.825    0.370
  439.222    0.201   96.241    5.713    0.364
  439.527    0.195   95.019    5.709    0.347
  439.832    0.175   85.315    5.919    0.345
  440.137    0.164   88.123    6.368    0.347
  440.442    0.167   92.141    6.725    0.326
  440.746    0.207   93.342    6.976    0.329
  441.051    0.200   95.746    7.367    0.328
  441.356    0.196   93.311    7.779    0.324
  441.661    0.189   91.683    7.921    0.319
  441.966    0.178   93.282    7.189    0.327
  442.271    0.183   94.070    6.923    0.306
  442.575    0.190   90.829    6.918    0.335
  442.880    0.208   88.390    6.914    0.333
  443.185    0.224   92.811    6.783    0.324
  443.490    0.202   93.608    6.409    0.346
  443.795    0.199   87.539    6.170    0.349
  444.099    0.212   93.578    6.054    0.366
  444.404    0.203   95.579    5.938    0.368
  444.709    0.178   94.754    5.826    0.351
  445.014    0.164   96.357    5.715    0.335
  445.319    0.200  100.781    5.502    0.374
  445.623    0.215  103.188    5.200    0.357
  445.928    0.215  104.788    5.195    0.362
  446.233    0.216  103.964    5.290    0.384
  446.538    0.205   97.490    5.487    0.380
  446.843    0.198   95.054    5.693    0.364
  447.147    0.192   98.266    6.242    0.356
  447.452    0.182   99.867    6.477    0.343
  447.757    0.197   98.637    6.845    0.357
  448.062    0.214   95.391    7.368    0.361
  448.367    0.207   93.362    7.785    0.343
  448.672    0.196   95.366    8.381    0.326
  448.976    0.173   90.909    8.534    0.312
  449.281    0.150   84.433    9.016    0.273
  449.586    0.150   79.981    9.353    0.289
  449.891    0.194   89.651    9.704    0.296
  450.196    0.196   93.671    9.879    0.319
  450.500    0.189   93.655    9.873    0.345
  450.805    0.197   92.028    9.506    0.338
  451.110    0.197   90.399    8.982    0.324
  451.415    0.173   89.976    8.812    0.315
  451.720    0.168   91.175    8.808    0.306
  452.024    0.183   96.405    8.964    0.301
  452.329    0.187   99.615    9.128    0.298
  452.634    0.204  100.812    9.124    0.299
  452.939    0.207  100.797    8.623    0.322
  453.244    0.166   99.170    8.303    0.349
  453.548    0.164   93.501    8.141    0.336
  453.853    0.191   93.892    8.288    0.322
  454.158    0.199   95.892    8.438    0.315
  454.463    0.200   96.684    8.591    0.306
  454.768    0.194   93.040    8.912    0.317
  455.073    0.216   85.760    9.076    0.328
  455.377    0.231   77.269    9.771    0.362
  455.682    0.254   65.144   11.126    0.367
  455.987    0.300   59.880   15.836    0.352
  456.292    0.323   65.110   23.392    0.334
  456.597    0.311   65.097   28.163    0.338
  456.901    0.330   41.267   33.275    0.347
  457.206    0.350   37.618   37.878    0.335
  457.511    0.351   35.181   43.119    0.335
  457.816    0.357   31.932   50.008    0.360
  458.121    0.365   31.114   56.935    0.361
  458.425    0.359   30.293   62.454    0.338
  458.730    0.343   27.853   67.228    0.299
  459.035    0.333   29.858   67.187    0.310
  459.340    0.337   39.125   68.412    0.336
  459.645    0.356   43.953   72.292    0.349
  459.949    0.360   40.710   77.834    0.368
  460.254    0.364   31.407   86.963    0.358
  460.559    0.355   27.357   95.369    0.380
  460.864    0.355   30.169  100.794    0.362
  461.169    0.357   33.785  104.539    0.357
  461.474    0.358   33.771  104.476    0.364
  461.778    0.360   34.557  102.501    0.356
