~VERSION INFORMATION
 VERS.                 2.0:   CWLS LOG ASCII STANDARD -VERSION 2.0
 WRAP.                  NO:   ONE LINE PER DEPTH STEP
~WELL INFORMATION BLOCK
#MNEM.UNIT           DATA                    DESCRIPTION OF MNEMONIC
#---------    -------------------            -------------------------------
# Generated from Intellog Unique Number	CC_88_90/WELL/3150
WELL.         IMPERIAL OIL                   : Well_name    - WELL
LOC .         AA/11-06-090-13W4/0            : Location     - LOCATION
UWI .         AA/11-06-090-13W400            : Uwi          - UNIQUE WELL ID
ENTR.         JOETTE                         : Entered      - ENTERED BY
SRVC.         SCHLUMBERGER                   : Scn          - SERVICE COMPANY
DATE.         03/11/92                       : Date         - LOG DATE
STRT.M        60.96                          : top_depth    - START DEPTH
STOP.M        161.96                         : bot_depth    - STOP DEPTH
STEP.M        0.25                           : increment    - STEP LENGTH
 NULL. -999.2500:NULL Value
~CURVE INFORMATION BLOCK
#MNEM UNIT       ERCB CURVE CODE    CURVE DESCRIPTION
#-----------   ------------------   ----------------------------------
DEPT.M        00 001 00 00         : DEPTH        - DEPTH
GR  .API      00 310 00 00         : GR           - GAMMA RAY
NPHI.V/V      00 330 00 00         : PHIN         - NEUTRON POROSITY (SANDSTONE)
ILD .OHMM     00 120 00 00         : RESD         - DEEP RESISTIVITY (DIL)
~PARAMETER INFORMATION
#MNEM.UNIT           DATA             DESCRIPTION OF MNEMONIC
#---------         -----------     ------------------------------
GL  .M        504.139              : gl           - GROUND LEVEL ELEVATION
EREF.M        504.139              : kb           - ELEVATION OF DEPTH REFERENCE
DATM.M        504.139              : datum        - DATUM ELEVATION
TDD .M        220.98               : tdd          - TOTAL DEPTH DRILLER
RUN .         ONE                  : Run          - RUN NUMBER
ENG .         BILL                 : Engineer     - RECORDING ENGINEER
WIT .         JIM                  : Witness      - WITNESSED BY
MUD .         GEL                  : Mud_type     - MUD TYPE
MATR.         SANDSTONE            : Logunit      - NEUTRON MATRIX
TMAX.C        8.88889              : BHT          - MAXIMUM RECORDED TEMPERATURE
BHTD.M        220.98               : BHTDEP       - MAXIMUM RECORDED TEMPERATURE
RMT .C        37.7778              : MDTP         - TEMPERATURE OF MUD
MUDD.KG/M     1140                 : MWT          - MUD DENSITY
NEUT.         1                    : NEUTRON      - NEUTRON TYPE
RESI.         0                    : RESIST       - RESISTIVITY TYPE
RM  .OHMM     4.5                  : RM           - RESISTIVITY OF MUD
RMC .OHMM     4.5                  : RMC          - RESISTIVITY OF MUD CAKE
RMF .OHMM     4.5                  : RMF          - RESISTIVITY OF MUD FILTRATE
SUFT.C        4                    : SUFT         - SURFACE TEMPERATURE
~A  DEPTH       GR     PHIN     RESD
# ...
  115.210   84.881    0.519    8.454
  115.460   82.425    0.510    8.594
  115.710   80.585    0.500    9.098
  115.960   91.650    0.505    9.093
  116.210  115.622    0.512    8.505
  116.460  122.385    0.526    8.062
  116.710  116.857    0.530    7.620
  116.960  121.162    0.517    7.472
  117.210  121.780    0.502    7.176
  117.460  121.783    0.468    7.462
  117.710  108.880    0.441   15.891
  117.960   92.905    0.453   22.428
  118.210   83.075    0.463   17.770
  118.460  100.286    0.473   14.420
  118.710  124.257    0.476   17.541
  118.960  124.875    0.465   16.445
  119.210  116.889    0.440   15.931
  119.460  111.361    0.437   19.998
  119.710   97.229    0.457   22.682
  119.960   84.940    0.468   16.278
  120.210   64.663    0.477   15.256
  120.460   41.313    0.480   15.031
  120.710   43.774    0.461   16.408
  120.960   40.705    0.444   17.348
  121.210   33.333    0.450   20.252
  121.460   35.179    0.465   27.153
  121.710   59.151    0.474   22.059
  121.960   99.101    0.476   17.837
  122.210  105.250    0.464   15.432
  122.460  108.326    0.450   14.480
  122.710   84.361    0.465   13.967
  122.960   68.385    0.457   15.853
  123.210   48.722    0.457   17.011
  123.460   46.267    0.465   17.514
  123.710   60.406    0.477   19.108
  123.960   65.940    0.479   15.686
  124.210   57.953    0.484   15.026
  124.460   45.050    0.481   15.238
  124.710   45.668    0.474   15.378
  124.960   51.203    0.460   14.210
  125.210   58.581    0.463   14.205
  125.460   58.584    0.481   12.309
  125.710   54.900    0.482   11.359
  125.960   57.975    0.482   10.482
  126.210   63.510    0.487   12.585
  126.460   61.669    0.494   15.123
  126.710   61.673    0.478   16.864
  126.960   55.530    0.456   20.057
  127.210   62.908    0.430   21.361
  127.460   75.817    0.429   21.137
  127.710   83.809    0.454   20.187
  127.960   83.198    0.432   19.601
  128.210   78.284    0.460   16.760
  128.460   67.840    0.482   16.900
  128.710   57.396    0.489    8.752
  128.960   47.566    0.497    9.183
  129.210   35.892    0.488   12.085
  129.460   32.823    0.471   13.461
  129.710   35.284    0.452   18.254
  129.960   38.360    0.460   20.722
  130.210   37.134    0.469   16.282
  130.460   40.210    0.477    9.151
  130.710   46.359    0.480   12.854
  130.960   38.987    0.476   12.193
  131.210   43.907    0.483   10.299
  131.460   48.826    0.487   11.820
  131.710   48.830    0.469   16.686
  131.960   46.989    0.454   24.170
  132.210   46.377    0.471   28.963
  132.460   46.381    0.471    8.891
  132.710   42.697    0.439   12.520
  132.960   48.231    0.449   22.258
  133.210   48.849    0.480   27.779
  133.460   36.560    0.502   12.359
  133.710   29.189    0.520   11.189
  133.960   25.505    0.533   10.603
  134.210   21.820    0.541    9.217
  134.460   31.042    0.527    5.577
  134.710   48.867    0.511    6.443
  134.960   44.568    0.481    6.438
  135.210   42.728    0.463    6.797
  135.460   45.190    0.466    7.882
  135.710   47.651    0.473   11.511
  135.960   71.622    0.484   13.906
  136.210   87.604    0.480   13.538
  136.460   92.523    0.482   11.931
  136.710   94.370    0.487   11.635
  136.960   77.780    0.438   12.358
  137.210   71.638    0.413   13.371
  137.460   86.391    0.435   15.328
  137.710   96.841    0.457   23.321
  137.960   96.230    0.459   20.552
  138.210   95.618    0.452   19.312
  138.460   82.716    0.458   20.978
  138.710   72.272    0.469   21.773
  138.960   64.285    0.445   20.314
  139.210   64.903    0.436   17.546
  139.460   82.728    0.444   18.922
  139.710   82.117    0.466   22.625
  139.960   75.360    0.471   19.057
  140.210   75.363    0.452   22.323
  140.460   77.210    0.431   12.939
  140.710   71.068    0.422   19.623
  140.960   69.227    0.427   22.743
  141.210   66.772    0.445   21.939
  141.460   63.702    0.458   21.643
  141.710   46.498    0.442   19.456
  141.960   45.886    0.423   19.886
  142.210   55.722    0.408   21.045
  142.460   73.548    0.403   19.441
  142.710   83.999    0.417   19.725
  142.960   79.700    0.431   31.281
  143.210   66.797    0.447   26.695
  143.460   48.978    0.449   20.001
  143.710   71.105    0.439   19.051
  143.960   95.691    0.456   13.301
  144.210  123.964    0.470   19.039
  144.460  115.978    0.426   24.197
  144.710  115.981    0.384   31.171
  144.960  124.588    0.434   39.818
  145.210  120.904    0.439   23.963
  145.460   92.637    0.416   24.975
  145.710   76.047    0.409   29.623
  145.960   47.780    0.426   23.439
  146.210   63.762    0.428   19.361
  146.460  106.785    0.423   22.628
  146.710  104.330    0.402   29.020
  146.960  106.176    0.376   30.034
  147.210   93.888    0.435   35.990
  147.460   61.934    0.466   31.259
  147.710   44.115    0.466   13.586
  147.960   65.014    0.450   15.107
  148.210   74.235    0.448   20.410
  148.460   83.457    0.450   25.858
  148.710  113.573    0.441   29.924
  148.960   96.984    0.442   33.699
  149.210   55.196    0.466   23.006
  149.460   39.221    0.477   20.456
  149.710   52.744    0.474   14.198
  149.960   66.882    0.466   18.337
  150.210   77.948    0.451   21.821
  150.460   87.169    0.444   26.397
  150.710   83.485    0.458   30.682
  150.960   75.499    0.474   16.135
  151.210   73.044    0.475   13.294
  151.460   77.349    0.473   13.071
  151.710   74.894    0.493   13.792
  151.960   76.126    0.499   11.387
  152.210   67.525    0.488   11.237
  152.460   63.841    0.437   11.813
  152.710   65.688    0.416   13.117
  152.960   59.545    0.391   16.892
  153.210   54.632    0.423   27.939
  153.460   60.781    0.468   38.258
  153.710   63.242    0.459   18.113
  153.960   58.944    0.459   15.780
  154.210   62.020    0.469   14.322
  154.460   70.627    0.466   13.807
  154.710   73.703    0.454   14.820
  154.960   74.935    0.443   18.740
  155.210   74.324    0.438   24.407
  155.460   71.869    0.467   17.204
  155.710   63.883    0.471   16.325
  155.960   63.885    0.463   17.630
  156.210   66.347    0.448   15.515
  156.460   67.579    0.452   15.365
  156.710   76.187    0.465   16.523
  156.960   71.887    0.455   16.445
  157.210   69.432    0.461   17.094
  157.460   66.362    0.464   20.505
  157.710   66.980    0.467   24.281
  157.960   68.213    0.465   18.678
  158.210   65.757    0.458   16.055
  158.460   67.605    0.465   14.377
  158.710   76.212    0.480   16.043
  158.960   74.371    0.476   16.621
  159.210   70.072    0.463   16.613
  159.460   72.534    0.456   15.810
  159.710   71.308    0.474   17.549
  159.960   67.623    0.488   19.581
  160.210   65.168    0.494   13.613
  160.460   74.390    0.487   11.573
  160.710   71.935    0.483    9.604
  160.960   59.032    0.496    8.799
  161.210   39.369    0.505   13.738
  161.460   20.320    0.500   18.023
  161.710   21.553    0.483   19.980
  161.960   25.243    0.475   11.396
