~VERSION INFORMATION
 VERS.                 2.0:   CWLS LOG ASCII STANDARD -VERSION 2.0
 WRAP.                  NO:   ONE LINE PER DEPTH STEP
~WELL INFORMATION BLOCK
#MNEM.UNIT           DATA                    DESCRIPTION OF MNEMONIC
#---------    -------------------            -------------------------------
# Generated from Intellog Unique Number	CC_84_87/WELL/2325
NULL.         -999.25                        : NULL_VALUE
WELL.         ARCO ACI MCMURAY               : Well_name    - WELL
LOC .         11-11-085-09W4                 : Location     - LOCATION          
UWI .         AA/11-11-085-09W400            : Uwi          - UNIQUE WELL ID    
ENTR.         DW                             : Entered      - ENTERED BY        
SRVC.         SCHLUMBERGER                   : Scn          - SERVICE COMPANY   
DATE.         01 JAN 76                      : Date         - LOG DATE
STRT.M        259.08                         : top_depth    - START DEPTH       
STOP.M        499.88                         : bot_depth    - STOP DEPTH        
STEP.M        0.305                          : increment    - STEP LENGTH       
~CURVE INFORMATION BLOCK
#MNEM UNIT       ERCB CURVE CODE    CURVE DESCRIPTION
#-----------   ------------------   ----------------------------------
DEPT.M        00 001 00 00         : DEPTH        - DEPTH                       
ILD .OHMM     00 120 00 00         : RESD         - DEEP RESISTIVITY (DIL)      
DPHI.V/V      00 890 00 00         : PHID         - DENSITY POROSITY (LIMESTONE)
NPHI.V/V      00 330 00 00         : PHIN         - NEUTRON POROSITY (LIMESTONE)
GR  .API      00 310 00 00         : GR           - GAMMA RAY                   
~PARAMETER INFORMATION       
#MNEM.UNIT           DATA             DESCRIPTION OF MNEMONIC
#---------         -----------     ------------------------------
GL  .M        735.482              : gl           - GROUND LEVEL ELEVATION      
EREF.M        738.226              : kb           - ELEVATION OF DEPTH REFERENCE
DATM.M        738.226              : datum        - DATUM ELEVATION             
TDD .M        502.615              : tdd          - TOTAL DEPTH DRILLER         
RUN .         ONE                  : Run          - RUN NUMBER                  
ENG .         BILL                 : Engineer     - RECORDING ENGINEER          
WIT .         JIM                  : Witness      - WITNESSED BY                
MUD .         GEL                  : Mud_type     - MUD TYPE                    
MATR.         LIMESTONE            : Logunit      - NEUTRON MATRIX              
TMAX.C        24.4444              : BHT          - MAXIMUM RECORDED TEMPERATURE
BHTD.M        502.31               : BHTDEP       - MAXIMUM RECORDED TEMPERATURE
MATR.         1                    : LOGUNIT      - NEUTRON MATRIX              
RMT .C        25                   : MDTP         - TEMPERATURE OF MUD          
NEUT.         1                    : NEUTRON      - NEUTRON TYPE                
RESI.         0                    : RESIST       - RESISTIVITY TYPE            
RMC .OHMM     0.25                 : RMC          - RESISTIVITY OF MUD CAKE     
RMF .OHMM     0.25                 : RMF          - RESISTIVITY OF MUD FILTRATE 
SUFT.C        15                   : SUFT         - SURFACE TEMPERATURE         
~A  DEPTH     RESD     PHID     PHIN       GR
# ...
  418.191    8.679    0.265    0.463  113.529
  418.495    8.060    0.250    0.462  114.123
  418.800    7.346    0.233    0.458  118.347
  419.105    6.696    0.201    0.446  121.368
  419.410    6.698    0.214    0.457  117.111
  419.715    6.953    0.230    0.462  114.070
  420.019    7.217    0.224    0.486  109.813
  420.324    7.219    0.216    0.494  107.982
  420.629    7.221    0.223    0.469  116.451
  420.934    7.637    0.218    0.468  119.471
  421.239    8.076    0.214    0.507  124.912
  421.543    8.700    0.215    0.514  123.685
  421.848    9.201    0.244    0.504  114.582
  422.153    8.705    0.232    0.480  110.933
  422.458    7.788    0.225    0.481  110.313
  422.763    6.234    0.232    0.461  101.813
  423.068    4.719    0.242    0.449  104.833
  423.372    3.848    0.256    0.443  110.272
  423.677    3.708    0.264    0.458  113.289
  423.982    3.922    0.269    0.488  116.306
  424.287    4.385    0.269    0.512  119.324
  424.592    5.688    0.251    0.533  122.341
  424.896    7.244    0.239    0.540  124.144
  425.201    7.660    0.240    0.535  122.919
  425.506    7.806    0.242    0.523  120.479
  425.811    8.103    0.238    0.501  119.863
  426.116    8.411    0.223    0.466  119.850
  426.420    9.062    0.240    0.467  111.352
  426.725    9.947    0.241    0.473  105.280
  427.030   10.519    0.229    0.488  102.842
  427.335   10.919    0.168    0.491  101.012
  427.640   11.127    0.154    0.449   96.149
  427.944   10.724    0.216    0.427   96.743
  428.249   10.528    0.224    0.449  102.789
  428.554    8.910    0.161    0.449   94.291
  428.859    7.825    0.164    0.402   99.732
  429.164    7.542    0.221    0.404  108.810
  429.469    7.543    0.234    0.459  114.250
  429.773    7.406    0.229    0.442  117.268
  430.078    7.006    0.203    0.427  117.857
  430.383    3.796    0.199    0.440  120.875
  430.688    2.769    0.210    0.477  122.074
  430.993    2.669    0.219    0.478  121.457
  431.297    2.822    0.217    0.455  117.806
  431.602    3.098    0.234    0.446  109.311
  431.907    3.662    0.278    0.482  105.055
  432.212    4.663    0.245    0.519  100.192
  432.517    5.616    0.241    0.562   86.240
  432.821    6.280    0.241    0.536   92.888
  433.126    6.166    0.236    0.511   94.094
  433.431    5.620    0.237    0.475   93.472
  433.736    4.756    0.238    0.434   92.249
  434.041    4.100    0.232    0.431   92.236
  434.345    3.952    0.230    0.448   97.071
  434.650    4.338    0.261    0.456  108.573
  434.955    4.850    0.241    0.468  110.983
  435.260    6.062    0.240    0.480  104.908
  435.565    7.301    0.247    0.499   94.590
  435.870    7.721    0.229    0.497   91.551
  436.174    6.414    0.198    0.446   93.353
  436.479    5.230    0.151    0.453   92.130
  436.784    4.947    0.213    0.417  100.601
  437.089    4.110    0.237    0.419  112.707
  437.394    3.677    0.243    0.473  113.907
  437.698    3.544    0.241    0.515  115.104
  438.003    3.480    0.241    0.529  118.727
  438.308    3.480    0.246    0.563  118.711
  438.613    3.613    0.251    0.571  116.880
  438.918    3.681    0.251    0.558  117.477
  439.222    4.116    0.240    0.520  121.096
  439.527    4.777    0.239    0.510  121.085
  439.832    5.243    0.232    0.506  118.647
  440.137    5.443    0.208    0.496  116.210
  440.442    5.343    0.194    0.487  111.955
  440.746    5.055    0.175    0.476  107.701
  441.051    4.608    0.172    0.458  111.321
  441.356    4.123    0.224    0.461  115.551
  441.661    4.048    0.223    0.472  118.569
  441.966    4.281    0.246    0.475  122.798
  442.271    4.786    0.254    0.481  125.814
  442.575    5.554    0.217    0.486  119.738
  442.880    6.815    0.216    0.486  114.272
  443.185    8.362    0.203    0.472  107.593
  443.490    9.525    0.253    0.472   96.672
  443.795   10.651    0.268    0.483   88.781
  444.099   11.056    0.283    0.452   82.708
  444.404   11.266    0.302    0.379   82.089
  444.709   11.914    0.311    0.397   88.742
  445.014   12.600    0.301    0.415   95.395
  445.319   12.839    0.281    0.404   95.988
  445.623   13.083    0.267    0.380   95.364
  445.928   12.844    0.262    0.384   96.565
  446.233   12.379    0.256    0.409   92.309
  446.538   12.154    0.244    0.412   92.297
  446.843   12.616    0.215    0.390   95.922
  447.147   14.642    0.246    0.386  103.786
  447.452   16.069    0.219    0.388  114.681
  447.757   16.374    0.163    0.430  109.820
  448.062   13.857    0.019    0.413   91.019
  448.367   11.299    0.000    0.329   91.007
  448.672    9.741    0.132    0.329  112.811
  448.976    8.716    0.167    0.365  130.372
  449.281    8.557    0.201    0.401  129.747
  449.586    8.883    0.204    0.468  128.527
  449.891    9.749    0.212    0.428  132.150
  450.196   11.527    0.214    0.412  134.560
  450.500   13.129    0.216    0.439  129.700
  450.805   14.680    0.194    0.413  113.927
  451.110   16.113    0.183    0.384  106.643
  451.415   18.355    0.206    0.400   98.147
  451.720   21.300    0.259    0.420   86.014
  452.024   24.719    0.252    0.386   89.636
  452.329   26.140    0.247    0.367   85.985
  452.634   26.145    0.263    0.409   79.304
  452.939   27.142    0.280    0.436   77.475
  453.244   30.347    0.301    0.455   79.887
  453.548   33.309    0.295    0.462   71.389
  453.853   33.942    0.285    0.423   62.891
  454.158   31.518    0.285    0.398   77.424
  454.463   27.172    0.292    0.420   88.319
  454.768   22.994    0.292    0.410   93.759
  455.073   20.959    0.277    0.407   92.534
  455.377   19.827    0.267    0.411   77.369
  455.682   19.109    0.252    0.396   73.721
  455.987   21.767    0.212    0.350   91.888
  456.292   23.891    0.209    0.357   90.056
  456.597   19.845    0.271    0.398   76.103
  456.901   13.948    0.311    0.402   93.060
  457.206   16.326    0.230    0.495  104.005
  457.511   41.409    0.239    0.408   94.330
  457.816   88.829    0.265    0.425   83.444
  458.121  103.081    0.298    0.433   71.952
  458.425  101.169    0.311    0.433   59.858
  458.730   90.464    0.321    0.416   64.713
  459.035   88.784    0.314    0.429   64.726
  459.340   93.872    0.314    0.443   56.264
  459.645  113.066    0.326    0.445   54.463
  459.949  136.185    0.326    0.402   56.289
  460.254  158.030    0.317    0.398   63.568
  460.559  167.091    0.326    0.408   64.790
  460.864  170.213    0.324    0.410   55.721
  461.169  133.605    0.315    0.398   44.229
  461.474   79.317    0.305    0.392   40.609
  461.778   35.614    0.300    0.385   53.943
  462.083   14.843    0.285    0.349   69.093
  462.388   10.039    0.236    0.333   84.241
  462.693    8.332    0.157    0.338  107.262
  462.998    6.788    0.193    0.379  118.778
  463.302    6.662    0.219    0.384  132.112
  463.607    6.786    0.200    0.405  141.814
  463.912    7.587    0.200    0.451  142.432
  464.217    9.486    0.220    0.477  135.783
  464.522   17.863    0.239    0.499  124.897
  464.826   30.645    0.277    0.485  105.534
  465.131   33.011    0.338    0.452   77.695
  465.436   31.214    0.313    0.420   80.735
  465.741   22.742    0.285    0.415   93.464
  466.046   16.569    0.243    0.410  101.346
  466.350   16.567    0.234    0.400  102.575
  466.655   16.877    0.230    0.390  101.978
  466.960   19.224    0.243    0.383   88.065
  467.265   22.727    0.282    0.387   76.574
  467.570   24.481    0.262    0.417   87.491
  467.875   24.477    0.229    0.428   88.709
  468.179   24.023    0.238    0.390   83.877
  468.484   23.143    0.256    0.388   86.919
  468.789   20.694    0.270    0.374   85.721
  469.094   17.499    0.237    0.360   90.576
  469.399   16.241    0.234    0.353   94.224
  469.703   18.499    0.240    0.354   94.234
  470.008   22.282    0.269    0.385   86.982
  470.313   26.837    0.302    0.441   72.463
  470.618   27.854    0.291    0.443   79.138
  470.923   28.373    0.276    0.415   82.782
