~VERSION INFORMATION
 VERS.                 2.0:   CWLS LOG ASCII STANDARD -VERSION 2.0
 WRAP.                  NO:   ONE LINE PER DEPTH STEP
~WELL INFORMATION BLOCK
#MNEM.UNIT           DATA                    DESCRIPTION OF MNEMONIC
#---------    -------------------            -------------------------------
# Generated from Intellog Unique Number	CC_80_83/WELL/2349
NULL.         -999.25                        : NULL_VALUE
WELL.         PEX PCEJ HANGST OV             : Well_name    - WELL
LOC .         10-11-082-08W4                 : Location     - LOCATION          
UWI .         AA/10-11-082-08W4/0            : Uwi          - UNIQUE WELL ID    
ENTR.         DW                             : Entered      - ENTERED BY        
SRVC.         DRESSER ATLAS                  : Scn          - SERVICE COMPANY   
DATE.         03 MAR 80                      : Date         - LOG DATE
STRT.M        265                            : top_depth    - START DEPTH       
STOP.M        495.091                        : bot_depth    - STOP DEPTH        
STEP.M        0.3                            : increment    - STEP LENGTH       
~CURVE INFORMATION BLOCK
#MNEM UNIT       ERCB CURVE CODE    CURVE DESCRIPTION
#-----------   ------------------   ----------------------------------
DEPT.M        00 001 00 00         : DEPTH        - DEPTH                       
DPHI.V/V      00 890 00 00         : PHID         - DENSITY POROSITY (LIMESTONE)
NPHI.V/V      00 330 00 00         : PHIN         - NEUTRON POROSITY (LIMESTONE)
GR  .API      00 310 00 00         : GR           - GAMMA RAY                   
ILD .OHMM     00 120 00 00         : RESD         - DEEP RESISTIVITY (DIL)      
~PARAMETER INFORMATION       
#MNEM.UNIT           DATA             DESCRIPTION OF MNEMONIC
#---------         -----------     ------------------------------
GL  .M        723                  : gl           - GROUND LEVEL ELEVATION      
EREF.M        726.6                : kb           - ELEVATION OF DEPTH REFERENCE
DATM.M        726.6                : datum        - DATUM ELEVATION             
TDD .M        498                  : tdd          - TOTAL DEPTH DRILLER         
RUN .         ONE                  : Run          - RUN NUMBER                  
ENG .         BILL                 : Engineer     - RECORDING ENGINEER          
WIT .         JIM                  : Witness      - WITNESSED BY                
MUD .         GEL                  : Mud_type     - MUD TYPE                    
MATR.         LIMESTONE            : Logunit      - NEUTRON MATRIX              
TMAX.C        16                   : BHT          - MAXIMUM RECORDED TEMPERATURE
BHTD.M        498                  : BHTDEP       - MAXIMUM RECORDED TEMPERATURE
MATR.         1                    : LOGUNIT      - NEUTRON MATRIX              
RMT .C        25                   : MDTP         - TEMPERATURE OF MUD          
NEUT.         1                    : NEUTRON      - NEUTRON TYPE                
RESI.         0                    : RESIST       - RESISTIVITY TYPE            
RMC .OHMM     0.25                 : RMC          - RESISTIVITY OF MUD CAKE     
RMF .OHMM     0.25                 : RMF          - RESISTIVITY OF MUD FILTRATE 
SUFT.C        15                   : SUFT         - SURFACE TEMPERATURE         
~A  DEPTH     PHID     PHIN       GR     RESD
# ...
  317.198    0.225    0.367   94.332   11.810
  317.498    0.220    0.367  107.569   12.270
  317.798    0.220    0.348   93.723   13.241
  318.098    0.221    0.329   83.656   14.564
  318.398    0.223    0.331   77.996   16.019
  318.698    0.232    0.323   71.079   18.303
  318.998    0.262    0.304   45.264   19.752
  319.298    0.277    0.299   25.119   21.316
  319.598    0.282    0.300   23.870   23.446
  319.898    0.284    0.312   30.180   24.826
  320.198    0.278    0.293   35.227   24.828
  320.498    0.262    0.293   46.574   23.453
  320.798    0.232    0.300   61.700   23.012
  321.098    0.232    0.313   67.379   20.925
  321.398    0.250    0.328   48.493   19.393
  321.698    0.240    0.309   48.505   18.670
  321.998    0.237    0.309   52.292   18.672
  322.298    0.219    0.323   57.972   19.032
  322.598    0.214    0.334   67.430   18.675
  322.898    0.218    0.326   73.740   17.307
  323.198    0.203    0.330   80.047   15.441
  323.498    0.194    0.340   94.542   13.517
  323.798    0.180    0.345   92.664   12.527
  324.098    0.174    0.343   93.935   11.610
  324.398    0.178    0.353  108.430    9.783
  324.698    0.197    0.365  109.700    8.896
  324.998    0.208    0.369  107.821    7.937
  325.298    0.199    0.362  114.129    7.217
  325.598    0.183    0.374  114.768    6.948
  325.898    0.180    0.387  105.962    6.949
  326.198    0.199    0.340   97.153    7.499
  326.497    0.220    0.337   90.234    8.406
  326.797    0.208    0.331   82.685    9.978
  327.097    0.203    0.329   87.736   11.842
  327.397    0.225    0.365   92.784   13.025
  327.697    0.244    0.377   87.754   12.781
  327.997    0.269    0.383   97.843   11.622
  328.297    0.295    0.396  106.040   10.568
  328.597    0.346    0.386   98.493    9.610
  328.897    0.368    0.385   94.725    9.252
  329.197    0.351    0.391   89.065    9.252
  329.497    0.341    0.401   92.855    9.431
  329.797    0.361    0.372   97.274    9.613
  330.097    0.313    0.352   94.133   10.374
  330.397    0.262    0.343   82.176   11.410
  330.697    0.251    0.336   90.377   13.288
  330.997    0.239    0.333   90.384   14.615
  331.297    0.267    0.336   72.129   16.700
  331.597    0.277    0.325   54.503   18.022
  331.897    0.267    0.320   59.553   18.369
  332.197    0.262    0.333   69.010   17.024
  332.497    0.256    0.352   83.506   14.902
  332.797    0.315    0.397   95.484   13.811
  333.097    0.398    0.448   76.597   14.078
  333.397    0.490    0.458   40.078   14.906
  333.697    0.297    0.337   39.456   16.086
  333.997    0.257    0.327   40.726   17.359
  334.297    0.265    0.309   41.366   18.381
  334.597    0.269    0.317   45.155   20.217
  334.897    0.269    0.323   44.538   21.407
  335.197    0.271    0.328   42.028   21.820
  335.497    0.279    0.324   42.036   21.411
  335.797    0.292    0.327   45.197   21.413
  336.097    0.311    0.340   48.356   21.414
  336.397    0.311    0.348   50.884   21.416
  336.697    0.288    0.317   51.523   21.015
  336.997    0.279    0.315   50.904   21.016
  337.297    0.281    0.328   52.175   21.833
  337.597    0.279    0.333   50.296   21.834
  337.897    0.280    0.330   49.045   22.256
  338.197    0.288    0.328   49.685   22.685
  338.497    0.294    0.329   50.324   22.687
  338.797    0.292    0.354   50.964   22.688
  339.097    0.289    0.320   50.976   22.691
  339.397    0.288    0.324   51.614   22.692
  339.697    0.285    0.338   49.735   23.130
  339.997    0.284    0.331   44.077   23.133
  340.297    0.290    0.329   45.348   23.134
  340.597    0.294    0.328   43.467   23.580
  340.897    0.294    0.339   47.256   23.583
  341.197    0.294    0.350   52.934   23.140
  341.497    0.289    0.344   56.094   22.706
  341.797    0.285    0.334   61.141   22.279
  342.097    0.286    0.333   58.634   21.449
  342.397    0.286    0.338   56.754   21.047
  342.697    0.286    0.350   58.024   20.652
  342.997    0.285    0.359   60.556   20.653
  343.297    0.281    0.360   61.822   20.655
  343.597    0.284    0.362   61.835   20.656
  343.897    0.286    0.350   59.323   21.460
  344.197    0.286    0.340   55.553   21.462
  344.497    0.284    0.335   52.415   21.876
  344.797    0.282    0.336   57.467   21.877
  345.097    0.286    0.345   58.732   21.879
  345.397    0.291    0.356   60.005   21.880
  345.697    0.294    0.368   60.643   21.471
  345.997    0.286    0.347   59.395   21.472
  346.297    0.280    0.345   57.512   21.474
  346.597    0.279    0.352   54.374   21.475
  346.897    0.280    0.340   61.942   21.477
  347.197    0.276    0.321   62.582   21.892
  347.497    0.267    0.298   59.442   21.893
  347.797    0.269    0.274   53.786   22.316
  348.097    0.251    0.230   50.645   22.746
  348.397    0.000    0.157   43.097   24.084
  348.697    0.014    0.164   36.178   26.490
  348.997    0.104    0.204   43.117   31.442
  349.297    0.205    0.278   60.132   40.270
  349.597    0.242    0.344   66.442   42.639
  349.897    0.306    0.357   65.192   30.274
  350.197    0.344    0.394   84.098   17.436
  350.497    0.391    0.421   85.368   10.042
  350.797    0.403    0.416   79.708    6.483
  351.096    0.266    0.401   72.159    6.008
  351.396    0.256    0.387   79.103    5.569
  351.696    0.287    0.382   79.741    5.676
  351.996    0.318    0.409   82.898    5.785
  352.296    0.352    0.425   84.167    6.244
  352.596    0.392    0.438   81.029    6.487
  352.896    0.374    0.415   76.631    6.487
  353.196    0.358    0.397   75.379    6.487
  353.496    0.283    0.392   77.280    6.613
  353.796    0.267    0.370   75.403    7.555
  354.096    0.256    0.338   73.522    9.140
  354.396    0.251    0.357   73.531   12.393
  354.696    0.249    0.364   71.653   15.873
  354.996    0.251    0.362   76.070   18.136
  355.296    0.252    0.363   76.711   19.948
  355.596    0.254    0.368   76.089   20.724
  355.896    0.259    0.369   87.437   20.335
  356.196    0.262    0.359   99.414   20.337
  356.496    0.260    0.359  120.839   20.338
  356.796    0.257    0.359  123.369   19.956
  357.096    0.250    0.358  114.560   19.582
  357.396    0.248    0.360  107.012   19.215
  357.696    0.250    0.376  131.587   18.854
  357.996    0.258    0.386  112.700   17.809
  358.296    0.260    0.365   79.330   14.724
  358.596    0.243    0.368   73.671   10.455
  358.896    0.230    0.374   71.162    9.327
  359.196    0.247    0.386   82.509    8.645
  359.496    0.248    0.407   88.817    8.323
  359.796    0.246    0.406   86.938    8.166
  360.096    0.248    0.410   76.869    7.426
  360.396    0.275    0.414   78.141    7.286
  360.696    0.350    0.415   83.188    7.427
  360.996    0.309    0.402   79.418    7.570
  361.296    0.226    0.400   80.058    7.288
  361.596    0.260    0.410   86.367    3.744
  361.896    0.350    0.435   89.530    1.684
  362.196    0.355    0.461   89.537    1.531
  362.496    0.354    0.445   92.696    1.503
  362.796    0.361    0.437   89.559    1.621
  363.096    0.366    0.447   87.678    2.117
  363.396    0.367    0.443   85.799    3.217
  363.696    0.375    0.476   83.288    3.967
  363.996    0.403    0.476   87.077    4.799
  364.296    0.421    0.456   90.868    5.179
  364.596    0.406    0.431   88.987    5.380
  364.896    0.333    0.419   82.698    5.082
  365.196    0.388    0.438   89.010    4.710
  365.496    0.347    0.462   89.019    4.534
  365.796    0.361    0.457   87.138    4.449
  366.096    0.351    0.459   85.889    4.283
  366.396    0.341    0.443   90.939    4.284
  366.696    0.330    0.453   92.838    4.284
  366.996    0.328    0.472   91.588    4.125
  367.296    0.327    0.488   92.857    4.047
  367.596    0.312    0.499   91.606    3.823
  367.896    0.334    0.493   88.471    3.680
  368.196    0.338    0.500   89.108    3.611
  368.496    0.336    0.494   87.229    3.612
  368.796    0.336    0.460   84.091    3.612
  369.096    0.352    0.469   82.839    3.682
