~VERSION INFORMATION
 VERS.                 2.0:   CWLS LOG ASCII STANDARD -VERSION 2.0
 WRAP.                  NO:   ONE LINE PER DEPTH STEP
~WELL INFORMATION BLOCK
#MNEM.UNIT           DATA                    DESCRIPTION OF MNEMONIC
#---------    -------------------            -------------------------------
# Generated from Intellog Unique Number	CC_84_87/WELL/2350
NULL.         -999.25                        : NULL_VALUE
WELL.         SUNCOR CHEECHAM                : Well_name    - WELL              
LOC .         15-06-085-06W4                 : Location     - LOCATION          
UWI .         00/15-06-085-06W400            : Uwi          - UNIQUE WELL ID    
ENTR.         DW                             : Entered      - ENTERED BY        
SRVC.         SCHLUMBERGER                   : Scn          - SERVICE COMPANY   
DATE.         04 MAR 81                      : Date         - LOG DATE
STRT.M        91                             : top_depth    - START DEPTH       
STOP.M        324.999                        : bot_depth    - STOP DEPTH        
STEP.M        0.3                            : increment    - STEP LENGTH       
~CURVE INFORMATION BLOCK
#MNEM UNIT       ERCB CURVE CODE    CURVE DESCRIPTION
#-----------   ------------------   ----------------------------------
DEPT.M        00 001 00 00         : DEPTH        - DEPTH                       
DPHI.V/V      00 890 00 00         : PHID         - DENSITY POROSITY (LIMESTONE)
NPHI.V/V      00 330 00 00         : PHIN         - NEUTRON POROSITY (LIMESTONE)
GR  .API      00 310 00 00         : GR           - GAMMA RAY                   
ILD .OHMM     00 120 00 00         : RESD         - DEEP RESISTIVITY (DIL)      
~PARAMETER INFORMATION       
#MNEM.UNIT           DATA             DESCRIPTION OF MNEMONIC
#---------         -----------     ------------------------------
GL  .M        504.5                : gl           - GROUND LEVEL ELEVATION      
EREF.M        507.7                : kb           - ELEVATION OF DEPTH REFERENCE
DATM.M        507.7                : datum        - DATUM ELEVATION             
TDD .M        353                  : tdd          - TOTAL DEPTH DRILLER         
RUN .         ONE                  : Run          - RUN NUMBER                  
ENG .         BILL                 : Engineer     - RECORDING ENGINEER          
WIT .         JIM                  : Witness      - WITNESSED BY                
MUD .         GEL                  : Mud_type     - MUD TYPE                    
MATR.         LIMESTONE            : Logunit      - NEUTRON MATRIX              
TMAX.C        25                   : BHT          - MAXIMUM RECORDED TEMPERATURE
BHTD.M        353                  : BHTDEP       - MAXIMUM RECORDED TEMPERATURE
MATR.         1                    : LOGUNIT      - NEUTRON MATRIX              
RMT .C        25                   : MDTP         - TEMPERATURE OF MUD          
NEUT.         1                    : NEUTRON      - NEUTRON TYPE                
RESI.         0                    : RESIST       - RESISTIVITY TYPE            
RMC .OHMM     0.25                 : RMC          - RESISTIVITY OF MUD CAKE     
RMF .OHMM     0.25                 : RMF          - RESISTIVITY OF MUD FILTRATE 
SUFT.C        4                    : SUFT         - SURFACE TEMPERATURE         
~A  DEPTH     PHID     PHIN       GR     RESD
# ...
  247.602    0.250    0.390   73.738    8.749
  247.902    0.243    0.402   86.742    8.913
  248.202    0.228    0.391   86.078    8.908
  248.502    0.234    0.439   69.258    8.734
  248.802    0.237    0.461   73.564    8.564
  249.102    0.214    0.398   80.356    8.397
  249.402    0.219    0.374   84.040    8.554
  249.702    0.214    0.401   81.509    8.714
  250.002    0.200    0.418   67.802   11.319
  250.302    0.206    0.423   63.412   11.962
  250.602    0.222    0.396   61.506   12.641
  250.902    0.226    0.401   52.765   14.414
  251.202    0.289    0.421   50.231   18.091
  251.502    0.260    0.406   61.994   30.823
  251.802    0.223    0.402   61.333   37.228
  252.102    0.236    0.412   47.004   38.587
  252.402    0.265    0.417   40.124   36.344
  252.702    0.276    0.401   36.352   31.121
  253.002    0.294    0.390   35.071   26.135
  253.302    0.289    0.399   36.266   24.167
  253.602    0.292    0.409   41.815   21.911
  253.902    0.283    0.399   49.228   20.644
  254.202    0.253    0.394   42.349   18.718
  254.502    0.279    0.419   43.550   16.644
  254.802    0.286    0.419   54.689   15.687
  255.102    0.275    0.404   54.024   14.222
  255.402    0.252    0.403   50.256   12.893
  255.702    0.260    0.420   47.721   12.142
  256.002    0.264    0.410   48.297   11.893
  256.302    0.249    0.397   49.505   11.422
  256.602    0.246    0.414   51.940   10.966
  256.902    0.243    0.410   53.758   10.941
  257.202    0.266    0.415   56.206   12.478
  257.502    0.245    0.404   61.751   17.229
  257.802    0.248    0.385   57.363   29.350
  258.102    0.273    0.403   49.867   36.120
  258.402    0.279    0.404   49.201   37.442
  258.702    0.284    0.412   37.355   35.969
  259.002    0.308    0.426   32.964   31.979
  259.302    0.307    0.419   32.298   28.449
  259.602    0.327    0.422   35.980   25.312
  259.902    0.326    0.438   40.908   22.101
  260.202    0.330    0.448   43.971   19.288
  260.501    0.325    0.441   45.787   18.169
  260.801    0.319    0.440   46.373   15.548
  261.101    0.304    0.434   43.836   14.108
  261.401    0.296    0.410   42.553   11.406
  261.701    0.300    0.424   43.134   10.952
  262.001    0.313    0.431   49.304   12.733
  262.301    0.297    0.423   59.200   18.263
  262.601    0.273    0.422   55.428   29.385
  262.901    0.303    0.447   37.994   29.314
  263.201    0.331    0.467   32.977   21.136
  263.501    0.337    0.461   32.934   15.830
  263.801    0.313    0.428   36.000   12.082
  264.101    0.340    0.442   42.789   10.347
  264.401    0.307    0.436   58.277    9.561
  264.701    0.275    0.400   65.687    9.359
  265.001    0.235    0.397   62.535   10.271
  265.301    0.234    0.414   56.280   11.274
  265.601    0.273    0.425   48.786   12.147
  265.901    0.301    0.426   48.743   11.440
  266.201    0.303    0.435   52.424   11.198
  266.501    0.316    0.428   49.273   11.611
  266.801    0.267    0.414   44.883   12.737
  267.101    0.285    0.418   41.734   13.458
  267.401    0.298    0.418   39.201   13.690
  267.701    0.307    0.434   37.922   12.895
  268.001    0.292    0.429   36.009   11.693
  268.301    0.308    0.434   39.076   10.207
  268.601    0.313    0.432   46.488    8.909
  268.901    0.275    0.416   52.660    7.774
  269.201    0.271    0.401   54.480    7.052
  269.501    0.285    0.420   50.084    6.269
  269.801    0.297    0.426   43.213    5.576
  270.101    0.320    0.426   31.362    5.061
  270.401    0.325    0.421   31.945    4.332
  270.701    0.316    0.403   35.006    3.638
  271.001    0.308    0.386   34.964    3.116
  271.301    0.333    0.431   32.426    2.666
  271.601    0.312    0.478   31.147    2.466
  271.901    0.301    0.437   32.352    2.368
  272.201    0.299    0.387   33.550    2.317
  272.501    0.288    0.394   36.608    2.355
  272.801    0.283    0.399   39.672    2.350
  273.101    0.271    0.381   45.830    2.300
  273.401    0.245    0.365   50.149    2.294
  273.701    0.204    0.367   92.343    2.378
  274.001    0.217    0.393   94.780    2.420
  274.301    0.194    0.415   97.844    2.414
  274.601    0.185    0.412   98.426    2.409
  274.901    0.174    0.421   92.173    2.355
  275.201    0.225    0.443   78.461    2.352
  275.501    0.215    0.426   79.659    2.392
  275.801    0.213    0.389   93.279    2.576
  276.101    0.194    0.382   93.234    2.775
  276.401    0.202    0.385   90.711    2.986
  276.701    0.211    0.384   92.533    3.037
  277.001    0.201    0.409   96.840    3.090
  277.301    0.173    0.406   95.555    3.084
  277.601    0.167    0.431   96.128    3.016
  277.901    0.166    0.431   93.597    2.953
  278.201    0.157    0.401   90.454    2.836
  278.501    0.149    0.420   88.550    2.522
  278.801    0.159    0.419   93.474    2.332
  279.101    0.178    0.402   93.426    1.996
  279.401    0.196    0.395   85.311    1.845
  279.701    0.228    0.396   79.059    1.772
  280.001    0.249    0.415   80.256    1.702
  280.301    0.229    0.429   87.668    1.697
  280.601    0.207    0.444   84.511    1.662
  280.901    0.216    0.423   80.748    1.535
  281.201    0.226    0.413   75.115    1.419
  281.501    0.242    0.437   71.343    1.287
  281.801    0.262    0.438   60.739    1.123
  282.101    0.226    0.434   56.972    1.038
  282.401    0.267    0.448   58.789    1.036
  282.701    0.276    0.426   71.172    1.114
  283.001    0.237    0.408   76.100    1.156
  283.301    0.229    0.419   71.085    1.199
  283.601    0.275    0.429   69.179    1.290
  283.901    0.280    0.427   75.967    1.337
  284.201    0.235    0.418   82.758    1.334
  284.501    0.233    0.435   70.289    1.307
  284.801    0.260    0.444   65.271    1.278
  285.100    0.282    0.432   67.713    1.276
  285.400    0.267    0.435   74.506    1.322
  285.700    0.226    0.419   82.538    1.508
  286.000    0.236    0.391   83.743    1.624
  286.300    0.222    0.394   82.455    1.684
  286.600    0.195    0.394   79.306    1.678
  286.900    0.201    0.413   74.295    1.643
  287.200    0.149    0.413   72.389    1.548
  287.500    0.149    0.403   67.997    1.487
  287.800    0.244    0.425   70.438    1.374
  288.100    0.256    0.434   77.227    1.345
  288.400    0.248    0.425   79.669    1.292
  288.700    0.233    0.420   78.370    1.241
  289.000    0.254    0.424   73.372    1.146
  289.300    0.263    0.435   66.485    1.101
  289.600    0.259    0.425   63.963    1.058
  289.900    0.246    0.409   63.914    0.996
  290.200    0.262    0.405   62.016    0.956
  290.500    0.267    0.412   57.620    0.918
  290.800    0.286    0.413   58.205    0.934
  291.100    0.266    0.417   63.131    0.950
  291.400    0.290    0.426   67.433    0.948
  291.700    0.272    0.425   63.663    0.893
  292.000    0.267    0.401   56.784    0.841
  292.300    0.279    0.415   48.671    0.777
  292.600    0.296    0.395   44.275    0.746
  292.900    0.306    0.387   42.373    0.703
  293.200    0.310    0.396   42.943    0.662
  293.500    0.324    0.408   42.285    0.636
  293.800    0.330    0.395   40.379    0.610
  294.100    0.329    0.397   40.325    0.598
  294.400    0.313    0.400   40.902    0.597
  294.700    0.323    0.398   42.114    0.607
  295.000    0.317    0.398   44.547    0.629
  295.300    0.321    0.406   43.877    0.677
  295.600    0.321    0.403   43.839    0.702
  295.900    0.323    0.403   46.282    0.713
  296.200    0.307    0.415   45.625    0.699
  296.500    0.310    0.400   39.364    0.658
  296.800    0.292    0.405   34.353    0.645
  297.100    0.319    0.390   36.173    0.607
  297.400    0.325    0.387   36.129    0.594
  297.700    0.309    0.399   33.599    0.604
  298.000    0.309    0.409   36.666    0.614
  298.300    0.318    0.406   37.861    0.624
  298.600    0.293    0.402   36.580    0.623
  298.900    0.302    0.403   32.811    0.599
  299.200    0.327    0.392   30.898    0.575
  299.500    0.347    0.384   30.241    0.563
