~VERSION INFORMATION
 VERS.                 2.0:   CWLS LOG ASCII STANDARD -VERSION 2.0
 WRAP.                  NO:   ONE LINE PER DEPTH STEP
~WELL INFORMATION BLOCK
#MNEM.UNIT           DATA                    DESCRIPTION OF MNEMONIC
#---------    -------------------            -------------------------------
# Generated from Intellog Unique Number	CN_94_101/WELL/2490
WELL.         14-23-094-09W4                 : Well_name    - WELL
LOC .         AA/14-23-094-09W4/0            : Location     - LOCATION
UWI .         AA/14-23-094-09W400            : Uwi          - UNIQUE WELL ID
ENTR.         JOETTE                         : Entered      - ENTERED BY
SRVC.         SCHLUMBERGER                   : Scn          - SERVICE COMPANY
DATE.         05/17/92                       : Date         - LOG DATE
STRT.M        12                             : top_depth    - START DEPTH
STOP.M        130                            : bot_depth    - STOP DEPTH
STEP.M        0.25                           : increment    - STEP LENGTH
 NULL. -999.2500:NULL Value
~CURVE INFORMATION BLOCK
#MNEM UNIT       ERCB CURVE CODE    CURVE DESCRIPTION
#-----------   ------------------   ----------------------------------
DEPT.M        00 001 00 00         : DEPTH        - DEPTH
CALI.MM       00 280 01 00         : CAL          - CALIPER
GR  .API      00 310 00 00         : GR           - GAMMA RAY
ILD .OHMM     00 120 00 00         : RESD         - DEEP RESISTIVITY (DIL)
RHOB.KG/M3    00 350 00 00         : DENS         - BULK DENSITY
NPHI.V/V      00 330 00 00         : PHIN         - NEUTRON POROSITY (SANDSTONE)
~PARAMETER INFORMATION
#MNEM.UNIT           DATA             DESCRIPTION OF MNEMONIC
#---------         -----------     ------------------------------
GL  .M        334.3                : gl           - GROUND LEVEL ELEVATION
EREF.M        334.3                : kb           - ELEVATION OF DEPTH REFERENCE
DATM.M        334.3                : datum        - DATUM ELEVATION
TDD .M        132                  : tdd          - TOTAL DEPTH DRILLER
RUN .         ONE                  : Run          - RUN NUMBER
ENG .         BILL                 : Engineer     - RECORDING ENGINEER
WIT .         JIM                  : Witness      - WITNESSED BY
MUD .         GEL                  : Mud_type     - MUD TYPE
MATR.         SANDSTONE            : Logunit      - NEUTRON MATRIX
TMAX.C        7                    : BHT          - MAXIMUM RECORDED TEMPERATURE
BHTD.M        132                  : BHTDEP       - MAXIMUM RECORDED TEMPERATURE
RMT .C        7                    : MDTP         - TEMPERATURE OF MUD
MUDD.KG/M     1100                 : MWT          - MUD DENSITY
NEUT.         1                    : NEUTRON      - NEUTRON TYPE
RESI.         0                    : RESIST       - RESISTIVITY TYPE
RM  .OHMM     11.9                 : RM           - RESISTIVITY OF MUD
RMC .OHMM     13.8                 : RMC          - RESISTIVITY OF MUD CAKE
RMF .OHMM     12.3                 : RMF          - RESISTIVITY OF MUD FILTRATE
SUFT.C        4                    : SUFT         - SURFACE TEMPERATURE
~A  DEPTH      CAL       GR     RESD     DENS     PHIN
   12.000  159.443   74.425    0.423 2184.660    0.593
   12.250  157.758   89.489    0.527 2098.630    0.574
   12.500  156.072   97.884    7.000 2094.670    0.535
   12.750  155.588   95.396    8.564 2068.710    0.546
   13.000  155.525   96.518    8.082 2084.770    0.527
   13.250  156.273   96.465    8.369 2128.880    0.549
   13.500  158.254  107.279    9.687 2144.970    0.454
   13.750  164.274  116.901   11.206 2165.050    0.499
   14.000  168.656  107.744   11.821 2249.200    0.513
   14.250  166.955  104.046   12.938 2253.260    0.484
   14.500  165.707   95.511    9.787 2237.300    0.443
   14.750  163.585  100.279    7.817 2195.310    0.491
   15.000  162.742   97.186    7.380 2157.330    0.517
   15.250  159.809  100.744    7.646 2145.360    0.553
   15.500  158.513   98.238    9.354 2169.440    0.544
   15.750  158.076  106.633    9.335 2211.550    0.565
   16.000  157.608  107.185    7.058 2197.590    0.496
   16.250  158.746  100.464    5.241 2169.610    0.456
   16.500  160.710  119.743    5.631 2105.590    0.520
   16.750  163.486  108.185    5.934 2071.620    0.514
   17.000  165.045  114.162    5.605 2071.680    0.551
   17.250  163.766  110.464    5.594 2071.730    0.572
   17.500  162.470  112.813    5.585 2079.800    0.579
   17.750  162.033  113.952    6.110 2129.910    0.580
   18.000  161.533  114.487    6.691 2143.980    0.567
   18.250  161.080  114.417    7.323 2160.070    0.551
   18.500  158.990   94.981    8.472 2182.140    0.526
   18.750  156.088   86.429   11.368 2288.320    0.491
   19.000  155.619   84.545    7.275 2216.290    0.502
   19.250  156.773   91.748    6.872 2148.270    0.520
   19.500  157.521  111.027    5.100 2034.190    0.643
   19.750  157.864  101.283    3.787 2000.220    0.640
   20.000  157.785   82.451    3.446 2004.270    0.604
   20.250  157.285   90.242    3.376 2008.340    0.593
   20.500  156.426   85.940    3.496 1996.370    0.598
   20.750  155.568   79.219    4.120 1986.410    0.610
   21.000  154.257   91.242    5.325 1982.480    0.558
   21.250  154.225   99.050    5.413 1962.500    0.586
   21.500  154.131   93.521    6.035 1936.520    0.554
   21.750  154.099  100.120    5.912 2010.660    0.582
   22.000  154.395   92.172    4.905 2084.810    0.542
   22.250  154.363   94.521    4.381 2130.930    0.523
   22.500  154.284   97.474    5.260 2127.000    0.584
   22.750  154.237   91.962    5.249 2145.060    0.615
   23.000  154.158   92.497    5.336 2167.140    0.570
   23.250  154.111   94.846    5.424 2169.200    0.512
   23.500  154.032  108.096    5.121 2093.170    0.501
   23.750  154.359  101.357    3.872 2045.170    0.524
   24.000  154.733   94.032    3.793 2043.220    0.542
   24.250  156.277   98.195    3.928 2055.290    0.577
   24.500  157.041  106.572    4.379 2057.350    0.586
   24.750  157.789  106.502    4.537 2023.380    0.587
   25.000  156.915  105.845    3.976 2033.430    0.584
   25.250  155.229  102.148    3.550 2057.520    0.610
   25.500  155.135  107.520    3.232 2069.590    0.593
   25.750  155.883  110.473    2.632 2067.640    0.605
   26.000  156.225   97.101    3.219 2087.720    0.562
   26.250  155.757   97.031    4.563 2101.790    0.573
   26.500  154.899   94.525    5.380 2103.850    0.609
   26.750  152.761   98.083    5.171 2161.990    0.573
   27.000  151.497  100.449    5.986 2174.060    0.495
   27.250  150.233   91.879    8.028 2134.070    0.507
   27.500  148.111   96.060    4.350 2130.130    0.534
   27.750  147.674   97.199    5.522 2150.200    0.516
   28.000  146.378   84.432    7.974 2180.290    0.541
   28.250  145.488   73.461    7.962 2210.380    0.545
   28.500  145.051   80.647    8.714 2204.450    0.498
   28.750  144.146   79.367   11.687 2182.460    0.462
   29.000  142.850   70.832   12.564 2164.500    0.408
   29.250  142.413   71.972   12.532 2178.570    0.434
   29.500  141.523   87.641   15.051 2216.680    0.419
   29.750  141.055   93.617   18.748 2240.770    0.453
   30.000  140.196   86.879   20.144 2206.780    0.410
   30.250  139.307   78.948   22.048 2178.810    0.473
   30.500  138.822   72.832   25.028 2168.850    0.497
   30.750  139.165   81.227   25.930 2178.920    0.471
   31.000  139.118   76.320   27.351 2186.980    0.417
   31.250  139.023   73.814   28.322 2195.050    0.386
   31.500  138.976   78.599   29.859 2201.110    0.403
   31.750  138.523   83.367   30.935 2209.190    0.374
   32.000  138.039   76.041   31.464 2213.250    0.434
   32.250  137.586   82.017   32.564 2217.310    0.383
   32.500  137.507   83.762   33.103 2229.370    0.407
   32.750  137.428   83.087   33.035 2213.410    0.417
   33.000  137.771   89.668   32.968 2191.450    0.369
   33.250  138.129   84.157   32.883 2201.500    0.405
   33.500  138.066   91.343   32.849 2207.570    0.402
   33.750  138.409   90.064   33.393 2205.650    0.396
   34.000  138.736   74.255   34.579 2207.710    0.393
   34.250  138.688   68.139   37.154 2201.740    0.417
   34.500  139.031   74.116   41.403 2207.820    0.364
   34.750  139.358   77.674   42.088 2211.880    0.343
   35.000  140.121   77.586   51.492 2201.910    0.361
   35.250  141.275   80.540   53.321 2183.940    0.378
   35.500  144.035   78.069   52.211 2172.000    0.419
   35.750  145.594   71.330   56.099 2178.060    0.435
   36.000  145.126   68.237   62.546 2178.120    0.444
   36.250  141.834   71.813   71.108 2164.140    0.465
   36.500  139.696   81.417   56.824 2162.200    0.413
   36.750  139.665   84.371   52.668 2182.280    0.422
   37.000  140.787   69.772   56.562 2192.350    0.431
   37.250  141.551   76.371   60.774 2174.380    0.404
   37.500  141.909   85.371   57.409 2192.460    0.390
   37.750  142.220   91.347   50.316 2200.520    0.404
   38.000  142.173   82.812   47.531 2180.550    0.392
   38.250  142.125   74.260   64.933 2144.570    0.415
   38.500  141.657   69.957   83.969 2146.630    0.398
   38.750  141.188  100.760   95.364 2176.730    0.378
   39.000  141.125   92.812   63.353 2192.810    0.417
   39.250  140.657   74.585   53.539 2194.870    0.388
   39.500  139.751   73.306   41.211 2208.940    0.397
   39.750  139.704   85.347   31.771 2217.000    0.370
   40.000  139.220   87.695   28.379 2201.040    0.364
   40.250  139.172   78.538   32.815 2191.100    0.383
   40.500  139.499   86.347   27.745 2193.140    0.388
   40.750  139.436  100.184   26.671 2197.220    0.361
   41.000  139.794   95.277   27.126 2197.290    0.350
   41.250  139.716   81.887   30.791 2195.310    0.388
   41.500  139.668   87.259   29.087 2203.380    0.400
   41.750  140.011   85.980   24.556 2227.480    0.384
   42.000  141.149   84.701   24.975 2251.560    0.384
   42.250  141.897   90.677   26.835 2217.580    0.363
   42.500  140.617   89.398   28.321 2195.610    0.420
   42.750  139.743   83.282   28.760 2199.670    0.401
   43.000  140.881   81.985   31.478 2197.720    0.435
   43.250  141.613   78.305   33.858 2179.760    0.441
   43.500  141.566   78.235   31.381 2171.820    0.423
   43.750  141.098   75.124   28.525 2177.880    0.373
   44.000  139.818   81.723   27.945 2187.950    0.387
   44.250  138.960   86.491   24.069 2216.020    0.384
   44.500  138.475  100.328   14.851 2236.100    0.441
   44.750  138.412  111.159   15.097 2222.160    0.468
   45.000  139.987   98.374   17.800 2226.200    0.475
   45.250  141.936   96.490   20.215 2216.260    0.427
   45.500  143.106   98.234   15.859 2216.320    0.470
   45.750  143.448  112.694   14.973 2210.360    0.468
   46.000  143.775   99.909   17.322 2216.410    0.463
   46.250  144.133  102.258   18.969 2208.460    0.448
   46.500  141.216   97.955   18.234 2202.520    0.409
   46.750  140.747  106.350   15.989 2220.600    0.420
   47.000  143.117  111.118   13.023 2244.690    0.416
   47.250  146.283  117.699   12.996 2268.770    0.459
   47.500  146.251  121.275   16.489 2262.820    0.443
   47.750  150.244  126.647   15.284 2240.850    0.438
   48.000  146.110  118.716   13.645 2248.910    0.495
   48.250  148.496  113.170   14.669 2232.950    0.516
