~VERSION INFORMATION
 VERS.                 2.0:   CWLS LOG ASCII STANDARD -VERSION 2.0
 WRAP.                  NO:   ONE LINE PER DEPTH STEP
~WELL INFORMATION BLOCK
#MNEM.UNIT           DATA                    DESCRIPTION OF MNEMONIC
#---------    -------------------            -------------------------------
# Generated from Intellog Unique Number	CW_82_90/WELL/3443
WELL.         CDN SUP MINK OV                : Well_name    - WELL
LOC .         AA/10-31-088-19W4/0            : Location     - LOCATION
UWI .         AA/10-31-088-19W400            : Uwi          - UNIQUE WELL ID
ENTR.         MAX                            : Entered      - ENTERED BY
SRVC.         SCHLUMBERGER                   : Scn          - SERVICE COMPANY
STRT.M        76.2                           : top_depth    - START DEPTH
STOP.M        269.45                         : bot_depth    - STOP DEPTH
STEP.M        0.25                           : increment    - STEP LENGTH
 NULL. -999.2500:NULL Value
~CURVE INFORMATION BLOCK
#MNEM UNIT       ERCB CURVE CODE    CURVE DESCRIPTION
#-----------   ------------------   ----------------------------------
DEPT.M        00 001 00 00         : DEPTH        - DEPTH
ILD .OHMM     00 120 00 00         : RESD         - DEEP RESISTIVITY (DIL)
NPHI.V/V      00 330 00 00         : PHIN         - NEUTRON POROSITY (SANDSTONE)
DPHI.V/V      00 890 00 00         : PHID         - DENSITY POROSITY (SANDSTONE)
CALI.MM       00 280 01 00         : CAL          - CALIPER
GR  .API      00 310 00 00         : GR           - GAMMA RAY
~PARAMETER INFORMATION
#MNEM.UNIT           DATA             DESCRIPTION OF MNEMONIC
#---------         -----------     ------------------------------
GL  .M        514.198              : gl           - GROUND LEVEL ELEVATION
EREF.M        518.465              : kb           - ELEVATION OF DEPTH REFERENCE
DATM.M        514.198              : datum        - DATUM ELEVATION
TDD .M        271.272              : tdd          - TOTAL DEPTH DRILLER
RUN .         ONE                  : Run          - RUN NUMBER
ENG .         BILL                 : Engineer     - RECORDING ENGINEER
WIT .         JIM                  : Witness      - WITNESSED BY
MUD .         GEL                  : Mud_type     - MUD TYPE
MATR.         SANDSTONE            : Logunit      - NEUTRON MATRIX
TMAX.C        23.8889              : BHT          - MAXIMUM RECORDED TEMPERATURE
BHTD.M        271.272              : BHTDEP       - MAXIMUM RECORDED TEMPERATURE
MATR.         1                    : LOGUNIT      - NEUTRON MATRIX
RMT .C        17.7778              : MDTP         - TEMPERATURE OF MUD
NEUT.         1                    : NEUTRON      - NEUTRON TYPE
RESI.         0                    : RESIST       - RESISTIVITY TYPE
RMC .OHMM     4.51                 : RMC          - RESISTIVITY OF MUD CAKE
RMF .OHMM     4.51                 : RMF          - RESISTIVITY OF MUD FILTRATE
SUFT.C        -15                  : SUFT         - SURFACE TEMPERATURE
~A  DEPTH     RESD     PHIN     PHID      CAL       GR
# ...
  149.200   10.137    0.489    0.223  206.682   89.952
  149.450    9.349    0.482    0.234  206.704   88.477
  149.700    8.623    0.464    0.256  206.726   85.809
  149.950    8.473    0.464    0.254  206.748   82.843
  150.200    8.478    0.469    0.240  206.773   85.537
  150.450    8.878    0.477    0.228  206.796   84.956
  150.700    9.295    0.490    0.217  206.815   87.649
  150.950    9.822    0.514    0.235  206.837   92.726
  151.200    9.223    0.536    0.243  207.364  100.484
  151.450    7.700    0.559    0.246  207.392  107.350
  151.700    5.461    0.567    0.239  207.915  110.044
  151.950    4.684    0.560    0.230  207.938  110.355
  152.200    4.243    0.556    0.218  207.963  108.283
  152.450    3.843    0.565    0.235  209.031  106.568
  152.700    4.063    0.548    0.230  212.068  104.840
  152.950    4.666    0.535    0.207  212.117  101.351
  153.200    5.407    0.501    0.213  213.174   98.441
  153.450    6.208    0.486    0.237  213.727   94.365
  153.700    7.128    0.476    0.252  214.272   90.586
  153.950    7.607    0.481    0.250  213.838   87.097
  154.200    7.544    0.486    0.242  214.398   84.778
  154.450    7.280    0.500    0.250  214.454   84.811
  154.700    7.628    0.503    0.259  214.005   86.605
  154.950    8.064    0.487    0.274  214.068   82.822
  155.200    8.845    0.480    0.274  213.165   77.866
  155.450    9.972    0.480    0.250  215.678   73.496
  155.700   11.139    0.472    0.241  214.732   68.540
  155.950   13.027    0.467    0.251  214.781   66.225
  156.200   14.821    0.467    0.283  214.837   68.903
  156.450   15.673    0.470    0.322  213.899   66.584
  156.700   14.711    0.475    0.300  213.954   63.682
  156.950   10.686    0.483    0.280  214.010   72.520
  157.200    8.824    0.501    0.255  214.066   81.949
  157.450    7.420    0.504    0.265  214.122   90.493
  157.700    6.474    0.518    0.274  213.190   90.233
  157.950    5.805    0.520    0.277  212.756   83.808
  158.200    5.758    0.515    0.283  211.825   78.558
  158.450    6.315    0.487    0.289  212.875   75.656
  158.700    7.946    0.478    0.297  212.924   72.461
  158.950   10.467    0.477    0.300  211.488   69.852
  159.200   13.415    0.476    0.285  210.543   69.889
  159.450   15.978    0.477    0.268  211.096   67.872
  159.700   15.138    0.481    0.247  211.649   67.603
  159.950   13.326    0.493    0.231  213.195   71.452
  160.200   11.415    0.521    0.238  213.748   75.594
  160.450    7.920    0.536    0.251  211.319   81.794
  160.700    6.134    0.504    0.258  214.364   89.458
  160.950    5.758    0.509    0.252  217.415   94.782
  161.200    5.763    0.516    0.240  217.961   95.985
  161.450    5.715    0.523    0.237  216.526   96.902
  161.700    5.720    0.516    0.234  215.588   95.170
  161.950    5.939    0.499    0.228  215.650   92.561
  162.200    6.165    0.484    0.229  215.699   87.311
  162.450    7.015    0.475    0.245  215.755   83.818
  162.700    8.509    0.471    0.220  215.314   84.149
  162.950   10.905    0.465    0.162  215.362   81.830
  163.200   14.903    0.436    0.090  214.921   75.699
  163.450   16.646    0.390    0.056  214.984   68.688
  163.700   19.648    0.337    0.039  215.033   60.797
  163.950   23.616    0.286    0.032  215.095   57.899
  164.200   29.990    0.276    0.059  214.661   59.106
  164.450   33.813    0.332    0.123  214.213   61.780
  164.700   34.153    0.363    0.143  213.765   64.744
  164.950   33.561    0.395    0.154  214.324   69.473
  165.200   30.094    0.408    0.164  214.884   74.503
  165.450   25.079    0.425    0.171  215.437   76.591
  165.700   22.693    0.440    0.180  215.493   77.504
  165.950   19.616    0.457    0.192  215.051   80.174
  166.200   17.115    0.470    0.203  214.610   85.201
  166.450   15.206    0.478    0.237  214.659   89.636
  166.700   11.994    0.478    0.244  214.715   94.659
  166.950   10.656    0.484    0.229  214.770   97.631
  167.200    9.128    0.502    0.220  214.826  100.892
  167.450    7.963    0.518    0.219  214.392  100.925
  167.700    7.076    0.488    0.222  213.454  100.958
  167.950    6.230    0.504    0.228  213.509  104.219
  168.200    5.848    0.530    0.231  213.565  107.774
  168.450    5.961    0.524    0.224  214.125  109.866
  168.700    6.076    0.525    0.200  214.188  110.192
  168.950    6.082    0.549    0.184  214.236  108.460
  169.200    6.086    0.550    0.175  214.292  101.743
  169.450    6.147    0.530    0.205  214.852   89.449
  169.700    6.559    0.501    0.263  215.391   82.727
  169.950    8.180    0.481    0.291  215.447   78.651
  170.200    9.054    0.488    0.305  215.005   74.281
  170.450   11.709    0.492    0.297  215.075   70.503
  170.700   14.736    0.484    0.280  214.627   67.597
  170.950   15.724    0.475    0.266  214.186   65.575
  171.200   18.054    0.465    0.265  213.744   64.438
  171.450   19.266    0.453    0.273  213.807   64.178
  171.700   19.284    0.448    0.285  213.856   64.798
  171.950   19.122    0.464    0.277  213.912   66.013
  172.200   18.964    0.482    0.288  213.974   67.216
  172.450   18.809    0.477    0.275  215.024   69.010
  172.700   19.000    0.466    0.235  215.570   68.749
  172.950   19.189    0.458    0.272  214.639   65.256
  173.200   19.925    0.476    0.287  215.191   62.354
  173.450   20.686    0.473    0.289  215.737   60.328
  173.700   21.671    0.465    0.262  214.806   60.663
  173.950   22.912    0.455    0.215  214.862   61.866
  174.200   25.133    0.351    0.034  214.910   64.544
  174.450   28.597    0.300    0.077  214.966   63.399
  174.700   32.532    0.268    0.147  216.023   61.382
  174.950   36.341    0.256    0.240  213.594   60.245
  175.200   37.729    0.337    0.278  211.158   60.567
  175.450   32.614    0.391    0.196  213.208   64.998
  175.700   26.932    0.452    0.159  213.768   73.253
  175.950   22.861    0.397    0.144  213.824   83.265
  176.200   20.310    0.421    0.223  213.375   97.683
  176.450   17.718    0.463    0.230  213.928  102.123
  176.700   15.888    0.484    0.220  214.488  103.619
  176.950   14.643    0.475    0.210  214.537  102.185
  177.200   13.746    0.457    0.218  213.647   97.228
  177.450   13.261    0.463    0.225  214.655   97.261
  177.700   12.913    0.470    0.221  214.207  104.048
  177.950   12.926    0.461    0.204  214.263  106.433
  178.200   12.938    0.444    0.190  213.828  102.940
  178.450   13.186    0.458    0.158  213.387   97.690
  178.700   13.691    0.455    0.169  213.443   91.853
  178.950   14.343    0.459    0.181  213.009   92.771
  179.200   14.756    0.463    0.142  213.058   96.322
  179.450   14.499    0.432    0.170  212.616  100.468
  179.700   14.121    0.463    0.213  212.175   98.442
  179.950   14.261    0.477    0.208  212.735   96.718
  180.200   14.804    0.469    0.214  213.288   96.751
  180.450   15.370    0.460    0.232  212.846   92.675
  180.700   15.814    0.444    0.240  212.902   91.823
  180.950   15.971    0.421    0.248  212.958   92.443
  181.200   16.135    0.434    0.224  212.510   95.411
  181.450   16.294    0.461    0.194  212.075   97.502
  181.700   16.918    0.448    0.172  212.131   95.485
  181.950   18.555    0.426    0.160  212.180   93.162
  182.200   20.539    0.403    0.209  213.244   97.014
  182.450   19.106    0.421    0.223  213.789  100.867
  182.700   17.770    0.439    0.236  213.852  101.487
  182.950   16.989    0.452    0.250  213.915   97.704
  183.200   16.541    0.449    0.251  213.957   97.150
  183.450   16.555    0.445    0.231  213.522   97.179
  183.700   16.878    0.438    0.223  213.578   98.679
  183.950   16.294    0.443    0.225  213.634  101.060
  184.200   16.448    0.449    0.225  213.690  106.967
  184.450   16.311    0.455    0.224  213.745  108.468
  184.700   16.177    0.456    0.221  213.794  106.446
  184.950   16.189    0.440    0.217  214.347  102.077
  185.200   16.057    0.431    0.211  214.900   95.359
  185.450   15.924    0.416    0.198  217.454   90.700
