~Version : LASO    vs 4.00
VERS.                2.00:   CWLS Log ASCII Standard -VERSION 2.0
WRAP.                  NO:
~Well Information Block
#MNEM.UNIT       Data                        Description of Mnemonic
#----.----      -------------------------- : -----------------------------
STRT.M            21.0000:
STOP.M           215.4000:
STEP.M             0.2000:
NULL.           -999.2500:
COMP.  MOBIL OIL CANADA                 :COMPANY
WELL.  MOBIL CLARKE OV PROG. 2-81       :WELL
FLD.                                    :FIELD
LOC.   13-28-089-07W4                   :LOCATION
CTRY.  CANADA                           :COUNTRY
PROV.  ALBERTA                          :PROVINCE
SRVC.  SCHLUMBERGER                     :SERVICE COMPANY
DATE.  31-JAN-81                        :LOG DATE
UWI.   AA/13-28-089-07W400              :UNIQUE WELL ID
~Parameter Information Block
#MNEM.UNIT       Data                        Description of Mnemonic
#----.----      -------------------------- : -----------------------------
RUN .                   1                 : Run Number
GL  .M           458.5000                 : Ground Level Elevation
DREF.                  GD                 : Depth Reference
EREF.M           458.5000                 : Elevation of Depth Reference
TDL .M           216.0000                 : Total Depth Logger
TDD .M           216.0000                 : Total Depth Driller
CSGL.M            22.0000                 : Casing Bottom Logger
CSGD.M            22.0000                 : Casing Bottom Driller
CSGS.MM          219.0000                 : Casing Size
CSGW.KG/M          0.0000                 : Casing Weight
BHT .DEGC         12.0000                 : Bottom Hole Temperature
BS  .MM          171.0000                 : Bit Size
DFD .           9999.0000                 : Mud Weight (Density)
DFV .             45.0000                 : Mud Viscosity
DFPH.             11.0000                 : Mud pH
RM  .OHMM          5.7400                 : Mud Resistivity
RMT .DEGC         12.0000                 : Mud Resistivity Temperature
~Curve Information Block
#MNEM.UNIT        API CODE    Curve Description
#---------    ------------    -------------------------------------------
DEPT.M                    :   DEPTH
CALI.MM       42 280  1  1:   3 DENSITY CALIPER
DPHI.V/V                  :   DPHI
DT  .US/M     60 520  0  1:   2 SONIC INTERVAL TRANSIT TIME (COMPENSATED)
GR  .GAPI     42 310  1  1:   4 GAMMA RAY
ILD .OHMM      5 120 46  1:   7 DEEP INDUCTION
ILM .OHMM      5 120 44  1:   8 MEDIUM INDUCTION
NPHI.V/V      42 890  3  1:   5 NEUTRON POROSITY (SANDSTONE)
RHOB.K/M3     42 350  1  1:   6 BULK DENSITY
SFLU.OHMM      5 220  1  1:   9 FOCUSSED RESISTIVITY
SP  .MV        5  10  1  1:   10 SPONTANEOUS POTENTIAL
~A  Depth           CALI        DPHI          DT          GR         ILD         ILM        NPHI        RHOB        SFLU          SP
# ...
57.6000         182.5250      0.2209    564.2800     52.1700     66.6546     74.2386      0.3793   2276.1001     68.3959    -57.4800
57.8000         182.0750      0.2317    569.6000     51.9150     64.2436     71.5533      0.3860   2264.0000     69.0287    -57.4800
58.0000         181.6250      0.2405    572.1600     51.6750     63.0710     67.7064      0.3889   2253.5000     69.6674    -57.9750
58.2000         180.7000      0.2406    563.4000     52.5600     61.9199     64.0663      0.3854   2279.2000     64.7187    -58.7250
58.4000         180.2250      0.2406    557.0400     52.1400     60.7897     62.8970      0.3763   2278.3000     61.8059    -57.9750
58.6000         179.7500      0.2354    554.4800     51.3750     60.7897     60.0662      0.3712   2272.2000     61.2393    -57.4800
58.8000         180.2250      0.2344    565.3200     47.3250     61.3522     62.3204      0.3970   2265.1001     57.9469    -58.7250
59.0000         180.0000      0.2396    588.9600     44.7450     61.9199     66.4706      0.4016   2260.5000     53.3372    -59.7150
59.2000         179.9500      0.2500    601.9600     42.9750     62.4928     68.9652      0.3997   2258.2000     52.8482    -59.7150
59.4000         179.4750      0.2556    570.2400     43.4250     59.1330     74.2386      0.3760   2264.6001     63.5375    -61.2000
59.6000         177.5500      0.2477    500.7200     47.4900     55.4409     67.7064      0.3644   2283.0000     69.6674    -61.7100
59.8000         180.2000      0.2339    482.0400     52.4550     51.0305     57.8935      0.3551   2393.5000     68.3959    -62.4450
60.0000         179.9000      0.2267    490.1200     60.2100     42.8381     42.7199      0.3493   2339.1001     46.4547    -63.9450
60.2000         181.0000      0.2157    525.9200     64.6650     38.7106     37.5517      0.3569   2311.8999     35.8616    -64.9350
60.4000         182.2500      0.2016    522.5200     68.9850     34.9808     33.3142      0.3648   2328.6001     30.9478    -65.4300
60.6000         187.8250      0.1870    509.0800     72.9300     31.9029     30.1044      0.3732   2382.6001     27.1788    -65.6850
60.8000         192.1250      0.1780    501.3600     76.5450     28.5647     26.7319      0.3955   2359.8000     24.7873    -65.1900
61.0000         193.0500      0.1688    505.6800     77.5950     28.0434     26.4868      0.4061   2347.7000     25.2482    -65.1900
61.2000         193.3500      0.1712    505.2400     76.6050     27.5315     26.4868      0.4143   2311.5000     25.9555    -64.6950
61.4000         191.3750      0.1810    494.8000     74.3400     26.5357     27.7351      0.4163   2338.3000     28.4859    -65.1900
61.6000         187.3000      0.1981    487.8000     73.6350     26.5357     27.2289      0.4117   2291.3000     30.6641    -65.4300
61.8000         186.8000      0.2081    491.6000     72.9450     26.0513     26.0034      0.4067   2272.8000     30.9478    -66.1800
62.0000         189.3500      0.2137    520.3600     73.9800     24.8788     23.7154      0.4159   2233.1001     25.9555    -66.9300
62.2000         188.6000      0.2254    539.1200     76.3950     23.9789     22.6480      0.4265   2223.2000     23.8908    -67.4250
62.4000         189.8000      0.2322    544.4400     79.9200     22.6898     21.4304      0.4372   2218.8999     22.6063    -68.1750
62.6000         190.9250      0.2265    544.2400     85.8000     20.5036     18.6651      0.4586   2230.7000     18.4599    -68.4150
62.8000         192.7750      0.2273    544.0400     87.7800     19.4013     17.8250      0.4673   2280.6001     16.0631    -67.9200
63.0000         196.0000      0.2254    541.6801     89.7000     18.3582     17.1803      0.4761   2273.3000     14.7853    -67.6800
63.2000         208.9250      0.2251    534.0000     92.2800     16.7429     14.9634      0.4907   2263.5000     14.3824    -67.6800
63.4000         203.2000      0.2290    528.9200     93.4050     15.9893     14.4221      0.4959   2274.3999     13.4843    -68.1750
63.6000         208.5000      0.2369    525.9200     94.2750     15.4110     14.1589      0.4988   2277.0000     12.6424    -68.1750
63.8000         217.0000      0.2413    524.8400     94.4850     15.1297     13.6468      0.4998   2277.8000     12.0734    -67.9200
64.0000         198.7500      0.2348    528.0400     98.7450     14.4487     13.2749      0.4979   2271.8999     12.2979    -66.9300
64.2000         203.4250      0.2379    531.0400     98.8950     14.3163     13.2749      0.5032   2265.8000     12.5265    -66.9300
64.4000         205.2000      0.2440    531.2400     99.0450     14.1850     13.3977      0.5151   2263.8999     12.2979    -66.9300
64.6000         211.1500      0.2362    530.8000    101.1300     14.1850     13.5217      0.5183   2296.1001     12.7594    -66.4350
64.8000         206.3250      0.2220    528.0400    102.1350     14.1850     13.5217      0.5092   2272.6001     13.2382    -66.6750
65.0000         201.8250      0.2238    525.0800    102.9300     14.1850     13.6468      0.4933   2256.8000     13.1169    -66.6750
65.2000         199.5000      0.2315    524.6400    103.8900     13.9261     13.3977      0.4673   2256.6001     13.3607    -67.9200
65.4000         201.6000      0.2302    528.0400    104.0850     13.6719     13.2749      0.4651   2297.5000     12.8775    -68.6700
65.6000         206.7750      0.2204    530.8000    104.2950     13.4224     13.1532      0.4672   2287.6001     11.8530    -68.9250
65.8000         208.0500      0.2115    528.6801    105.4350     12.9369     12.6774      0.4680   2281.7000     13.1169    -69.4200
66.0000         201.1250      0.2172    525.7200    105.3750     12.7008     12.3319      0.4650   2279.3000     13.7350    -69.6600
66.2000         202.1000      0.2233    525.0800    104.2350     12.5843     12.1068      0.4639   2303.0000     13.2382    -69.9150
66.4000         204.7750      0.2193    529.3200    100.9350     12.7008     12.1068      0.4758   2304.5000     11.7444    -70.4100
66.6000         210.7000      0.2029    527.6400     99.2250     12.5843     12.4460      0.4816   2293.2000     11.4243    -69.9150
66.8000         237.6000      0.1977    527.2000     96.8700     12.2414     12.4460      0.4899   2282.0000     11.6367    -69.9150
67.0000         228.8500      0.2149    536.5600     93.5850     12.0179     12.1068      0.5025   2267.5000     13.2382    -69.6600
67.2000         220.3500      0.2344    572.3600     97.0350     11.3718     11.2468      0.5144   2223.3000     14.3824    -68.6700
67.4000         242.5250      0.2494    578.7600    100.7400     10.8600     10.7406      0.5102   2203.8000     12.1851    -68.9250
67.6000         264.1500      0.2733    562.5600    103.5300     10.3712     10.0700      0.4946   2191.6001      9.7596    -68.9250
67.8000         196.6250      0.2931    532.3200    106.3950      9.5462      8.9337      0.4729   2371.1001      8.0432    -69.1650
68.0000         195.0250      0.2777    520.8000    106.5900      9.3720      8.6105      0.4643   2374.8000      7.6812    -68.9250
68.2000         196.3250      0.2555    523.1600    106.4100      9.2860      8.6105      0.4607   2359.7000      7.6108    -68.4150
68.4000         192.7000      0.2315    525.9200    103.3650      9.2860      8.9337      0.4868   2335.7000      7.8240    -67.9200
68.6000         191.2750      0.2046    527.6400    103.3050      9.2860      9.0998      0.4876   2374.2000      8.5789    -67.6800
68.8000         190.2750      0.2078    528.6801    104.3100      9.2860      9.1840      0.4859   2415.5000     10.6128    -67.4250
69.0000         191.6250      0.2056    527.6400    108.1050      9.1165      8.7706      0.4774   2371.7000     11.8530    -67.4250
69.2000         192.7500      0.1958    527.2000    109.9950      8.9501      8.5316      0.4708   2350.8000     10.2195    -67.1700
69.4000         194.3250      0.1865    525.7200    112.4550      8.7062      8.2230      0.4760   2334.5000      8.9832    -67.4250
69.6000         197.0500      0.2015    525.4800    112.4400      8.0878      7.7096      0.5074   2341.8999      7.8964    -67.6800
