~VERSION INFORMATION
 VERS.                 2.0:   CWLS LOG ASCII STANDARD -VERSION 2.0
 WRAP.                  NO:   ONE LINE PER DEPTH STEP
~WELL INFORMATION BLOCK
#MNEM.UNIT           DATA                    DESCRIPTION OF MNEMONIC
#---------    -------------------            -------------------------------
# Generated from Intellog Unique Number	CN_94_101/WELL/5048
WELL.         15-19-098-12W4                 : Well_name    - WELL
LOC .         AA/15-19-098-12W4/0            : Location     - LOCATION
UWI .         AA/15-19-098-12W400            : Uwi          - UNIQUE WELL ID
ENTR.         T                              : Entered      - ENTERED BY
SRVC.         SCHLUMBERGER                   : Scn          - SERVICE COMPANY
DATE.         08/14/92                       : Date         - LOG DATE
STRT.M        195                            : top_depth    - START DEPTH
STOP.M        470                            : bot_depth    - STOP DEPTH
STEP.M        0.25                           : increment    - STEP LENGTH
 NULL. -999.2500:NULL Value
~CURVE INFORMATION BLOCK
#MNEM UNIT       ERCB CURVE CODE    CURVE DESCRIPTION
#-----------   ------------------   ----------------------------------
DEPT.M        00 001 00 00         : DEPTH        - DEPTH
GR  .API      00 310 00 00         : GR           - GAMMA RAY
NPHI.V/V      00 330 00 00         : PHIN         - NEUTRON POROSITY (SANDSTONE)
DPHI.V/V      00 890 00 00         : PHID         - DENSITY POROSITY (SANDSTONE)
ILD .OHMM     00 120 00 00         : RESD         - DEEP RESISTIVITY (DIL)
~PARAMETER INFORMATION
#MNEM.UNIT           DATA             DESCRIPTION OF MNEMONIC
#---------         -----------     ------------------------------
GL  .M        718.4                : gl           - GROUND LEVEL ELEVATION
EREF.M        721.67               : kb           - ELEVATION OF DEPTH REFERENCE
DATM.M        721.67               : datum        - DATUM ELEVATION
TDD .M        479                  : tdd          - TOTAL DEPTH DRILLER
RUN .         ONE                  : Run          - RUN NUMBER
ENG .         BILL                 : Engineer     - RECORDING ENGINEER
WIT .         JIM                  : Witness      - WITNESSED BY
MUD .         GEL                  : Mud_type     - MUD TYPE
MATR.         SANDSTONE            : Logunit      - NEUTRON MATRIX
TMAX.C        21                   : BHT          - MAXIMUM RECORDED TEMPERATURE
BHTD.M        479                  : BHTDEP       - MAXIMUM RECORDED TEMPERATURE
RMT .C        21                   : MDTP         - TEMPERATURE OF MUD
MUDD.KG/M     1090                 : MWT          - MUD DENSITY
NEUT.         1                    : NEUTRON      - NEUTRON TYPE
RESI.         0                    : RESIST       - RESISTIVITY TYPE
RM  .OHMM     5.7                  : RM           - RESISTIVITY OF MUD
RMC .OHMM     5.7                  : RMC          - RESISTIVITY OF MUD CAKE
RMF .OHMM     5.7                  : RMF          - RESISTIVITY OF MUD FILTRATE
SUFT.C        4                    : SUFT         - SURFACE TEMPERATURE
~A  DEPTH       GR     PHIN     PHID     RESD
# ...
  282.000   90.602    0.431    0.324   26.038
  282.250   95.831    0.439    0.297   25.616
  282.500  102.009    0.447    0.288   25.183
  282.750  105.815    0.457    0.268   24.765
  283.000  105.352    0.467    0.238   23.924
  283.250  103.940    0.472    0.215   23.510
  283.500  102.996    0.475    0.221   23.546
  283.750  103.479    0.477    0.234   23.591
  284.000  105.389    0.480    0.238   23.200
  284.250  108.248    0.489    0.234   21.210
  284.500  109.202    0.494    0.234   18.352
  284.750  112.060    0.504    0.237   15.316
  285.000  113.968    0.514    0.246   13.496
  285.250  115.401    0.526    0.252   11.471
  285.500  115.410    0.536    0.252    9.749
  285.750  113.521    0.533    0.249    8.597
  286.000  111.163    0.528    0.242    7.857
  286.250  109.271    0.524    0.234    6.929
  286.500  107.855    0.515    0.229    6.691
  286.750  106.443    0.507    0.220    6.578
  287.000  105.975    0.490    0.220    6.711
  287.250  105.038    0.486    0.223    6.722
  287.500  103.149    0.488    0.246    6.853
  287.750  100.309    0.492    0.252    7.124
  288.000   96.522    0.482    0.272    7.266
  288.250   93.209    0.437    0.278    7.409
  288.500   89.425    0.414    0.286    7.701
  288.750   86.585    0.396    0.300    7.849
  289.000   83.272    0.379    0.320    8.310
  289.250   85.656    0.382    0.320    8.469
  289.500   89.934    0.410    0.305    9.127
  289.750   99.436    0.441    0.297   10.014
  290.000   99.446    0.493    0.298   10.983
  290.250   97.085    0.516    0.298   13.947
  290.500   95.194    0.519    0.299   18.702
  290.750   92.832    0.516    0.301   21.672
  291.000   90.944    0.513    0.302   19.814
  291.250   90.002    0.515    0.302   15.944
  291.500   89.064    0.519    0.304   10.695
  291.750   89.076    0.523    0.305    9.087
  292.000   89.555    0.519    0.305    8.307
  292.250   89.564    0.514    0.308    8.320
  292.500   89.573    0.510    0.308    8.339
  292.750   89.583    0.507    0.311    8.346
  293.000   89.592    0.505    0.313    8.365
  293.250   90.076    0.505    0.309    8.378
  293.500   90.560    0.507    0.301    8.384
  293.750   91.995    0.511    0.298    8.251
  294.000   92.951    0.514    0.295    8.112
  294.250   96.289    0.517    0.293    7.977
  294.500   97.243    0.518    0.290    7.989
  294.750  101.048    0.524    0.284    7.999
  295.000  105.328    0.526    0.278    7.590
  295.250  111.981    0.533    0.271    7.459
  295.500  110.092    0.543    0.261    6.945
  295.750   99.190    0.522    0.258    6.349
  296.000   94.926    0.507    0.265    5.498
  296.250   84.970    0.474    0.278    5.117
  296.500   80.234    0.444    0.299    4.678
  296.750   72.176    0.426    0.311    4.357
  297.000   70.287    0.434    0.309    4.611
  297.250   75.516    0.449    0.306    5.055
  297.500   79.322    0.468    0.305    7.162
  297.750   82.181    0.476    0.303   11.525
  298.000   83.614    0.472    0.306   13.114
  298.250   82.672    0.469    0.312   17.273
  298.500   80.783    0.468    0.316   21.936
  298.750   77.950    0.469    0.318   20.047
  299.000   78.908    0.473    0.318   16.132
  299.250   80.341    0.480    0.318   12.290
  299.500   80.827    0.485    0.318   10.068
  299.750   80.357    0.481    0.319    9.041
  300.000   78.945    0.475    0.321    9.392
  300.250   77.531    0.464    0.321    9.935
  300.500   76.117    0.457    0.322   10.514
  300.750   75.174    0.450    0.323   11.327
  301.000   73.763    0.441    0.325   11.761
  301.250   75.195    0.438    0.325   12.216
  301.500   73.307    0.435    0.325   12.699
  301.750   71.415    0.430    0.322   13.181
  302.000   68.580    0.428    0.315   14.461
  302.250   69.536    0.425    0.310   16.165
  302.500   73.816    0.419    0.302   16.487
  302.750   83.793    0.425    0.290   16.829
  303.000   97.089    0.436    0.277   17.152
  303.250  108.487    0.466    0.269   17.817
  303.500  118.461    0.497    0.263   18.514
  303.750  123.216    0.513    0.261   18.207
  304.000  122.751    0.534    0.255   16.639
  304.250  121.336    0.553    0.247   12.910
  304.500  121.346    0.549    0.242    8.653
  304.750  121.355    0.542    0.240    5.697
  305.000  121.839    0.539    0.240    4.932
  305.250  121.376    0.538    0.241    4.676
  305.500  119.487    0.539    0.244    4.275
  305.750  117.601    0.542    0.245    3.701
  306.000  115.712    0.543    0.247    3.573
  306.250  115.721    0.543    0.254    3.713
  306.500  117.154    0.545    0.257    3.927
  306.750  119.061    0.548    0.260    4.079
  307.000  119.545    0.550    0.261    4.477
  307.250  116.707    0.549    0.264    4.650
  307.500  114.342    0.546    0.264    4.830
  307.750  110.082    0.543    0.264    4.752
  308.000  107.242    0.540    0.255    4.589
  308.250  103.930    0.534    0.244    4.272
  308.500  100.143    0.519    0.231    3.978
  308.750   99.203    0.508    0.228    3.772
  309.000  104.907    0.500    0.234    3.644
  309.250  102.071    0.491    0.243    3.648
  309.500   99.706    0.482    0.261    3.789
  309.750   96.870    0.472    0.276    4.081
  310.000   95.928    0.466    0.284    4.560
  310.250   93.567    0.461    0.290    5.895
  310.500   91.204    0.455    0.293    7.351
  310.750   91.213    0.456    0.297    8.368
  311.000   93.595    0.461    0.296    9.018
  311.250   97.403    0.470    0.293    9.028
  311.500   98.361    0.477    0.291    9.046
  311.750   96.949    0.483    0.287    9.056
  312.000   96.007    0.488    0.285    9.070
  312.250   95.067    0.490    0.285    8.765
  312.500   94.602    0.492    0.286    8.613
  312.750   95.560    0.494    0.287    8.471
  313.000   96.516    0.494    0.287    8.330
  313.250   97.949    0.496    0.287    8.192
  313.500  101.757    0.496    0.287    8.208
  313.750  102.718    0.492    0.286    8.221
  314.000  100.350    0.479    0.287    8.230
  314.250   97.986    0.476    0.288    8.398
  314.500   88.982    0.479    0.289    8.565
  314.750   87.095    0.482    0.294    8.736
  315.000   85.207    0.483    0.295    9.075
  315.250   83.318    0.483    0.297    9.422
  315.500   81.427    0.479    0.290   10.350
  315.750   80.487    0.474    0.286   10.746
  316.000   81.920    0.472    0.274   11.154
  316.250   86.200    0.477    0.263   11.591
  316.500   95.225    0.488    0.249   12.261
  316.750  113.741    0.498    0.234   12.976
  317.000  120.394    0.509    0.219   13.726
  317.250  121.829    0.513    0.213   13.499
  317.500  122.313    0.512    0.211   12.118
  317.750  122.797    0.509    0.208   10.489
  318.000  124.232    0.509    0.207    8.912
  318.250  125.190    0.511    0.207    7.714
  318.500  124.725    0.514    0.207    6.922
  318.750  124.734    0.519    0.210    6.566
  319.000  124.269    0.520    0.212    6.343
  319.250  124.278    0.521    0.215    6.238
  319.500  124.760    0.522    0.215    6.135
  319.750  125.244    0.525    0.219    6.033
  320.000  125.728    0.526    0.220    5.931
  320.250  126.688    0.527    0.224    5.835
  320.500  127.170    0.527    0.226    5.637
  320.750  128.603    0.526    0.231    5.643
  321.000  130.036    0.524    0.235    5.451
  321.250  129.096    0.522    0.232    5.359
  321.500  128.158    0.519    0.231    5.272
  321.750  128.168    0.518    0.228    5.181
  322.000  127.702    0.518    0.228    5.097
  322.250  126.765    0.521    0.231    4.922
  322.500  126.300    0.525    0.234    4.840
  322.750  125.834    0.529    0.236    4.758
  323.000  125.844    0.530    0.237    4.681
  323.250  126.802    0.533    0.237    4.602
  323.500  128.235    0.540    0.235    4.526
  323.750  129.668    0.545    0.234    4.374
  324.000  131.101    0.549    0.233    4.377
  324.250  132.534    0.554    0.232    4.228
  324.500  132.543    0.556    0.232    4.235
  324.750  131.606    0.558    0.232    4.165
  325.000  130.661    0.558    0.234    4.096
  325.250  129.247    0.556    0.236    4.104
