~VERSION INFORMATION
 VERS.                 2.0:   CWLS LOG ASCII STANDARD -VERSION 2.0
 WRAP.                  NO:   ONE LINE PER DEPTH STEP
~WELL INFORMATION BLOCK
#MNEM.UNIT           DATA                    DESCRIPTION OF MNEMONIC
#---------    -------------------            -------------------------------
# Generated from Intellog Unique Number	CX_WELLS/WELL/3107
WELL.         OIL BUTTES GRANDA              : Well_name    - WELL
LOC .         AA/11-17-082-18W4/0            : Location     - LOCATION
UWI .         AA/11-17-082-18W400            : Uwi          - UNIQUE WELL ID
ENTR.         TIM                            : Entered      - ENTERED BY
SRVC.         SCHLUMBERGER                   : Scn          - SERVICE COMPANY
STRT.M        190                            : top_depth    - START DEPTH
STOP.M        337                            : bot_depth    - STOP DEPTH
STEP.M        0.25                           : increment    - STEP LENGTH
 NULL. -999.2500:NULL Value
~CURVE INFORMATION BLOCK
#MNEM UNIT       ERCB CURVE CODE    CURVE DESCRIPTION
#-----------   ------------------   ----------------------------------
DEPT.M        00 001 00 00         : DEPTH        - DEPTH
GR  .API      00 310 00 00         : GR           - GAMMA RAY
NPHI.V/V      00 330 00 00         : PHIN         - NEUTRON POROSITY (SANDSTONE)
DPHI.V/V      00 890 00 00         : PHID         - DENSITY POROSITY (SANDSTONE)
ILD .OHMM     00 120 00 00         : RESD         - DEEP RESISTIVITY (OTHER)
~PARAMETER INFORMATION
#MNEM.UNIT           DATA             DESCRIPTION OF MNEMONIC
#---------         -----------     ------------------------------
GL  .M        572                  : gl           - GROUND LEVEL ELEVATION
EREF.M        575.7                : kb           - ELEVATION OF DEPTH REFERENCE
DATM.M        575.7                : datum        - DATUM ELEVATION
TDD .M        339                  : tdd          - TOTAL DEPTH DRILLER
RUN .         ONE                  : Run          - RUN NUMBER
ENG .         BILL                 : Engineer     - RECORDING ENGINEER
WIT .         JIM                  : Witness      - WITNESSED BY
MUD .         GEL                  : Mud_type     - MUD TYPE
MATR.         SANDSTONE            : Logunit      - NEUTRON MATRIX
TMAX.C        22                   : BHT          - MAXIMUM RECORDED TEMPERATURE
BHTD.M        339                  : BHTDEP       - MAXIMUM RECORDED TEMPERATURE
MATR.         1                    : LOGUNIT      - NEUTRON MATRIX
RMT .C        18                   : MDTP         - TEMPERATURE OF MUD
NEUT.         1                    : NEUTRON      - NEUTRON TYPE
RESI.         5.54                 : RESIST       - RESISTIVITY TYPE
RMC .OHMM     5.54                 : RMC          - RESISTIVITY OF MUD CAKE
RMF .OHMM     5.54                 : RMF          - RESISTIVITY OF MUD FILTRATE
SUFT.C        4                    : SUFT         - SURFACE TEMPERATURE
~A  DEPTH       GR     PHIN     PHID     RESD
# ...
  233.500   81.401    0.484    0.199    5.025
  233.750   80.907    0.481    0.191    5.429
  234.000   79.790    0.478    0.175    5.865
  234.250   76.936    0.470    0.170    6.214
  234.500   73.514    0.467    0.197    7.379
  234.750   71.245    0.464    0.221    8.431
  235.000   69.543    0.463    0.225   11.640
  235.250   64.365    0.459    0.259   12.580
  235.500   62.078    0.455    0.276   12.838
  235.750   59.809    0.447    0.294   13.356
  236.000   58.711    0.434    0.292   13.894
  236.250   58.766    0.438    0.288   14.199
  236.500   59.461    0.440    0.282   14.225
  236.750   60.083    0.442    0.277   14.246
  237.000   61.364    0.443    0.278   14.279
  237.250   62.040    0.443    0.282   14.299
  237.500   62.077    0.441    0.285   13.810
  237.750   62.736    0.441    0.279   13.565
  238.000   62.241    0.438    0.281   13.337
  238.250   61.729    0.439    0.287   13.113
  238.500   61.198    0.440    0.291   12.658
  238.750   60.686    0.434    0.288   12.688
  239.000   59.588    0.440    0.283   12.700
  239.250   57.941    0.448    0.282   12.984
  239.500   57.410    0.457    0.279   13.003
  239.750   56.916    0.457    0.278   13.015
  240.000   56.971    0.453    0.272   13.039
  240.250   58.800    0.447    0.259   12.581
  240.500   60.026    0.440    0.244   12.145
  240.750   63.630    0.436    0.232   11.723
  241.000   65.442    0.429    0.222   11.515
  241.250   69.046    0.429    0.220   11.111
  241.500   71.480    0.436    0.216   10.136
  241.750   73.309    0.447    0.210    9.593
  242.000   73.382    0.454    0.210    8.752
  242.250   72.852    0.459    0.231    8.132
  242.500   71.205    0.460    0.237    7.995
  242.750   70.656    0.455    0.249    8.318
  243.000   70.729    0.444    0.249    8.818
  243.250   71.406    0.437    0.235    9.348
  243.500   72.650    0.435    0.233    9.725
  243.750   73.894    0.430    0.230    9.739
  244.000   75.138    0.422    0.230    9.575
  244.250   76.364    0.449    0.227    9.071
  244.500   77.644    0.458    0.225    8.585
  244.750   78.285    0.450    0.223    8.128
  245.000   78.943    0.442    0.221    7.843
  245.250   78.998    0.450    0.220    7.718
  245.500   79.108    0.462    0.220    7.725
  245.750   78.010    0.460    0.220    7.744
  246.000   77.461    0.455    0.220    7.758
  246.250   74.643    0.447    0.220    7.773
  246.500   74.094    0.446    0.221    8.569
  246.750   72.410    0.446    0.221    8.910
  247.000   71.312    0.444    0.222    9.088
  247.250   70.233    0.442    0.222    9.459
  247.500   69.702    0.438    0.220    9.657
  247.750   70.964    0.433    0.219    9.680
  248.000   72.190    0.431    0.218    9.689
  248.250   74.642    0.436    0.216    9.349
  248.500   75.300    0.445    0.209    9.020
  248.750   75.392    0.468    0.209    8.385
  249.000   75.428    0.476    0.225    7.943
  249.250   74.934    0.474    0.239    7.806
  249.500   74.440    0.459    0.245    7.671
  249.750   73.891    0.443    0.245    7.839
  250.000   72.811    0.436    0.244    7.847
  250.250   71.128    0.441    0.246    8.163
  250.500   70.597    0.450    0.248    8.654
  250.750   68.346    0.448    0.255    9.012
  251.000   65.492    0.428    0.257    9.205
  251.250   64.357    0.436    0.241    9.213
  251.500   62.106    0.438    0.181    9.585
  251.750   59.819    0.380    0.016   11.377
  252.000   54.623    0.346    0.091   13.252
  252.250   51.201    0.190    0.177   14.322
  252.500   53.634    0.240    0.217   13.066
  252.750   54.842    0.309    0.220   12.366
  253.000   58.428    0.392    0.217   11.709
  253.250   63.203    0.439    0.228   11.081
  253.500   67.375    0.438    0.252   10.692
  253.750   69.808    0.442    0.258   10.123
  254.000   67.540    0.446    0.261    9.772
  254.250   67.045    0.452    0.254    9.429
  254.500   67.686    0.455    0.250    9.098
  254.750   68.930    0.452    0.246    8.945
  255.000   70.759    0.445    0.243    8.630
  255.250   72.003    0.438    0.242    8.481
  255.500   72.644    0.467    0.238    8.187
  255.750   72.735    0.474    0.237    8.046
  256.000   72.204    0.474    0.236    7.914
  256.250   71.125    0.445    0.235    7.785
  256.500   70.045    0.439    0.232    7.796
  256.750   69.496    0.441    0.229    7.665
  257.000   66.660    0.414    0.233    7.676
  257.250   65.543    0.413    0.235    7.547
  257.500   65.617    0.441    0.235    7.427
  257.750   67.464    0.444    0.232    7.445
  258.000   68.690    0.454    0.230    7.452
  258.250   71.142    0.461    0.223    7.466
  258.500   72.368    0.460    0.221    7.344
  258.750   73.630    0.456    0.218    7.354
  259.000   73.685    0.450    0.212    7.375
  259.250   75.551    0.444    0.207    7.385
  259.500   76.173    0.446    0.204    7.399
  259.750   78.021    0.447    0.208    7.278
  260.000   78.661    0.446    0.215    7.285
  260.250   79.905    0.446    0.218    7.163
  260.500   79.393    0.448    0.218    7.046
  260.750   74.215    0.451    0.221    6.927
  261.000   70.775    0.456    0.225    6.937
  261.250   67.920    0.456    0.229    7.082
  261.500   65.651    0.454    0.236    7.508
  261.750   63.968    0.421    0.256   10.172
  262.000   62.851    0.393    0.275   11.849
  262.250   61.772    0.415    0.278   13.801
  262.500   61.259    0.427    0.252   14.916
  262.750   60.161    0.437    0.233   15.229
  263.000   60.216    0.327    0.100   15.264
  263.250   60.875    0.306    0.153   15.279
  263.500   66.217    0.352    0.177   14.742
  263.750   73.317    0.389    0.202   13.698
  264.000   73.993    0.408    0.225   12.263
  264.250   74.066    0.419    0.220   11.400
  264.500   74.725    0.427    0.184   11.198
  264.750   74.798    0.436    0.179   10.608
  265.000   73.133    0.432    0.206   10.430
  265.250   70.827    0.364    0.210   10.445
  265.500   65.631    0.329    0.135   10.464
  265.750   61.623    0.255    0.069   10.886
  266.000   61.129    0.231    0.066   11.557
  266.250   61.184    0.248    0.104   11.788
  266.500   61.825    0.279    0.132   12.735
  266.750   63.672    0.331    0.178   13.248
  267.000   64.898    0.374    0.214   13.273
  267.250   69.674    0.403    0.224   12.807
  267.500   73.845    0.414    0.229   11.911
  267.750   78.053    0.441    0.227   11.706
  268.000   78.090    0.450    0.224   11.509
  268.250   78.163    0.449    0.223   11.310
  268.500   78.236    0.447    0.225   11.130
  268.750   78.913    0.448    0.222   11.152
  269.000   79.553    0.449    0.217   11.167
  269.250   79.626    0.454    0.215   11.183
  269.500   74.430    0.458    0.222   11.428
  269.750   70.990    0.459    0.226   11.450
  270.000   69.910    0.454    0.232   11.684
  270.250   69.416    0.451    0.235   11.711
  270.500   69.452    0.454    0.231   11.728
  270.750   70.111    0.455    0.223   11.525
  271.000   71.355    0.451    0.210   11.558
  271.250   73.221    0.442    0.203   11.364
  271.500   73.862    0.434    0.204   11.173
  271.750   75.142    0.436    0.210   11.194
  272.000   75.782    0.443    0.213   11.006
  272.250   75.837    0.449    0.221   11.022
  272.500   76.514    0.457    0.224   10.841
  272.750   76.002    0.462    0.218   10.862
  273.000   76.093    0.462    0.204   10.877
  273.250   76.148    0.458    0.196   10.700
  273.500   76.221    0.453    0.201   10.720
  273.750   76.312    0.447    0.207   10.740
  274.000   76.349    0.445    0.213   10.560
  274.250   76.458    0.445    0.214   10.579
  274.500   76.513    0.446    0.203   10.397
  274.750   77.153    0.450    0.201   10.421
  275.000   77.812    0.456    0.204   10.251
  275.250   77.885    0.461    0.204   10.261
  275.500   77.373    0.457    0.199   10.285
  275.750   78.635    0.449    0.190   10.304
  276.000   80.465    0.449    0.190    9.942
  276.250   81.123    0.449    0.187    9.775
  276.500   81.178    0.449    0.192    9.432
  276.750   80.684    0.451    0.207    9.100
