~VERSION INFORMATION
 VERS.                 2.0:   CWLS LOG ASCII STANDARD -VERSION 2.0
 WRAP.                  NO:   ONE LINE PER DEPTH STEP
~WELL INFORMATION BLOCK
#MNEM.UNIT           DATA                    DESCRIPTION OF MNEMONIC
#---------    -------------------            -------------------------------
# Generated from Intellog Unique Number	CC_80_83/WELL/2381
COMP.         PETRO CANADA                   : COMPANY
WELL.         PEX PCEL CHARD OV              : WELL NAME
LOC .         10-29-080-07W4                 : Location     - LOCATION
UWI .         AA/10-29-080-07W400            : Uwi          - UNIQUE WELL ID
ENTR.         DW                             : Entered      - ENTERED BY
SRVC.         SCHLUMBERGER                   : Scn          - SERVICE COMPANY
STRT.M        175                            : top_depth    - START DEPTH
STOP.M        420.094                        : bot_depth    - STOP DEPTH
STEP.M        0.3                            : increment    - STEP LENGTH
 NULL. -999.2500:NULL Value
~CURVE INFORMATION BLOCK
#MNEM UNIT       ERCB CURVE CODE    CURVE DESCRIPTION
#-----------   ------------------   ----------------------------------
DEPT.M        00 001 00 00         : DEPTH        - DEPTH
DPHI.V/V      00 890 00 00         : PHID         - DENSITY POROSITY (LIMESTONE)
NPHI.V/V      00 330 00 00         : PHIN         - NEUTRON POROSITY (LIMESTONE)
GR  .API      00 310 00 00         : GR           - GAMMA RAY
ILD .OHMM     00 120 00 00         : RESD         - DEEP RESISTIVITY (DIL)
~PARAMETER INFORMATION
#MNEM.UNIT           DATA             DESCRIPTION OF MNEMONIC
#---------         -----------     ------------------------------
GL  .M        625.45               : gl           - GROUND LEVEL ELEVATION
EREF.M        629.1                : kb           - ELEVATION OF DEPTH REFERENCE
DATM.M        629.1                : datum        - DATUM ELEVATION
TDD .M        426                  : tdd          - TOTAL DEPTH DRILLER
RUN .         ONE                  : Run          - RUN NUMBER
ENG .         BILL                 : Engineer     - RECORDING ENGINEER
WIT .         JIM                  : Witness      - WITNESSED BY
MUD .         GEL                  : Mud_type     - MUD TYPE
MATR.         LIMESTONE            : Logunit      - NEUTRON MATRIX
TMAX.C        16                   : BHT          - MAXIMUM RECORDED TEMPERATURE
BHTD.M        426                  : BHTDEP       - MAXIMUM RECORDED TEMPERATURE
MATR.         1                    : LOGUNIT      - NEUTRON MATRIX
RMT .C        25                   : MDTP         - TEMPERATURE OF MUD
NEUT.         1                    : NEUTRON      - NEUTRON TYPE
RESI.         0                    : RESIST       - RESISTIVITY TYPE
RMC .OHMM     0.25                 : RMC          - RESISTIVITY OF MUD CAKE
RMF .OHMM     0.25                 : RMF          - RESISTIVITY OF MUD FILTRATE
SUFT.C        4                    : SUFT         - SURFACE TEMPERATURE
~A  DEPTH     PHID     PHIN       GR     RESD
# ...
  383.796    0.190    0.364  121.195   10.442
  384.096    0.186    0.367  119.309    9.476
  384.396    0.182    0.395  123.050    8.931
  384.696    0.175    0.378  129.915    8.755
  384.996    0.173    0.364  131.779    8.573
  385.296    0.183    0.329  122.394    8.884
  385.596    0.199    0.354  125.510    9.044
  385.896    0.190    0.367  126.126    9.204
  386.196    0.183    0.352  116.118    9.363
  386.496    0.182    0.353  125.481    9.355
  386.796    0.187    0.367  134.845    8.819
  387.095    0.193    0.347  130.462    8.477
  387.395    0.194    0.332  117.952    8.464
  387.695    0.190    0.325  106.069    8.944
  387.995    0.192    0.327  109.182    9.633
  388.295    0.205    0.330  111.674   10.377
  388.595    0.204    0.343  120.413   10.767
  388.895    0.199    0.340  116.654   10.546
  389.195    0.195    0.341  112.894   10.139
  389.495    0.186    0.355  110.385    9.561
  389.795    0.189    0.377  112.249    9.012
  390.095    0.199    0.360  117.865    8.991
  390.395    0.208    0.340  106.607    9.153
  390.695    0.217    0.336  106.597    9.676
  390.995    0.208    0.333  112.211    9.850
  391.295    0.202    0.341  105.952   10.215
  391.595    0.201    0.346  114.067   10.198
  391.895    0.208    0.340  105.932    9.802
  392.195    0.235    0.336  111.547    9.786
  392.495    0.252    0.362  100.913   10.145
  392.795    0.262    0.353   95.281   10.325
  393.095    0.255    0.340   92.146   10.917
  393.395    0.242    0.336  109.008   11.989
  393.695    0.234    0.368  112.123   13.417
  393.995    0.227    0.362  110.864   15.304
  394.295    0.222    0.364  116.479   14.706
  394.595    0.229    0.361   95.221   14.129
  394.895    0.258    0.355  107.085   14.386
  395.195    0.252    0.341   92.702   15.795
  395.495    0.251    0.323   95.189   18.015
  395.795    0.243    0.314   99.556   19.047
  396.095    0.261    0.336  100.171   18.653
  396.395    0.287    0.346   72.041   18.630
  396.695    0.302    0.350   63.281   20.454
  396.995    0.288    0.365   79.518   23.333
  397.295    0.289    0.359   82.635   27.128
  397.595    0.292    0.354   91.999   32.771
  397.895    0.293    0.350  101.987   38.836
  398.195    0.293    0.360   85.731   36.612
  398.495    0.299    0.350   70.096   33.236
  398.795    0.300    0.343   70.088   33.175
  399.095    0.298    0.351   82.576   35.743
  399.395    0.304    0.356   68.818   38.496
  399.695    0.309    0.363   70.059   39.949
  399.995    0.314    0.383   68.799   45.559
  400.295    0.318    0.371   57.538   51.005
  400.595    0.313    0.371   53.156   61.606
  400.895    0.301    0.376   61.270   74.409
  401.195    0.296    0.380   68.134   84.867
  401.495    0.296    0.373   76.249   89.707
  401.795    0.298    0.360   79.363   75.451
  402.095    0.303    0.358   73.103   61.100
  402.395    0.306    0.343   82.467   47.622
  402.695    0.314    0.350   64.336   42.415
  402.995    0.308    0.347   65.577   40.742
  403.295    0.302    0.348   74.941   41.479
  403.595    0.306    0.355   77.430   42.998
  403.895    0.316    0.363   54.922   44.604
  404.195    0.321    0.359   48.664   47.135
  404.495    0.318    0.348   50.528   51.761
  404.795    0.317    0.363   43.020   56.834
  405.095    0.316    0.358   38.636   61.261
  405.395    0.313    0.352   36.127   72.589
  405.695    0.312    0.354   35.491   84.380
  405.995    0.312    0.346   37.982   89.232
  406.295    0.316    0.344   42.972   92.549
  406.595    0.321    0.356   47.962   88.938
  406.895    0.323    0.380   41.078   87.124
  407.195    0.318    0.377   44.818   90.306
  407.495    0.313    0.379   52.931   93.716
  407.795    0.315    0.383   58.546   99.004
  408.095    0.318    0.369   44.788   98.893
  408.395    0.323    0.367   44.777   96.812
  408.695    0.325    0.372   48.516   87.857
  408.995    0.315    0.387   41.634   76.797
  409.295    0.306    0.367   49.124   61.028
  409.595    0.297    0.350   57.238   50.365
  409.895    0.283    0.368   60.352   48.406
  410.195    0.283    0.378   72.214   38.446
  410.495    0.286    0.383   64.707   34.242
  410.795    0.314    0.360   49.075   36.887
  411.095    0.309    0.335   50.939   38.254
  411.395    0.303    0.317   64.677   35.392
  411.694    0.289    0.300   82.166   22.805
  411.994    0.255    0.281  110.902   11.691
  412.294    0.024    0.240   97.144    8.284
  412.594    0.022    0.216   89.635    7.664
  412.894    0.018    0.204   87.748    7.798
  413.194    0.016    0.193   93.365    8.727
  413.494    0.013    0.185   85.232   10.951
  413.794    0.012    0.160   83.346   14.005
  414.094    0.016    0.166   73.964   16.284
  414.394    0.018    0.176   89.577   17.879
  414.694    0.017    0.177   93.941   18.194
  414.994    0.000    0.170   90.183   18.167
  415.294    0.000    0.146   75.175   18.831
  415.594    0.000    0.100   49.544   19.164
  415.894    0.003    0.098   56.406   20.655
  416.194    0.008    0.113   65.146   25.421
  416.494    0.012    0.121   72.636   32.512
  416.794    0.012    0.129   67.002   37.095
  417.094    0.013    0.136   70.741   41.508
  417.394    0.013    0.141   78.856   39.143
  417.694    0.013    0.145  106.343   36.914
  417.994    0.011    0.146   96.335   34.794
  418.294    0.006    0.148  102.573   32.803
  418.594    0.006    0.150  112.563   31.538
  418.894    0.007    0.153  101.930   29.737
  419.194    0.011    0.156   88.796   29.677
  419.494    0.017    0.159   91.285   29.627
  419.794    0.020    0.163   90.024   29.021
  420.094    0.020    0.164   83.765   28.976
