~VERSION INFORMATION
 VERS.                 2.0:   CWLS LOG ASCII STANDARD -VERSION 2.0
 WRAP.                  NO:   ONE LINE PER DEPTH STEP
~WELL INFORMATION BLOCK
#MNEM.UNIT           DATA                    DESCRIPTION OF MNEMONIC
#---------    -------------------            -------------------------------
# Generated from Intellog Unique Number	CC_80_83/WELL/2427
NULL.         -999.25                        : NULL_VALUE
WELL.         ARCO ACI McMURRAY              : Well_name    - WELL              
LOC .         12-08-083-12W4                 : Location     - LOCATION          
UWI .         AA/12-08-083-12W400            : Uwi          - UNIQUE WELL ID    
ENTR.         DW                             : Entered      - ENTERED BY        
SRVC.         SCHLUMBERGER                   : Scn          - SERVICE COMPANY   
DATE.         06 MAR 74                      : Date         - LOG DATE
STRT.M        121.92                         : top_depth    - START DEPTH       
STOP.M        384.05                         : bot_depth    - STOP DEPTH        
STEP.M        0.305                          : increment    - STEP LENGTH       
~CURVE INFORMATION BLOCK
#MNEM UNIT       ERCB CURVE CODE    CURVE DESCRIPTION
#-----------   ------------------   ----------------------------------
DEPT.M        00 001 00 00         : DEPTH        - DEPTH                       
DPHI.V/V      00 890 00 00         : PHID         - DENSITY POROSITY (LIMESTONE)
GR  .API      00 310 00 00         : GR           - GAMMA RAY                   
NPHI.V/V      00 330 00 00         : PHIN         - NEUTRON POROSITY (LIMESTONE)
ILD .OHMM     00 120 00 00         : RESD         - DEEP RESISTIVITY (DIL)      
~PARAMETER INFORMATION       
#MNEM.UNIT           DATA             DESCRIPTION OF MNEMONIC
#---------         -----------     ------------------------------
GL  .M        611.734              : gl           - GROUND LEVEL ELEVATION      
EREF.M        613.41               : kb           - ELEVATION OF DEPTH REFERENCE
DATM.M        613.41               : datum        - DATUM ELEVATION             
TDD .M        384.658              : tdd          - TOTAL DEPTH DRILLER         
RUN .         ONE                  : Run          - RUN NUMBER                  
ENG .         BILL                 : Engineer     - RECORDING ENGINEER          
WIT .         JIM                  : Witness      - WITNESSED BY                
MUD .         GEL                  : Mud_type     - MUD TYPE                    
MATR.         LIMESTONE            : Logunit      - NEUTRON MATRIX              
TMAX.C        21.1111              : BHT          - MAXIMUM RECORDED TEMPERATURE
BHTD.M        384.658              : BHTDEP       - MAXIMUM RECORDED TEMPERATURE
MATR.         1                    : LOGUNIT      - NEUTRON MATRIX              
RMT .C        25                   : MDTP         - TEMPERATURE OF MUD          
NEUT.         0                    : NEUTRON      - NEUTRON TYPE                
RESI.         0                    : RESIST       - RESISTIVITY TYPE            
RMC .OHMM     0.25                 : RMC          - RESISTIVITY OF MUD CAKE     
RMF .OHMM     0.25                 : RMF          - RESISTIVITY OF MUD FILTRATE 
SUFT.C        4                    : SUFT         - SURFACE TEMPERATURE         
~A  DEPTH     PHID       GR     PHIN     RESD
# ...
  281.024    0.307   61.665    0.347    7.924
  281.329    0.308   62.064    0.341    7.358
  281.634    0.307   62.057    0.330    7.223
  281.938    0.291   61.643    0.327    7.092
  282.243    0.287   62.851    0.334    7.092
  282.548    0.281   63.252    0.356    7.093
  282.853    0.273   63.244    0.355    7.094
  283.158    0.272   65.666    0.331    6.710
  283.463    0.278   70.924    0.336    6.587
  283.767    0.287   69.298    0.346    6.231
  284.072    0.277   67.267    0.359    6.117
  284.377    0.292   66.045    0.348    6.118
  284.682    0.294   66.442    0.362    6.119
  284.987    0.271   66.032    0.375    6.007
  285.291    0.314   66.834    0.392    5.275
  285.596    0.306   68.447    0.435    4.464
  285.901    0.312   62.772    0.441    4.382
  286.206    0.339   63.171    0.428    4.549
  286.511    0.318   65.997    0.398    4.721
  286.815    0.306   65.586    0.355    5.279
  287.120    0.297   63.150    0.346    5.686
  287.425    0.282   62.334    0.349    6.240
  287.730    0.243   67.590    0.345    6.849
  288.035    0.284   77.300    0.353    6.977
  288.339    0.302   75.674    0.352    6.724
  288.644    0.285   69.593    0.352    6.725
  288.949    0.288   66.347    0.350    6.602
  289.254    0.282   64.317    0.335    6.727
  289.559    0.296   63.502    0.322    6.853
  289.864    0.296   61.875    0.314    7.114
  290.168    0.282   63.083    0.331    7.384
  290.473    0.269   65.100    0.342    7.523
  290.778    0.247   69.143    0.340    7.524
  291.083    0.259   72.375    0.340    7.525
  291.388    0.261   73.987    0.322    7.526
  291.692    0.310   71.147    0.327    7.527
  291.997    0.297   71.140    0.332    7.389
  292.302    0.286   72.347    0.337    6.990
  292.607    0.294   71.126    0.349    6.612
  292.912    0.298   66.261    0.371    6.613
  293.216    0.302   67.469    0.383    6.738
  293.521    0.344   69.891    0.372    6.864
  293.826    0.322   68.266    0.374    7.125
  294.131    0.287   69.473    0.380    6.616
  294.436    0.327   74.325    0.368    5.810
  294.740    0.327   76.747    0.369    5.198
  295.045    0.316   71.478    0.431    4.651
  295.350    0.362   70.661    0.446    4.239
  295.655    0.376   75.108    0.419    3.936
  295.960    0.373   76.316    0.402    4.162
  296.265    0.354   71.044    0.449    4.653
  296.569    0.296   70.229    0.441    5.299
  296.874    0.308   71.436    0.405    6.264
  297.179    0.318   76.693    0.344    6.748
  297.484    0.352   81.140    0.352    6.383
  297.789    0.340   80.728    0.369    5.818
  298.093    0.295   75.459    0.437    5.303
  298.398    0.312   73.832    0.427    5.016
  298.703    0.315   81.113    0.457    4.924
  299.008    0.296   85.154    0.447    5.111
  299.313    0.261   85.147    0.436    5.609
  299.617    0.230   80.282    0.340    6.271
  299.922    0.249   81.491    0.321    7.413
  300.227    0.223   81.079    0.301    8.443
  300.532    0.175   77.429    0.275    9.439
  300.837    0.160   75.802    0.250   10.168
  301.141    0.164   78.225    0.220   10.360
  301.446    0.229   80.647    0.223    9.800
  301.751    0.234   81.044    0.270    9.270
  302.056    0.238   79.418    0.300    8.294
  302.361    0.263   79.007    0.310    7.420
  302.666    0.261   74.143    0.332    6.763
  302.970    0.280   72.517    0.362    6.398
  303.275    0.301   74.939    0.403    6.398
  303.580    0.304   76.552    0.414    6.641
  303.885    0.297   74.521    0.414    7.154
  304.190    0.272   74.919    0.392    7.998
  304.494    0.266   76.532    0.309    8.616
  304.799    0.290   73.171    0.306    9.858
  305.104    0.272   72.764    0.328    9.326
  305.409    0.256   71.951    0.360    8.823
  305.714    0.297   72.764    0.297    8.503
  306.018    0.279   73.984    0.329    8.349
  306.323    0.284   71.951    0.310    8.352
  306.628    0.223   72.358    0.285    8.671
  306.933    0.213   72.358    0.267    9.002
  307.238    0.240   71.138    0.306    9.347
  307.542    0.262   69.106    0.297    9.349
  307.847    0.275   74.390    0.316    9.179
  308.152    0.281   78.455    0.305    8.847
  308.457    0.268   74.390    0.328    8.849
  308.762    0.251   71.545    0.320    9.188
  309.067    0.256   76.829    0.322    9.364
  309.371    0.228   79.675    0.311    9.366
  309.676    0.256   75.610    0.319    9.197
  309.981    0.257   77.236    0.319    8.864
  310.286    0.256   82.114    0.311    8.702
  310.591    0.263   82.520    0.328    8.387
  310.895    0.276   79.268    0.325    8.235
  311.200    0.291   67.073    0.316    8.086
  311.505    0.285   63.821    0.324    8.089
  311.810    0.285   67.886    0.314    8.091
  312.115    0.282   69.512    0.308    8.094
  312.419    0.263   72.764    0.317    7.947
  312.724    0.256   68.293    0.335    7.803
  313.029    0.272   64.634    0.354    7.382
  313.334    0.281   64.228    0.363    7.114
  313.639    0.331   66.260    0.397    6.856
  313.943    0.324   70.325    0.424    6.366
  314.248    0.365   70.325    0.409    5.803
  314.553    0.305   71.951    0.368    5.096
  314.858    0.291   76.829    0.389    4.475
  315.163    0.302   86.179    0.404    3.648
  315.468    0.304   86.585    0.356    3.451
  315.772    0.296   82.927    0.351    4.396
  316.077    0.310   76.829    0.319    5.923
  316.382    0.333   71.138    0.301    7.270
  316.687    0.244   73.984    0.323    7.982
  316.992    0.245   71.138    0.320    8.287
  317.296    0.263   61.789    0.319    8.445
  317.601    0.273   69.106    0.324    8.292
  317.906    0.259   73.984    0.331    8.293
  318.211    0.250   71.138    0.312    8.297
  318.516    0.259   71.545    0.296    8.299
  318.820    0.265   74.390    0.311    8.457
  319.125    0.253   72.764    0.311    8.305
  319.430    0.227   72.764    0.340    8.153
  319.735    0.218   67.480    0.363    7.713
  320.040    0.230   67.886    0.369    7.434
  320.344    0.248   65.447    0.343    7.298
  320.649    0.201   65.854    0.350    7.438
  320.954    0.206   74.390    0.342    7.580
  321.259    0.267   75.610    0.318    7.443
  321.564    0.234   77.236    0.323    7.173
  321.869    0.232   83.333    0.323    6.786
  322.173    0.234   83.333    0.331    6.071
  322.478    0.244   75.203    0.351    4.768
  322.783    0.285   61.789    0.364    3.412
  323.088    0.292   54.878    0.343    3.228
  323.393    0.263   55.691    0.328    3.678
  323.697    0.270   54.878    0.322    5.338
  324.002    0.242   58.537    0.315    6.675
  324.307    0.244   61.382    0.306    6.930
  324.612    0.264   62.195    0.298    6.679
  324.917    0.253   65.041    0.326    5.866
  325.221    0.268   71.545    0.369    4.782
  325.526    0.276   68.293    0.395    3.971
  325.831    0.292   72.358    0.350    3.757
  326.136    0.284   71.138    0.318    3.758
  326.441    0.247   69.106    0.309    4.203
  326.745    0.223   68.699    0.332    5.159
  327.050    0.225   68.293    0.346    5.559
  327.355    0.256   69.919    0.320    5.665
  327.660    0.269   74.797    0.319    5.164
  327.965    0.269   76.829    0.330    4.534
  328.270    0.274   75.610    0.350    3.909
  328.574    0.267   75.610    0.357    3.698
  328.879    0.267   76.423    0.328    3.631
  329.184    0.264   77.236    0.355    3.632
  329.489    0.262   80.894    0.350    3.701
  329.794    0.279   81.301    0.349    3.772
  330.098    0.274   75.610    0.358    3.844
  330.403    0.233   72.358    0.346    3.845
  330.708    0.217   81.707    0.354    3.505
  331.013    0.225   84.959    0.371    3.378
  331.318    0.246   83.333    0.390    3.378
  331.622    0.267   81.707    0.359    3.640
  331.927    0.246   82.114    0.324    4.305
  332.232    0.227   72.764    0.274    5.588
  332.537    0.212   55.691    0.283    7.528
  332.842    0.218   54.878    0.308    9.770
  333.146    0.285   56.504    0.324    9.416
  333.451    0.292   59.350    0.348    8.424
  333.756    0.278   66.260    0.361    8.272
