~VERSION INFORMATION
 VERS.                 2.0:   CWLS LOG ASCII STANDARD -VERSION 2.0
 WRAP.                  NO:   ONE LINE PER DEPTH STEP
~WELL INFORMATION BLOCK
#MNEM.UNIT           DATA                    DESCRIPTION OF MNEMONIC
#---------    -------------------            -------------------------------
# Generated from Intellog Unique Number	CW_82_90/WELL/927
WELL.         10-26-082-22W4                 : Well_name    - WELL
LOC .         AA/10-26-082-22W4/0            : Location     - LOCATION
UWI .         AA/10-26-082-22W4/0            : Uwi          - UNIQUE WELL ID
ENTR.         JAYE                           : Entered      - ENTERED BY
SRVC.         SCHLUMBERGER                   : Scn          - SERVICE COMPANY
DATE.         18 JAN 82                      : Date         - LOG DATE
STRT.M        225                            : top_depth    - START DEPTH
STOP.M        430                            : bot_depth    - STOP DEPTH
STEP.M        0.25                           : increment    - STEP LENGTH
 NULL. -999.2500:NULL Value
~CURVE INFORMATION BLOCK
#MNEM UNIT       ERCB CURVE CODE    CURVE DESCRIPTION
#-----------   ------------------   ----------------------------------
DEPT.M        00 001 00 00         : DEPTH        - DEPTH
CALI.MM       00 280 01 00         : CAL          - CALIPER
GR  .API      00 310 00 00         : GR           - GAMMA RAY
DPHI.V/V      00 890 00 00         : PHID         - DENSITY POROSITY (SANDSTONE)
NPHI.V/V      00 330 00 00         : PHIN         - NEUTRON POROSITY (SANDSTONE)
ILD .OHMM     00 120 00 00         : RESD         - DEEP RESISTIVITY (DIL)
~PARAMETER INFORMATION
#MNEM.UNIT           DATA             DESCRIPTION OF MNEMONIC
#---------         -----------     ------------------------------
GL  .M        626.3                : gl           - GROUND LEVEL ELEVATION
EREF.M        630.7                : kb           - ELEVATION OF DEPTH REFERENCE
DATM.M        626.3                : datum        - DATUM ELEVATION
TDD .M        436                  : tdd          - TOTAL DEPTH DRILLER
RUN .         ONE                  : Run          - RUN NUMBER
ENG .         GARTH                : Engineer     - RECORDING ENGINEER
WIT .         WALKER               : Witness      - WITNESSED BY
BASE.         EDMONTON             : Branch       - HOME BASE OF LOGGING UNIT
MUD .         GEL CHEM             : Mud_type     - MUD TYPE
MATR.         SANDSTONE            : Logunit      - NEUTRON MATRIX
TMAX.C        23.8                 : BHT          - MAXIMUM RECORDED TEMPERATURE
BHTD.M        436                  : BHTDEP       - MAXIMUM RECORDED TEMPERATURE
RMT .C        23.8                 : MDTP         - TEMPERATURE OF MUD
MUDD.KG/M     0                    : MWT          - MUD DENSITY
NEUT.         1                    : NEUTRON      - NEUTRON TYPE
RESI.         0                    : RESIST       - RESISTIVITY TYPE
RM  .OHMM     3.14                 : RM           - RESISTIVITY OF MUD
RMC .OHMM     0.25                 : RMC          - RESISTIVITY OF MUD CAKE
RMF .OHMM     1.628                : RMF          - RESISTIVITY OF MUD FILTRATE
SUFT.C        4                    : SUFT         - SURFACE TEMPERATURE
~A  DEPTH      CAL       GR     PHID     PHIN     RESD
# ...
  407.500  252.744  111.485    0.178    0.436   10.516
  407.750  251.274   98.474    0.170    0.439   12.428
  408.000  250.121   85.959    0.133    0.400   15.360
  408.250  249.376   93.602    0.089    0.352   18.086
  408.500  248.325  101.058    0.155    0.357   21.693
  408.750  248.307  101.048    0.183    0.385   23.439
  409.000  248.190  100.165    0.192    0.383   23.990
  409.250  246.307  101.713    0.195    0.379   22.912
  409.500  244.630   94.922    0.189    0.396   21.475
  409.750  243.060   83.714    0.186    0.399   20.435
  410.000  242.214   73.564    0.204    0.411   19.847
  410.250  240.748   44.875    0.246    0.428   22.094
  410.500  239.692   43.433    0.269    0.426   27.259
  410.750  238.329   46.473    0.277    0.421   37.763
  411.000  238.211   50.072    0.286    0.425   50.203
  411.250  238.608   49.440    0.295    0.432   56.833
  411.500  240.563   47.625    0.304    0.439   57.736
  411.750  241.481   50.603    0.308    0.440   55.035
  412.000  242.397   63.782    0.297    0.433   51.590
  412.250  242.692   79.823    0.254    0.419   31.288
  412.500  242.780   87.341    0.185    0.407   25.302
  412.750  242.452   88.763    0.147    0.392   17.294
  413.000  241.710   90.432    0.144    0.375   13.907
  413.250  241.178   89.988    0.137    0.359   13.684
  413.500  241.264   87.863    0.142    0.365   13.720
  413.750  240.521   92.146    0.148    0.362   11.076
  414.000  241.023  109.120    0.161    0.360    6.767
  414.250  241.214  111.537    0.175    0.455    4.985
  414.500  241.924  104.808    0.180    0.474    4.492
  414.750  242.428   94.907    0.156    0.460    4.881
  415.000  242.825   87.059    0.129    0.434    6.357
  415.250  243.224   79.023    0.102    0.368    8.873
  415.500  243.416   82.000    0.075    0.313   11.216
  415.750  243.399   95.615    0.098    0.300   14.310
  416.000  243.592  103.754    0.128    0.323   15.578
  416.250  243.577  113.388    0.153    0.419   13.549
  416.500  243.454  118.978    0.163    0.451   10.418
  416.750  243.335  111.191    0.173    0.452    8.426
  417.000  243.217  100.543    0.188    0.459    7.481
  417.250  242.890   80.502    0.194    0.441    7.501
  417.500  242.769   74.582    0.210    0.405    9.769
  417.750  243.066   73.950    0.230    0.391   12.167
  418.000  243.256   70.394    0.220    0.378   16.759
  418.250  243.448   70.135    0.207    0.361   23.966
  418.500  243.534   74.916    0.179    0.366   32.464
  418.750  243.935   76.213    0.183    0.385   31.228
  419.000  244.436   77.884    0.260    0.443   29.831
  419.250  244.524   84.344    0.234    0.438   27.806
  419.500  244.923   86.573    0.208    0.432   26.255
  419.750  244.907   86.937    0.199    0.431   25.791
  420.000  244.892   91.158    0.206    0.423   25.431
  420.250  244.565   92.144    0.213    0.412   25.070
  420.500  244.028   89.460    0.222    0.403   23.896
  420.750  243.496   82.730    0.218    0.402   21.581
  421.000  243.271   82.160    0.222    0.409   18.391
  421.250  243.773   83.270    0.222    0.490   13.879
  421.500  243.862   83.075    0.208    0.447   12.027
  421.750  244.052   87.669    0.201    0.416   12.681
  422.000  244.244   94.814    0.187    0.387   10.668
  422.250  244.125   95.924    0.171    0.407    8.938
  422.500  244.006   90.751    0.163    0.482    7.834
  422.750  243.678   89.497    0.170    0.476    7.508
  423.000  242.625   99.193    0.184    0.444    8.485
  423.250  241.778  106.338    0.181    0.427    9.499
  423.500  240.515  112.425    0.171    0.433    9.813
  423.750  241.125  111.544    0.159    0.480    9.162
  424.000  240.797   95.857    0.145    0.496    8.525
  424.250  239.845   79.361    0.148    0.491    8.022
  424.500  238.692   66.660    0.263    0.450    8.831
  424.750  237.638   63.540    0.294    0.343   15.280
  425.000  237.624   73.111    0.303    0.280   21.247
  425.250  238.748   77.518    0.289    0.288   26.555
  425.500  240.596   78.753    0.276    0.354   26.231
  425.750  240.894   76.939    0.258    0.336   24.043
  426.000  240.878   76.990    0.262    0.302   22.079
  426.250  240.550   77.480    0.327    0.283   29.027
  426.500  240.223   75.915    0.317    0.300   31.771
  426.750  240.413   64.458    0.282    0.357   32.216
  427.000  241.227   54.121    0.133    0.326   34.096
  427.250  241.417   46.584    0.030    0.261   37.467
  427.500  241.712   41.846    0.037    0.239   44.444
  427.750  241.490   37.668    0.021    0.268   47.304
  428.000  241.888   37.222    0.028    0.280   65.408
  428.250  241.977   39.764    0.043    0.283   74.329
  428.500  241.027   43.300    0.123    0.286   76.780
  428.750  241.323   48.082    0.150    0.297   75.831
  429.000  241.305   54.105    0.159    0.323   83.332
  429.250  240.978   60.256    0.172    0.349   85.763
  429.500  240.446   66.094    0.193    0.340   85.022
  429.750  240.740   68.634    0.174    0.306   83.356
  430.000  241.138   68.999    0.143    0.275   81.710
