~VERSION INFORMATION
 VERS.                 2.0:   CWLS LOG ASCII STANDARD -VERSION 2.0
 WRAP.                  NO:   ONE LINE PER DEPTH STEP
~WELL INFORMATION BLOCK
#MNEM.UNIT           DATA                    DESCRIPTION OF MNEMONIC
#---------    -------------------            -------------------------------
# Generated from Intellog Unique Number	CN_91_93/WELL/2890
WELL.         10-29-092-16W4                 : Well_name    - WELL
LOC .         AA/10-29-092-16W4/0            : Location     - LOCATION
UWI .         AA/10-29-092-16W400            : Uwi          - UNIQUE WELL ID
ENTR.         JOETTE                         : Entered      - ENTERED BY
SRVC.         SCHLUMBERGER                   : Scn          - SERVICE COMPANY
DATE.         03/31/92                       : Date         - LOG DATE
STRT.F        220                            : top_depth    - START DEPTH
STOP.F        780.203                        : bot_depth    - STOP DEPTH
STEP.F        0.82                           : increment    - STEP LENGTH
 NULL. -999.2500:NULL Value
~CURVE INFORMATION BLOCK
#MNEM UNIT       ERCB CURVE CODE    CURVE DESCRIPTION
#-----------   ------------------   ----------------------------------
DEPT.F        00 001 00 00         : DEPTH        - DEPTH
CALI.IN       00 280 01 00         : CAL          - CALIPER
GR  .API      00 310 00 00         : GR           - GAMMA RAY
NPHI.V/V      00 330 00 00         : PHIN         - NEUTRON POROSITY (SANDSTONE)
DPHI.V/V      00 890 00 00         : PHID         - DENSITY POROSITY (SANDSTONE)
ILD .OHMM     00 120 00 00         : RESD         - DEEP RESISTIVITY (DIL)
~PARAMETER INFORMATION
#MNEM.UNIT           DATA             DESCRIPTION OF MNEMONIC
#---------         -----------     ------------------------------
GL  .M        490.21               : gl           - GROUND LEVEL ELEVATION
EREF.M        493.319              : kb           - ELEVATION OF DEPTH REFERENCE
DATM.M        493.319              : datum        - DATUM ELEVATION
TDD .M        246.888              : tdd          - TOTAL DEPTH DRILLER
RUN .         ONE                  : Run          - RUN NUMBER
ENG .         BILL                 : Engineer     - RECORDING ENGINEER
WIT .         JIM                  : Witness      - WITNESSED BY
MUD .         GEL                  : Mud_type     - MUD TYPE
MATR.         SANDSTONE            : Logunit      - NEUTRON MATRIX
TMAX.F        82                   : BHT          - MAXIMUM RECORDED TEMPERATURE
BHTD.F        810                  : BHTDEP       - MAXIMUM RECORDED TEMPERATURE
RMT .F        60                   : MDTP         - TEMPERATURE OF MUD
MUDD.LB/G     8.6                  : MWT          - MUD DENSITY
NEUT.         1                    : NEUTRON      - NEUTRON TYPE
RESI.         0                    : RESIST       - RESISTIVITY TYPE
RM  .OHMM     0.81                 : RM           - RESISTIVITY OF MUD
RMC .OHMM     0.81                 : RMC          - RESISTIVITY OF MUD CAKE
RMF .OHMM     0.81                 : RMF          - RESISTIVITY OF MUD FILTRATE
SUFT.F        39.2                 : SUFT         - SURFACE TEMPERATURE
~A  DEPTH      CAL       GR     PHIN     PHID     RESD
  220.000    6.974   48.124    0.544    0.429   32.536
  220.820    6.935   48.151    0.548    0.425   31.341
  221.640    6.895   48.779    0.565    0.429   35.067
  222.461    6.855   53.118    0.563    0.433   38.509
  223.281    6.816   53.145    0.561    0.438   41.505
  224.101    6.776   51.933    0.561    0.439   40.736
  224.921    6.777   48.253    0.562    0.444   35.734
  225.741    6.738   47.663    0.564    0.453   35.735
  226.562    6.739   48.918    0.560    0.430   37.099
  227.382    6.741   50.790    0.558    0.426   37.801
  228.202    6.743   49.578    0.563    0.429   37.102
  229.022    6.744   49.594    0.565    0.416   34.426
  229.843    6.745   52.088    0.563    0.380   34.427
  230.663    6.746   52.721    0.562    0.375   34.427
  231.483    6.749   55.215    0.560    0.362   35.079
  232.303    6.750   57.082    0.554    0.358   37.107
  233.123    6.751   55.258    0.545    0.362   38.523
  233.944    6.711   53.429    0.543    0.368   38.524
  234.764    6.671   49.750    0.557    0.373   38.526
  235.584    6.632   47.298    0.559    0.379   37.812
  236.404    6.633   46.086    0.550    0.349   37.112
  237.224    6.594   49.819    0.538    0.343   35.086
  238.045    6.554   51.080    0.530    0.356   34.436
  238.865    6.556   49.857    0.532    0.367   37.816
  239.685    6.516   48.645    0.521    0.370   40.002
  240.505    6.517   49.283    0.514    0.375   42.314
  241.325    6.478   50.538    0.519    0.380   41.530
  242.146    6.479   49.943    0.527    0.386   40.005
  242.966    6.439   47.497    0.515    0.382   37.120
  243.786    6.441   48.141    0.517    0.375   32.562
  244.606    6.401   51.241    0.533    0.377   33.805
  245.427    6.403   49.417    0.538    0.377   35.759
  246.247    6.404   49.433    0.543    0.420   35.760
  247.067    6.406   52.539    0.552    0.448   33.808
  247.887    6.407   53.800    0.551    0.470   31.962
  248.707    6.409   53.204    0.546    0.495   31.963
  249.528    6.410   51.992    0.544    0.516   33.811
  250.348    6.411   50.791    0.550    0.555   35.101
  251.168    6.412   50.801    0.556    0.558   35.766
  251.988    6.414   51.445    0.558    0.562   34.453
  252.808    6.414   51.461    0.559    0.568   33.187
  253.629    6.418   52.105    0.539    0.540   31.376
  254.449    6.502   52.738    0.530    0.508   31.377
  255.269    6.503   53.381    0.525    0.502   31.377
  256.089    6.504   54.014    0.530    0.495   31.377
  256.909    6.505   54.658    0.536    0.496   31.973
  257.730    6.507   53.446    0.537    0.502   30.798
  258.550    6.508   54.701    0.533    0.514   28.047
  259.370    6.510   55.339    0.537    0.531   27.017
  260.190    6.511   54.127    0.537    0.566   25.069
  261.010    6.513   52.303    0.537    0.588   27.529
  261.831    6.514   51.703    0.538    0.594   31.385
  262.651    6.515   54.191    0.545    0.598   30.232
  263.471    6.558   55.446    0.551    0.599   25.545
  264.291    6.559   56.085    0.561    0.594   21.185
  265.112    6.561   58.574    0.572    0.458   15.125
  265.932    6.563   63.535    0.582    0.456   10.799
  266.752    6.564   65.402    0.594    0.459    8.789
  267.572    6.566   70.975    0.597    0.460    5.302
  268.392    6.526   78.398    0.595    0.421    4.480
  269.213    6.527  100.631    0.578    0.309    4.480
  270.033    6.528  111.756    0.572    0.292    4.829
  270.853    6.530  121.647    0.574    0.296    5.403
  271.673    6.532  122.902    0.580    0.290    5.505
  272.493    6.533  117.994    0.585    0.276    5.108
  273.314    6.534  120.483    0.584    0.280    4.740
  274.134    6.536  121.127    0.581    0.275    4.740
  274.954    6.537  121.760    0.581    0.276    4.566
  275.774    6.498  123.632    0.581    0.282    4.398
  276.594    6.499  124.270    0.580    0.278    4.398
  277.415    6.500  122.441    0.577    0.288    4.399
  278.235    6.502  121.846    0.577    0.308    4.482
  279.055    6.462  120.633    0.574    0.342    4.653
  279.875    6.464  120.038    0.571    0.360    4.653
  280.696    6.465  121.915    0.576    0.306    4.653
  281.516    6.467  121.315    0.581    0.295    4.399
  282.336    6.468  120.102    0.578    0.268    4.159
  283.156    6.470  118.890    0.573    0.276    4.082
  283.976    6.471  118.295    0.567    0.268    4.082
  284.797    6.514  119.550    0.568    0.276    4.159
  285.617    6.515  120.188    0.572    0.272    4.159
  286.437    6.516  120.215    0.576    0.268    4.082
  287.257    6.477  123.326    0.574    0.275    3.933
  288.077    6.478  123.964    0.576    0.273    3.933
  288.898    6.480  121.513    0.575    0.274    3.860
  289.718    6.482  120.306    0.574    0.289    3.860
  290.538    6.482  119.705    0.569    0.304    4.007
  291.358    6.484  116.026    0.568    0.325    4.484
  292.178    6.445  113.585    0.568    0.363    4.569
  292.999    6.446  112.373    0.572    0.364    4.569
  293.819    6.447  108.694    0.573    0.384    4.655
  294.639    6.449  106.859    0.574    0.314    5.720
  295.459    6.451  107.497    0.567    0.247    6.644
  296.280    6.452  109.369    0.562    0.257    6.898
  297.100    6.453  107.540    0.562    0.264    6.400
  297.920    6.455  102.632    0.568    0.223    6.051
  298.740    6.456   97.714    0.577    0.189    5.510
  299.560    6.458   97.735    0.580    0.216    5.308
  300.381    6.459  103.308    0.577    0.247    5.113
  301.201    6.460  105.180    0.571    0.276    5.210
  302.021    6.462  103.357    0.564    0.275    5.409
  302.841    6.463  103.378    0.569    0.289    5.615
  303.661    6.424  101.549    0.562    0.282    5.615
  304.482    6.425  100.337    0.555    0.281    5.616
  305.302    6.426  100.986    0.559    0.287    5.409
  306.122    6.428   98.529    0.553    0.284    5.211
  306.942    6.430   99.173    0.536    0.276    4.657
  307.762    6.431   99.194    0.515    0.269    4.010
  308.583    6.433   99.833    0.499    0.275    3.388
  309.403    6.434  101.705    0.493    0.266    2.863
  310.223    6.435  105.422    0.495    0.273    2.656
  311.043    6.396  111.000    0.504    0.334    2.607
  311.864    6.397  109.166    0.510    0.343    2.559
  312.684    6.399  111.655    0.517    0.358    2.511
  313.504    6.400  112.304    0.546    0.355    2.419
  314.324    6.361  109.858    0.585    0.349    2.419
  315.144    6.361  108.646    0.590    0.370    2.419
  315.965    6.363  108.045    0.572    0.388    2.465
  316.785    6.324  108.694    0.553    0.403    2.918
  317.605    6.325  109.321    0.533    0.413    3.585
  318.425    6.327  108.726    0.508    0.407    3.653
  319.245    6.329  106.285    0.492    0.316    3.653
  320.066    6.288  103.834    0.500    0.283    3.326
  320.886    6.290  101.394    0.519    0.260    2.811
  321.706    6.292  108.195    0.543    0.266    2.864
  322.526    6.292  111.923    0.557    0.360    2.918
  323.346    6.294  109.472    0.565    0.346    3.145
  324.167    6.295  110.110    0.555    0.346    3.205
  324.987    6.297  111.370    0.554    0.330    3.145
  325.807    6.257  109.541    0.569    0.323    3.145
  326.627    6.217  108.329    0.587    0.338    3.205
  327.448    6.178  107.117    0.590    0.352    3.519
  328.268    6.179  105.288    0.549    0.395    4.165
  329.088    6.181  102.225    0.523    0.432    4.489
  329.908    6.183   98.546    0.566    0.334    4.839
  330.728    6.184  104.119    0.601    0.267    6.407
  331.549    6.227  102.290    0.594    0.233    8.022
  332.369    6.269   99.227    0.549    0.228    7.873
  333.189    6.311   92.463    0.520    0.213    7.305
  334.009    6.313   89.406    0.498    0.185    7.727
  334.829    6.232   93.740    0.502    0.140    7.584
  335.650    6.192   95.617    0.502    0.228    6.907
  336.470    6.153   93.788    0.504    0.244    6.290
  337.290    6.113   94.426    0.510    0.247    5.415
  338.110    6.115   99.377    0.520    0.248    5.025
  338.930    6.116  100.632    0.541    0.258    5.622
