~VERSION INFORMATION
 VERS.                 2.0:   CWLS LOG ASCII STANDARD -VERSION 2.0
 WRAP.                  NO:   ONE LINE PER DEPTH STEP
~WELL INFORMATION BLOCK
#MNEM.UNIT           DATA                    DESCRIPTION OF MNEMONIC
#---------    -------------------            -------------------------------
# Generated from Intellog Unique Number	CN_94_101/WELL/3589
WELL.         11-24-096-12W4                 : Well_name    - WELL
LOC .         AA/11-24-096-12W4/0            : Location     - LOCATION
UWI .         AA/11-24-096-12W400            : Uwi          - UNIQUE WELL ID
ENTR.         JOETTE                         : Entered      - ENTERED BY
SRVC.         SCHLUMBERGER                   : Scn          - SERVICE COMPANY
DATE.         07/31/92                       : Date         - LOG DATE
STRT.F        30                             : top_depth    - START DEPTH
STOP.F        409.757                        : bot_depth    - STOP DEPTH
STEP.F        0.8202                         : increment    - STEP LENGTH
 NULL. -999.2500:NULL Value
~CURVE INFORMATION BLOCK
#MNEM UNIT       ERCB CURVE CODE    CURVE DESCRIPTION
#-----------   ------------------   ----------------------------------
DEPT.F        00 001 00 00         : DEPTH        - DEPTH
ILD .OHMM     00 120 00 00         : RESD         - DEEP RESISTIVITY (DIL)
GR  .API      00 310 00 00         : GR           - GAMMA RAY
DPHI.V/V      00 890 00 00         : PHID         - DENSITY POROSITY (SANDSTONE)
~PARAMETER INFORMATION
#MNEM.UNIT           DATA             DESCRIPTION OF MNEMONIC
#---------         -----------     ------------------------------
GL  .M        313.9                : gl           - GROUND LEVEL ELEVATION
EREF.M        313.9                : kb           - ELEVATION OF DEPTH REFERENCE
DATM.M        313.9                : datum        - DATUM ELEVATION
TDD .M        125                  : tdd          - TOTAL DEPTH DRILLER
RUN .         ONE                  : Run          - RUN NUMBER
ENG .         BILL                 : Engineer     - RECORDING ENGINEER
WIT .         JIM                  : Witness      - WITNESSED BY
MUD .         GEL                  : Mud_type     - MUD TYPE
MATR.         SANDSTONE            : Logunit      - NEUTRON MATRIX
TMAX.C        15                   : BHT          - MAXIMUM RECORDED TEMPERATURE
BHTD.M        125                  : BHTDEP       - MAXIMUM RECORDED TEMPERATURE
RMT .C        4.44444              : MDTP         - TEMPERATURE OF MUD
MUDD.KG/M     1004                 : MWT          - MUD DENSITY
NEUT.         1                    : NEUTRON      - NEUTRON TYPE
RESI.         0                    : RESIST       - RESISTIVITY TYPE
RM  .OHMM     2.58                 : RM           - RESISTIVITY OF MUD
RMC .OHMM     2.58                 : RMC          - RESISTIVITY OF MUD CAKE
RMF .OHMM     2.58                 : RMF          - RESISTIVITY OF MUD FILTRATE
SUFT.C        4                    : SUFT         - SURFACE TEMPERATURE
~A  DEPTH     RESD       GR     PHID
   30.000   10.545   51.062    0.250
   30.820   13.437   59.030    0.278
   31.640   19.867   70.163    0.263
   32.461   17.799   76.166    0.250
   33.281    8.180   77.004    0.303
   34.101    8.822   78.238    0.310
   34.921    8.202   84.613    0.303
   35.742    7.083   85.858    0.288
   36.562    7.779   85.894    0.272
   37.382    9.730   83.185    0.261
   38.202    8.717   81.255    0.247
   39.022    7.251   79.709    0.231
   39.843    7.825   83.734    0.220
   40.663    8.439   81.397    0.281
   41.483    7.990   79.863    0.258
   42.303    6.898   84.656    0.234
   43.123    5.955   83.912    0.231
   43.944    5.853   84.355    0.271
   44.764    6.430   84.415    0.276
   45.584    7.613   85.253    0.247
   46.404    6.818   82.928    0.248
   47.224    5.886   82.975    0.246
   48.045    7.095   81.836    0.235
   48.865   13.103   83.465    0.212
   49.685   11.523   70.067    0.187
   50.505    6.494   74.069    0.249
   51.325    5.110   82.829    0.277
   52.146    4.330   84.062    0.316
   52.966    4.937   86.494    0.303
   53.786    6.409   84.553    0.282
   54.606    6.184   79.471    0.265
   55.426    5.751   81.100    0.254
   56.247    5.349   79.554    0.232
   57.067    5.066   76.845    0.239
   57.887    4.888   76.892    0.244
   58.707    4.988   79.313    0.248
   59.528    5.085   83.315    0.247
   60.348    5.590   87.724    0.230
   61.168    5.702   90.552    0.221
   61.988    6.147   92.169    0.219
   62.808    7.409   90.646    0.202
   63.629    6.278   77.632    0.182
   64.449    2.397   66.199    0.319
   65.269    1.958   58.721    0.353
   66.089    2.151   61.944    0.368
   66.909    2.363   62.399    0.384
   67.730    2.548   63.225    0.371
   68.550    2.601   72.380    0.338
   69.370    2.603   68.868    0.339
   70.190    2.607   64.170    0.335
   71.010    2.864   59.879    0.319
   71.831    3.718   58.333    0.268
   72.651    5.103   61.940    0.244
   73.471    6.040   65.151    0.225
   74.291    5.312   66.792    0.218
   75.112    4.759   71.189    0.269
   75.932    4.945   69.260    0.295
   76.752    5.638   62.980    0.299
   77.572    6.922   55.513    0.279
   78.392   11.022   54.374    0.267
   79.213   11.454   59.167    0.282
   80.033    6.699   67.531    0.274
   80.853    4.461   71.929    0.254
   81.673    3.851   75.547    0.277
   82.493    4.156   75.595    0.288
   83.314    4.159   77.224    0.300
   84.134    4.088   80.447    0.276
   84.954    4.094   78.121    0.265
   85.774    4.255   74.203    0.253
   86.594    4.762   75.448    0.262
   87.415    5.429   72.727    0.246
   88.235    5.336   70.402    0.227
   89.055    4.608   75.986    0.236
   89.875    4.529   76.033    0.243
   90.695    5.666   72.534    0.223
   91.516    6.956   71.394    0.190
   92.336    6.973   71.430    0.227
   93.156    6.359   85.342    0.257
   93.976    5.490   82.622    0.267
   94.797    4.485   84.646    0.280
   95.617    4.490   86.287    0.281
   96.437    4.414   84.346    0.274
   97.257    4.418   81.229    0.250
   98.077    5.227   76.531    0.241
   98.898    8.326   72.241    0.234
   99.718    8.814   71.090    0.223
  100.538    8.042   71.533    0.209
  101.358    7.075   69.207    0.196
  102.178    9.015   62.927    0.202
  102.999   15.749   55.054    0.208
  103.819   22.429   45.610    0.200
  104.639   31.367   35.759    0.241
  105.459   42.255   28.293    0.318
  106.280   52.854   23.978    0.321
  107.100   48.254   26.410    0.316
  107.920   49.222   32.402    0.305
  108.740   54.093   31.658    0.306
  109.560   51.234   30.927    0.302
  110.381   38.834   36.894    0.280
  111.201   28.903   38.128    0.281
  112.021   23.602   44.119    0.273
  112.841   24.526   51.297    0.264
  113.661   43.648   48.180    0.269
  114.482   52.609   43.866    0.278
  115.302   23.299   41.145    0.301
  116.122   22.909   48.718    0.311
  116.942   26.109   52.744    0.291
  117.762   27.639   51.605    0.266
  118.583   23.422   51.257    0.261
  119.403   21.377   51.304    0.263
  120.223   21.412   52.154    0.268
  121.043   23.971   52.586    0.265
  121.864   26.335   51.842    0.247
  122.684   26.863   51.889    0.234
  123.504   26.404   51.541    0.270
  124.324   26.448   45.657    0.277
  125.144   29.599   42.133    0.280
  125.965   31.910   42.193    0.269
  126.785   37.754   35.901    0.282
  127.605   38.537   30.424    0.276
  128.425   37.183   34.030    0.259
  129.245   33.925   35.660    0.271
  130.066   27.194   39.266    0.269
  130.886   19.503   50.398    0.252
  131.706   21.426   57.576    0.266
  132.526   36.755   59.601    0.268
  133.346   41.904   56.880    0.271
  134.167   28.949   54.566    0.309
  134.987   26.924   54.206    0.284
  135.807   31.846   51.090    0.274
  136.627   51.656   47.578    0.278
  137.448   65.823   48.417    0.287
  138.268   62.344   52.035    0.291
  139.088   34.490   54.072    0.282
  139.908   30.900   52.537    0.257
  140.728   37.941   50.991    0.259
  141.549   37.305   48.270    0.252
  142.369   32.205   50.702    0.249
  143.189   30.513   51.924    0.258
  144.009   33.511   48.017    0.229
  144.829   41.916   43.715    0.265
  145.650   46.926   42.587    0.281
  146.470   38.319   46.194    0.287
  147.290   39.100   50.196    0.276
  148.110   43.745   49.453    0.282
  148.930   42.208   45.953    0.289
  149.751   32.602   45.988    0.269
  150.571   26.622   62.273    0.262
  151.391   29.247   61.937    0.242
  152.211   30.402   63.555    0.243
  153.031   25.763   67.557    0.230
  153.852   21.432   73.152    0.228
  154.672   22.687   68.059    0.235
  155.492   26.358   66.536    0.242
  156.312   25.433   61.431    0.250
  157.133   25.466   59.896    0.242
  157.953   30.695   56.001    0.243
  158.773   41.349   54.047    0.247
  159.593   35.697   56.084    0.242
  160.413   23.335   58.900    0.223
  161.234   19.411   61.739    0.229
  162.054   21.325   61.775    0.237
  162.874   26.692   64.590    0.243
  163.694   26.718   65.824    0.256
  164.514   26.753   61.522    0.228
  165.335   28.851   65.931    0.229
  166.155   31.134   65.199    0.238
  166.975   28.405   62.467    0.242
  167.795   31.790   54.593    0.243
  168.615   65.621   42.369    0.257
  169.436  196.265   47.965    0.275
  170.256  119.126   55.538    0.289
  171.076   80.814   53.608    0.301
  171.896   83.978   45.339    0.309
  172.717  131.217   42.618    0.320
  173.537  176.825   41.479    0.313
  174.357  129.233   50.239    0.300
  175.177  158.628   48.704    0.299
  175.997  257.308   36.876    0.299
  176.818  409.574   29.410    0.304
  177.638  360.198   27.875    0.311
  178.458  263.165   48.115    0.315
  179.278  145.590   52.117    0.310
  180.098  112.454   55.352    0.298
  180.919  133.052   50.630    0.286
  181.739  172.770   42.373    0.287
  182.559  280.156   40.047    0.293
  183.379  108.935   52.366    0.299
  184.199   87.320   61.125    0.309
  185.020   67.447   42.970    0.298
  185.840  107.395   39.051    0.284
  186.660  243.219   31.584    0.291
  187.480  540.704   28.073    0.300
  188.301  402.437   32.075    0.309
  189.121  299.627   43.207    0.305
  189.941  206.930   50.780    0.303
  190.761  118.804   53.596    0.305
  191.581  108.429   53.260    0.293
  192.402   86.915   48.154    0.289
  193.222  215.958   39.897    0.295
  194.042  489.084   37.176    0.294
  194.862  201.052   48.704    0.306
  195.682  113.309   59.440    0.312
  196.503   55.056   77.691    0.305
  197.323   43.321   89.614    0.298
  198.143   34.076   97.187    0.276
  198.963   35.422  100.794    0.246
  199.783   58.533   72.740    0.247
  200.604   70.550   56.957    0.258
  201.424  156.841   43.570    0.274
  202.244  718.550   42.827    0.301
  203.064  524.981   40.490    0.309
  203.885  228.379   35.780    0.310
  204.705  250.812   30.291    0.313
  205.525  313.621   28.756    0.300
  206.345  364.368   30.793    0.312
  207.165  126.764   36.377    0.306
