~VERSION INFORMATION
 VERS.                 2.0:   CWLS LOG ASCII STANDARD -VERSION 2.0
 WRAP.                  NO:   ONE LINE PER DEPTH STEP
~WELL INFORMATION BLOCK
#MNEM.UNIT           DATA                    DESCRIPTION OF MNEMONIC
#---------    -------------------            -------------------------------
# Generated from Intellog Unique Number	CC_84_87/WELL/2345
NULL.         -999.25                        : NULL_VALUE
WELL.         ARCO ACI MCMURRAY              : Well_name    - WELL
LOC .         13-26-084-11W4                 : Location     - LOCATION          
UWI .         AA/13-26-084-11W400            : Uwi          - UNIQUE WELL ID    
ENTR.         JHS                            : Entered      - ENTERED BY        
SRVC.         SCHLUMBERGER                   : Scn          - SERVICE COMPANY   
DATE.         17 JAN 74                      : Date         - LOG DATE
STRT.M        76.2                           : top_depth    - START DEPTH       
STOP.M        317.906                        : bot_depth    - STOP DEPTH        
STEP.M        0.3048                         : increment    - STEP LENGTH       
~CURVE INFORMATION BLOCK
#MNEM UNIT       ERCB CURVE CODE    CURVE DESCRIPTION
#-----------   ------------------   ----------------------------------
DEPT.M        00 001 00 00         : DEPTH        - DEPTH                       
NPHI.V/V      00 330 00 00         : PHIN         - NEUTRON POROSITY (LIMESTONE)
GR  .API      00 310 00 00         : GR           - GAMMA RAY                   
ILD .OHMM     00 120 00 00         : RESD         - DEEP RESISTIVITY (DIL)      
~PARAMETER INFORMATION       
#MNEM.UNIT           DATA             DESCRIPTION OF MNEMONIC
#---------         -----------     ------------------------------
GL  .M        566.318              : gl           - GROUND LEVEL ELEVATION      
EREF.M        567.995              : kb           - ELEVATION OF DEPTH REFERENCE
DATM.M        567.995              : datum        - DATUM ELEVATION             
TDD .M        317.906              : tdd          - TOTAL DEPTH DRILLER         
RUN .         ONE                  : Run          - RUN NUMBER                  
ENG .         BILL                 : Engineer     - RECORDING ENGINEER          
WIT .         JIM                  : Witness      - WITNESSED BY                
MUD .         GEL                  : Mud_type     - MUD TYPE                    
MATR.         LIMESTONE            : Logunit      - NEUTRON MATRIX              
TMAX.C        60                   : BHT          - MAXIMUM RECORDED TEMPERATURE
BHTD.M        317.906              : BHTDEP       - MAXIMUM RECORDED TEMPERATURE
MATR.         1                    : LOGUNIT      - NEUTRON MATRIX              
RMT .C        25                   : MDTP         - TEMPERATURE OF MUD          
NEUT.         1                    : NEUTRON      - NEUTRON TYPE                
RESI.         0                    : RESIST       - RESISTIVITY TYPE            
RMC .OHMM     0.25                 : RMC          - RESISTIVITY OF MUD CAKE     
RMF .OHMM     0.25                 : RMF          - RESISTIVITY OF MUD FILTRATE 
SUFT.C        15                   : SUFT         - SURFACE TEMPERATURE         
~A  DEPTH     PHIN       GR     RESD
# ...
  208.482    0.346   59.922    9.821
  208.787    0.331   50.011    9.815
  209.092    0.346   38.515    9.630
  209.396    0.362   41.304    9.625
  209.701    0.369   41.711    9.620
  210.006    0.365   38.548    9.615
  210.311    0.346   40.146    9.610
  210.616    0.323   56.428    9.602
  210.920    0.333   52.073    9.598
  211.225    0.342   48.116    9.591
  211.530    0.354   55.269    9.763
  211.835    0.344   61.629    9.757
  212.140    0.349   63.625    9.752
  212.444    0.339   57.683    9.568
  212.749    0.358   51.345    9.390
  213.054    0.370   49.372    9.385
  213.359    0.358   46.606    9.726
  213.664    0.345   48.999   10.084
  213.968    0.329   51.389   11.044
  214.273    0.291   49.814   14.254
  214.578    0.167   49.825   18.067
  214.883    0.120   46.660   19.782
  215.188    0.130   49.846   17.718
  215.492    0.266   48.666   14.221
  215.797    0.310   52.646   10.609
  216.102    0.337   49.084    8.994
  216.407    0.359   51.079    8.356
  216.711    0.350   57.836    7.762
  217.016    0.357   55.864    7.344
  217.321    0.355   53.098    7.077
  217.626    0.353   50.727    6.818
  217.931    0.341   52.723    6.815
  218.235    0.347   50.352    7.064
  218.540    0.341   44.410    7.323
  218.845    0.333   37.278    7.591
  219.150    0.331   34.116    7.449
  219.455    0.342   36.110    7.310
  219.759    0.333   48.026    7.043
  220.064    0.337   53.991    7.039
  220.369    0.362   57.572    7.297
  220.674    0.355   62.344    7.428
  220.979    0.344   61.165    7.423
  221.283    0.326   60.383    7.022
  221.588    0.346   65.154    6.290
  221.893    0.368   60.801    5.333
  222.198    0.369   62.002    4.954
  222.503    0.357   56.855    4.951
  222.807    0.363   60.040    5.039
  223.112    0.358   63.623    5.828
  223.417    0.363   65.221    6.268
  223.722    0.346   60.074    7.382
  224.027    0.341   67.625    7.795
  224.331    0.335   72.003    8.080
  224.636    0.339   70.820    8.075
  224.941    0.340   71.626    8.070
  225.246    0.316   72.033    8.066
  225.551    0.351   64.107    7.914
  225.855    0.349   73.641    7.911
  226.160    0.327   73.256    7.906
  226.465    0.336   72.475    8.046
  226.770    0.327   74.867    8.191
  227.074    0.323   74.877    8.336
  227.379    0.321   67.745    8.332
  227.684    0.310   64.978    8.177
  227.989    0.297   60.227    7.735
  228.294    0.324   67.380    7.055
  228.598    0.340   62.233    6.676
  228.903    0.350   59.862    5.870
  229.208    0.343   60.668    5.354
  229.513    0.337   67.424    4.974
  229.818    0.340   68.229    4.621
  230.122    0.362   60.700    3.990
  230.427    0.367   61.903    3.707
  230.732    0.392   69.055    3.638
  231.037    0.393   68.669    3.771
  231.342    0.372   67.888    3.909
  231.646    0.355   63.537    4.605
  231.951    0.342   63.944    5.525
  232.256    0.339   67.920    5.832
  232.561    0.358   75.470    5.723
  232.866    0.385   83.815    5.515
  233.170    0.367   83.429    5.512
  233.475    0.350   79.075    5.926
  233.780    0.331   75.912    6.372
  234.085    0.315   83.461    7.237
  234.390    0.321   83.869    8.070
  234.694    0.325   82.690    8.678
  234.999    0.333   91.431    9.162
  235.304    0.291   87.871   10.031
  235.609    0.296   77.564   10.399
  235.914    0.302   75.593   10.779
  236.218    0.298   71.237   10.774
  236.523    0.325   79.185   10.572
  236.828    0.300   86.338   10.188
  237.133    0.295   80.002    9.995
  237.437    0.307   81.996    9.632
  237.742    0.321   82.403    9.112
  238.047    0.327   78.843    8.623
  238.352    0.330   78.456    8.010
  238.657    0.343   82.439    7.578
  238.961    0.355   85.225    7.436
  239.266    0.312   87.618    7.570
  239.571    0.284   82.469    8.442
  239.876    0.281   83.670    9.763
  240.181    0.315   76.142   10.121
  240.485    0.334   82.503    9.932
  240.790    0.321   89.655    9.925
  241.095    0.304   90.462    9.741
  241.400    0.310   82.138    9.914
  241.705    0.317   81.356    9.908
  242.009    0.307   78.985    9.903
  242.314    0.301   81.378    9.718
  242.619    0.307   89.325    9.892
  242.924    0.317   86.559   10.253
  243.229    0.319   84.983   10.062
  243.533    0.316   76.262    9.694
  243.838    0.313   75.480    9.343
  244.143    0.316   78.666    8.838
  244.448    0.363   81.852    8.673
  244.753    0.372   78.290    8.669
  245.057    0.367   75.922    8.821
  245.362    0.344   68.789    9.145
  245.667    0.319   64.040    9.656
  245.972    0.319   66.033   10.382
  246.277    0.332   67.631   10.762
  246.581    0.315   71.216   10.368
  246.886    0.307   69.638    9.633
  247.191    0.351   67.665    8.318
  247.496    0.346   71.643    6.676
  247.800    0.352   74.035    4.715
  248.105    0.353   77.617    4.071
  248.410    0.375   78.819    3.713
  248.715    0.399   76.846    3.579
  249.020    0.377   76.462    3.576
  249.324    0.340   72.505    3.916
  249.629    0.327   70.927    4.785
  249.934    0.316   67.764    7.149
  250.239    0.316   66.186    8.735
  250.544    0.308   72.546    9.564
  250.848    0.321   73.749    9.915
  251.153    0.365   67.013   10.277
  251.458    0.314   67.818   10.462
  251.763    0.259   71.404   10.844
  252.068    0.275   71.014   11.037
  252.372    0.297   76.582   11.031
  252.677    0.290   80.561   10.826
  252.982    0.289   79.778   10.242
  253.287    0.304   83.359    9.688
  253.592    0.333   86.546    9.336
  253.896    0.339   81.002    8.996
  254.201    0.325   73.075    8.205
  254.506    0.313   74.675    7.349
  254.811    0.318   73.097    5.899
  255.116    0.334   72.317    4.735
  255.420    0.354   71.929    3.344
  255.725    0.390   68.370    3.342
  256.030    0.338   70.363    3.866
  256.335    0.316   71.168    5.368
  256.640    0.334   77.925    6.560
  256.944    0.343   79.126    7.588
  257.249    0.342   75.568    7.444
  257.554    0.332   72.802    6.917
  257.859    0.350   71.223    4.975
  258.164    0.352   71.630    4.456
  258.468    0.361   79.974    4.453
  258.773    0.332   85.938    4.876
  259.078    0.313   81.584    5.640
  259.383    0.305   75.644    6.645
  259.688    0.313   73.273    7.276
  259.992    0.318   63.760    6.637
  260.297    0.362   59.406    4.774
  260.602    0.375   56.641    3.694
  260.907    0.365   59.429    3.370
  261.212    0.369   60.234    3.247
  261.517    0.369   61.038    3.366
  261.821    0.352   59.064    3.822
  262.126    0.346   67.012    4.036
  262.431    0.331   73.371    4.108
  262.736    0.340   69.812    4.257
  263.041    0.365   66.647    4.333
  263.345    0.357   69.039    4.332
  263.650    0.345   73.018    4.329
  263.955    0.357   68.665    4.327
  264.260    0.365   68.676    4.019
  264.565    0.350   73.845    3.666
  264.869    0.375   76.237    3.598
  265.174    0.373   80.216    3.868
  265.479    0.352   79.434    4.394
  265.784    0.330   85.000    5.368
  266.089    0.308   87.394    6.098
  266.393    0.272   83.037    6.206
  266.698    0.337   85.829    6.091
  267.003    0.379   83.062    6.199
  267.308    0.344   80.293    6.787
  267.613    0.323   73.161    7.851
  267.918    0.312   77.936    8.918
  268.222    0.306   83.105   10.700
  268.527    0.293   91.052   11.715
  268.832    0.297   88.682   11.498
  269.137    0.307   89.486   11.079
  269.442    0.286   88.306    9.922
  269.746    0.314   82.762    8.567
  270.051    0.330   75.234    8.405
  270.356    0.311   68.101    8.558
  270.661    0.293   68.114    9.897
  270.966    0.279   70.902   11.449
  271.270    0.249   70.119   13.489
  271.575    0.169   67.353   15.891
  271.880    0.222   59.029   17.401
  272.185    0.264   49.516   17.075
  272.490    0.277   59.845   15.862
  272.794    0.262   63.428   14.206
  273.099    0.278   61.058   13.198
  273.404    0.287   57.498   12.260
  273.709    0.272   65.444   11.813
  274.014    0.293   72.202   11.592
  274.319    0.275   63.747   11.426
