~VERSION INFORMATION
 VERS.                 2.0:   CWLS LOG ASCII STANDARD -VERSION 2.0
 WRAP.                  NO:   ONE LINE PER DEPTH STEP
~WELL INFORMATION BLOCK
#MNEM.UNIT           DATA                    DESCRIPTION OF MNEMONIC
#---------    -------------------            -------------------------------
# Generated from Intellog Unique Number	CC_80_83/WELL/2349
NULL.         -999.25                        : NULL_VALUE
WELL.         PEX PCEJ HANGST OV             : Well_name    - WELL
LOC .         10-11-082-08W4                 : Location     - LOCATION          
UWI .         AA/10-11-082-08W4/0            : Uwi          - UNIQUE WELL ID    
ENTR.         DW                             : Entered      - ENTERED BY        
SRVC.         DRESSER ATLAS                  : Scn          - SERVICE COMPANY   
DATE.         03 MAR 80                      : Date         - LOG DATE
STRT.M        265                            : top_depth    - START DEPTH       
STOP.M        495.091                        : bot_depth    - STOP DEPTH        
STEP.M        0.3                            : increment    - STEP LENGTH       
~CURVE INFORMATION BLOCK
#MNEM UNIT       ERCB CURVE CODE    CURVE DESCRIPTION
#-----------   ------------------   ----------------------------------
DEPT.M        00 001 00 00         : DEPTH        - DEPTH                       
DPHI.V/V      00 890 00 00         : PHID         - DENSITY POROSITY (LIMESTONE)
NPHI.V/V      00 330 00 00         : PHIN         - NEUTRON POROSITY (LIMESTONE)
GR  .API      00 310 00 00         : GR           - GAMMA RAY                   
ILD .OHMM     00 120 00 00         : RESD         - DEEP RESISTIVITY (DIL)      
~PARAMETER INFORMATION       
#MNEM.UNIT           DATA             DESCRIPTION OF MNEMONIC
#---------         -----------     ------------------------------
GL  .M        723                  : gl           - GROUND LEVEL ELEVATION      
EREF.M        726.6                : kb           - ELEVATION OF DEPTH REFERENCE
DATM.M        726.6                : datum        - DATUM ELEVATION             
TDD .M        498                  : tdd          - TOTAL DEPTH DRILLER         
RUN .         ONE                  : Run          - RUN NUMBER                  
ENG .         BILL                 : Engineer     - RECORDING ENGINEER          
WIT .         JIM                  : Witness      - WITNESSED BY                
MUD .         GEL                  : Mud_type     - MUD TYPE                    
MATR.         LIMESTONE            : Logunit      - NEUTRON MATRIX              
TMAX.C        16                   : BHT          - MAXIMUM RECORDED TEMPERATURE
BHTD.M        498                  : BHTDEP       - MAXIMUM RECORDED TEMPERATURE
MATR.         1                    : LOGUNIT      - NEUTRON MATRIX              
RMT .C        25                   : MDTP         - TEMPERATURE OF MUD          
NEUT.         1                    : NEUTRON      - NEUTRON TYPE                
RESI.         0                    : RESIST       - RESISTIVITY TYPE            
RMC .OHMM     0.25                 : RMC          - RESISTIVITY OF MUD CAKE     
RMF .OHMM     0.25                 : RMF          - RESISTIVITY OF MUD FILTRATE 
SUFT.C        15                   : SUFT         - SURFACE TEMPERATURE         
~A  DEPTH     PHID     PHIN       GR     RESD
  265.000    0.263    0.479   90.073    3.193
  265.300    0.268    0.475   89.454    3.193
  265.600    0.282    0.469   90.090    3.193
  265.900    0.291    0.450   93.251    3.193
  266.200    0.292    0.438   95.148    3.193
  266.500    0.289    0.425   93.270    3.194
  266.800    0.288    0.418   83.202    3.194
  267.100    0.299    0.418   80.692    3.194
  267.400    0.298    0.446   82.592    3.195
  267.700    0.284    0.475   83.864    3.195
  268.000    0.294    0.490   92.692    3.195
  268.300    0.297    0.460   96.479    3.195
  268.600    0.297    0.440   89.563    3.196
  268.900    0.305    0.441   91.461    3.136
  269.200    0.312    0.441  102.177    3.136
  269.500    0.307    0.425  100.298    3.136
  269.800    0.302    0.421   90.231    3.077
  270.100    0.307    0.434   83.312    3.078
  270.400    0.305    0.442   94.661    3.020
  270.700    0.328    0.452   95.930    3.020
  271.000    0.358    0.464   90.903    2.963
  271.300    0.394    0.482   89.020    3.020
  271.600    0.366    0.486   83.993    2.964
  271.900    0.343    0.435   90.301    2.964
  272.200    0.382    0.460   87.162    2.908
  272.500    0.404    0.478   90.950    2.909
  272.800    0.412    0.480   85.293    2.909
  273.100    0.360    0.466   82.153    2.909
  273.400    0.288    0.458   80.903    2.965
  273.700    0.304    0.456   75.873    2.966
  274.000    0.352    0.468   79.663    3.081
  274.300    0.387    0.451   87.862    3.201
  274.600    0.426    0.435   84.722    3.262
  274.900    0.256    0.413   76.543    3.657
  275.200    0.249    0.406   91.670    4.023
  275.500    0.282    0.417   85.382    4.100
  275.800    0.316    0.432   79.093    4.101
  276.100    0.355    0.450   77.216    4.024
  276.400    0.378    0.436   77.855    3.874
  276.700    0.393    0.454   84.163    3.801
  277.000    0.341    0.443   92.361    3.874
  277.299    0.325    0.428   88.592    4.025
  277.599    0.347    0.407   84.822    4.262
  277.899    0.358    0.397   90.501    4.512
  278.199    0.351    0.380   92.401    4.870
  278.499    0.298    0.356   85.482    5.459
  278.799    0.331    0.363   71.005    5.891
  279.099    0.363    0.361   67.236    6.238
  279.399    0.172    0.333   51.500    6.358
  279.699    0.206    0.341   52.770    6.359
  279.999    0.233    0.408   61.597    5.782
  280.299    0.252    0.428   79.243    5.258
  280.599    0.285    0.412   91.851    4.347
  280.899    0.322    0.408   85.563    4.106
  281.199    0.389    0.445   81.794    4.106
  281.499    0.326    0.402   76.764    4.517
  281.799    0.270    0.338   64.177    5.464
  282.099    0.284    0.326   56.629    6.610
  282.399    0.303    0.326   62.937    7.552
  282.699    0.306    0.417   81.213    7.698
  282.999    0.249    0.405   81.224    7.847
  283.299    0.249    0.373   76.824    8.151
  283.599    0.236    0.355   69.906    9.675
  283.899    0.207    0.339   85.032   11.055
  284.199    0.201    0.335   83.154   11.484
  284.499    0.191    0.350   80.015   11.706
  284.799    0.183    0.340   80.023   11.057
  285.099    0.187    0.337   87.594   10.054
  285.399    0.201    0.367   86.972    9.318
  285.699    0.236    0.354   75.645    9.866
  285.999    0.242    0.340   77.544   11.061
  286.299    0.234    0.354   83.223   12.400
  286.599    0.221    0.358   84.494   13.129
  286.899    0.213    0.358   84.504   13.382
  287.199    0.220    0.344   90.182   13.384
  287.499    0.247    0.345   95.859   13.133
  287.799    0.264    0.373   99.649   12.886
  288.099    0.270    0.385   99.029   11.942
  288.399    0.290    0.395  103.448   10.655
  288.699    0.321    0.379   95.270   10.455
  288.999    0.303    0.368  102.838   10.861
  289.299    0.269    0.344   94.660   12.176
  289.599    0.274    0.318   66.957   13.650
  289.899    0.256    0.339   56.259   14.452
  290.199    0.223    0.344   79.574   15.303
  290.499    0.226    0.337   82.103   15.899
  290.799    0.231    0.331   80.854   15.899
  291.099    0.245    0.326   75.195   15.601
  291.399    0.264    0.322   67.017   15.308
  291.699    0.256    0.324   61.358   15.309
  291.999    0.236    0.321   68.928   16.210
  292.299    0.221    0.310   68.308   15.906
  292.599    0.214    0.315   70.837   14.463
  292.899    0.216    0.329   70.846   13.662
  293.199    0.221    0.334   68.968   13.663
  293.499    0.230    0.341   74.645   13.927
  293.799    0.262    0.355   84.105   15.029
  294.099    0.277    0.348   65.217   16.849
  294.399    0.290    0.352   57.670   19.251
  294.699    0.287    0.356   60.830   19.999
  294.999    0.287    0.348   65.250   20.776
  295.299    0.290    0.357   67.149   21.177
  295.599    0.292    0.370   61.489   21.179
  295.899    0.288    0.378   49.533   20.782
  296.199    0.210    0.358   51.430   21.183
  296.499    0.164    0.351   55.853   21.184
  296.799    0.216    0.359   55.230   21.186
  297.099    0.262    0.368   66.579   20.788
  297.399    0.278    0.353   71.627   20.014
  297.699    0.286    0.343   74.157   19.638
  297.999    0.296    0.337   74.798   18.907
  298.299    0.290    0.347   72.287   18.201
  298.599    0.273    0.372   67.888   17.523
  298.899    0.260    0.391   68.529   16.552
  299.199    0.256    0.381   82.395   15.635
  299.499    0.255    0.374   89.963   14.491
  299.799    0.268    0.378   94.382   14.218
  300.099    0.259    0.398   97.541   14.220
  300.399    0.263    0.403   93.773   14.494
  300.699    0.288    0.390  102.599   15.347
  300.999    0.327    0.392  103.239   16.880
  301.299    0.363    0.385   65.457   17.536
  301.599    0.389    0.399   49.092   20.422
  301.898    0.269    0.325   41.544   22.462
  302.198    0.274    0.319   39.036   24.241
  302.498    0.283    0.334   37.785   24.242
  302.798    0.284    0.348   34.648   24.244
  303.098    0.285    0.344   33.399   24.712
  303.398    0.290    0.338   35.925   25.189
  303.698    0.295    0.334   43.494   25.191
  303.998    0.298    0.349   47.284   25.193
  304.298    0.298    0.333   47.925   25.195
  304.598    0.298    0.314   52.971   25.198
  304.898    0.303    0.315   65.579   25.199
  305.198    0.295    0.333   97.081   25.201
  305.498    0.293    0.338   88.903   25.204
  305.798    0.294    0.335   56.160   25.205
  306.098    0.296    0.336   56.803   24.733
  306.398    0.296    0.341   58.700   24.734
  306.698    0.298    0.345   46.113   24.271
  306.998    0.298    0.353   41.714   24.272
  307.298    0.298    0.355   63.139   23.368
  307.598    0.299    0.341   75.746   22.929
  307.898    0.299    0.331   88.983   22.498
  308.198    0.298    0.344   97.181   21.252
  308.498    0.293    0.346   76.406   20.075
  308.798    0.294    0.330   69.489   19.697
  309.098    0.299    0.325   73.907   18.606
  309.398    0.300    0.335   64.469   18.257
  309.698    0.281    0.339   73.928   18.259
  309.998    0.224    0.342   77.088   17.916
  310.298    0.221    0.350   75.208   17.917
  310.598    0.264    0.351   63.880   17.581
  310.898    0.260    0.345   68.930   17.250
  311.198    0.245    0.336   73.347   17.584
  311.498    0.242    0.331   72.099   16.929
  311.798    0.234    0.348   85.964   16.298
  312.098    0.212    0.353   84.715   15.104
  312.398    0.169    0.360  100.471    9.751
  312.698    0.166    0.351  104.260    8.375
  312.998    0.169    0.345  102.382    8.063
  313.298    0.219    0.347   94.202    8.537
  313.598    0.271    0.352   87.915   10.327
  313.898    0.281    0.348   90.443   12.733
  314.198    0.283    0.351  101.793   16.308
  314.498    0.275    0.336  101.802   18.991
  314.798    0.263    0.330   80.396   21.291
  315.098    0.250    0.326   84.818   20.497
  315.398    0.236    0.324   89.866   20.112
  315.698    0.226    0.343   93.656   18.288
  315.998    0.225    0.358   93.663   15.707
  316.298    0.248    0.378   94.302   14.013
  316.598    0.251    0.376   93.685   12.742
  316.898    0.237    0.366   92.434   12.037
