~VERSION INFORMATION
 VERS.                 2.0:   CWLS LOG ASCII STANDARD -VERSION 2.0
 WRAP.                  NO:   ONE LINE PER DEPTH STEP
~WELL INFORMATION BLOCK
#MNEM.UNIT           DATA                    DESCRIPTION OF MNEMONIC
#---------    -------------------            -------------------------------
# Generated from Intellog Unique Number	CS_77_79/WELL/982
LOC .         AA/10-36-079-09W4/0            : Location     - LOCATION
UWI .         AA/10-36-079-09W4/0            : Uwi          - UNIQUE WELL ID
ENTR.         JHS                            : Entered      - ENTERED BY
SRVC.         SCHLUMBERGER                   : Scn          - SERVICE COMPANY
STRT.M        235                            : top_depth    - START DEPTH
STOP.M        455                            : bot_depth    - STOP DEPTH
STEP.M        0.25                           : increment    - STEP LENGTH
 NULL. -999.2500:NULL Value
~CURVE INFORMATION BLOCK
#MNEM UNIT       ERCB CURVE CODE    CURVE DESCRIPTION
#-----------   ------------------   ----------------------------------
DEPT.M        00 001 00 00         : DEPTH        - DEPTH
DPHI.V/V      00 890 00 00         : PHID         - DENSITY POROSITY (LIMESTONE)
NPHI.V/V      00 330 00 00         : PHIN         - NEUTRON POROSITY (LIMESTONE)
GR  .API      00 310 00 00         : GR           - GAMMA RAY
ILD .OHMM     00 120 00 00         : RESD         - DEEP RESISTIVITY (DIL)
RHOB.KG/M3    00 350 00 00         : DENS         - BULK DENSITY
~PARAMETER INFORMATION
#MNEM.UNIT           DATA             DESCRIPTION OF MNEMONIC
#---------         -----------     ------------------------------
GL  .M        672.8                : gl           - GROUND LEVEL ELEVATION
EREF.M        676.49               : kb           - ELEVATION OF DEPTH REFERENCE
DATM.M        676.49               : datum        - DATUM ELEVATION
TDD .M        434.08               : tdd          - TOTAL DEPTH DRILLER
RUN .         ONE                  : Run          - RUN NUMBER
ENG .         BILL                 : Engineer     - RECORDING ENGINEER
WIT .         JIM                  : Witness      - WITNESSED BY
MUD .         GEL                  : Mud_type     - MUD TYPE
MATR.         LIMESTONE            : Logunit      - NEUTRON MATRIX
TMAX.C        18                   : BHT          - MAXIMUM RECORDED TEMPERATURE
BHTD.M        434.08               : BHTDEP       - MAXIMUM RECORDED TEMPERATURE
MATR.         1                    : LOGUNIT      - NEUTRON MATRIX
RMT .C        25                   : MDTP         - TEMPERATURE OF MUD
NEUT.         1                    : NEUTRON      - NEUTRON TYPE
RESI.         0                    : RESIST       - RESISTIVITY TYPE
RMC .OHMM     0.25                 : RMC          - RESISTIVITY OF MUD CAKE
RMF .OHMM     0.25                 : RMF          - RESISTIVITY OF MUD FILTRATE
SUFT.C        15                   : SUFT         - SURFACE TEMPERATURE
~A  DEPTH     PHID     PHIN       GR     RESD     DENS
# ...
  271.500    0.289    0.360   68.910   17.121    0.000
  271.750    0.287    0.344   82.511   15.595    0.000
  272.000    0.271    0.350   96.737   13.432    0.000
  272.250    0.249    0.385  102.928   12.468    0.000
  272.500    0.239    0.405  110.978   12.015    0.000
  272.750    0.238    0.407  117.792   11.368    0.000
  273.000    0.233    0.401  125.220   10.955    0.000
  273.250    0.220    0.389  114.751   10.558    0.000
  273.500    0.206    0.362  117.859    9.619    0.000
  273.750    0.201    0.361  104.305    8.601    0.000
  274.000    0.213    0.380  114.207    7.690    0.000
  274.250    0.225    0.396  124.724    7.411    0.000
  274.500    0.214    0.430  131.535    7.143    0.000
  274.750    0.217    0.412  140.817    7.854    0.000
  275.000    0.234    0.413  152.567    8.793    0.000
  275.250    0.260    0.417  156.296   11.443    0.000
  275.500    0.267    0.382  150.765   13.558    0.000
  275.750    0.279    0.374  129.803   15.474    0.000
  276.000    0.288    0.396  145.878   16.692    0.000
  276.250    0.297    0.408  147.753   15.498    0.000
  276.500    0.308    0.412  152.710   14.385    0.000
  276.750    0.300    0.398  151.501   12.622    0.000
  277.000    0.241    0.397  142.267   11.076    0.000
  277.250    0.229    0.420  140.437   10.091    0.000
  277.500    0.233    0.429  131.821   10.291    0.000
  277.750    0.247    0.421  137.401   10.690    0.000
  278.000    0.259    0.414  133.724   11.317    0.000
  278.250    0.259    0.392  120.168   11.540    0.000
  278.500    0.242    0.373  120.191   11.333    0.000
  278.750    0.250    0.382  122.065   11.127    0.000
  279.000    0.256    0.375  127.025   10.930    0.000
  279.250    0.255    0.364  123.348   11.571    0.000
  279.500    0.253    0.357  130.777   12.960    0.000
  279.750    0.249    0.334  130.185   14.513    0.000
  280.000    0.232    0.313  116.631   16.561    0.000
  280.250    0.195    0.304   97.518   19.998    0.000
  280.500    0.184    0.291   67.914   21.570    0.000
  280.750    0.190    0.273   64.237   22.836    0.000
  281.000    0.165    0.271   75.373   21.601    0.000
  281.250    0.166    0.358   84.037   19.676    0.000
  281.500    0.284    0.375   92.699   17.269    0.000
  281.750    0.303    0.357   92.725   16.955    0.000
  282.000    0.306    0.338   93.988   16.972    0.000
  282.250    0.311    0.338   95.240   17.301    0.000
  282.500    0.311    0.316   93.418   17.974    0.000
  282.750    0.305    0.299   89.736   19.391    0.000
  283.000    0.263    0.273   89.138   21.717    0.000
  283.250    0.202    0.242   99.037   23.424    0.000
  283.500    0.086    0.195   91.655   26.738    0.000
  283.750    0.075    0.178   84.275   27.775    0.000
  284.000    0.079    0.177   86.148   27.279    0.000
  284.250    0.107    0.247   89.877   25.319    0.000
  284.500    0.200    0.339   95.457   21.002    0.000
  284.750    0.275    0.393   99.799   17.750    0.000
  285.000    0.275    0.395  105.997   15.286    0.000
  285.250    0.269    0.401  106.018   14.730    0.000
  285.500    0.256    0.398   93.696   14.466    0.000
  285.750    0.234    0.412   99.896   13.432    0.000
  286.000    0.204    0.406  100.538   12.703    0.000
  286.250    0.189    0.400  107.348   11.576    0.000
  286.500    0.210    0.410  114.781   10.948    0.000
  286.750    0.235    0.421  119.740   10.550    0.000
  287.000    0.233    0.435  121.005    9.259    0.000
  287.250    0.227    0.418  122.877    8.278    0.000
  287.500    0.222    0.404  127.840    7.686    0.000
  287.750    0.217    0.396  132.798    7.546    0.000
  288.000    0.215    0.408  138.993    7.552    0.000
  288.250    0.226    0.430  139.020    7.700    0.000
  288.500    0.258    0.428  124.229    8.151    0.000
  288.750    0.252    0.420  119.933    9.131    0.000
  289.000    0.245    0.415  116.876    9.667    0.000
  289.250    0.250    0.424  118.747    9.858    0.000
  289.500    0.252    0.440  126.178    9.499    0.000
  289.750    0.247    0.437  123.732    9.331    0.000
  290.000    0.246    0.409  128.690    9.334    0.000
  290.250    0.252    0.400  126.863    9.882    0.000
  290.500    0.260    0.401  124.418   10.266    0.000
  290.750    0.263    0.393  129.382   11.286    0.000
  291.000    0.259    0.410  119.528   11.948    0.000
  291.250    0.253    0.411  123.876   12.181    0.000
  291.500    0.252    0.388  122.664   11.309    0.000
  291.750    0.248    0.395  115.282   10.499    0.000
  292.000    0.243    0.427  107.897    9.931    0.000
  292.250    0.255    0.451  114.095    9.751    0.000
  292.500    0.255    0.471  120.913    9.399    0.000
  292.750    0.254    0.460  122.166    9.230    0.000
  293.000    0.267    0.443  128.981    9.236    0.000
  293.250    0.276    0.438  133.323    9.965    0.000
  293.500    0.273    0.456  130.263   11.159    0.000
  293.750    0.279    0.428  119.173   12.036    0.000
  294.000    0.303    0.404   87.100   12.984    0.000
  294.250    0.325    0.440   79.105   12.992    0.000
  294.500    0.345    0.478   91.472   11.189    0.000
  294.750    0.354    0.504  105.692    9.280    0.000
  295.000    0.311    0.499  115.589    7.414    0.000
  295.250    0.278    0.468  110.678    6.384    0.000
  295.500    0.258    0.442  113.168    5.396    0.000
  295.750    0.272    0.446  119.369    5.298    0.000
  296.000    0.285    0.418  119.388    5.824    0.000
  296.250    0.290    0.386  102.747    7.031    0.000
  296.500    0.296    0.362   91.045    8.815    0.000
  296.750    0.296    0.359   82.426   10.844    0.000
  297.000    0.293    0.377   79.366   12.609    0.000
  297.250    0.291    0.389   78.775   14.661    0.000
  297.500    0.288    0.371   74.475   15.816    0.000
  297.750    0.290    0.360   73.880   15.534    0.000
  298.000    0.296    0.350   77.607   15.256    0.000
  298.250    0.296    0.347   78.868   14.432    0.000
  298.500    0.289    0.353   75.803   13.906    0.000
  298.750    0.286    0.368   77.683   13.655    0.000
  299.000    0.289    0.376   73.387   13.162    0.000
  299.250    0.284    0.364   75.883   12.221    0.000
  299.500    0.284    0.349   74.050   11.777    0.000
  299.750    0.288    0.355   73.455   11.138    0.000
  300.000    0.294    0.359   74.096   10.341    0.000
  300.250    0.296    0.365   71.036    9.780    0.000
  300.500    0.300    0.396   74.763    9.426    0.000
  300.750    0.307    0.430   81.574    9.979    0.000
  301.000    0.312    0.420   90.858   11.391    0.000
  301.250    0.317    0.399   83.474   12.519    0.000
  301.500    0.320    0.389   82.261   14.020    0.000
  301.750    0.320    0.386   81.671   15.701    0.000
  302.000    0.319    0.394   91.567   18.259    0.000
  302.250    0.319    0.378   92.211   19.329    0.000
  302.500    0.319    0.367   88.534   18.983    0.000
  302.750    0.321    0.382   89.790   17.955    0.000
  303.000    0.320    0.406   89.200   16.670    0.000
  303.250    0.318    0.416   86.135   16.064    0.000
  303.500    0.313    0.403   87.389   15.194    0.000
  303.750    0.309    0.400   86.182   14.107    0.000
  304.000    0.308    0.404   84.971   13.596    0.000
  304.250    0.308    0.412   87.460   12.863    0.000
  304.500    0.309    0.423   92.427   12.872    0.000
  304.750    0.313    0.423   89.362   12.877    0.000
  305.000    0.314    0.417   83.213   13.133    0.000
  305.250    0.313    0.419   90.642   13.140    0.000
  305.500    0.310    0.407   83.881   13.149    0.000
  305.750    0.306    0.402   88.222   13.157    0.000
  306.000    0.303    0.402   88.867   13.166    0.000
  306.250    0.297    0.387   92.591   12.932    0.000
  306.500    0.298    0.401   94.469   12.939    0.000
  306.750    0.299    0.393   93.258   12.948    0.000
  307.000    0.298    0.372   96.365   12.957    0.000
  307.250    0.299    0.337   84.046   13.716    0.000
  307.500    0.301    0.322   81.601   14.798    0.000
  307.750    0.305    0.313   75.454   14.805    0.000
