~VERSION INFORMATION
 VERS.                 2.0:   CWLS LOG ASCII STANDARD -VERSION 2.0
 WRAP.                  NO:   ONE LINE PER DEPTH STEP
~WELL INFORMATION BLOCK
#MNEM.UNIT           DATA                    DESCRIPTION OF MNEMONIC
#---------    -------------------            -------------------------------
# Generated from Intellog Unique Number	CC_84_87/WELL/2336
NULL.         -999.25                        : NULL_VALUE
WELL.         SUN CHEECHAM                   : Well_name    - WELL              
LOC .         11-36-085-07W4                 : Location     - LOCATION          
UWI .         AA/11-36-085-07W400            : Uwi          - UNIQUE WELL ID    
ENTR.         DW                             : Entered      - ENTERED BY        
SRVC.         SCHLUMBERGER                   : Scn          - SERVICE COMPANY   
DATE.         28 MAR 80                      : Date         - LOG DATE
STRT.M        50                             : top_depth    - START DEPTH       
STOP.M        250.102                        : bot_depth    - STOP DEPTH        
STEP.M        0.3                            : increment    - STEP LENGTH       
~CURVE INFORMATION BLOCK
#MNEM UNIT       ERCB CURVE CODE    CURVE DESCRIPTION
#-----------   ------------------   ----------------------------------
DEPT.M        00 001 00 00         : DEPTH        - DEPTH                       
DPHI.V/V      00 890 00 00         : PHID         - DENSITY POROSITY (LIMESTONE)
NPHI.V/V      00 330 00 00         : PHIN         - NEUTRON POROSITY (LIMESTONE)
GR  .API      00 310 00 00         : GR           - GAMMA RAY                   
ILD .OHMM     00 120 00 00         : RESD         - DEEP RESISTIVITY (DIL)      
~PARAMETER INFORMATION       
#MNEM.UNIT           DATA             DESCRIPTION OF MNEMONIC
#---------         -----------     ------------------------------
GL  .M        487.6                : gl           - GROUND LEVEL ELEVATION      
EREF.M        489.66               : kb           - ELEVATION OF DEPTH REFERENCE
DATM.M        489.66               : datum        - DATUM ELEVATION             
TDD .M        249                  : tdd          - TOTAL DEPTH DRILLER         
RUN .         ONE                  : Run          - RUN NUMBER                  
ENG .         BILL                 : Engineer     - RECORDING ENGINEER          
WIT .         JIM                  : Witness      - WITNESSED BY                
MUD .         GEL                  : Mud_type     - MUD TYPE                    
MATR.         LIMESTONE            : Logunit      - NEUTRON MATRIX              
TMAX.C        18.5                 : BHT          - MAXIMUM RECORDED TEMPERATURE
BHTD.M        250                  : BHTDEP       - MAXIMUM RECORDED TEMPERATURE
MATR.         1                    : LOGUNIT      - NEUTRON MATRIX              
RMT .C        25                   : MDTP         - TEMPERATURE OF MUD          
NEUT.         1                    : NEUTRON      - NEUTRON TYPE                
RESI.         0                    : RESIST       - RESISTIVITY TYPE            
RMC .OHMM     0.25                 : RMC          - RESISTIVITY OF MUD CAKE     
RMF .OHMM     0.25                 : RMF          - RESISTIVITY OF MUD FILTRATE 
SUFT.C        4                    : SUFT         - SURFACE TEMPERATURE         
~A  DEPTH     PHID     PHIN       GR     RESD
# ...
  102.200    0.236    0.509   90.263    4.546
  102.500    0.241    0.510   94.506    3.976
  102.800    0.241    0.531  101.176    3.543
  103.100    0.246    0.554  104.201    3.279
  103.400    0.234    0.568  101.151    3.149
  103.700    0.222    0.575   98.103    3.138
  104.000    0.239    0.549   95.660    3.308
  104.300    0.255    0.545   96.255    3.428
  104.600    0.260    0.557   96.245    3.896
  104.900    0.260    0.547   95.017    4.427
  105.200    0.241    0.536   91.968    5.126
  105.500    0.255    0.530   87.703    5.618
  105.800    0.269    0.521   83.440    6.150
  106.100    0.257    0.508   77.962    6.365
  106.400    0.224    0.487   76.734    6.227
  106.700    0.216    0.481   81.582    5.764
  107.000    0.234    0.498   93.721    4.591
  107.300    0.251    0.513   97.352    3.588
  107.600    0.270    0.507   97.341    3.078
  107.900    0.276    0.542   96.722    2.959
  108.200    0.282    0.582   93.673    2.842
  108.500    0.298    0.594   92.445    2.780
  108.800    0.280    0.582   91.218    2.822
  109.100    0.266    0.571   93.028    2.922
  109.400    0.261    0.579   94.838    3.141
  109.700    0.270    0.602   94.219    3.851
  110.000    0.275    0.571   92.385    4.896
  110.300    0.267    0.547   88.123    5.564
  110.600    0.266    0.517   85.072    5.246
  110.900    0.259    0.456   83.238    4.854
  111.200    0.274    0.434   82.012    4.661
  111.500    0.296    0.437   84.430    4.826
  111.800    0.260    0.515   85.631    4.992
  112.100    0.253    0.526   84.406    4.977
  112.400    0.269    0.499   84.394    5.058
  112.700    0.279    0.483   81.951    5.042
  113.000    0.265    0.500   80.118    5.120
  113.300    0.263    0.510   80.105    5.111
  113.600    0.270    0.516   79.484    5.595
  113.900    0.279    0.510   78.868    6.477
  114.200    0.290    0.493   76.425    7.227
  114.500    0.285    0.457   72.161    7.209
  114.800    0.240    0.452   69.720    6.668
  115.100    0.196    0.449   67.278    6.057
  115.400    0.201    0.440   68.481    5.498
  115.700    0.240    0.470   80.011    5.281
  116.000    0.287    0.500   76.961    5.169
  116.300    0.295    0.499   75.734    5.247
  116.601    0.292    0.478   74.509    5.857
  116.901    0.288    0.470   71.458    7.176
  117.201    0.268    0.459   69.017    7.710
  117.501    0.195    0.442   64.146    7.830
  117.801    0.109    0.394   58.060    7.245
  118.101    0.134    0.305   57.440    6.456
  118.401    0.176    0.370   67.752    5.974
  118.701    0.275    0.437   71.995    5.630
  119.001    0.291    0.454   72.590    5.613
  119.301    0.271    0.472   69.539    5.599
  119.601    0.260    0.480   67.098    5.480
  119.901    0.267    0.490   67.087    5.163
  120.201    0.282    0.476   68.290    5.150
  120.501    0.285    0.455   67.672    5.032
  120.801    0.299    0.453   63.405    5.022
  121.101    0.295    0.473   60.358    5.104
  121.401    0.285    0.454   59.130    5.090
  121.701    0.282    0.457   64.586    5.170
  122.001    0.294    0.466   67.002    5.252
  122.301    0.285    0.463   68.814    5.140
  122.601    0.295    0.454   71.234    5.124
  122.901    0.299    0.480   75.473    5.112
  123.201    0.293    0.487   76.069    5.193
  123.501    0.276    0.465   73.019    5.276
  123.801    0.287    0.463   73.616    5.357
  124.101    0.294    0.467   76.033    5.245
  124.401    0.282    0.453   76.022    5.227
  124.701    0.280    0.445   71.758    5.119
  125.001    0.264    0.448   66.885    5.010
  125.301    0.250    0.457   69.303    4.896
  125.601    0.292    0.468   73.544    4.885
  125.901    0.288    0.484   76.569    5.250
  126.201    0.293    0.500   74.734    5.751
  126.501    0.302    0.485   70.471    6.658
  126.801    0.302    0.467   66.814    7.022
  127.101    0.286    0.450   64.980    6.870
  127.401    0.186    0.417   64.360    6.357
  127.701    0.222    0.434   69.815    5.776
  128.001    0.301    0.458   71.017    4.863
  128.301    0.291    0.461   72.221    4.416
  128.601    0.288    0.462   76.462    4.242
  128.901    0.277    0.469   80.094    4.230
  129.201    0.247    0.484   81.906    4.630
  129.501    0.253    0.477   79.465    4.884
  129.801    0.262    0.466   75.808    4.869
  130.101    0.236    0.468   77.617    4.591
  130.401    0.220    0.465   82.466    4.249
  130.701    0.213    0.473   84.274    3.927
  131.001    0.224    0.490   84.265    3.916
  131.301    0.252    0.519   85.465    4.053
  131.601    0.274    0.537   85.455    4.357
  131.901    0.252    0.519   83.011    4.682
  132.201    0.281    0.506   84.213    4.935
  132.501    0.291    0.487   81.168    5.019
  132.801    0.264    0.481   79.941    5.100
  133.101    0.255    0.493   80.534    4.897
  133.401    0.235    0.487   82.953    4.613
  133.701    0.219    0.478   85.371    4.113
  134.001    0.244    0.498   88.397    3.465
  134.301    0.255    0.529   90.814    3.087
  134.601    0.246    0.529   91.409    2.858
  134.901    0.258    0.520   91.398    2.594
  135.201    0.254    0.530   92.601    2.445
  135.501    0.266    0.572   94.413    2.393
  135.801    0.276    0.608   97.435    2.523
  136.101    0.274    0.619   97.425    2.817
  136.401    0.268    0.614   96.200    3.322
  136.701    0.276    0.575   94.971    3.850
  137.001    0.262    0.548   94.351    4.375
  137.301    0.211    0.530   91.912    5.562
  137.601    0.219    0.537   88.863    5.865
  137.901    0.228    0.530   85.205    5.961
  138.201    0.235    0.497   82.157    5.945
  138.501    0.229    0.463   82.144    5.928
  138.801    0.244    0.484   83.955    6.131
  139.101    0.253    0.507   91.841    6.351
  139.401    0.275    0.514   90.005    6.695
  139.701    0.276    0.498   86.348    6.806
  140.001    0.273    0.486   85.730    7.044
  140.301    0.277    0.474   89.364    7.572
  140.601    0.274    0.459   91.781    8.135
  140.901    0.260    0.459   92.375    8.574
  141.201    0.226    0.474   96.008    8.878
  141.501    0.215    0.469   96.603    9.193
  141.801    0.215    0.435   95.986    9.334
  142.101    0.209    0.430   93.544    8.796
  142.401    0.191    0.433   89.887    8.296
  142.701    0.137    0.417   87.445    7.536
  143.001    0.192    0.396   86.824    6.587
  143.301    0.240    0.443   89.243    6.098
  143.601    0.265    0.463   92.270    5.857
  143.901    0.244    0.476   96.509    5.731
  144.201    0.216    0.496   97.105    6.159
  144.501    0.214    0.501   95.271    8.285
  144.801    0.241    0.501   95.255    9.238
  145.101    0.252    0.481   95.854    9.045
  145.401    0.278    0.410   92.199    8.363
  145.701    0.302    0.374   85.504    7.595
  146.001    0.314    0.369   89.136    6.900
  146.301    0.297    0.398   91.555    6.628
  146.601    0.263    0.434   89.114    6.129
  146.901    0.248    0.464   87.886    5.261
  147.201    0.239    0.478   89.696    4.777
  147.501    0.234    0.486   93.330    4.586
  147.801    0.236    0.493   93.926    4.492
  148.101    0.241    0.509   93.307    4.560
  148.401    0.239    0.516   93.294    4.810
  148.701    0.238    0.498   90.244    5.172
  149.001    0.241    0.481   90.234    5.988
  149.301    0.244    0.467   90.829    6.683
  149.601    0.253    0.456   87.172    6.916
  149.901    0.265    0.444   83.514    6.518
  150.201    0.249    0.433   81.681    5.391
  150.501    0.256    0.444   78.632    3.983
  150.801    0.251    0.472   77.404    3.172
  151.101    0.250    0.521   82.254    3.164
  151.401    0.271    0.561   91.353    3.664
  151.701    0.265    0.585   87.697    4.574
  152.001    0.237    0.572   90.114    5.817
  152.301    0.234    0.551   90.100    6.612
  152.601    0.232    0.511   88.268    6.842
  152.901    0.235    0.445   84.612    6.820
  153.201    0.240    0.448   83.384    6.804
  153.501    0.242    0.451   81.551    6.785
  153.801    0.239    0.458   77.286    7.430
  154.101    0.239    0.469   76.667    9.102
