~VERSION INFORMATION
 VERS.                 2.0:   CWLS LOG ASCII STANDARD -VERSION 2.0
 WRAP.                  NO:   ONE LINE PER DEPTH STEP
~WELL INFORMATION BLOCK
#MNEM.UNIT           DATA                    DESCRIPTION OF MNEMONIC
#---------    -------------------            -------------------------------
# Generated from Intellog Unique Number	CW_82_90/WELL/1035
WELL.         14-17-082-21W4                 : Well_name    - WELL
LOC .         AA/14-17-082-21W4/0            : Location     - LOCATION
UWI .         AA/14-17-082-21W4/0            : Uwi          - UNIQUE WELL ID
ENTR.         JAYE                           : Entered      - ENTERED BY
SRVC.         SCHLUMBERGER                   : Scn          - SERVICE COMPANY
DATE.         1FEB 82                        : Date         - LOG DATE
STRT.M        220                            : top_depth    - START DEPTH
STOP.M        445                            : bot_depth    - STOP DEPTH
STEP.M        0.25                           : increment    - STEP LENGTH
 NULL. -999.2500:NULL Value
~CURVE INFORMATION BLOCK
#MNEM UNIT       ERCB CURVE CODE    CURVE DESCRIPTION
#-----------   ------------------   ----------------------------------
DEPT.M        00 001 00 00         : DEPTH        - DEPTH
CALI.MM       00 280 01 00         : CAL          - CALIPER
GR  .API      00 310 00 00         : GR           - GAMMA RAY
NPHI.V/V      00 330 00 00         : PHIN         - NEUTRON POROSITY (SANDSTONE)
DPHI.V/V      00 890 00 00         : PHID         - DENSITY POROSITY (SANDSTONE)
ILD .OHMM     00 120 00 00         : RESD         - DEEP RESISTIVITY (DIL)
~PARAMETER INFORMATION
#MNEM.UNIT           DATA             DESCRIPTION OF MNEMONIC
#---------         -----------     ------------------------------
GL  .M        619.5                : gl           - GROUND LEVEL ELEVATION
EREF.M        623.9                : kb           - ELEVATION OF DEPTH REFERENCE
DATM.M        619.5                : datum        - DATUM ELEVATION
TDD .M        453.5                : tdd          - TOTAL DEPTH DRILLER
RUN .         ONE                  : Run          - RUN NUMBER
ENG .         VANDENBRINK          : Engineer     - RECORDING ENGINEER
WIT .         WALKER               : Witness      - WITNESSED BY
BASE.         EDMONTON             : Branch       - HOME BASE OF LOGGING UNIT
MUD .         GEL CHEM             : Mud_type     - MUD TYPE
MATR.         SANDSTONE            : Logunit      - NEUTRON MATRIX
TMAX.C        22.2                 : BHT          - MAXIMUM RECORDED TEMPERATURE
BHTD.M        453.5                : BHTDEP       - MAXIMUM RECORDED TEMPERATURE
RMT .C        20.5                 : MDTP         - TEMPERATURE OF MUD
MUDD.KG/M     1070                 : MWT          - MUD DENSITY
NEUT.         1                    : NEUTRON      - NEUTRON TYPE
RESI.         0                    : RESIST       - RESISTIVITY TYPE
RM  .OHMM     4.89                 : RM           - RESISTIVITY OF MUD
RMC .OHMM     0.25                 : RMC          - RESISTIVITY OF MUD CAKE
RMF .OHMM     4.77                 : RMF          - RESISTIVITY OF MUD FILTRATE
SUFT.C        4                    : SUFT         - SURFACE TEMPERATURE
~A  DEPTH      CAL       GR     PHIN     PHID     RESD
# ...
  256.500  164.251   70.035    0.444    0.332   10.905
  256.750  164.429   65.881    0.432    0.326    9.657
  257.000  164.712   63.919    0.438    0.329    7.786
  257.250  164.985   59.139    0.453    0.330   10.476
  257.500  164.631   53.105    0.460    0.329   14.415
  257.750  164.810   49.517    0.455    0.333   17.453
  258.000  164.990   48.183    0.469    0.337   20.084
  258.250  164.952   49.730    0.453    0.334   25.346
  258.500  165.136   50.335    0.447    0.331   31.387
  258.750  164.885   50.070    0.457    0.331   38.873
  259.000  165.174   49.546    0.451    0.339   42.513
  259.250  165.348   49.907    0.444    0.347   44.276
  259.500  164.889   51.203    0.443    0.358   42.610
  259.750  165.066   53.813    0.443    0.359   38.749
  260.000  164.707   55.925    0.434    0.359   33.873
  260.250  164.577   57.600    0.409    0.361   29.894
  260.500  164.226   59.336    0.414    0.358   27.495
  260.750  164.297   58.692    0.414    0.358   25.194
  261.000  164.259   53.161    0.398    0.364   23.568
  261.250  164.120   48.754    0.415    0.371   22.636
  261.500  164.088   48.987    0.432    0.378   21.906
  261.750  164.049   52.039    0.452    0.378   20.686
  262.000  164.022   56.719    0.450    0.365   19.683
  262.250  163.985   57.388    0.425    0.362   19.597
  262.500  163.948   55.493    0.409    0.365   20.332
  262.750  164.013   55.850    0.404    0.361   21.333
  263.000  163.769   59.526    0.411    0.359   22.217
  263.250  163.738   62.454    0.433    0.362   21.550
  263.500  163.708   64.064    0.440    0.368   20.767
  263.750  163.778   64.296    0.450    0.369   19.246
  264.000  163.847   64.461    0.461    0.364   18.730
  264.250  164.228   66.264    0.460    0.366   18.024
  264.500  164.411   65.556    0.456    0.377   18.526
  264.750  164.167   62.092    0.448    0.381   20.150
  265.000  164.232   60.821    0.436    0.373   19.574
  265.250  164.087   63.741    0.442    0.365   18.551
  265.500  163.957   63.100    0.442    0.363   15.916
  265.750  163.918   58.697    0.423    0.362   16.299
  266.000  164.093   53.290    0.420    0.360   16.975
  266.250  164.168   49.890    0.429    0.356   17.248
  266.500  164.241   46.798    0.431    0.356   17.269
  266.750  164.837   47.535    0.430    0.358   17.254
  267.000  164.899   52.153    0.419    0.364   17.080
  267.250  165.083   55.517    0.416    0.369   16.784
  267.500  165.237   56.937    0.434    0.375   15.878
  267.750  165.115   59.426    0.447    0.376   15.333
  268.000  164.557   62.291    0.469    0.375   14.617
  268.250  163.043   63.023    0.487    0.371   14.387
  268.500  162.382   65.950    0.495    0.373   14.484
  268.750  162.241   65.113    0.493    0.375   14.888
  269.000  162.301   65.036    0.483    0.374   15.132
  269.250  162.385   62.449    0.477    0.369   15.149
  269.500  162.348   59.861    0.493    0.370   15.049
  269.750  162.348   59.530    0.513    0.370   14.868
  270.000  162.788   60.008    0.507    0.366   14.804
  270.250  162.874   57.550    0.495    0.366   14.734
  270.500  163.051   56.967    0.483    0.369   14.530
  270.750  163.950   58.138    0.474    0.374   14.409
  271.000  164.667   62.882    0.480    0.375   14.424
  271.250  164.729   64.051    0.465    0.375   14.198
  271.500  164.072   64.349    0.452    0.374   13.818
  271.750  163.182   62.327    0.447    0.372   13.808
  272.000  163.159   59.864    0.436    0.372   13.847
  272.250  162.601   58.089    0.433    0.372   13.941
  272.500  162.350   57.383    0.459    0.372   14.115
  272.750  162.533   59.558    0.455    0.372   14.347
  273.000  162.703   59.665    0.445    0.372   13.753
  273.250  162.879   59.894    0.437    0.372   13.086
  273.500  162.843   62.442    0.434    0.370   12.127
  273.750  163.131   63.995    0.438    0.368   11.408
  274.000  163.507   63.223    0.445    0.364   10.124
  274.250  163.793   61.889    0.462    0.360    8.736
  274.500  163.866   61.684    0.486    0.355    9.288
  274.750  163.402   60.285    0.477    0.363   10.234
  275.000  163.059   60.078    0.461    0.378   11.451
  275.250  163.343   62.063    0.461    0.382   12.382
  275.500  163.400   61.295    0.479    0.382   12.873
  275.750  163.689   58.013    0.475    0.381   13.179
  276.000  163.660   56.936    0.486    0.379   13.270
  276.250  163.312   56.793    0.501    0.379   13.284
  276.500  163.590   56.775    0.484    0.380   13.275
  276.750  163.445   56.939    0.451    0.381   13.089
  277.000  163.307   57.613    0.425    0.369   12.644
  277.250  163.067   59.472    0.459    0.358   12.165
  277.500  163.128   59.330    0.464    0.359   11.597
  277.750  163.304   58.122    0.451    0.377   12.056
  278.000  163.485   57.157    0.446    0.373   12.205
  278.250  163.550   56.957    0.444    0.371   12.174
  278.500  163.316   57.941    0.444    0.369   12.095
  278.750  163.806   58.736    0.453    0.367   11.839
  279.000  163.877   61.475    0.473    0.368   11.675
  279.250  164.475   65.091    0.474    0.369   11.405
  279.500  165.383   69.080    0.480    0.368   11.164
  279.750  165.564   69.375    0.477    0.364   10.986
  280.000  165.525   70.547    0.476    0.371   10.734
  280.250  165.488   73.413    0.478    0.381   10.505
  280.500  165.352   76.275    0.465    0.371   10.222
  280.750  164.785   74.437    0.468    0.358    9.948
  281.000  164.229   72.418    0.490    0.355    9.813
  281.250  163.872   71.772    0.490    0.351    9.841
  281.500  163.842   70.307    0.483    0.350    9.944
  281.750  163.919   69.229    0.485    0.353   10.127
  282.000  163.555   66.517    0.486    0.347   10.328
  282.250  163.524   68.940    0.482    0.340   11.007
  282.500  163.599   71.176    0.478    0.361   11.355
  282.750  163.873   74.730    0.487    0.371   11.669
  283.000  164.051   77.969    0.496    0.368   12.105
  283.250  163.807   79.393    0.485    0.372   12.489
  283.500  163.352   80.440    0.480    0.377   12.743
  283.750  163.213   82.614    0.496    0.378   12.682
  284.000  163.290   77.960    0.504    0.356   12.251
  284.250  163.250   70.735    0.495    0.326   11.332
  284.500  163.739   66.582    0.491    0.312   10.364
  284.750  164.656   62.993    0.518    0.313    9.640
  285.000  166.200   54.640    0.497    0.265    9.835
  285.250  166.166   48.859    0.258    0.136   12.646
  285.500  165.715   46.585    0.279    0.159   13.396
  285.750  165.364   49.073    0.328    0.286   13.137
  286.000  165.013   55.883    0.428    0.309   12.521
  286.250  165.074   59.118    0.456    0.319   11.051
  286.500  164.942   61.172    0.482    0.318   10.049
  286.750  165.434   63.030    0.483    0.318    9.743
  287.000  165.817   60.506    0.475    0.320    9.395
  287.250  166.201   63.492    0.474    0.315    8.789
  287.500  166.482   67.989    0.477    0.309    8.205
  287.750  166.482   75.238    0.476    0.303    7.133
  288.000  166.184   77.538    0.459    0.301    5.761
  288.250  166.065   75.702    0.448    0.305    5.113
  288.500  166.034   69.605    0.450    0.318    5.687
  288.750  166.191   64.701    0.465    0.329    6.695
  289.000  166.277   63.427    0.483    0.329    7.865
  289.250  166.239   60.840    0.474    0.334    8.832
  289.500  166.319   57.754    0.446    0.346   10.553
  289.750  166.471   58.300    0.429    0.351   12.143
  290.000  166.450   59.217    0.425    0.356   12.791
  290.250  166.425   58.325    0.431    0.355   12.950
  290.500  166.071   55.734    0.440    0.348   12.968
  290.750  165.924   54.152    0.452    0.345   12.906
  291.000  165.690   53.567    0.447    0.348   12.799
  291.250  165.231   54.742    0.452    0.353   12.574
  291.500  165.231   56.728    0.440    0.360   12.492
  291.750  164.725   62.035    0.411    0.356   12.531
  292.000  164.592   63.708    0.409    0.349   12.592
  292.250  164.359   58.051    0.439    0.343   12.396
  292.500  164.640   50.889    0.455    0.353   12.384
  292.750  165.020   47.362    0.452    0.368   12.443
