~VERSION INFORMATION
 VERS.                 2.0:   CWLS LOG ASCII STANDARD -VERSION 2.0
 WRAP.                  NO:   ONE LINE PER DEPTH STEP
~WELL INFORMATION BLOCK
#MNEM.UNIT           DATA                    DESCRIPTION OF MNEMONIC
#---------    -------------------            -------------------------------
# Generated from Intellog Unique Number	CN_94_101/WELL/1069
WELL.         SUNCOR INC.                    : Well_name    - WELL
LOC .         AA/10-20-094-06W4/0            : Location     - LOCATION
UWI .         AA/10-20-094-06W400            : Uwi          - UNIQUE WELL ID
ENTR.         JOETTE                         : Entered      - ENTERED BY
SRVC.         SCHLUMBERGER                   : Scn          - SERVICE COMPANY
DATE.         04/10/92                       : Date         - LOG DATE
STRT.M        50                             : top_depth    - START DEPTH
STOP.M        300                            : bot_depth    - STOP DEPTH
STEP.M        0.25                           : increment    - STEP LENGTH
 NULL. -999.2500:NULL Value
~CURVE INFORMATION BLOCK
#MNEM UNIT       ERCB CURVE CODE    CURVE DESCRIPTION
#-----------   ------------------   ----------------------------------
DEPT.M        00 001 00 00         : DEPTH        - DEPTH
ILD .OHMM     00 120 00 00         : RESD         - DEEP RESISTIVITY (DIL)
DPHI.V/V      00 890 00 00         : PHID         - DENSITY POROSITY (SANDSTONE)
NPHI.V/V      00 330 00 00         : PHIN         - NEUTRON POROSITY (SANDSTONE)
GR  .API      00 310 00 00         : GR           - GAMMA RAY
CALI.MM       00 280 01 00         : CAL          - CALIPER
~PARAMETER INFORMATION
#MNEM.UNIT           DATA             DESCRIPTION OF MNEMONIC
#---------         -----------     ------------------------------
GL  .M        578.2                : gl           - GROUND LEVEL ELEVATION
EREF.M        581.4                : kb           - ELEVATION OF DEPTH REFERENCE
DATM.M        581.4                : datum        - DATUM ELEVATION
TDD .M        304                  : tdd          - TOTAL DEPTH DRILLER
RUN .         ONE                  : Run          - RUN NUMBER
ENG .         BILL                 : Engineer     - RECORDING ENGINEER
WIT .         JIM                  : Witness      - WITNESSED BY
MUD .         GEL                  : Mud_type     - MUD TYPE
MATR.         SANDSTONE            : Logunit      - NEUTRON MATRIX
TMAX.C        15                   : BHT          - MAXIMUM RECORDED TEMPERATURE
BHTD.M        304                  : BHTDEP       - MAXIMUM RECORDED TEMPERATURE
RMT .C        10                   : MDTP         - TEMPERATURE OF MUD
MUDD.KG/M     1050                 : MWT          - MUD DENSITY
NEUT.         1                    : NEUTRON      - NEUTRON TYPE
RESI.         0                    : RESIST       - RESISTIVITY TYPE
RM  .OHMM     13.1                 : RM           - RESISTIVITY OF MUD
RMC .OHMM     13.1                 : RMC          - RESISTIVITY OF MUD CAKE
RMF .OHMM     13.1                 : RMF          - RESISTIVITY OF MUD FILTRATE
SUFT.C        4                    : SUFT         - SURFACE TEMPERATURE
~A  DEPTH     RESD     PHID     PHIN       GR      CAL
# ...
   86.500   25.626    0.185    0.354   77.078  206.091
   86.750   25.178    0.174    0.343   78.328  207.140
   87.000   25.202    0.164    0.335   78.342  208.188
   87.250   25.227    0.163    0.342   77.730  210.267
   87.500   25.252    0.159    0.352   74.034  213.376
   87.750   25.759    0.184    0.360   71.574  215.454
   88.000   25.784    0.201    0.370   69.114  218.568
   88.250   26.302    0.200    0.377   67.892  219.612
   88.500   26.328    0.201    0.383   68.522  220.670
   88.750   26.360    0.211    0.386   73.479  218.635
   89.000   25.886    0.237    0.358   75.341  217.619
   89.250   24.951    0.177    0.350   75.971  218.663
   89.500   23.605    0.174    0.342   74.746  219.722
   89.750   22.753    0.191    0.337   75.378  219.736
   90.000   21.931    0.185    0.347   80.330  218.720
   90.250   21.541    0.180    0.362   84.052  215.650
   90.500   20.768    0.185    0.377   84.063  213.609
   90.750   20.779    0.183    0.393   81.603  218.782
   91.000   20.415    0.193    0.409   79.140  221.886
   91.250   20.435    0.202    0.399   81.005  224.995
   91.500   20.460    0.199    0.386   85.345  226.044
   91.750   20.861    0.193    0.376   86.592  224.008
   92.000   21.285    0.203    0.364   84.750  221.963
   92.250   22.131    0.203    0.355   81.672  216.847
   92.500   22.995    0.167    0.350   79.212  213.767
   92.750   25.297    0.171    0.351   77.370  210.692
   93.000   29.453    0.182    0.354   71.817  207.626
   93.250   47.288    0.198    0.356   66.267  204.556
   93.500   58.267    0.220    0.354   58.246  198.401
   93.750   67.839    0.234    0.353   52.079  194.291
   94.000   73.235    0.256    0.353   45.293  187.106
   94.250   79.061    0.254    0.353   40.980  183.006
   94.500   79.158    0.261    0.357   39.755  188.174
   94.750   73.452    0.277    0.367   40.390  188.198
   95.000   65.662    0.293    0.375   42.255  181.008
   95.250   57.572    0.298    0.370   46.589  174.843
   95.500   50.491    0.288    0.357   52.780  169.713
   95.750   45.986    0.250    0.337   63.913  166.653
   96.000   46.909    0.211    0.324   70.724  166.667
   96.250   51.619    0.218    0.333   67.028  167.716
   96.500   56.788    0.236    0.339   64.568  167.730
   96.750   59.032    0.251    0.348   60.255  168.784
   97.000   54.790    0.199    0.344   57.791  168.803
   97.250   47.141    0.154    0.309   59.657  167.792
   97.500   40.569    0.173    0.306   63.375  167.811
   97.750   35.588    0.183    0.323   66.479  167.825
   98.000   34.965    0.177    0.303   68.341  167.845
   98.250   35.658    0.164    0.301   70.207  168.898
   98.500   39.238    0.174    0.301   70.842  170.982
   98.750   43.980    0.183    0.301   68.379  172.021
   99.000   52.181    0.193    0.299   62.214  175.134
   99.250   56.332    0.205    0.297   60.372  176.183
   99.500   52.284    0.201    0.294   63.470  176.198
   99.750   46.739    0.170    0.296   67.807  176.217
  100.000   40.214    0.142    0.303   68.436  177.270
  100.250   34.608    0.138    0.318   67.215  179.359
  100.500   29.791    0.169    0.336   72.166  182.462
  100.750   26.625    0.184    0.343   78.357  186.596
  101.000   26.146    0.200    0.350   83.929  193.833
  101.250   25.688    0.201    0.356   85.794  195.907
  101.500   26.210    0.182    0.357   80.248  196.956
  101.750   27.233    0.185    0.355   77.787  196.980
  102.000   31.113    0.189    0.348   75.945  200.084
  102.250   42.134    0.200    0.302   73.485  200.098
  102.500   58.160    0.212    0.293   69.786  180.551
  102.750   63.968    0.232    0.309   64.857  168.212
  103.000   69.091    0.248    0.360   60.544  165.141
  103.250   70.495    0.249    0.370   57.465  166.190
  103.500   70.547    0.259    0.378   60.566  169.304
  103.750   69.278    0.277    0.372   63.664  167.263
  104.000   68.049    0.252    0.342   67.389  165.218
  104.250   66.841    0.216    0.305   69.254  162.152
  104.500   64.458    0.198    0.332   68.648  163.201
  104.750   62.130    0.218    0.341   66.803  168.374
  105.000   59.870    0.248    0.342   66.817  171.473
  105.250   57.693    0.245    0.335   67.443  175.626
  105.500   51.575    0.237    0.332   70.547  175.635
  105.750   46.083    0.208    0.331   72.409  175.654
  106.000   38.917    0.182    0.332   76.752  180.823
  106.250   32.865    0.176    0.334   77.993  190.110
  106.500   29.925    0.201    0.333   77.387  200.432
  106.750   29.962    0.160    0.332   78.016  203.536
  107.000   33.590    0.162    0.332   81.117  206.649
  107.250   34.927    0.184    0.333   80.511  206.664
  107.500   35.637    0.194    0.331   76.197  202.563
  107.750   35.663    0.181    0.320   73.119  194.349
  108.000   36.370    0.173    0.312   75.602  195.393
  108.250   36.406    0.183    0.320   78.085  201.596
  108.500   35.760    0.188    0.316   78.717  202.640
  108.750   36.486    0.148    0.301   83.057  200.599
  109.000   37.210    0.174    0.311   83.065  192.380
  109.250   37.255    0.191    0.321   82.459  181.075
  109.500   37.283    0.174    0.316   79.384  183.149
  109.750   35.936    0.218    0.336   79.392  193.467
  110.000   33.354    0.210    0.362   86.204  197.615
  110.250   31.547    0.215    0.364   85.594  200.728
  110.500   31.003    0.219    0.362   83.137  201.767
  110.750   31.018    0.185    0.352   85.005  203.856
  111.000   31.641    0.182    0.341   85.629  202.835
  111.250   32.899    0.184    0.347   86.258  190.496
  111.500   34.200    0.198    0.352   86.269  182.286
  111.750   34.233    0.245    0.360   86.899  180.241
  112.000   33.618    0.271    0.393   87.528  180.255
  112.250   32.403    0.285    0.440   88.157  183.364
  112.500   33.684    0.293    0.441   88.169  186.473
  112.750   51.102    0.326    0.440   84.473  188.556
  113.000   56.233    0.349    0.443   79.541  185.481
  113.250   60.691    0.355    0.448   74.609  171.082
  113.500   65.519    0.350    0.452   69.678  161.833
  113.750   72.079    0.356    0.460   65.982  155.678
  114.000   76.357    0.365    0.463   61.668  152.612
  114.250   80.889    0.366    0.457   54.883  151.602
  114.500   84.106    0.353    0.426   48.097  151.616
  114.750   85.795    0.346    0.410   44.401  151.635
  115.000   89.208    0.351    0.395   41.947  151.654
  115.250   90.998    0.355    0.390   41.958  152.703
  115.500   91.088    0.350    0.386   41.970  154.786
  115.750   92.916    0.349    0.382   43.217  155.826
  116.000   93.008    0.350    0.382   41.990  157.914
  116.250   93.077    0.351    0.384   38.912  159.998
  116.500   93.191    0.354    0.386   38.305  160.012
  116.750   93.283    0.341    0.377   40.170  161.056
  117.000   93.352    0.343    0.374   41.421  162.115
  117.250   93.467    0.348    0.374   38.958  162.115
  117.500   93.582    0.343    0.376   35.264  163.182
  117.750   93.628    0.334    0.380   35.276  160.103
  118.000   91.989    0.334    0.382   37.756  160.126
  118.250   92.080    0.341    0.385   37.153  160.141
  118.500   92.171    0.347    0.387   36.546  160.165
  118.750   90.535    0.350    0.381   37.175  160.188
  119.000   90.624    0.342    0.367   39.658  160.198
  119.250   90.691    0.336    0.367   42.142  161.252
  119.500   90.803    0.329    0.368   45.240  161.271
  119.750   92.603    0.324    0.358   50.197  161.290
  120.000   96.263    0.295    0.353   58.859  161.309
  120.250  100.117    0.274    0.358   61.963  161.328
  120.500  100.191    0.270    0.355   59.503  161.347
  120.750  100.265    0.278    0.348   57.043  161.371
  121.000  100.389    0.279    0.346   56.439  161.385
  121.250  100.512    0.283    0.352   56.448  160.384
  121.500  100.586    0.270    0.362   55.841  160.398
  121.750  106.556    0.270    0.369   55.235  161.447
  122.000  124.091    0.280    0.353   58.951  163.526
  122.250  133.962    0.248    0.304   63.908  168.694
  122.500  139.257    0.153    0.265   67.624  172.828
  122.750  139.360    0.143    0.228   70.728  171.817
