~VERSION INFORMATION
 VERS.                 2.0:   CWLS LOG ASCII STANDARD -VERSION 2.0
 WRAP.                  NO:   ONE LINE PER DEPTH STEP
~WELL INFORMATION BLOCK
#MNEM.UNIT           DATA                    DESCRIPTION OF MNEMONIC
#---------    -------------------            -------------------------------
# Generated from Intellog Unique Number	CC_84_87/WELL/2304
NULL.         -999.25                        : NULL_VALUE
WELL.         PEX PCEJ MCMURRAY OV           : Well_name    - WELL
LOC .         10-11-087-16W4                 : Location     - LOCATION          
UWI .         AA/10-11-087-16W400            : Uwi          - UNIQUE WELL ID    
ENTR.         JOHN                           : Entered      - ENTERED BY        
SRVC.         SCHLUMBERGER                   : Scn          - SERVICE COMPANY   
DATE.         03 MAR 79                      : Date         - LOG DATE
STRT.M        78                             : top_depth    - START DEPTH       
STOP.M        260.102                        : bot_depth    - STOP DEPTH        
STEP.M        0.3                            : increment    - STEP LENGTH       
~CURVE INFORMATION BLOCK
#MNEM UNIT       ERCB CURVE CODE    CURVE DESCRIPTION
#-----------   ------------------   ----------------------------------
DEPT.M        00 001 00 00         : DEPTH        - DEPTH                       
DPHI.V/V      00 890 00 00         : PHID         - DENSITY POROSITY (LIMESTONE)
NPHI.V/V      00 330 00 00         : PHIN         - NEUTRON POROSITY (LIMESTONE)
GR  .API      00 310 00 00         : GR           - GAMMA RAY                   
ILD .OHMM     00 120 00 00         : RESD         - DEEP RESISTIVITY (DIL)      
~PARAMETER INFORMATION       
#MNEM.UNIT           DATA             DESCRIPTION OF MNEMONIC
#---------         -----------     ------------------------------
GL  .M        499.67               : gl           - GROUND LEVEL ELEVATION      
EREF.M        503.32               : kb           - ELEVATION OF DEPTH REFERENCE
DATM.M        503.32               : datum        - DATUM ELEVATION             
TDD .M        267.5                : tdd          - TOTAL DEPTH DRILLER         
RUN .         ONE                  : Run          - RUN NUMBER                  
ENG .         BILL                 : Engineer     - RECORDING ENGINEER          
WIT .         JIM                  : Witness      - WITNESSED BY                
MUD .         GEL                  : Mud_type     - MUD TYPE                    
MATR.         LIMESTONE            : Logunit      - NEUTRON MATRIX              
TMAX.C        60                   : BHT          - MAXIMUM RECORDED TEMPERATURE
BHTD.M        267.5                : BHTDEP       - MAXIMUM RECORDED TEMPERATURE
MATR.         1                    : LOGUNIT      - NEUTRON MATRIX              
RMT .C        25                   : MDTP         - TEMPERATURE OF MUD          
NEUT.         1                    : NEUTRON      - NEUTRON TYPE                
RESI.         0                    : RESIST       - RESISTIVITY TYPE            
RMC .OHMM     0.25                 : RMC          - RESISTIVITY OF MUD CAKE     
RMF .OHMM     0.25                 : RMF          - RESISTIVITY OF MUD FILTRATE 
SUFT.C        15                   : SUFT         - SURFACE TEMPERATURE         
~A  DEPTH     PHID     PHIN       GR     RESD
   78.000    0.337    0.426   63.676   27.466
   78.300    0.238    0.431   60.011   28.526
   78.600    0.297    0.464   61.242   31.945
   78.900    0.359    0.440   64.311   34.451
   79.200    0.351    0.450   67.990   34.460
   79.500    0.342    0.483   67.385   33.826
   79.800    0.357    0.475   64.331   31.976
   80.100    0.352    0.493   62.501   30.802
   80.400    0.353    0.501   63.734   29.672
   80.700    0.353    0.521   66.801   29.127
   81.000    0.359    0.489   68.646   30.252
   81.300    0.351    0.498   66.203   32.015
   81.600    0.357    0.512   63.762   33.885
   81.900    0.364    0.486   61.319   33.894
   82.200    0.362    0.494   61.941   33.901
   82.500    0.374    0.507   63.783   33.279
   82.800    0.365    0.477   62.565   32.666
   83.100    0.353    0.465   62.572   31.465
   83.400    0.351    0.475   65.641   29.192
   83.700    0.348    0.455   67.484   28.118
   84.000    0.359    0.467   69.328   25.122
   84.300    0.353    0.488   71.173   22.444
   84.600    0.353    0.508   73.017   20.053
   84.900    0.311    0.443   74.247   18.957
   85.200    0.282    0.444   73.641   20.445
   85.500    0.358    0.472   71.199   22.894
   85.800    0.374    0.484   66.309   25.638
   86.100    0.365    0.466   63.867   26.131
   86.400    0.357    0.466   66.325   15.142
   86.700    0.346    0.481   72.453    7.548
   87.000    0.308    0.498   82.255    5.482
   87.300    0.279    0.544   96.957    4.135
   87.600    0.301    0.546   96.965    3.836
   87.900    0.301    0.498   95.134    4.060
   88.200    0.312    0.481   92.692    4.721
   88.500    0.283    0.498   93.924    5.808
   88.800    0.301    0.511   89.645    6.628
   89.100    0.319    0.520   87.203    6.884
   89.400    0.310    0.509   89.047    6.757
   89.700    0.269    0.509   97.014    6.037
   90.000    0.249    0.513  100.695    4.817
   90.300    0.269    0.514  109.273    4.145
   90.600    0.270    0.533  109.892    3.918
   90.900    0.286    0.532  103.777    3.775
   91.200    0.299    0.540  100.723    3.847
   91.500    0.280    0.570   98.892    4.072
   91.800    0.299    0.549   94.615    4.150
   92.100    0.324    0.576   96.458    4.230
   92.400    0.301    0.607   97.076    4.152
   92.700    0.304    0.623   90.961    4.000
   93.000    0.290    0.607   87.907    4.001
   93.300    0.305    0.569   89.138    4.315
   93.600    0.319    0.542   87.309    4.924
   93.900    0.319    0.517   83.030    5.513
   94.200    0.338    0.492   78.138    6.411
   94.500    0.347    0.466   72.024    8.831
   94.800    0.324    0.437   68.357   14.684
   95.100    0.312    0.362   65.914   22.223
   95.400    0.339    0.288   68.371   26.833
   95.700    0.374    0.249   67.766   26.339
   96.000    0.406    0.254   71.446   24.899
   96.300    0.424    0.263   72.677   23.098
   96.600    0.430    0.268   76.970   20.637
   96.900    0.430    0.268   72.079   19.144
   97.200    0.418    0.284   67.801   17.430
   97.500    0.424    0.324   65.971   16.171
   97.800    0.375    0.367   64.141   15.576
   98.100    0.323    0.425   62.311   15.289
   98.400    0.323    0.445   66.604   15.294
   98.700    0.349    0.442   72.122   15.297
   99.000    0.353    0.451   70.904   15.015
   99.300    0.348    0.454   61.727   14.740
   99.600    0.351    0.441   58.061   14.743
   99.900    0.351    0.457   59.905   14.747
  100.200    0.301    0.446   64.811   14.475
  100.500    0.308    0.478   69.716   14.208
  100.800    0.313    0.497   72.172   13.432
  101.100    0.323    0.507   70.341   12.938
  101.400    0.312    0.502   67.900   12.464
  101.700    0.313    0.476   67.908   12.467
  102.000    0.322    0.481   64.852   12.707
  102.300    0.312    0.436   63.022   12.473
  102.600    0.335    0.441   63.029   12.244
  102.900    0.332    0.455   63.038   12.246
  103.200    0.331    0.470   66.718   12.021
  103.500    0.325    0.468   71.011   12.024
  103.800    0.327    0.471   72.243   12.726
  104.100    0.297    0.480   70.412   13.468
  104.400    0.226    0.235   68.581   15.368
  104.700    0.063    0.198   64.915   20.007
  105.000    0.064    0.178   60.636   26.541
  105.300    0.079    0.184   55.745   29.167
  105.600    0.111    0.252   56.366   29.175
  105.900    0.152    0.295   60.658   25.579
  106.200    0.216    0.368   63.114   18.932
  106.500    0.253    0.443   64.345   15.986
  106.800    0.319    0.477   64.965   12.999
  107.100    0.328    0.472   66.196   11.185
  107.400    0.341    0.453   66.205   10.573
  107.700    0.331    0.459   63.761   10.185
  108.000    0.326    0.476   61.319    9.998
  108.300    0.333    0.481   63.776   10.582
  108.600    0.337    0.480   65.007   10.990
  108.900    0.347    0.431   64.401   12.541
  109.200    0.359    0.405   61.960   14.582
  109.500    0.371    0.388   60.742   18.282
  109.800    0.366    0.389   61.362   22.074
  110.100    0.374    0.431   61.981   21.668
  110.400    0.366    0.461   61.987   19.726
  110.700    0.345    0.461   61.995   16.657
  111.000    0.361    0.443   60.778   13.545
  111.300    0.351    0.466   60.174   12.101
  111.600    0.340    0.469   59.567   11.440
  111.900    0.332    0.482   59.574   11.020
  112.200    0.334    0.483   59.581   10.818
  112.500    0.332    0.477   62.649   11.026
  112.800    0.347    0.483   63.881   11.238
  113.100    0.368    0.446   66.949   11.454
  113.400    0.364    0.444   65.119   11.674
  113.700    0.364    0.424   67.576   11.899
  114.000    0.353    0.428   66.971   11.902
  114.300    0.367    0.446   62.691   11.684
  114.600    0.358    0.468   59.638   11.686
  114.900    0.353    0.468   62.707   11.470
  115.200    0.354    0.456   65.773   11.260
  115.500    0.337    0.470   63.333   11.052
  115.800    0.344    0.488   62.727   10.647
  116.100    0.348    0.493   66.409   10.650
  116.400    0.356    0.471   68.251   10.653
  116.700    0.348    0.479   71.934   10.656
  117.000    0.348    0.470   71.938   10.657
  117.300    0.357    0.473   70.111   10.661
  117.600    0.354    0.482   73.792   10.664
  117.900    0.343    0.488   76.246   10.665
  118.200    0.346    0.477   72.580   10.668
  118.500    0.348    0.471   70.137   10.671
  118.800    0.352    0.473   70.758   10.876
  119.100    0.347    0.451   72.602   10.675
  119.400    0.342    0.458   73.832   10.480
  119.700    0.344    0.463   75.676   10.287
  120.000    0.334    0.467   74.459   10.289
  120.300    0.339    0.474   71.404   10.100
  120.600    0.332    0.495   71.411   10.103
  120.900    0.332    0.523   72.030   10.104
  121.200    0.328    0.499   69.588   10.107
  121.500    0.338    0.493   67.759   10.110
  121.800    0.327    0.547   67.766   10.304
  122.100    0.323    0.576   68.997   10.307
  122.400    0.333    0.576   72.065   10.506
  122.700    0.334    0.529   75.134   10.507
  123.000    0.329    0.472   78.202   10.511
  123.300    0.336    0.460   76.373   10.317
  123.600    0.318    0.460   77.605   10.516
  123.900    0.332    0.467   79.449   10.322
  124.200    0.334    0.484   78.230   10.325
  124.500    0.334    0.493   75.177   10.327
  124.800    0.331    0.482   75.183   10.137
  125.100    0.328    0.488   73.353    9.950
  125.400    0.323    0.493   72.750    9.768
  125.700    0.335    0.477   72.756    9.955
  126.000    0.331    0.477   73.376    9.958
  126.300    0.333    0.464   73.995   10.149
  126.600    0.332    0.479   74.001   10.345
  126.900    0.339    0.486   75.233   10.544
  127.201    0.326    0.497   77.076   10.350
  127.501    0.337    0.497   75.859    9.970
  127.801    0.345    0.479   73.417    9.250
  128.101    0.321    0.499   75.261    8.421
  128.401    0.310    0.519   79.554    7.245
  128.701    0.270    0.518   91.194    5.568
  129.001    0.280    0.540   94.262    4.882
  129.301    0.297    0.566   88.146    4.792
  129.601    0.300    0.475   88.154    5.072
  129.901    0.301    0.484   88.773    5.787
