~Version : LASO    vs 4.00
VERS.                2.00:   CWLS Log ASCII Standard -VERSION 2.0
WRAP.                  NO:
~Well Information Block
#MNEM.UNIT       Data                        Description of Mnemonic
#----.----      -------------------------- : -----------------------------
STRT.M             3.0000:
STOP.M           202.0000:
STEP.M             0.1250:
NULL.           -999.2500:
COMP.  MOBILOIL CANADA             :COMPANY
WELL.  MOBIL CLARKE OV 10-26       :WELL
FLD.   CLARKE                      :FIELD
LOC.   10-26-090-07W4              :LOCATION
CTRY.  CANADA                      :COUNTRY
PROV.  ALBERTA                     :PROVINCE
SRVC.  DRESSER ATLAS               :SERVICE COMPANY
DATE.  31-JAN-81                   :LOG DATE
UWI.   AA/10-26-090-07W400         :UNIQUE WELL ID
~Parameter Information Block
#MNEM.UNIT       Data                        Description of Mnemonic
#----.----      -------------------------- : -----------------------------
RUN .                   1                 : Run Number
GL  .M           456.0000                 : Ground Level Elevation
DREF.                  KB                 : Depth Reference
EREF.M           456.0000                 : Elevation of Depth Reference
TDL .M           201.0000                 : Total Depth Logger
TDD .M           203.0000                 : Total Depth Driller
CSGL.M            13.0000                 : Casing Bottom Logger
CSGD.M            12.0000                 : Casing Bottom Driller
CSGS.MM          219.0000                 : Casing Size
CSGW.KG/M          0.0000                 : Casing Weight
BHT .DEGC         18.0000                 : Bottom Hole Temperature
BS  .MM          171.4000                 : Bit Size
DFD .              9.7000                 : Mud Weight (Density)
DFV .             85.0000                 : Mud Viscosity
RM  .OHMM          4.0000                 : Mud Resistivity
RMT .DEGC         18.0000                 : Mud Resistivity Temperature
RMF .OHMM          6.2000                 : Mud Filtrate Resistivity
RMFT.DEGC         12.0000                 : RMF Temperature
RMC .OHMM         11.6000                 : Mud Cake Resistivity
RMCT.DEGC         12.0000                 : RMC Temperature
~Curve Information Block
#MNEM.UNIT        API CODE    Curve Description
#---------    ------------    -------------------------------------------
DEPT.M                    :   DEPTH
CALI.MM       42 280  1  1:   3 DENSITY CALIPER
DPHI.V/V                  :   DPHI
DT  .US/M     60 520 42  1:   2 SONIC INTERVAL TRANSIT TIME (COMPENSATED)
GR  .GAPI     42 310  1  1:   4 GAMMA RAY
LLD .Ohmm                 :   LLD
NPHI.V/V      42 890  3  1:   5 NEUTRON POROSITY (SANDSTONE)
RHOB.K/M3     42 350  1  1:   6 BULK DENSITY
~A  Depth           CALI        DPHI          DT          GR         LLD        NPHI        RHOB
# ...
86.0000         190.7250      0.1903    503.1600    105.0450     51.8567      0.4504   2257.5000
86.1250         191.0500      0.1980    503.6400    105.2400     51.8784      0.4575   2257.5000
86.2500         192.2750      0.2085    503.9200    105.9750     53.7109      0.4545   2256.2000
86.3750         194.4000      0.2247    503.4000    104.1300     50.9529      0.4522   2256.2000
86.5000         195.0250      0.2371    501.2000    101.1750     50.2552      0.4485   2254.3999
86.6250         195.0250      0.2408    496.6000     99.8850     52.8700      0.4448   2253.2000
86.7500         194.7250      0.2399    492.9200    100.0800     55.0988      0.4365   2254.3999
86.8750         194.4000      0.2408    485.5600     99.3300     56.1558      0.4320   2250.7000
87.0000         194.1000      0.2419    485.0800     96.0150     57.4860      0.4346   2247.1001
87.1250         193.1750      0.2434    488.7600     96.0150     56.8161      0.4373   2242.2000
87.2500         192.8750      0.2451    478.6800     96.5700     57.7381      0.4504   2238.5000
87.3750         192.5750      0.2473    474.0400     97.3050     59.4151      0.4526   2238.5000
87.5000         190.7250      0.2487    474.0400     97.8600     61.4525      0.4552   2241.0000
87.6250         190.4250      0.2499    477.4800     98.5950     62.1548      0.4567   2242.8000
87.7500         191.9500      0.2493    481.1600     99.1500     62.2993      0.4627   2244.0000
87.8750         193.5000      0.2491    489.9600     99.3300     60.5208      0.4687   2247.1001
88.0000         193.1750      0.2481    501.2000     98.9700     59.7321      0.4766   2249.5000
88.1250         192.8750      0.2470    502.6800     98.9700     58.6168      0.4796   2247.7000
88.2500         192.5750      0.2463    495.3600     98.9700     55.8272      0.4766   2243.3999
88.3750         192.5750      0.2474    491.4400     98.2350     54.2059      0.4729   2239.1001
88.5000         192.2750      0.2485    485.8000     98.9700     52.8299      0.4654   2234.8000
88.6250         191.3500      0.2497    483.6000    101.7300     52.7885      0.4567   2229.8999
88.7500         190.1250      0.2528    485.3200    100.9950     52.8726      0.4680   2225.0000
88.8750         191.9500      0.2542    485.8000    100.8150     53.9086      0.4747   2225.0000
89.0000         194.7250      0.2564    486.5200     99.1500     55.6120      0.4774   2218.8999
89.1250         194.1000      0.2586    488.5200     98.9700     56.8791      0.4800   2217.1001
89.2500         191.3500      0.2609    509.0800     99.7050     59.2709      0.4732   2214.6001
89.3750         191.3500      0.2632    512.5200    100.6200     60.4552      0.4631   2217.1001
89.5000         191.0500      0.2629    512.0400    101.9100     62.9982      0.4567   2219.5000
89.6250         190.4250      0.2611    512.0400    101.3700     65.2451      0.4526   2225.7000
89.7500         190.4250      0.2588    513.0000     98.9700     68.2622      0.4421   2236.1001
89.8750         190.1250      0.2564    513.0000     95.1000     70.5926      0.4403   2247.7000
90.0000         189.2000      0.2523    510.0800     91.7850     74.5101      0.4406   2262.3999
90.1250         188.2750      0.2458    505.4000     88.4700     76.5583      0.4399   2277.7000
90.2500         187.3750      0.2395    469.8800     86.6250     78.2425      0.4328   2285.6001
90.3750         185.2250      0.2324    449.0400     87.9150     80.3365      0.4245   2289.8999
90.5000         181.2500      0.2267    440.9600     88.6500     82.8651      0.4185   2289.3000
90.6250         180.0000      0.2232    433.3600     89.0100     84.7013      0.4238   2280.7000
90.7500         180.3250      0.2213    435.0800     87.9150     84.9647      0.4421   2266.0000
90.8750         181.5500      0.2203    450.7600     87.7200     86.6052      0.4511   2254.3999
91.0000         183.0750      0.2214    478.6800     86.9850     88.1325      0.4590   2245.2000
91.1250         184.6000      0.2236    485.3200     87.5400     88.3647      0.4627   2244.6001
91.2500         185.8250      0.2280    487.0400     86.2500     88.4736      0.4564   2239.1001
91.3750         187.9750      0.2315    484.8400     85.8900     86.7173      0.4530   2236.1001
91.5000         187.9750      0.2359    477.9600     85.8900     85.7176      0.4455   2239.7000
91.6250         186.7500      0.2414    470.8400     88.0950     85.7130      0.4380   2248.3000
91.7500         185.2250      0.2461    458.3600     90.1200     85.8022      0.4260   2255.6001
91.8750         184.9250      0.2474    458.1200     90.8550     85.8969      0.4230   2262.3999
92.0000         184.3000      0.2461    462.7600     89.7600     86.9387      0.4211   2263.6001
92.1250         184.0000      0.2448    464.7200     87.5400     89.0220      0.4156   2262.3999
92.2500         183.7000      0.2427    468.8800     87.1800     90.2070      0.4141   2257.5000
92.3750         183.7000      0.2409    473.0400     85.8900     91.3366      0.4121   2250.1001
92.5000         183.3750      0.2391    479.6800     86.6250     92.4631      0.4121   2242.2000
92.6250         184.6000      0.2390    483.3600     86.8050     92.5965      0.4133   2233.0000
92.7500         186.4500      0.2422    485.8000     87.5400     92.6940      0.4196   2225.0000
92.8750         187.6750      0.2516    481.8800     87.1800     92.7907      0.4200   2218.3000
93.0000         186.4500      0.2579    479.2000     86.0700     92.8873      0.4215   2215.8999
93.1250         185.2250      0.2610    474.0400     84.9600     94.6110      0.4271   2217.1001
93.2500         184.0000      0.2617    470.1200     83.6700     97.5205      0.4208   2218.3000
93.3750         181.5500      0.2618    470.1200     81.8250     98.1547      0.4166   2219.5000
93.5000         180.0000      0.2618    468.6400     78.8850     97.5233      0.4118   2219.5000
93.6250         179.1000      0.2618    466.9200     78.5100     94.2095      0.4081   2217.1001
93.7500         178.7750      0.2617    466.9200     79.0650     91.4330      0.4111   2215.8999
93.8750         178.7750      0.2616    466.6800     79.0650     94.8481      0.4073   2215.8999
94.0000         178.4750      0.2616    463.0000     80.9100     97.2488      0.4028   2215.8999
94.1250         179.7000      0.2627    463.2400     84.4050     91.9951      0.4031   2215.8999
94.2500         180.0000      0.2638    466.2000     86.0700     86.7580      0.4151   2218.8999
94.3750         180.6250      0.2616    466.4400     87.5400     82.8213      0.4208   2226.8999
94.5000         181.5500      0.2613    464.4800     90.6750     79.8640      0.4238   2237.8999
94.6250         182.4750      0.2591    463.5200     93.6300     75.9641      0.4238   2254.3999
94.7500         184.0000      0.2546    460.0800     91.0500     72.8073      0.4268   2263.6001
94.8750         184.9250      0.2497    460.8000     89.2050     68.1770      0.4249   2277.1001
95.0000         184.3000      0.2457    460.5600     85.3350     63.2900      0.4238   2291.1001
95.1250         183.0750      0.2409    450.7600     79.2450     59.2799      0.4196   2310.1001
95.2500         181.8500      0.2349    372.0800     75.7500     54.4628      0.4208   2323.0000
95.3750         181.2500      0.2276    365.9600     76.8600     51.3095      0.4208   2335.2000
95.5000         180.3250      0.2189    365.9600     81.2700     50.3392      0.4343   2338.3000
95.6250         181.2500      0.2112    366.2000     85.1400     47.4193      0.4537   2316.2000
95.7500         186.1500      0.2012    401.7200     87.3600     47.9156      0.4729   2274.0000
95.8750         189.5000      0.2004    457.6000     89.5650     49.6058      0.4732   2237.8999
96.0000         191.3500      0.2139    486.8000     93.2550     51.1516      0.4687   2234.2000
96.1250         192.8750      0.2262    490.9600     97.6800     55.1275      0.4657   2233.6001
96.2500         192.2750      0.2375    498.0400     98.7900     57.4565      0.4609   2230.5000
