~VERSION INFORMATION
 VERS.                 2.0:   CWLS LOG ASCII STANDARD -VERSION 2.0
 WRAP.                  NO:   ONE LINE PER DEPTH STEP
~WELL INFORMATION BLOCK
#MNEM.UNIT           DATA                    DESCRIPTION OF MNEMONIC
#---------    -------------------            -------------------------------
# Generated from Intellog Unique Number	CC_88_90/WELL/3148
WELL.         UNION OIL COMPANY OF CALIFORNI : Well_name    - WELL
LOC .         AA/10-24-090-11W4/0            : Location     - LOCATION
UWI .         AA/10-24-090-11W400            : Uwi          - UNIQUE WELL ID
ENTR.         JOETTE                         : Entered      - ENTERED BY
SRVC.         COMPUTALOG                     : Scn          - SERVICE COMPANY
DATE.         03/11/92                       : Date         - LOG DATE
STRT.M        30.480                         : top_depth    - START DEPTH
STOP.M        131.480                        : bot_depth    - STOP DEPTH
STEP.M        0.25                           : increment    - STEP LENGTH
 NULL. -999.2500:NULL Value
~CURVE INFORMATION BLOCK
#MNEM UNIT       ERCB CURVE CODE    CURVE DESCRIPTION
#-----------   ------------------   ----------------------------------
DEPT.M        00 001 00 00         : DEPTH        - DEPTH
GR  .API      00 310 00 00         : GR           - GAMMA RAY
NPHI.V/V      00 330 00 00         : PHIN         - NEUTRON POROSITY (SANDSTONE)
ILD .OHMM     00 120 00 00         : RESD         - DEEP RESISTIVITY (DIL)
~PARAMETER INFORMATION
#MNEM.UNIT           DATA             DESCRIPTION OF MNEMONIC
#---------         -----------     ------------------------------
GL  .M        412.242              : gl           - GROUND LEVEL ELEVATION
EREF.M        412.242              : kb           - ELEVATION OF DEPTH REFERENCE
DATM.M        412.242              : datum        - DATUM ELEVATION
TDD .M        155.448              : tdd          - TOTAL DEPTH DRILLER
RUN .         ONE                  : Run          - RUN NUMBER
ENG .         BILL                 : Engineer     - RECORDING ENGINEER
WIT .         JIM                  : Witness      - WITNESSED BY
MUD .         GEL                  : Mud_type     - MUD TYPE
MATR.         SANDSTONE            : Logunit      - NEUTRON MATRIX
TMAX.C        60                   : BHT          - MAXIMUM RECORDED TEMPERATURE
BHTD.M        155.448              : BHTDEP       - MAXIMUM RECORDED TEMPERATURE
RMT .C        4.44444              : MDTP         - TEMPERATURE OF MUD
MUDD.KG/M     9041.66              : MWT          - MUD DENSITY
NEUT.         1                    : NEUTRON      - NEUTRON TYPE
RESI.         0                    : RESIST       - RESISTIVITY TYPE
RM  .OHMM     6.8                  : RM           - RESISTIVITY OF MUD
RMC .OHMM     6.8                  : RMC          - RESISTIVITY OF MUD CAKE
RMF .OHMM     4.2                  : RMF          - RESISTIVITY OF MUD FILTRATE
SUFT.C        4                    : SUFT         - SURFACE TEMPERATURE
~A  DEPTH       GR     PHIN     RESD
   30.480   85.425    0.560    7.311
   30.730   84.199    0.569    6.507
   30.980   87.275    0.566    5.905
   31.230   96.496    0.582    6.175
   31.480  112.478    0.588    6.243
   31.730  106.336    0.598    6.110
   31.980  105.725    0.598    5.844
   32.230  119.863    0.579    5.644
   32.480  127.241    0.578    5.511
   32.730  113.723    0.576    5.245
   32.980  111.268    0.567    5.178
   33.230  124.792    0.579    5.315
   33.480  121.108    0.588    5.584
   33.730  110.048    0.599    5.451
   33.980  109.437    0.599    5.050
   34.230  105.138    0.594    4.649
   34.480  102.683    0.581    4.717
   34.730  103.916    0.585    4.518
   34.980  112.523    0.587    4.318
   35.230  105.765    0.581    4.454
   35.480   93.477    0.588    4.522
   35.730  100.855    0.592    4.389
   35.980   95.942    0.589    4.257
   36.230  108.237    0.594    4.258
   36.480  115.614    0.586    4.461
   36.730  119.920    0.574    4.596
   36.980  127.297    0.570    4.597
   37.230  112.551    0.560    4.465
   37.480  104.565    0.550    4.667
   37.730  107.641    0.545    6.748
   37.980  118.706    0.519    7.956
   38.230  121.168    0.471    7.689
   38.480  121.171    0.473    7.356
   38.730  109.497    0.491    7.826
   38.980   90.449    0.502    9.169
   39.230   89.838    0.494   10.445
   39.480   93.528    0.495   10.379
   39.730   94.760    0.491    9.576
   39.980  108.899    0.492    8.437
   40.230  120.578    0.499    7.566
   40.480  126.727    0.508    7.300
   40.730  125.501    0.514    8.106
   40.980  106.453    0.503    9.247
   41.230   84.331    0.491    9.651
   41.480   97.856    0.499    9.116
   41.730   89.255    0.515    8.447
   41.980   91.102    0.515    7.241
   42.230   99.094    0.520    5.230
   42.480   99.712    0.532    5.165
   42.730  102.173    0.551    6.776
   42.980   96.030    0.537    7.112
   43.230  102.794    0.530    7.516
   43.480  124.307    0.529    7.585
   43.730  135.987    0.526    7.050
   43.980  129.230    0.522    7.319
   44.230  116.941    0.522    7.254
   44.480  102.195    0.529    6.786
   44.730  112.646    0.537    6.385
   44.980  114.493    0.545    6.051
   45.230  118.183    0.541    5.986
   45.480  121.874    0.524    6.389
   45.730  118.189    0.522    6.256
   45.980  115.734    0.524    5.855
   46.230  118.196    0.519    5.655
   46.480  120.043    0.505    5.522
   46.730  108.984    0.476    8.005
   46.980  100.998    0.433    8.141
   47.230  102.229    0.414    7.740
   47.480  113.295    0.445    8.077
   47.730  102.850    0.481    8.078
   47.980  101.625    0.516    7.476
   48.230  104.701    0.497    8.282
   48.480  110.849    0.472    9.289
   48.730  112.082    0.463   10.566
   48.980  105.325    0.475   10.299
   49.230  109.630    0.464    9.897
   49.480  109.633    0.472    8.356
   49.730  107.792    0.506    5.943
   49.980  108.410    0.534    6.079
   50.230   99.809    0.546    4.873
   50.480   99.812    0.598    3.734
   50.730   97.972    0.582    3.266
   50.980   83.225    0.566    3.133
   51.230   88.145    0.551    3.269
   51.480   94.909    0.536    3.538
   51.730   89.380    0.523    5.082
   51.980   91.842    0.524    6.559
   52.230  101.678    0.528    6.494
   52.480  102.296    0.530    6.093
   52.730   93.081    0.526    6.363
   52.980  105.375    0.525    6.699
   53.230  120.742    0.519    7.304
   53.480  120.131    0.506    7.775
   53.730  117.061    0.491    8.581
   53.980  120.137    0.484   10.192
   54.230  109.079    0.487   11.200
   54.480   99.249    0.491   11.402
   54.730   94.949    0.489   11.202
   54.980   98.640    0.461   10.668
   55.230   99.258    0.468   10.400
   55.480  100.490    0.485    9.731
   55.730   98.650    0.495    8.726
   55.980   91.892    0.486    7.923
   56.230   96.197    0.494    7.723
   56.480  108.492    0.502    8.127
   56.730   94.975    0.500    8.196
   56.980   95.593    0.491    8.130
   57.230  102.356    0.494    8.065
   57.480   92.526    0.489    8.267
   57.730  101.747    0.478    8.805
   57.980  100.522    0.431   12.159
   58.230   89.463    0.428   15.582
   58.480   88.852    0.425   11.357
   58.730   94.386    0.406   19.877
   58.980   98.691    0.406   21.420
   59.230   95.621    0.422   13.106
   59.480   88.864    0.441   12.034
   59.730   91.325    0.457   10.761
   59.980  118.369    0.461   12.707
   60.230  104.852    0.464   11.636
   60.480   93.178    0.464   12.576
   60.730   90.723    0.464   12.376
   60.980   89.498    0.462    8.555
   61.230  112.239    0.469   11.910
   61.480  123.919    0.481    9.027
   61.730  113.475    0.459    8.023
   61.980  114.708    0.477    8.762
   62.230  114.710    0.491    9.769
   62.480  104.266    0.484    9.502
   62.730   98.738    0.476    9.302
   62.980   97.512    0.480    7.359
   63.230  109.806    0.474    8.567
   63.480  120.258    0.459    8.971
   63.730  110.427    0.410   13.198
   63.980  107.357    0.352   13.803
   64.230  109.819    0.331   13.067
   64.480  108.593    0.276   20.513
   64.730  108.597    0.237   38.086
   64.980  116.589    0.141   39.629
   65.230  112.290    0.097   15.151
   65.480   93.241    0.212   10.659
   65.730   87.099    0.377   11.332
   65.980   82.800    0.451   11.198
   66.230   80.960    0.448   12.675
   66.480   72.974    0.431   13.079
   66.730   64.987    0.362   20.927
   66.980   74.823    0.326   38.836
   67.230   83.430    0.339   39.038
   67.480   88.350    0.453    7.719
   67.730   96.957    0.496    6.782
   67.980  116.012    0.500    6.851
   68.230  106.797    0.516    7.791
   68.480  117.862    0.496    7.255
   68.730  127.084    0.515    6.117
   68.980  120.327    0.527    5.514
   69.230  116.642    0.527    5.516
   69.480  120.948    0.519    6.255
   69.730  124.024    0.516    6.458
   69.980  128.329    0.488    6.929
   70.230  116.655    0.477    7.936
   70.480  110.512    0.474   10.016
   70.730   95.766    0.491   14.377
   70.980   90.239    0.493    8.208
   71.230   97.002    0.487    8.277
   71.480  102.536    0.478    8.949
   71.730  110.528    0.470    7.743
   71.980  106.844    0.474    8.482
   72.230  111.764    0.500    8.283
   72.480  106.850    0.499    8.754
   72.730  108.697    0.494    8.755
   72.980  105.627    0.499    9.092
   73.230   93.954    0.483   10.166
   73.480   93.957    0.468   14.393
   73.730  104.408    0.465   10.504
   73.980  102.567    0.466   10.170
   74.230  110.560    0.468   10.172
   74.480  116.708    0.480    6.752
   74.730  103.806    0.493    6.083
   74.980   81.685    0.509    5.884
   75.230   82.302    0.529    4.544
   75.480  101.972    0.555    4.210
   75.730  102.590    0.579    4.480
   75.980   88.457    0.592    4.280
   76.230   79.857    0.573    4.080
   76.480   83.548    0.568    4.081
   76.730   81.093    0.566    3.815
   76.980   77.408    0.564    3.481
   77.230   94.619    0.572    3.549
   77.480  107.528    0.580    3.752
   77.730  105.073    0.561    3.753
   77.980   96.472    0.548    5.900
   78.230  105.079    0.538    7.847
   78.480  108.770    0.520    6.708
   78.730   95.867    0.516    5.636
   78.980   91.568    0.524    5.638
   79.230   87.884    0.521    5.438
   79.480   89.116    0.510    5.775
   79.730   77.443    0.501    9.130
   79.980   80.519    0.491    9.198
   80.230  111.865    0.501    8.059
   80.480  114.941    0.506    7.122
   80.730  114.329    0.506    7.123
   80.980  111.260    0.486    7.862
   81.230   84.836    0.487    8.199
   81.480   81.767    0.483    8.804
   81.730   84.843    0.476    9.074
   81.980   89.148    0.461    8.874
   82.230  103.900    0.445    8.473
   82.480  130.330    0.421    9.346
   82.730  124.188    0.440   11.360
   82.980  111.899    0.469   13.909
   83.230  104.529    0.489   13.642
   83.480  105.146    0.478    8.815
   83.730   91.013    0.492    6.939
   83.980   85.486    0.504    6.605
   84.230   83.031    0.505    6.606
   84.480   82.420    0.493    6.474
