~VERSION INFORMATION
 VERS.                 2.0:   CWLS LOG ASCII STANDARD -VERSION 2.0
 WRAP.                  NO:   ONE LINE PER DEPTH STEP
~WELL INFORMATION BLOCK
#MNEM.UNIT           DATA                    DESCRIPTION OF MNEMONIC
#---------    -------------------            -------------------------------
# Generated from Intellog Unique Number	CN_94_101/WELL/3264
WELL.         10-11-095-06W4                 : Well_name    - WELL
LOC .         AA/10-11-095-06W4/0            : Location     - LOCATION
UWI .         AA/10-11-095-06W400            : Uwi          - UNIQUE WELL ID
ENTR.         TIM                            : Entered      - ENTERED BY
SRVC.         SCHLUMBERGER                   : Scn          - SERVICE COMPANY
DATE.         05/17/92                       : Date         - LOG DATE
STRT.M        100                            : top_depth    - START DEPTH
STOP.M        340                            : bot_depth    - STOP DEPTH
STEP.M        0.25                           : increment    - STEP LENGTH
 NULL. -999.2500:NULL Value
~CURVE INFORMATION BLOCK
#MNEM UNIT       ERCB CURVE CODE    CURVE DESCRIPTION
#-----------   ------------------   ----------------------------------
DEPT.M        00 001 00 00         : DEPTH        - DEPTH
GR  .API      00 310 00 00         : GR           - GAMMA RAY
NPHI.V/V      00 330 00 00         : PHIN         - NEUTRON POROSITY (SANDSTONE)
DPHI.V/V      00 890 00 00         : PHID         - DENSITY POROSITY (SANDSTONE)
ILD .OHMM     00 120 00 00         : RESD         - DEEP RESISTIVITY (DIL)
~PARAMETER INFORMATION
#MNEM.UNIT           DATA             DESCRIPTION OF MNEMONIC
#---------         -----------     ------------------------------
GL  .M        596.9                : gl           - GROUND LEVEL ELEVATION
EREF.M        599.8                : kb           - ELEVATION OF DEPTH REFERENCE
DATM.M        599.8                : datum        - DATUM ELEVATION
TDD .M        342                  : tdd          - TOTAL DEPTH DRILLER
RUN .         0                    : Run          - RUN NUMBER
ENG .         COMPANY:             : Engineer     - RECORDING ENGINEER
MUD .         GEL                  : Mud_type     - MUD TYPE
MATR.         SANDSTONE            : Logunit      - NEUTRON MATRIX
TMAX.C        18                   : BHT          - MAXIMUM RECORDED TEMPERATURE
BHTD.M        342                  : BHTDEP       - MAXIMUM RECORDED TEMPERATURE
RMT .C        18                   : MDTP         - TEMPERATURE OF MUD
MUDD.KG/M     1050                 : MWT          - MUD DENSITY
NEUT.         1                    : NEUTRON      - NEUTRON TYPE
RESI.         0                    : RESIST       - RESISTIVITY TYPE
RM  .OHMM     3.5                  : RM           - RESISTIVITY OF MUD
RMC .OHMM     3.5                  : RMC          - RESISTIVITY OF MUD CAKE
RMF .OHMM     3.5                  : RMF          - RESISTIVITY OF MUD FILTRATE
SUFT.C        4                    : SUFT         - SURFACE TEMPERATURE
~A  DEPTH       GR     PHIN     PHID     RESD
# ...
  143.500   67.064    0.305    0.192   28.662
  143.750   67.058    0.299    0.189   28.651
  144.000   67.056    0.291    0.185   28.105
  144.250   65.770    0.286    0.178   27.564
  144.500   64.487    0.286    0.171   27.038
  144.750   63.841    0.290    0.170   26.521
  145.000   63.837    0.294    0.176   26.013
  145.250   64.475    0.298    0.177   26.005
  145.500   66.390    0.300    0.175   25.507
  145.750   68.945    0.304    0.177   25.018
  146.000   72.141    0.308    0.179   24.537
  146.250   74.696    0.313    0.181   24.067
  146.500   76.611    0.318    0.185   23.608
  146.750   77.887    0.319    0.186   22.289
  147.000   77.881    0.321    0.189   22.284
  147.250   77.237    0.323    0.189   21.856
  147.500   77.233    0.324    0.187   21.851
  147.750   77.867    0.326    0.186   21.843
  148.000   78.504    0.324    0.185   21.423
  148.250   79.138    0.321    0.185   21.418
  148.500   79.775    0.315    0.184   21.008
  148.750   79.769    0.308    0.182   21.002
  149.000   81.044    0.302    0.182   20.997
  149.250   81.040    0.293    0.181   20.989
  149.500   81.675    0.290    0.179   20.983
  149.750   81.673    0.285    0.176   20.978
  150.000   81.668    0.285    0.172   21.375
  150.250   81.024    0.285    0.170   21.369
  150.500   80.379    0.286    0.166   21.773
  150.750   80.376    0.289    0.161   22.608
  151.000   80.371    0.290    0.156   23.035
  151.250   81.647    0.292    0.156   23.473
  151.500   82.922    0.295    0.171   23.913
  151.750   81.637    0.302    0.189   23.910
  152.000   79.074    0.313    0.205   23.901
  152.250   75.230    0.331    0.218   23.443
  152.500   71.385    0.345    0.233   22.994
  152.750   70.740    0.346    0.209   22.555
  153.000   72.017    0.345    0.209   22.979
  153.250   74.573    0.332    0.207   22.974
  153.500   77.767    0.297    0.178   23.408
  153.750   75.202    0.285    0.164   23.851
  154.000   73.279    0.290    0.170   24.304
  154.250   68.795    0.292    0.173   24.762
  154.500   63.671    0.293    0.175   25.715
  154.750   61.107    0.285    0.157   26.705
  155.000   58.543    0.279    0.145   27.210
  155.250   56.619    0.266    0.131   28.260
  155.500   55.975    0.245    0.109   29.346
  155.750   55.971    0.219    0.112   29.904
  156.000   56.607    0.214    0.119   30.469
  156.250   58.522    0.222    0.131   31.043
  156.500   61.717    0.233    0.137   30.451
  156.750   66.832    0.256    0.141   28.752
  157.000   72.587    0.274    0.145   27.146
  157.250   76.421    0.285    0.145   25.148
  157.500   76.417    0.284    0.146   23.297
  157.750   75.772    0.277    0.146   22.852
  158.000   75.768    0.278    0.146   21.575
  158.250   75.764    0.279    0.144   20.371
  158.500   75.120    0.283    0.144   19.981
  158.750   74.475    0.285    0.144   19.972
  159.000   74.471    0.284    0.141   20.352
  159.250   74.467    0.277    0.135   20.738
  159.500   74.462    0.269    0.121   21.535
  159.750   74.457    0.253    0.100   21.944
  160.000   74.454    0.237    0.084   22.787
  160.250   73.807    0.239    0.078   23.220
  160.500   73.803    0.245    0.089   23.211
  160.750   73.799    0.253    0.109   23.204
  161.000   73.796    0.263    0.121   22.760
  161.250   73.152    0.270    0.126   22.753
  161.500   72.507    0.277    0.128   22.319
  161.750   71.864    0.275    0.131   21.477
  162.000   70.579    0.274    0.136   21.066
  162.250   70.574    0.278    0.145   20.661
  162.500   71.848    0.288    0.155   20.658
  162.750   73.125    0.300    0.168   20.259
  163.000   74.401    0.325    0.183   20.255
  163.250   76.956    0.355    0.206   19.868
  163.500   79.511    0.391    0.225   19.119
  163.750   80.147    0.409    0.244   18.399
  164.000   81.422    0.418    0.254   18.047
  164.250   82.057    0.419    0.262   17.702
  164.500   82.694    0.421    0.262   17.362
  164.750   83.327    0.426    0.259   16.707
  165.000   83.324    0.421    0.257   16.389
  165.250   83.958    0.420    0.257   15.771
  165.500   83.955    0.423    0.257   15.468
  165.750   83.950    0.423    0.259   15.173
  166.000   83.307    0.424    0.260   14.882
  166.250   82.662    0.425    0.263   14.878
  166.500   81.378    0.434    0.272   15.158
  166.750   80.094    0.443    0.285   15.155
  167.000   78.170    0.438    0.285   15.441
  167.250   78.165    0.427    0.269   15.731
  167.500   78.799    0.427    0.262   16.031
  167.750   79.436    0.429    0.271   16.334
  168.000   81.350    0.433    0.277   16.641
  168.250   81.987    0.437    0.283   16.639
  168.500   83.263    0.441    0.262   16.634
  168.750   84.539    0.448    0.259   16.627
  169.000   87.093    0.454    0.258   16.309
  169.250   88.370    0.465    0.236   15.399
  169.500   92.843    0.476    0.223   14.820
  169.750   96.040    0.486    0.217   13.729
  170.000   97.955    0.487    0.212   12.719
  170.250   94.111    0.477    0.210   11.560
  170.500   90.907    0.455    0.221   10.709
  170.750   89.623    0.448    0.230   10.305
  171.000   92.816    0.452    0.231   10.108
  171.250   94.093    0.450    0.220    9.915
  171.500   95.368    0.441    0.215    9.911
  171.750   94.723    0.429    0.218    9.909
  172.000   94.080    0.420    0.230   10.096
  172.250   92.794    0.417    0.240   10.485
  172.500   92.790    0.423    0.233   11.097
  172.750   93.427    0.429    0.223   11.524
  173.000   96.621    0.441    0.214   11.742
  173.250   99.816    0.450    0.210   11.298
  173.500   99.812    0.451    0.210   11.085
  173.750   99.808    0.451    0.210   10.872
  174.000   99.804    0.452    0.209   10.463
  174.250   99.159    0.456    0.208   10.069
  174.500   99.156    0.459    0.205    9.689
  174.750   98.510    0.461    0.201    9.504
  175.000   97.867    0.466    0.201    9.322
  175.250   96.583    0.469    0.201    9.319
  175.500   94.019    0.469    0.213    9.496
  175.750   88.254    0.459    0.228   10.440
  176.000   83.132    0.446    0.244   11.925
  176.250   79.927    0.422    0.244   13.113
  176.500   81.202    0.403    0.244   15.559
  176.750   85.037    0.400    0.243   16.159
  177.000   89.511    0.408    0.234   15.256
  177.250   93.986    0.418    0.229   14.682
  177.500   95.903    0.445    0.223   13.602
  177.750   94.618    0.460    0.218   12.362
  178.000   93.334    0.461    0.215   11.673
  178.250   91.410    0.455    0.217   10.813
  178.500   90.126    0.431    0.220   10.406
  178.750   90.122    0.427    0.222   10.014
  179.000   92.676    0.438    0.220   10.011
  179.250   95.230    0.450    0.217   10.008
  179.500   96.508    0.454    0.215   10.198
  179.750   97.783    0.452    0.214   10.195
  180.000   97.139    0.447    0.214   10.387
  180.250   97.135    0.444    0.212   10.584
  180.500   96.490    0.440    0.209   10.783
  180.750   95.845    0.436    0.207   11.198
  181.000   95.200    0.430    0.205   11.409
  181.250   94.558    0.425    0.204   11.851
  181.500   93.274    0.417    0.209   12.307
  181.750   90.710    0.414    0.219   13.026
  182.000   87.506    0.408    0.228   14.053
  182.250   84.302    0.401    0.241   15.449
  182.500   79.176    0.398    0.255   16.046
  182.750   77.252    0.397    0.267   17.643
  183.000   75.328    0.395    0.279   19.035
  183.250   75.964    0.397    0.292   20.147
  183.500   80.439    0.404    0.300   20.140
  183.750   84.275    0.412    0.266   18.659
  184.000   88.750    0.431    0.223   16.640
  184.250   91.304    0.446    0.218   13.492
  184.500   91.939    0.467    0.227   11.581
  184.750   92.574    0.472    0.236   10.935
  185.000   91.932    0.464    0.235   10.726
  185.250   90.007    0.442    0.232   11.137
  185.500   88.723    0.425    0.227   11.350
  185.750   88.717    0.417    0.224   11.787
  186.000   88.715    0.421    0.230   12.241
  186.250   89.350    0.425    0.246   12.956
  186.500   87.427    0.420    0.261   13.453
  186.750   82.943    0.417    0.275   13.451
