~VERSION INFORMATION
 VERS.                 2.0:   CWLS LOG ASCII STANDARD -VERSION 2.0
 WRAP.                  NO:   ONE LINE PER DEPTH STEP
~WELL INFORMATION BLOCK
#MNEM.UNIT           DATA                    DESCRIPTION OF MNEMONIC
#---------    -------------------            -------------------------------
# Generated from Intellog Unique Number	CN_94_101/WELL/5042
WELL.         14-29-097-11W4                 : Well_name    - WELL
LOC .         AA/14-29-097-11W4/0            : Location     - LOCATION
UWI .         AA/14-29-097-11W400            : Uwi          - UNIQUE WELL ID
ENTR.         JOETTE                         : Entered      - ENTERED BY
SRVC.         SCHLUMBERGER                   : Scn          - SERVICE COMPANY
DATE.         08/13/92                       : Date         - LOG DATE
STRT.M        0                              : top_depth    - START DEPTH
STOP.M        75                             : bot_depth    - STOP DEPTH
STEP.M        0.25                           : increment    - STEP LENGTH
 NULL. -999.2500:NULL Value
~CURVE INFORMATION BLOCK
#MNEM UNIT       ERCB CURVE CODE    CURVE DESCRIPTION
#-----------   ------------------   ----------------------------------
DEPT.M        00 001 00 00         : DEPTH        - DEPTH
GR  .API      00 310 00 00         : GR           - GAMMA RAY
ILD .OHMM     00 120 00 00         : RESD         - DEEP RESISTIVITY (DIL)
NPHI.V/V      00 330 00 00         : PHIN         - NEUTRON POROSITY (SANDSTONE)
DPHI.V/V      00 890 00 00         : PHID         - DENSITY POROSITY (SANDSTONE)
~PARAMETER INFORMATION
#MNEM.UNIT           DATA             DESCRIPTION OF MNEMONIC
#---------         -----------     ------------------------------
GL  .M        304.86               : gl           - GROUND LEVEL ELEVATION
EREF.M        304.86               : kb           - ELEVATION OF DEPTH REFERENCE
DATM.M        304.86               : datum        - DATUM ELEVATION
TDD .M        79.2                 : tdd          - TOTAL DEPTH DRILLER
RUN .         ONE                  : Run          - RUN NUMBER
ENG .         BILL                 : Engineer     - RECORDING ENGINEER
WIT .         JIM                  : Witness      - WITNESSED BY
MUD .         GEL                  : Mud_type     - MUD TYPE
MATR.         SANDSTONE            : Logunit      - NEUTRON MATRIX
TMAX.C        15                   : BHT          - MAXIMUM RECORDED TEMPERATURE
BHTD.M        79.2                 : BHTDEP       - MAXIMUM RECORDED TEMPERATURE
RMT .C        15                   : MDTP         - TEMPERATURE OF MUD
MUDD.KG/M     1000                 : MWT          - MUD DENSITY
NEUT.         1                    : NEUTRON      - NEUTRON TYPE
RESI.         0                    : RESIST       - RESISTIVITY TYPE
RM  .OHMM     12                   : RM           - RESISTIVITY OF MUD
RMC .OHMM     12                   : RMC          - RESISTIVITY OF MUD CAKE
RMF .OHMM     12                   : RMF          - RESISTIVITY OF MUD FILTRATE
SUFT.C        4                    : SUFT         - SURFACE TEMPERATURE
~A  DEPTH       GR     RESD     PHIN     PHID
# ...
   43.500   63.375   37.915    0.512    0.463
   43.750   64.002   36.877    0.526    0.452
   44.000   70.587   36.897    0.526    0.403
   44.250   74.183   34.885    0.503    0.382
   44.500   76.594   29.884    0.510    0.369
   44.750   74.829   25.242    0.521    0.356
   45.000   64.125   21.936    0.497    0.322
   45.250   77.270   21.036    0.490    0.348
   45.500   80.276   21.043    0.500    0.359
   45.750   77.313   21.352    0.497    0.330
   46.000   74.356   21.665    0.490    0.320
   46.250   70.802   21.983    0.495    0.327
   46.500   69.044   22.622    0.498    0.324
   46.750   65.484   24.978    0.487    0.317
   47.000   61.341   34.087    0.481    0.308
   47.250   61.962   42.736    0.476    0.329
   47.500   59.595   47.864    0.476    0.351
   47.750   56.041   70.090    0.470    0.368
   48.000   69.186   80.736    0.473    0.376
   48.250   79.361   81.929    0.470    0.369
   48.500   72.223   69.194    0.476    0.358
   48.750   80.597   66.357    0.482    0.349
   49.000   77.043   78.632    0.474    0.345
   49.250   72.297   75.407    0.477    0.364
   49.500   86.634   64.598    0.491    0.369
   49.750   68.768   57.737    0.511    0.356
   50.000   61.040   73.409    0.489    0.349
   50.250   61.071   78.809    0.497    0.377
   50.500   59.903   85.837    0.489    0.372
   50.750   61.120   77.784    0.497    0.398
   51.000   60.548   64.780    0.495    0.384
   51.250   61.760   65.730    0.494    0.366
   51.500   75.500   71.568    0.497    0.364
   51.750   67.176   80.154    0.489    0.393
   52.000   58.852   84.854    0.480    0.392
   52.250   57.087   87.321    0.486    0.386
   52.500   50.552   93.745    0.475    0.399
   52.750   48.197   97.830    0.474    0.394
   53.000   56.565   66.874    0.492    0.365
   53.250   65.535   59.765    0.504    0.365
   53.500   61.981   54.939    0.476    0.372
   53.750   53.657   58.981    0.466    0.345
   54.000   50.109   66.064    0.492    0.353
   54.250   51.917   64.248    0.493    0.376
   54.500   51.345   49.863    0.486    0.369
   54.750   70.453   39.249    0.481    0.352
   55.000   69.285   32.688    0.479    0.361
   55.250   65.732   32.244    0.489    0.381
   55.500   64.564   34.131    0.478    0.323
   55.750   63.396   31.825    0.489    0.298
   56.000   69.390   29.671    0.485    0.334
   56.250   64.041   29.268    0.495    0.309
   56.500   59.295   32.776    0.501    0.309
   56.750   60.512   41.098    0.474    0.339
   57.000   56.362   45.379    0.496    0.364
   57.250   62.953   48.717    0.472    0.355
   57.500   63.580   46.065    0.465    0.353
   57.750   58.232   44.809    0.469    0.328
   58.000   52.883   68.445    0.464    0.302
   58.250   49.336  131.023    0.460    0.351
   58.500   41.601  205.866    0.479    0.385
   58.750   51.180  237.161    0.464    0.386
   59.000   47.018  203.165    0.461    0.394
   59.250   42.874  174.043    0.468    0.388
   59.500   45.881  112.444    0.477    0.374
   59.750   52.465   97.695    0.495    0.378
   60.000   50.104   80.223    0.461    0.380
   60.250   55.496   66.812    0.485    0.372
   60.500   75.797   45.671    0.493    0.380
   60.750   89.544   36.460    0.492    0.359
   61.000   74.654   29.110    0.480    0.293
   61.250   60.366   31.691    0.487    0.320
   61.500   59.794   37.032    0.504    0.345
   61.750   62.800   38.650    0.504    0.344
   62.000   65.210   42.078    0.489    0.368
   62.250   72.397   38.680    0.520    0.395
   62.500   53.929   39.248    0.513    0.302
   62.750   43.219   45.856    0.500    0.329
   63.000   48.611   61.694    0.503    0.407
   63.250   51.027   79.563    0.501    0.432
   63.500   51.642   81.877    0.493    0.424
   63.750   62.997   71.137    0.495    0.411
   64.000   69.588   46.612    0.502    0.348
   64.250   54.698   34.195    0.515    0.347
   64.500   52.337   36.707    0.526    0.329
   64.750   67.283   46.675    0.480    0.361
   65.000   70.283   62.804    0.485    0.400
   65.250   72.693   63.724    0.495    0.369
   65.500   75.700   44.174    0.502    0.335
   65.750   78.110   38.380    0.501    0.333
   66.000   78.731   34.791    0.509    0.330
   66.250   76.370   33.834    0.513    0.318
   66.500   68.642   31.544    0.482    0.308
   66.750   72.245   30.251    0.506    0.325
   67.000   73.462   31.573    0.529    0.359
   67.250   47.247   36.893    0.502    0.318
   67.500   50.253   48.255    0.492    0.355
   67.750   52.067   54.818    0.500    0.408
   68.000   62.826   49.680    0.521    0.406
   68.250   64.043   43.168    0.535    0.351
   68.500   55.123   53.359    0.530    0.330
   68.750   57.539   58.930    0.495    0.371
   69.000   52.190   53.407    0.505    0.364
   69.250   56.986   54.960    0.490    0.348
   69.500   65.365   43.875    0.499    0.380
   69.750   60.017   38.666    0.531    0.367
   70.000   49.909   43.920    0.494    0.352
   70.250   47.542   44.559    0.482    0.359
   70.500   42.796   38.714    0.496    0.389
   70.750   42.827   25.367    0.464    0.402
   71.000   37.478   18.876    0.484    0.405
   71.250   38.696   17.595    0.507    0.408
   71.500   53.629   15.287    0.512    0.413
   71.750   82.285   13.470    0.486    0.415
   72.000   91.858   12.040    0.458    0.156
   72.250   92.485   16.426    0.436    0.022
   72.500   92.497   17.387    0.431   -0.050
   72.750   92.522   18.151    0.428    0.013
   73.000   92.546   18.415    0.422    0.047
   73.250   94.956   18.424    0.479    0.036
   73.500  104.529   18.430    0.492    0.063
   73.750  100.969   17.427    0.477    0.068
   74.000   98.609   16.949    0.482    0.052
   74.250   57.484   17.198    0.426    0.075
   74.500   49.160   19.535    0.326    0.045
   74.750   46.805   30.267    0.299    0.040
   75.000   62.925   40.721    0.311    0.060
