~VERSION INFORMATION
 VERS.                 2.0:   CWLS LOG ASCII STANDARD -VERSION 2.0
 WRAP.                  NO:   ONE LINE PER DEPTH STEP
~WELL INFORMATION BLOCK
#MNEM.UNIT           DATA                    DESCRIPTION OF MNEMONIC
#---------    -------------------            -------------------------------
# Generated from Intellog Unique Number	CC_80_83/WELL/2348
NULL.         -999.25                        : NULL_VALUE
WELL.         PEX PCEJ KEANE OV              : Well_name    - WELL
LOC .         10-11-080-15W4                 : Location     - LOCATION          
UWI .         AA/10-11-080-15W4/0            : Uwi          - UNIQUE WELL ID    
ENTR.         DW                             : Entered      - ENTERED BY        
SRVC.         SCHLUMBERGER                   : Scn          - SERVICE COMPANY   
DATE.         08 JAN 81                      : Date         - LOG DATE
STRT.M        200                            : top_depth    - START DEPTH       
STOP.M        430.093                        : bot_depth    - STOP DEPTH        
STEP.M        0.3                            : increment    - STEP LENGTH       
~CURVE INFORMATION BLOCK
#MNEM UNIT       ERCB CURVE CODE    CURVE DESCRIPTION
#-----------   ------------------   ----------------------------------
DEPT.M        00 001 00 00         : DEPTH        - DEPTH                       
DPHI.V/V      00 890 00 00         : PHID         - DENSITY POROSITY (LIMESTONE)
NPHI.V/V      00 330 00 00         : PHIN         - NEUTRON POROSITY (LIMESTONE)
GR  .API      00 310 00 00         : GR           - GAMMA RAY                   
ILD .OHMM     00 120 00 00         : RESD         - DEEP RESISTIVITY (DIL)      
~PARAMETER INFORMATION       
#MNEM.UNIT           DATA             DESCRIPTION OF MNEMONIC
#---------         -----------     ------------------------------
GL  .M        612                  : gl           - GROUND LEVEL ELEVATION      
EREF.M        615                  : kb           - ELEVATION OF DEPTH REFERENCE
DATM.M        615                  : datum        - DATUM ELEVATION             
TDD .M        440                  : tdd          - TOTAL DEPTH DRILLER         
RUN .         ONE                  : Run          - RUN NUMBER                  
ENG .         BILL                 : Engineer     - RECORDING ENGINEER          
WIT .         JIM                  : Witness      - WITNESSED BY                
MUD .         GEL                  : Mud_type     - MUD TYPE                    
MATR.         LIMESTONE            : Logunit      - NEUTRON MATRIX              
TMAX.C        27                   : BHT          - MAXIMUM RECORDED TEMPERATURE
BHTD.M        440                  : BHTDEP       - MAXIMUM RECORDED TEMPERATURE
MATR.         1                    : LOGUNIT      - NEUTRON MATRIX              
RMT .C        25                   : MDTP         - TEMPERATURE OF MUD          
NEUT.         1                    : NEUTRON      - NEUTRON TYPE                
RESI.         0                    : RESIST       - RESISTIVITY TYPE            
RMC .OHMM     0.25                 : RMC          - RESISTIVITY OF MUD CAKE     
RMF .OHMM     0.25                 : RMF          - RESISTIVITY OF MUD FILTRATE 
SUFT.C        15                   : SUFT         - SURFACE TEMPERATURE         
~A  DEPTH     PHID     PHIN       GR     RESD
# ...
  252.201    0.317    0.408  108.786    7.845
  252.501    0.309    0.413  113.184    8.631
  252.801    0.259    0.406  111.305    9.864
  253.101    0.263    0.394   98.126   11.492
  253.401    0.264    0.360   84.321   13.912
  253.701    0.259    0.352   79.303   19.626
  254.001    0.276    0.361   71.146   25.160
  254.301    0.297    0.345   50.435   27.679
  254.601    0.289    0.340   49.812   22.421
  254.901    0.277    0.342   59.233   19.985
  255.201    0.263    0.345   68.654   12.624
  255.501    0.276    0.379   81.842    9.472
  255.801    0.318    0.393   93.775    8.126
  256.101    0.308    0.405   97.545    6.839
  256.401    0.300    0.414   96.922    6.838
  256.701    0.304    0.426   94.416    6.967
  257.001    0.340    0.416   93.166    7.520
  257.301    0.293    0.390   96.937    8.432
  257.600    0.267    0.399   97.568   11.019
  257.900    0.315    0.402   81.252   13.596
  258.200    0.345    0.410   75.606   16.776
  258.500    0.335    0.396   58.033   18.812
  258.800    0.324    0.369   54.272   21.918
  259.100    0.321    0.379   52.392   26.028
  259.400    0.320    0.377   50.515   28.634
  259.700    0.320    0.364   51.146   32.729
  260.000    0.321    0.356   52.407   41.163
  260.300    0.321    0.354   53.039   51.773
  260.600    0.324    0.357   49.904  107.072
  260.900    0.323    0.374   55.560  120.060
  261.200    0.320    0.375   54.309  120.031
  261.500    0.321    0.364   48.035  102.971
  261.800    0.324    0.366   49.297   83.409
  262.100    0.326    0.389   53.067   71.557
  262.400    0.329    0.389   55.582   63.782
  262.700    0.330    0.382   49.938   60.210
  263.000    0.325    0.381   47.431   60.197
  263.300    0.323    0.407   49.947   61.339
  263.600    0.323    0.379   50.579   55.732
  263.900    0.324    0.365   50.584   45.144
  264.200    0.327    0.365   51.217   31.986
  264.500    0.330    0.362   54.359   24.937
  264.800    0.329    0.364   58.758   21.393
  265.100    0.327    0.367   51.858   18.003
  265.400    0.326    0.376   51.237   16.996
  265.700    0.321    0.382   53.123   15.739
  266.000    0.336    0.395   55.011   15.146
  266.300    0.344    0.408   55.016   14.854
  266.600    0.346    0.413   56.904   14.850
  266.900    0.345    0.392   57.536   14.847
  267.200    0.347    0.386   56.286   15.130
  267.500    0.347    0.395   53.778   15.715
  267.800    0.340    0.410   47.506   15.713
  268.100    0.337    0.386   51.904   16.011
  268.400    0.339    0.383   48.771   16.008
  268.700    0.340    0.381   54.425   15.699
  269.000    0.338    0.376   56.940   15.399
  269.300    0.336    0.396   55.691   14.816
  269.600    0.333    0.404   53.183   14.532
  269.900    0.331    0.390   50.676   13.982
  270.200    0.331    0.408   51.310   13.979
  270.500    0.332    0.398   51.313   13.976
  270.800    0.335    0.403   47.551   13.971
  271.100    0.333    0.387   50.067   14.238
  271.400    0.325    0.398   48.188   14.511
  271.700    0.320    0.386   41.288   15.071
  272.000    0.320    0.401   48.825   15.069
  272.300    0.325    0.404   55.107   15.355
  272.600    0.326    0.423   50.090   15.060
  272.900    0.323    0.412   49.468   15.057
  273.200    0.320    0.408   53.866   15.053
  273.500    0.320    0.412   49.477   15.049
  273.800    0.321    0.416   50.110   15.044
  274.100    0.323    0.394   46.347   15.041
  274.400    0.323    0.384   43.213   15.037
  274.700    0.326    0.388   41.334   15.032
  275.000    0.325    0.386   41.339   15.030
  275.300    0.321    0.374   44.482   15.316
  275.600    0.326    0.382   47.626   15.313
  275.900    0.330    0.379   47.003   15.017
  276.200    0.327    0.382   46.381   15.015
  276.500    0.325    0.388   47.012   15.301
  276.800    0.320    0.391   48.273   15.593
  277.100    0.321    0.400   47.651   15.889
  277.400    0.318    0.409   47.654   15.886
  277.700    0.316    0.425   48.285   16.186
  278.000    0.316    0.417   51.429   16.184
  278.300    0.317    0.393   52.062   15.871
  278.600    0.317    0.402   47.672   15.868
  278.900    0.314    0.412   46.423   15.865
  279.200    0.314    0.403   45.798   15.859
  279.500    0.314    0.393   47.687   16.163
  279.800    0.311    0.367   50.203   16.470
  280.100    0.298    0.369   52.718   16.467
  280.400    0.295    0.384   56.489   16.462
  280.700    0.298    0.390   61.517   16.457
  281.000    0.301    0.374   61.520   16.454
  281.300    0.304    0.383   52.109   17.091
  281.600    0.312    0.398   53.369   17.087
  281.900    0.312    0.397   51.489   17.412
  282.199    0.304    0.398   48.985   17.745
  282.499    0.301    0.389   51.500   17.739
  282.799    0.301    0.382   57.782   17.737
  283.099    0.307    0.396   58.414   17.731
  283.399    0.304    0.387   61.558   17.389
  283.699    0.294    0.384   59.679   17.056
  283.999    0.292    0.377   54.662   17.053
  284.299    0.286    0.372   57.177   16.726
  284.599    0.278    0.372   57.182   16.094
  284.899    0.284    0.391   59.699   15.485
  285.199    0.289    0.405   62.213   14.618
  285.499    0.291    0.403   66.612   14.066
  285.799    0.282    0.395   72.895   14.334
  286.099    0.278    0.406   71.016   15.470
  286.399    0.281    0.399   70.392   17.681
  286.699    0.289    0.400   74.792   19.082
  286.999    0.289    0.410   64.124   20.203
  287.299    0.278    0.391   59.734   20.201
  287.599    0.267    0.386   57.227   19.812
  287.899    0.271    0.383   51.583   18.347
  288.199    0.276    0.378   55.981   17.654
  288.499    0.278    0.375   62.266   16.988
  288.799    0.280    0.371   62.269   16.346
  289.099    0.285    0.359   58.508   15.727
  289.399    0.282    0.365   57.256   15.724
  289.699    0.288    0.383   56.005   15.421
  289.999    0.285    0.391   55.382   15.125
  290.299    0.277    0.402   57.897   14.555
  290.599    0.277    0.406   63.552   14.005
  290.899    0.278    0.402   68.579   12.970
  291.199    0.274    0.384   64.189   12.244
  291.499    0.270    0.389   64.194   10.913
  291.799    0.272    0.385   69.222    9.915
  292.099    0.270    0.385   73.619    9.912
  292.399    0.265    0.386   78.018   10.101
  292.699    0.270    0.394   77.395   10.902
  292.999    0.277    0.395   73.634   11.766
  293.299    0.289    0.391   67.360   13.973
  293.599    0.295    0.382   53.554   15.371
  293.899    0.298    0.389   51.047   15.966
  294.199    0.293    0.390   51.053   16.272
  294.499    0.293    0.382   55.452   15.359
  294.799    0.288    0.371   59.223   13.955
  295.099    0.279    0.364   56.088   12.203
  295.399    0.270    0.362   57.349   11.518
  295.699    0.269    0.391   61.748   11.517
  295.999    0.272    0.380   67.402   11.963
  296.299    0.281    0.387   68.662   12.666
  296.599    0.293    0.391   59.251   13.934
  296.899    0.286    0.380   58.000   14.753
  297.199    0.289    0.377   54.866   15.324
  297.499    0.293    0.376   49.220   15.320
  297.799    0.293    0.374   53.620   15.025
  298.099    0.293    0.381   54.879   14.739
  298.399    0.284    0.388   55.512   14.182
  298.699    0.278    0.392   55.516   13.387
  298.999    0.269    0.382   61.799   12.163
  299.299    0.261    0.375   59.292   11.928
  299.599    0.258    0.378   66.203   11.700
  299.899    0.259    0.416   66.207    9.122
  300.199    0.263    0.418   60.562    7.976
  300.499    0.336    0.401   61.194    7.530
  300.799    0.358    0.408   75.637    6.337
  301.099    0.453    0.449   76.270    4.941
  301.399    0.498    0.508   78.158    4.239
  301.699    0.411    0.530   82.557    3.567
  301.999    0.400    0.535   84.445    3.304
  302.299    0.429    0.529   86.961    3.119
  302.599    0.423    0.490   78.804    3.118
  302.899    0.414    0.519   68.137    3.177
  303.199    0.392    0.523   75.676    3.300
  303.499    0.388    0.531   71.913    3.494
  303.799    0.403    0.529   73.800    3.844
  304.099    0.419    0.513   80.083    4.149
