~Version : LASO    vs 4.00
VERS.                2.00:   CWLS Log ASCII Standard -VERSION 2.0
WRAP.                  NO:
~Well Information Block
#MNEM.UNIT       Data                        Description of Mnemonic
#----.----      -------------------------- : -----------------------------
STRT.M            21.0000:
STOP.M           215.4000:
STEP.M             0.2000:
NULL.           -999.2500:
COMP.  MOBIL OIL CANADA                 :COMPANY
WELL.  MOBIL CLARKE OV PROG. 2-81       :WELL
FLD.                                    :FIELD
LOC.   13-28-089-07W4                   :LOCATION
CTRY.  CANADA                           :COUNTRY
PROV.  ALBERTA                          :PROVINCE
SRVC.  SCHLUMBERGER                     :SERVICE COMPANY
DATE.  31-JAN-81                        :LOG DATE
UWI.   AA/13-28-089-07W400              :UNIQUE WELL ID
~Parameter Information Block
#MNEM.UNIT       Data                        Description of Mnemonic
#----.----      -------------------------- : -----------------------------
RUN .                   1                 : Run Number
GL  .M           458.5000                 : Ground Level Elevation
DREF.                  GD                 : Depth Reference
EREF.M           458.5000                 : Elevation of Depth Reference
TDL .M           216.0000                 : Total Depth Logger
TDD .M           216.0000                 : Total Depth Driller
CSGL.M            22.0000                 : Casing Bottom Logger
CSGD.M            22.0000                 : Casing Bottom Driller
CSGS.MM          219.0000                 : Casing Size
CSGW.KG/M          0.0000                 : Casing Weight
BHT .DEGC         12.0000                 : Bottom Hole Temperature
BS  .MM          171.0000                 : Bit Size
DFD .           9999.0000                 : Mud Weight (Density)
DFV .             45.0000                 : Mud Viscosity
DFPH.             11.0000                 : Mud pH
RM  .OHMM          5.7400                 : Mud Resistivity
RMT .DEGC         12.0000                 : Mud Resistivity Temperature
~Curve Information Block
#MNEM.UNIT        API CODE    Curve Description
#---------    ------------    -------------------------------------------
DEPT.M                    :   DEPTH
CALI.MM       42 280  1  1:   3 DENSITY CALIPER
DPHI.V/V                  :   DPHI
DT  .US/M     60 520  0  1:   2 SONIC INTERVAL TRANSIT TIME (COMPENSATED)
GR  .GAPI     42 310  1  1:   4 GAMMA RAY
ILD .OHMM      5 120 46  1:   7 DEEP INDUCTION
ILM .OHMM      5 120 44  1:   8 MEDIUM INDUCTION
NPHI.V/V      42 890  3  1:   5 NEUTRON POROSITY (SANDSTONE)
RHOB.K/M3     42 350  1  1:   6 BULK DENSITY
SFLU.OHMM      5 220  1  1:   9 FOCUSSED RESISTIVITY
SP  .MV        5  10  1  1:   10 SPONTANEOUS POTENTIAL
~A  Depth           CALI        DPHI          DT          GR         ILD         ILM        NPHI        RHOB        SFLU          SP
# ...
45.4000         200.0750      0.1528    478.4000     67.5900     33.7155     33.3142      0.3561   2393.8999     24.3349    -53.4900
45.6000         201.2000      0.1897    470.1200     64.7250     35.6312     37.5517      0.3362   2464.3000     26.6827    -53.2500
45.8000         202.7750      0.1864    447.7200     61.9200     38.0041     41.1747      0.3139   2484.6001     36.1934    -52.7400
46.0000         188.9750      0.1629    393.4000     60.8700     41.6706     46.8414      0.2509   2533.8000     74.9946    -53.4900
46.2000         184.5000      0.1366    383.2000     62.2500     42.0562     47.7123      0.2434   2521.3000     82.3057    -53.7450
46.4000         183.4250      0.1029    379.7600     64.2750     40.9100     45.5648      0.2484   2511.8000     78.6013    -54.2400
46.6000         186.9250      0.0746    379.1200     72.5700     34.9808     34.2476      0.2766   2517.3999     52.8482    -54.9900
46.8000         190.9750      0.0723    384.4400     76.9950     32.4960     29.5549      0.3157   2489.3999     35.8616    -54.9900
47.0000         192.2500      0.0694    406.4000     81.0300     30.4670     26.7319      0.3551   2457.3999     24.1118    -54.7350
47.2000         200.8500      0.1370    471.8000     82.9350     27.2791     25.0628      0.4118   2400.5000     18.6307    -55.2300
47.4000         206.0250      0.1540    491.4000     82.3950     26.0513     24.6054      0.4210   2387.8999     20.2409    -55.2300
47.6000         207.0500      0.1624    500.7200     81.2400     25.3414     23.7154      0.4234   2377.6001     22.8155    -55.4850
47.8000         204.9000      0.1688    503.2800     79.5300     25.3414     23.0691      0.4232   2423.1001     25.0167    -55.4850
48.0000         209.6500      0.1786    505.6800     76.1400     26.7812     24.1563      0.4180   2394.5000     25.0167    -55.4850
48.2000         207.8750      0.1739    511.0000     74.8050     28.3028     25.0628      0.4147   2384.3000     23.8908    -55.4850
48.4000         213.0750      0.1786    515.2800     72.4500     29.9109     26.7319      0.4087   2378.7000     22.8155    -55.7400
48.6000         211.5250      0.1922    523.3600     66.3300     34.0275     32.1092      0.3991   2381.1001     24.5601    -55.2300
48.8000         188.1500      0.1990    519.9600     63.1500     36.6294     35.5328      0.3821   2386.1001     30.3829    -55.4850
49.0000         185.8500      0.1797    506.7600     60.1050     39.7951     39.3215      0.3366   2403.0000     40.0525    -55.7400
49.2000         192.8250      0.1547    448.1600     57.6000     46.9710     45.9865      0.2827   2539.6001     53.3372    -55.7400
49.4000         196.2750      0.1240    434.7200     58.8000     50.0991     49.0490      0.2726   2526.8999     52.8482    -55.2300
49.6000         198.7000      0.1061    429.0000     59.9850     52.4602     51.8358      0.2647   2522.8000     52.8482    -55.2300
49.8000         191.7500      0.0955    416.0000     59.6400     54.4289     54.7810      0.2560   2522.5000     53.8307    -55.7400
50.0000         187.6750      0.0896    413.6400     58.6050     54.4289     54.2788      0.2548   2518.5000     53.8307    -55.4850
50.2000         190.0000      0.0975    408.7600     58.3800     53.9299     53.2881      0.2551   2516.3000     54.3288    -54.2400
50.4000         194.1500      0.1062    413.4400     57.9900     54.4289     54.2788      0.2580   2487.3000     56.3677    -55.4850
50.6000         187.9500      0.1043    414.7200     57.8250     54.9326     55.7995      0.2596   2472.6001     56.3677    -57.7200
50.8000         184.9000      0.1163    421.1200     57.3150     55.4409     56.8368      0.2617   2465.3999     55.3388    -58.2150
51.0000         186.9250      0.1432    425.8000     56.6850     55.9538     56.8368      0.2615   2471.0000     55.8509    -58.4700
51.2000         200.8750      0.1380    421.5200     56.5500     60.7897     58.4292      0.2551   2523.8999     57.9469    -59.2200
51.4000         191.0000      0.1263    423.8800     56.7900     64.2436     60.6220      0.2575   2550.8000     57.4156    -59.2200
51.6000         186.8500      0.1167    426.6400     57.1800     67.8938     65.8612      0.2583   2553.1001     59.0242    -58.7250
51.8000         181.5000      0.1086    428.1200     54.3000     75.8281     82.9144      0.2525   2503.8000     78.6013    -57.9750
52.0000         182.0000      0.1063    436.0000     53.9700     79.4017     90.0803      0.2502   2509.0000     94.4996    -59.2200
52.2000         182.4250      0.1085    443.6800     53.6250     83.1438     94.3257      0.2477   2475.8000     98.9532    -60.4650
52.4000         182.3750      0.1158    456.2400     52.8600     87.8678     92.6040      0.2461   2437.3999     92.7748    -60.7050
52.6000         181.2500      0.1232    462.8400     52.1850     88.6809     94.3257      0.2483   2420.7000     91.9242    -61.7100
52.8000         180.1500      0.1336    469.2400     51.5250     88.6809     92.6040      0.2505   2410.6001     86.9821    -62.2050
53.0000         178.3500      0.1447    478.4000     49.6950     87.8678     90.9138      0.2626   2395.6001     82.3057    -61.7100
53.2000         177.6250      0.1528    475.2000     49.6200     87.0623     92.6040      0.2700   2381.8999     85.3945    -61.7100
53.4000         176.9000      0.1593    474.3600     49.8000     87.0623     91.7550      0.2749   2371.3999     87.7869    -61.7100
53.6000         178.0250      0.1624    479.9200     51.2550     86.2641     94.3257      0.2754   2408.3999     90.2464    -61.7100
53.8000         179.3000      0.1449    480.7600     52.4100     86.2641     94.3257      0.2755   2400.2000     91.0815    -61.2000
54.0000         180.1000      0.1338    482.4400     51.7500     85.4732     93.4609      0.2774   2445.8000     93.6332    -60.7050
54.2000         180.2500      0.1301    476.9200     51.0300     84.6896     91.7550      0.2786   2447.1001     95.3740    -60.2100
54.4000         176.7750      0.1252    476.9200     49.8150     86.2641     89.2545      0.2807   2368.2000     88.5992    -60.2100
54.6000         177.0500      0.1327    481.1600     50.1300     87.0623     90.9138      0.2895   2357.3999     83.8359    -59.7150
54.8000         178.4500      0.1453    495.2400     50.6850     87.8678     93.4609      0.2965   2350.3999     82.3057    -59.7150
55.0000         180.5500      0.1619    512.4800     51.1200     88.6809     99.6850      0.3017   2391.0000     91.9242    -60.4650
55.2000         181.0250      0.1728    505.8800     51.5100     89.5014     97.8656      0.2961   2397.8999     97.1471    -60.4650
55.4000         181.1250      0.1627    497.3600     52.0350     91.1654     97.8656      0.2896   2385.3000     96.2565    -59.9550
55.6000         178.7750      0.1595    487.8000     54.4200    101.8193    101.5383      0.2872   2368.8000     83.0673    -59.2200
55.8000         179.2750      0.1603    495.6800     54.9750    107.6044    115.5127      0.2961   2366.8000     78.6013    -59.2200
56.0000         180.0500      0.1555    502.0000     55.2600    110.6190    140.0329      0.2995   2365.0000     85.3945    -58.7250
56.2000         180.5250      0.1472    464.1200     55.7550    111.6426    160.7792      0.2800   2379.3000    162.8658    -58.2150
56.4000         180.4250      0.1347    423.8800     55.6200    110.6190    147.9892      0.2660   2451.2000    218.8920    -58.2150
56.6000         180.6750      0.1179    395.7600     54.6600    109.6049    132.5043      0.2551   2512.6001    199.4481    -57.9750
56.8000         182.5250      0.0979    426.8400     51.0300     98.1364    115.5127      0.2826   2366.1001    108.5000    -57.7200
57.0000         184.2000      0.0810    484.1600     48.9450     90.3296    106.3237      0.3055   2329.5000     91.9242    -58.7250
57.2000         184.4000      0.0692    525.0800     49.5450     81.6263     96.0793      0.3226   2306.2000     81.5511    -59.7150
57.4000         183.5500      0.1983    551.6800     51.3300     75.1329     86.0260      0.3395   2294.7000     74.9946    -59.7150
