~VERSION INFORMATION
 VERS.                 2.0:   CWLS LOG ASCII STANDARD -VERSION 2.0
 WRAP.                  NO:   ONE LINE PER DEPTH STEP
~WELL INFORMATION BLOCK
#MNEM.UNIT           DATA                    DESCRIPTION OF MNEMONIC
#---------    -------------------            -------------------------------
# Generated from Intellog Unique Number	CN_94_101/WELL/3583
WELL.         10-32-096-12W4                 : Well_name    - WELL
LOC .         AA/10-32-096-12W4/0            : Location     - LOCATION
UWI .         AA/10-32-096-12W400            : Uwi          - UNIQUE WELL ID
ENTR.         JOETTE                         : Entered      - ENTERED BY
SRVC.         SCHLUMBERGER                   : Scn          - SERVICE COMPANY
DATE.         07/31/92                       : Date         - LOG DATE
STRT.F        100                            : top_depth    - START DEPTH
STOP.F        710.236                        : bot_depth    - STOP DEPTH
STEP.F        0.82                           : increment    - STEP LENGTH
 NULL. -999.2500:NULL Value
~CURVE INFORMATION BLOCK
#MNEM UNIT       ERCB CURVE CODE    CURVE DESCRIPTION
#-----------   ------------------   ----------------------------------
DEPT.F        00 001 00 00         : DEPTH        - DEPTH
ILD .OHMM     00 120 00 00         : RESD         - DEEP RESISTIVITY (DIL)
GR  .API      00 310 00 00         : GR           - GAMMA RAY
DPHI.V/V      00 890 00 00         : PHID         - DENSITY POROSITY (SANDSTONE)
~PARAMETER INFORMATION
#MNEM.UNIT           DATA             DESCRIPTION OF MNEMONIC
#---------         -----------     ------------------------------
GL  .M        388.01               : gl           - GROUND LEVEL ELEVATION
EREF.M        389.23               : kb           - ELEVATION OF DEPTH REFERENCE
DATM.M        389.23               : datum        - DATUM ELEVATION
TDD .M        220.37               : tdd          - TOTAL DEPTH DRILLER
RUN .         ONE                  : Run          - RUN NUMBER
ENG .         BILL                 : Engineer     - RECORDING ENGINEER
WIT .         JIM                  : Witness      - WITNESSED BY
MUD .         GEL                  : Mud_type     - MUD TYPE
MATR.         SANDSTONE            : Logunit      - NEUTRON MATRIX
TMAX.F        40                   : BHT          - MAXIMUM RECORDED TEMPERATURE
BHTD.F        723                  : BHTDEP       - MAXIMUM RECORDED TEMPERATURE
RMT .F        40                   : MDTP         - TEMPERATURE OF MUD
MUDD.LB/G     6                    : MWT          - MUD DENSITY
NEUT.         1                    : NEUTRON      - NEUTRON TYPE
RESI.         0                    : RESIST       - RESISTIVITY TYPE
RM  .OHMM     5.51                 : RM           - RESISTIVITY OF MUD
RMC .OHMM     5.51                 : RMC          - RESISTIVITY OF MUD CAKE
RMF .OHMM     5.51                 : RMF          - RESISTIVITY OF MUD FILTRATE
SUFT.F        39.2                 : SUFT         - SURFACE TEMPERATURE
~A  DEPTH     RESD       GR     PHID
# ...
  277.986    3.565   99.507    0.119
  278.806    3.507   94.807    0.130
  279.626    3.328   96.554    0.099
  280.446    3.272   99.597    0.082
  281.266    4.307   97.039    0.112
  282.087    6.441   98.363    0.142
  282.907    8.957  103.548    0.126
  283.727   11.788   93.261    0.114
  284.547   13.917   85.124    0.125
  285.367    9.866   85.581    0.145
  286.188    8.093   90.766    0.120
  287.008    7.962   98.100    0.094
  287.828    9.231   98.141    0.071
  288.648   10.130   98.169    0.069
  289.469   10.920   98.633    0.074
  290.289    9.810   99.077    0.100
  291.109    9.473   97.815    0.111
  291.929   15.516   93.975    0.137
  292.749   19.701   88.846    0.153
  293.570   17.380   82.857    0.143
  294.390   14.518   86.752    0.156
  295.210   11.903   93.233    0.150
  296.030   10.506   97.988    0.140
  296.850   10.331  101.031    0.128
  297.671   10.937  100.199    0.103
  298.491   11.165   96.782    0.098
  299.311   10.209   98.965    0.115
  300.131    8.844  102.001    0.098
  300.951    7.802  103.748    0.105
  301.772    8.255  102.916    0.148
  302.592    9.225  105.522    0.153
  303.412    9.247  103.838    0.130
  304.232    8.615   99.561    0.103
  305.052    8.026   99.166    0.082
  305.873    7.614  100.483    0.071
  306.693    7.227   99.658    0.093
  307.513    6.730   97.967    0.092
  308.333    6.270   97.565    0.080
  309.154    7.135   97.163    0.069
  309.974    7.413   98.050    0.065
  310.794    7.568   98.514    0.094
  311.614    8.611   97.682    0.104
  312.434   10.167   95.554    0.077
  313.255   11.564   91.714    0.058
  314.075    9.147   91.749    0.056
  314.895    4.268   93.918    0.056
  315.715    4.685   96.095    0.066
  316.535    5.332   99.997    0.062
  317.356    5.958  104.752    0.117
  318.176    5.969  102.201    0.137
  318.996    5.770  102.666    0.245
  319.816    5.474  101.827    0.250
  320.636    5.289   97.134    0.256
  321.457    5.299  101.453    0.261
  322.277    5.710  100.198    0.247
  323.097    6.155  102.804    0.230
  323.917    7.816  107.129    0.226
  324.738    5.746  106.734    0.234
  325.558    3.335  102.887    0.230
  326.378    2.044   96.039    0.242
  327.198    2.012   88.761    0.212
  328.018    2.169   77.185    0.196
  328.839    2.337   73.775    0.210
  329.659    2.429   76.381    0.321
  330.479    2.476   76.839    0.319
  331.299    2.528   77.296    0.337
  332.119    2.724   79.043    0.310
  332.940    3.156   82.086    0.312
  333.760    3.725   85.129    0.335
  334.580    6.327   83.437    0.318
  335.400    6.952   79.160    0.288
  336.220    6.593   68.444    0.277
  337.041    6.369   67.183    0.273
  337.861    6.986   69.789    0.264
  338.681   10.074   59.932    0.262
  339.501   11.257   54.373    0.394
  340.322   10.298   56.120    0.143
  341.142    7.438   63.453    0.173
  341.962    4.728   75.951    0.249
  342.782    3.878   86.729    0.250
  343.602    3.816   98.360    0.289
  344.423    3.895   94.090    0.265
  345.243    3.902   94.125    0.265
  346.063    3.982   95.442    0.273
  346.883    4.063   92.032    0.256
  347.703    4.378   90.347    0.258
  348.524    4.981   89.945    0.257
  349.344    4.641   87.824    0.251
  350.164    4.737   86.126    0.246
  350.984    5.490   86.154    0.239
  351.804    5.500   89.189    0.244
  352.625    4.599   90.077    0.249
  353.445    4.283   89.689    0.242
  354.265    4.136   93.147    0.240
  355.085    4.073  103.059    0.250
  355.906    4.079  101.368    0.269
  356.726    4.087   96.239    0.260
  357.546    4.326   92.406    0.260
  358.366    4.745   90.278    0.260
  359.186    5.807   92.891    0.249
  360.007    8.843   91.199    0.247
  360.827   10.827   80.483    0.239
  361.647    8.721   78.792    0.262
  362.467    7.690   82.258    0.256
  363.287   11.293   79.707    0.302
  364.108   18.163   58.670    0.326
  364.928   65.081   39.788    0.346
  365.748   41.367   38.104    0.316
  366.568   35.818   40.273    0.301
  367.388   29.381   42.450    0.300
  368.209   34.080   43.774    0.281
  369.029   28.977   43.372    0.305
  369.849   24.638   45.118    0.324
  370.669   33.644   55.030    0.318
  371.490   58.192   59.362    0.294
  372.310   79.462   63.688    0.289
  373.130   88.793   59.848    0.292
  373.950   59.632   51.710    0.290
  374.770   51.633   46.581    0.287
  375.591   46.386   49.187    0.293
  376.411   78.785   56.091    0.295
  377.231  138.772   56.978    0.296
  378.051  186.171   54.427    0.299
  378.871  207.932   47.149    0.285
  379.692  264.016   41.160    0.283
  380.512  264.525   35.601    0.278
  381.332  177.650   32.198    0.279
  382.152  121.437   41.250    0.273
  382.972   83.052   45.575    0.266
  383.793   84.739   44.743    0.279
  384.613   62.296   45.201    0.299
  385.433   72.224   53.831    0.300
  386.253  215.554   59.452    0.300
  387.073  186.730   58.183    0.294
  387.894   79.556   55.203    0.298
  388.714   74.118   47.065    0.306
  389.534   66.585   47.953    0.290
  390.354   66.713   57.871    0.275
  391.175   64.486   60.921    0.278
  391.995   86.428   60.075    0.296
  392.815  107.814   58.384    0.300
  393.635   95.065   58.412    0.274
  394.455   73.805   46.407    0.269
  395.276   66.304   39.988    0.279
  396.096   58.492   46.462    0.285
  396.916   54.493   48.645    0.273
  397.736   33.416   49.962    0.264
  398.556   28.426   58.585    0.270
  399.377   29.004   69.363    0.269
  400.197   67.107   59.507    0.284
  401.017  105.984   49.643    0.308
  401.837  155.642   44.514    0.330
  402.657   38.412   37.666    0.311
  403.478   28.784   39.842    0.290
  404.298   30.442   59.215    0.279
  405.118   49.859   76.870    0.272
  405.938   71.900   76.897    0.287
  406.759   68.182   71.338    0.302
  407.579   76.225   69.647    0.297
  408.399   91.602   83.871    0.288
  409.219   82.292   95.065    0.281
  410.039   54.270  101.546    0.270
  410.860   51.512   95.557    0.265
  411.680   60.759   79.677    0.278
  412.500   77.147   56.061    0.290
  413.320   77.333   48.353    0.300
  414.140   49.155   52.692    0.307
  414.961   38.862   60.449    0.316
  415.781   29.642   61.343    0.320
  416.601   27.131   62.230    0.301
  417.421   29.771   67.844    0.288
  418.241   32.063   70.021    0.270
  419.062   30.978   66.611    0.277
  419.882   25.411   63.200    0.283
  420.702   24.108   66.666    0.274
  421.522   48.228   69.279    0.259
  422.343  105.713   63.283    0.267
  423.163  127.039   53.864    0.261
  423.983  139.399   48.727    0.301
  424.803  150.277   47.902    0.316
  425.623  180.593   42.336    0.307
  426.444  159.316   37.637    0.303
  427.264   79.945   39.813    0.316
  428.084   52.722   44.152    0.326
  428.904   59.994   43.743    0.304
  429.724   73.491   42.482    0.299
  430.545   69.724   43.369    0.301
  431.365   59.283   45.975    0.313
  432.185   36.336   50.737    0.330
  433.005   28.224   54.632    0.317
  433.825   23.576   57.245    0.303
  434.646   20.056   58.985    0.300
  435.466   18.009   71.912    0.290
  436.286   15.601   76.238    0.280
  437.106   12.566   77.998    0.258
  437.927   11.091   75.870    0.232
  438.747   10.523   77.187    0.183
  439.567   10.358   81.512    0.157
  440.387   10.373   84.548    0.198
  441.207   11.177   82.857    0.176
  442.028   12.958   79.017    0.178
  442.848   12.749   76.466    0.177
  443.668   12.544   76.508    0.173
  444.488   13.040   74.380    0.165
  445.308   13.542   75.267    0.198
  446.129   14.329   77.450    0.215
  446.949   15.440   72.744    0.227
  447.769   14.917   67.192    0.242
  448.589   13.904   68.072    0.231
  449.409   14.186   66.380    0.214
  450.230   15.293   66.845    0.221
  451.050   15.890   69.458    0.219
  451.870   15.913   71.634    0.219
  452.690   15.944   72.085    0.227
  453.510   15.404   66.956    0.218
  454.331   14.621   66.561    0.219
  455.151   16.338   68.730    0.223
