~VERSION INFORMATION
 VERS.                 2.0:   CWLS LOG ASCII STANDARD -VERSION 2.0
 WRAP.                  NO:   ONE LINE PER DEPTH STEP
~WELL INFORMATION BLOCK
#MNEM.UNIT           DATA                    DESCRIPTION OF MNEMONIC
#---------    -------------------            -------------------------------
# Generated from Intellog Unique Number	CN_91_93/WELL/3934
WELL.         16-21-092-08W4                 : Well_name    - WELL
LOC .         AA/16-21-092-08W4/0            : Location     - LOCATION
UWI .         AA/16-21-092-08W400            : Uwi          - UNIQUE WELL ID
ENTR.         JOETTE                         : Entered      - ENTERED BY
SRVC.         SCHLUMBERGER                   : Scn          - SERVICE COMPANY
DATE.         03/16/92                       : Date         - LOG DATE
STRT.F        30                             : top_depth    - START DEPTH
STOP.F        550.013                        : bot_depth    - STOP DEPTH
STEP.F        0.8202                         : increment    - STEP LENGTH
 NULL. -999.2500:NULL Value
~CURVE INFORMATION BLOCK
#MNEM UNIT       ERCB CURVE CODE    CURVE DESCRIPTION
#-----------   ------------------   ----------------------------------
DEPT.F        00 001 00 00         : DEPTH        - DEPTH
GR  .API      00 310 00 00         : GR           - GAMMA RAY
CALI.IN       00 280 01 00         : CAL          - CALIPER
NPHI.V/V      00 330 00 00         : PHIN         - NEUTRON POROSITY (SANDSTONE)
ILD .OHMM     00 120 00 00         : RESD         - DEEP RESISTIVITY (DIL)
~PARAMETER INFORMATION
#MNEM.UNIT           DATA             DESCRIPTION OF MNEMONIC
#---------         -----------     ------------------------------
GL  .M        433.73               : gl           - GROUND LEVEL ELEVATION
EREF.M        434.95               : kb           - ELEVATION OF DEPTH REFERENCE
DATM.M        434.95               : datum        - DATUM ELEVATION
TDD .M        168.859              : tdd          - TOTAL DEPTH DRILLER
RUN .         ONE                  : Run          - RUN NUMBER
ENG .         BILL                 : Engineer     - RECORDING ENGINEER
WIT .         JIM                  : Witness      - WITNESSED BY
MUD .         GEL                  : Mud_type     - MUD TYPE
MATR.         SANDSTONE            : Logunit      - NEUTRON MATRIX
TMAX.F        50                   : BHT          - MAXIMUM RECORDED TEMPERATURE
BHTD.F        554                  : BHTDEP       - MAXIMUM RECORDED TEMPERATURE
RMT .F        50                   : MDTP         - TEMPERATURE OF MUD
MUDD.LB/G     9.9                  : MWT          - MUD DENSITY
NEUT.         1                    : NEUTRON      - NEUTRON TYPE
RESI.         0                    : RESIST       - RESISTIVITY TYPE
RM  .OHMM     2.5                  : RM           - RESISTIVITY OF MUD
RMC .OHMM     1.8                  : RMC          - RESISTIVITY OF MUD CAKE
RMF .OHMM     1.8                  : RMF          - RESISTIVITY OF MUD FILTRATE
SUFT.F        39.2                 : SUFT         - SURFACE TEMPERATURE
~A  DEPTH       GR      CAL     PHIN     RESD
# ...
  315.433   75.172    8.072    0.384    6.388
  316.253   76.368    8.074    0.373    3.313
  317.073   70.003    8.075    0.373    3.192
  317.894   64.796    8.078    0.407    3.135
  318.714   61.925    8.119    0.427    3.320
  319.534   61.964    8.121    0.461    3.583
  320.354   62.562    8.123    0.505    3.940
  321.175   62.601    8.087    0.506    4.171
  321.995   61.468    8.012    0.494    4.500
  322.815   59.172    8.013    0.500    5.139
  323.635   58.621    7.977    0.475    5.648
  324.455   60.407    7.941    0.461    6.447
  325.276   62.775    7.944    0.419    8.240
  326.096   64.553    7.945    0.411    9.410
  326.916   65.749    7.908    0.398    8.099
  327.736   66.362    7.911    0.382    6.592
  328.556   64.073    7.913    0.390    8.915
  329.377   61.194    7.915    0.404   11.389
  330.197   59.479    7.918    0.398   15.986
  331.017   57.190    7.920    0.377   14.299
  331.837   56.639    7.922    0.338   12.782
  332.657   58.992    7.924    0.294    7.558
  333.478   63.688    7.887    0.321    5.707
  334.298   67.220    7.890    0.374    5.931
  335.118   68.998    7.853    0.427    6.281
  335.938   70.202    7.856    0.428    6.404
  336.759   70.234    7.858    0.434    6.174
  337.579   70.265    7.861    0.441    5.730
  338.399   70.887    7.862    0.447    5.843
  339.219   70.918    7.864    0.448    6.424
  340.039   68.613    7.905    0.442    6.805
  340.860   65.160    7.908    0.419    6.559
  341.680   64.602    7.910    0.420    6.205
  342.500   66.387    7.913    0.429    5.760
  343.320   68.165    7.914    0.437    5.551
  344.140   68.779    7.916    0.418    5.769
  344.961   68.244    7.919    0.417    6.109
  345.781   68.276    7.921    0.418    7.105
  346.601   67.725    7.884    0.419    8.425
  347.421   64.256    7.887    0.421    7.819
  348.241   62.549    7.851    0.417    7.125
  349.062   62.581    7.852    0.402    7.689
  349.882   63.194    7.855    0.392    8.140
  350.702   63.226    7.857    0.373    8.148
  351.522   63.847    7.821    0.389    6.630
  352.343   67.372    7.783    0.402    6.763
  353.163   69.732    7.671    0.403    7.575
  353.983   66.270    7.633    0.389    9.864
  354.803   59.906    7.596    0.371   12.843
  355.623   55.863    7.559    0.300   17.695
  356.444   50.655    7.524    0.255   29.415
  357.264   48.366    7.525    0.260   20.599
  358.084   45.479    7.528    0.274   20.624
  358.904   39.689    7.530    0.272   21.028
  359.724   38.572    7.494    0.271   20.653
  360.545   40.932    7.495    0.273   18.125
  361.365   43.285    7.498    0.279   15.029
  362.185   46.825    7.461    0.287   11.135
  363.005   48.611    7.465    0.291   15.056
  363.825   49.209    7.466    0.273   29.093
  364.646   47.502    7.468    0.234   96.936
  365.466   44.040    7.470    0.214  248.313
  366.286   41.751    7.434    0.242  453.438
  367.106   41.201    7.397    0.255  537.534
  367.927   41.814    7.322    0.276  602.176
  368.747   43.010    7.323    0.295  528.371
  369.567   43.042    7.248    0.305  430.040
  370.387   43.655    7.212    0.308  438.636
  371.207   44.859    7.176    0.317  491.384
  372.028   44.891    7.138    0.324  219.189
  372.848   40.265    7.141    0.334  129.611
  373.668   33.311    7.143    0.352   65.930
  374.488   36.253    7.185    0.366   32.919
  375.308   43.868    7.265    0.364   23.490
  376.129   48.549    7.306    0.344   19.851
  376.949   54.992    7.307    0.326   19.875
  377.769   59.681    7.310    0.309   20.648
  378.589   64.951    7.235    0.293   22.278
  379.409   64.416    7.198    0.291   24.957
  380.230   62.702    7.122    0.294   28.495
  381.050   60.405    7.047    0.301   34.413
  381.870   56.353    7.011    0.307   39.291
  382.690   54.639    6.974    0.299   37.174
  383.510   53.522    6.976    0.296   34.510
  384.331   53.553    6.979    0.296   37.932
  385.151   54.749    6.981    0.293   42.503
  385.971   55.945    6.983    0.289   42.537
  386.791   55.394    6.985    0.280   41.000
  387.612   54.261    7.026    0.274   38.069
  388.432   53.711    7.068    0.277   37.390
  389.252   53.742    7.147    0.287   37.413
  390.072   59.603    7.188    0.299   37.458
  390.892   66.038    7.230    0.302   38.199
  391.713   68.406    7.231    0.296   38.947
  392.533   66.691    7.234    0.289   41.247
  393.353   63.230    7.197    0.284   43.674
  394.173   57.440    7.200    0.284   47.121
  394.993   53.397    7.201    0.284   50.841
  395.814   49.943    7.204    0.278   61.413
  396.634   47.654    7.206    0.268   87.855
  397.454   45.357    7.208    0.270   87.925
  398.274   41.888    7.211    0.280   96.665
  399.094   37.845    7.253    0.287  110.344
  399.915   34.973    7.254    0.300  123.613
  400.735   33.258    7.256    0.303  128.476
  401.555   30.395    7.297    0.302  136.036
  402.375   29.247    7.339    0.298  158.232
  403.196   28.122    7.419    0.304  209.925
  404.016   26.997    7.420    0.317  170.858
  404.836   31.096    7.461    0.337   90.258
  405.656   52.674    7.502    0.358   15.440
  406.476   59.109    7.428    0.356   16.662
  407.297   64.388    7.352    0.347   14.620
  408.117   62.673    7.161    0.376   13.319
  408.937   69.690    7.123    0.377   13.583
  409.757   72.058    7.048    0.360   17.036
  410.577   62.193    7.089    0.343   17.702
  411.398   51.164    7.169    0.340   19.096
  412.218   54.689    7.249    0.347   22.220
  413.038   57.631    7.290    0.336   18.428
  413.858   63.492    7.370    0.333   17.428
  414.678   69.927    7.372    0.350   14.731
  415.499   76.362    7.374    0.361   12.683
  416.319   76.983    7.261    0.331   15.611
  417.139   67.701    7.223    0.315   19.951
  417.959   59.582    7.187    0.322   21.929
  418.780   59.040    7.150    0.339   21.141
  419.600   61.400    7.114    0.358   20.002
  420.420   63.768    7.155    0.375   18.223
  421.240   63.217    7.157    0.370   17.565
  422.060   60.330    7.237    0.360   18.948
  422.881   56.869    7.317    0.349   19.697
  423.701   51.095    7.358    0.360   18.985
  424.521   49.954    7.399    0.353   18.300
  425.341   51.732    7.479    0.322   16.988
  426.161   54.092    7.519    0.328   16.371
  426.982   59.953    7.561    0.345   13.327
  427.802   66.388    7.602    0.333   13.090
  428.622   68.756    7.643    0.319   13.602
  429.442   65.877    7.645    0.305   15.238
  430.262   63.580    7.647    0.308   17.727
  431.083   61.865    7.651    0.311   17.748
  431.903   61.912    7.613    0.312   16.473
  432.723   61.944    7.615    0.312   15.289
  433.543   63.132    7.618    0.320   14.740
  434.364   63.745    7.620    0.336   14.208
  435.184   62.613    7.622    0.341   14.489
  436.004   59.742    7.624    0.332   16.853
  436.824   57.452    7.587    0.327   19.603
  437.644   56.910    7.591    0.321   20.378
  438.465   56.925    7.592    0.321   18.561
  439.285   60.466    7.555    0.322   15.983
  440.105   63.408    7.480    0.323   14.027
  440.925   65.760    7.444    0.320   14.041
  441.745   67.546    7.446    0.312   14.316
  442.566   68.167    7.409    0.301   14.879
  443.386   66.453    7.372    0.288   15.174
  444.206   62.401    7.336    0.298   16.368
  445.026   57.201    7.339    0.314   22.979
  445.846   53.740    7.340    0.344   25.269
  446.667   52.607    7.343    0.336   23.016
  447.487   55.557    7.345    0.306   19.819
  448.307   55.589    7.309    0.303   20.215
  449.127   49.807    7.310    0.312   23.514
  449.948   46.928    7.275    0.303   28.937
  450.768   47.542    7.237    0.298   28.966
  451.588   49.320    7.240    0.316   23.575
  452.408   51.105    7.203    0.321   19.552
  453.228   54.048    7.206    0.317   19.571
  454.049   56.400    7.209    0.318   18.513
  454.869   57.611    7.171    0.313   17.183
  455.689   54.142    7.173    0.312   20.756
  456.509   48.935    7.176    0.296   30.824
  457.329   50.713    7.179    0.299   35.200
