~VERSION INFORMATION
 VERS.                 2.0:   CWLS LOG ASCII STANDARD -VERSION 2.0
 WRAP.                  NO:   ONE LINE PER DEPTH STEP
~WELL INFORMATION BLOCK
#MNEM.UNIT           DATA                    DESCRIPTION OF MNEMONIC
#---------    -------------------            -------------------------------
# Generated from Intellog Unique Number	CX_WELLS/WELL/2326
WELL.         13-01-088-07W4                 : Well_name    - WELL
LOC .         AA/13-01-088-07W4/0            : Location     - LOCATION
UWI .         AA/13-01-088-07W400            : Uwi          - UNIQUE WELL ID
ENTR.         RJA                            : Entered      - ENTERED BY
SRVC.         SCHLUMBERGER                   : Scn          - SERVICE COMPANY
STRT.M        35                             : top_depth    - START DEPTH
STOP.M        150                            : bot_depth    - STOP DEPTH
STEP.M        0.25                           : increment    - STEP LENGTH
 NULL. -999.2500:NULL Value
~CURVE INFORMATION BLOCK
#MNEM UNIT       ERCB CURVE CODE    CURVE DESCRIPTION
#-----------   ------------------   ----------------------------------
DEPT.M        00 001 00 00         : DEPTH        - DEPTH
GR  .API      00 310 00 00         : GR           - GAMMA RAY
NPHI.V/V      00 330 00 00         : PHIN         - NEUTRON POROSITY (SANDSTONE)
DPHI.V/V      00 890 00 00         : PHID         - DENSITY POROSITY (SANDSTONE)
ILD .OHMM     00 120 00 00         : RESD         - DEEP RESISTIVITY (DIL)
~PARAMETER INFORMATION
#MNEM.UNIT           DATA             DESCRIPTION OF MNEMONIC
#---------         -----------     ------------------------------
GL  .M        408.81               : gl           - GROUND LEVEL ELEVATION
EREF.M        410.31               : kb           - ELEVATION OF DEPTH REFERENCE
DATM.M        410.31               : datum        - DATUM ELEVATION
TDD .M        151                  : tdd          - TOTAL DEPTH DRILLER
RUN .         ONE                  : Run          - RUN NUMBER
ENG .         BILL                 : Engineer     - RECORDING ENGINEER
WIT .         JIM                  : Witness      - WITNESSED BY
MUD .         GEL                  : Mud_type     - MUD TYPE
MATR.         SANDSTONE            : Logunit      - NEUTRON MATRIX
TMAX.C        18                   : BHT          - MAXIMUM RECORDED TEMPERATURE
BHTD.M        157                  : BHTDEP       - MAXIMUM RECORDED TEMPERATURE
MATR.         1                    : LOGUNIT      - NEUTRON MATRIX
RMT .C        25                   : MDTP         - TEMPERATURE OF MUD
NEUT.         1                    : NEUTRON      - NEUTRON TYPE
RESI.         0                    : RESIST       - RESISTIVITY TYPE
RMC .OHMM     0.25                 : RMC          - RESISTIVITY OF MUD CAKE
RMF .OHMM     0.25                 : RMF          - RESISTIVITY OF MUD FILTRATE
SUFT.C        15                   : SUFT         - SURFACE TEMPERATURE
~A  DEPTH       GR     PHIN     PHID     RESD
# ...
   78.500   92.459    0.436    0.201    9.830
   78.750   95.493    0.444    0.213    9.816
   79.000   95.436    0.466    0.231    9.435
   79.250   95.323    0.444    0.221    8.737
   79.500   94.640    0.432    0.250    8.406
   79.750   93.939    0.496    0.260    7.787
   80.000   86.353    0.544    0.296    7.080
   80.250   78.767    0.566    0.323    5.753
   80.500   74.273    0.579    0.342    3.728
   80.750   79.242    0.580    0.342    3.455
   81.000   81.043    0.573    0.326    3.322
   81.250   80.342    0.563    0.321    3.318
   81.500   75.866    0.560    0.315    3.437
   81.750   72.017    0.554    0.303    3.501
   82.000   71.941    0.540    0.291    3.767
   82.250   73.724    0.509    0.281    4.056
   82.500   74.919    0.485    0.266    4.532
   82.750   77.346    0.465    0.251    4.880
   83.000   79.129    0.454    0.241    5.253
   83.250   79.717    0.453    0.248    5.760
   83.500   79.016    0.470    0.271    5.751
   83.750   77.062    0.518    0.276    5.639
   84.000   76.361    0.539    0.334    5.423
   84.250   77.518    0.485    0.337    5.214
   84.500   79.320    0.458    0.297    5.719
   84.750   79.889    0.442    0.269    6.513
   85.000   80.420    0.435    0.249    6.883
   85.250   78.466    0.400    0.211    6.620
   85.500   79.017    0.458    0.235    6.016
   85.750   82.715    0.513    0.286    5.366
   86.000   86.394    0.536    0.290    4.790
   86.250   88.822    0.549    0.257    4.273
   86.500   88.120    0.550    0.259    4.267
   86.750   86.793    0.550    0.259    4.181
   87.000   88.557    0.550    0.260    4.175
   87.250   89.771    0.551    0.265    4.091
   87.500   93.431    0.551    0.267    4.086
   87.750   93.355    0.551    0.265    4.078
   88.000   90.776    0.551    0.263    4.076
   88.250   86.320    0.551    0.260    4.067
   88.500   86.870    0.551    0.258    4.063
   88.750   89.297    0.545    0.258    4.055
   89.000   91.099    0.539    0.259    4.128
   89.250   89.772    0.542    0.256    4.197
   89.500   87.800    0.549    0.251    4.193
   89.750   86.472    0.557    0.248    4.188
   90.000   85.771    0.557    0.246    4.262
   90.250   85.714    0.556    0.250    4.336
   90.500   84.974    0.562    0.253    4.493
   90.750   83.666    0.555    0.259    4.575
   91.000   77.958    0.439    0.264    4.833
   91.250   72.249    0.414    0.255    5.202
   91.500   65.896    0.388    0.255    7.283
   91.750   67.679    0.387    0.263   10.789
   92.000   69.500    0.389    0.272   13.245
   92.250   72.534    0.389    0.281   15.660
   92.500   71.207    0.389    0.280   18.509
   92.750   68.021    0.378    0.268   19.917
   93.000   61.687    0.349    0.109   19.170
   93.250   69.121    0.346    0.139   17.428
   93.500   74.052    0.380    0.193   15.250
   93.750   77.106    0.411    0.250   14.395
   94.000   78.263    0.414    0.276   13.588
   94.250   79.439    0.429    0.283   13.069
   94.500   79.363    0.449    0.283   12.812
   94.750   78.643    0.421    0.271   13.027
   95.000   77.960    0.388    0.254   13.511
   95.250   77.277    0.353    0.238   15.100
   95.500   75.324    0.335    0.234   18.537
   95.750   72.119    0.347    0.236   20.724
   96.000   73.295    0.358    0.241   22.731
   96.250   75.097    0.369    0.243   24.469
   96.500   76.273    0.365    0.254   26.340
   96.750   75.514    0.361    0.262   27.299
   97.000   74.225    0.366    0.272   27.260
   97.250   71.020    0.387    0.282   27.232
   97.500   65.919    0.382    0.273   27.174
   97.750   62.088    0.364    0.250   26.650
   98.000   58.238    0.354    0.240   26.108
   98.250   60.685    0.346    0.238   25.596
   98.500   63.738    0.346    0.239   25.551
   98.750   63.663    0.346    0.250   25.515
   99.000   61.709    0.331    0.293   25.488
   99.250   59.737    0.312    0.299   27.417
   99.500   67.191    0.303    0.292   29.533
   99.750   72.747    0.301    0.284   34.270
  100.000   72.046    0.302    0.294   42.866
  100.250   65.086    0.300    0.305   63.485
  100.500   57.500    0.297    0.301   85.630
  100.750   50.521    0.292    0.299   93.922
  101.000   49.194    0.293    0.303   99.222
  101.250   52.854    0.297    0.310  104.785
  101.500   55.926    0.292    0.314  108.678
  101.750   58.354    0.290    0.319  116.944
  102.000   57.634    0.289    0.315  133.222
  102.250   54.429    0.289    0.309  160.500
  102.500   50.617    0.305    0.301  196.956
  102.750   46.160    0.327    0.301  216.106
  103.000   39.163    0.325    0.311  250.674
  103.250   38.461    0.340    0.307  285.566
  103.500   40.263    0.385    0.301  285.164
  103.750   42.065    0.399    0.293  231.643
  104.000   42.596    0.384    0.286  144.636
  104.250   43.809    0.364    0.290  101.110
  104.500   45.592    0.332    0.318   88.506
  104.750   45.517    0.320    0.332   86.738
  105.000   49.196    0.315    0.331   83.454
  105.250   51.624    0.307    0.324   71.692
  105.500   54.070    0.299    0.312   61.610
  105.750   59.627    0.298    0.306   47.307
  106.000   67.080    0.303    0.302   38.414
  106.250   72.618    0.314    0.289   34.275
  106.500   75.065    0.326    0.272   32.353
  106.750   73.718    0.354    0.218   29.403
  107.000   73.036    0.380    0.208   27.247
  107.250   68.541    0.370    0.223   24.772
  107.500   64.730    0.351    0.251   22.102
  107.750   60.273    0.332    0.264   20.855
  108.000   55.816    0.314    0.280   21.221
  108.250   50.715    0.308    0.290   24.166
  108.500   50.620    0.310    0.292   26.022
  108.750   53.693    0.315    0.288   29.083
  109.000   63.023    0.322    0.264   27.972
  109.250   69.187    0.346    0.220   24.485
  109.500   67.841    0.364    0.212   21.847
  109.750   66.551    0.388    0.235   18.425
  110.000   60.824    0.399    0.256   16.434
  110.250   56.993    0.383    0.279   17.690
  110.500   58.169    0.365    0.284   18.695
  110.750   68.752    0.351    0.278   18.669
  111.000   76.793    0.380    0.256   18.296
  111.250   73.607    0.393    0.230   17.270
  111.500   67.880    0.371    0.271   15.398
  111.750   61.546    0.356    0.298   15.095
  112.000   67.103    0.367    0.292   15.360
  112.250   72.015    0.391    0.266   16.221
  112.500   75.087    0.400    0.248   15.902
  112.750   75.618    0.409    0.235   15.005
  113.000   71.806    0.408    0.297   14.159
  113.250   67.350    0.402    0.310   13.886
  113.500   57.868    0.388    0.317   13.608
  113.750   49.656    0.381    0.320   16.395
  114.000   46.451    0.370    0.323   19.751
  114.250   45.731    0.364    0.324   26.632
  114.500   43.758    0.351    0.329   32.693
  114.750   41.805    0.329    0.331   36.538
  115.000   48.651    0.313    0.322   33.218
  115.250   57.963    0.317    0.311   28.547
  115.500   66.649    0.352    0.304   22.335
  115.750   70.955    0.382    0.283   17.143
  116.000   74.615    0.394    0.262   14.733
  116.250   75.810    0.411    0.221   12.190
  116.500   77.612    0.400    0.215   11.086
  116.750   73.781    0.372    0.270   10.079
  117.000   80.589    0.371    0.252    9.514
  117.250   84.269    0.405    0.225    9.141
  117.500   86.070    0.459    0.224    8.964
  117.750   80.362    0.461    0.307    9.470
  118.000   72.151    0.404    0.317   10.989
  118.250   61.417    0.344    0.309   13.495
  118.500   55.083    0.298    0.296   17.857
  118.750   50.607    0.303    0.293   21.514
  119.000   49.299    0.317    0.311   22.305
  119.250   51.726    0.343    0.292   20.655
  119.500   56.031    0.366    0.271   19.504
  119.750   60.337    0.369    0.261   18.068
  120.000   59.009    0.332    0.333   17.042
  120.250   52.637    0.305    0.347   17.675
  120.500   49.451    0.287    0.357   20.906
  120.750   43.724    0.285    0.372   26.645
  121.000   39.912    0.291    0.383   32.709
  121.250   36.688    0.349    0.405   51.249
  121.500   39.116    0.383    0.405   71.770
  121.750   41.525    0.393    0.402  104.317
