~VERSION INFORMATION
 VERS.                 2.0:   CWLS LOG ASCII STANDARD -VERSION 2.0
 WRAP.                  NO:   ONE LINE PER DEPTH STEP
~WELL INFORMATION BLOCK
#MNEM.UNIT           DATA                    DESCRIPTION OF MNEMONIC
#---------    -------------------            -------------------------------
# Generated from Intellog Unique Number	CS_77_79/WELL/964
WELL.         PEX PCEJ LEISMER OV            : Well_name    - WELL
LOC .         AA/10-26-079-08W4/0            : Location     - LOCATION
UWI .         AA/10-26-079-08W4/0            : Uwi          - UNIQUE WELL ID
ENTR.         JHS                            : Entered      - ENTERED BY
SRVC.         SCHLUMBERGER                   : Scn          - SERVICE COMPANY
STRT.M        175                            : top_depth    - START DEPTH
STOP.M        400                            : bot_depth    - STOP DEPTH
STEP.M        0.25                           : increment    - STEP LENGTH
 NULL. -999.2500:NULL Value
~CURVE INFORMATION BLOCK
#MNEM UNIT       ERCB CURVE CODE    CURVE DESCRIPTION
#-----------   ------------------   ----------------------------------
DEPT.M        00 001 00 00         : DEPTH        - DEPTH
DPHI.V/V      00 890 00 00         : PHID         - DENSITY POROSITY (LIMESTONE)
NPHI.V/V      00 330 00 00         : PHIN         - NEUTRON POROSITY (LIMESTONE)
GR  .API      00 310 00 00         : GR           - GAMMA RAY
ILD .OHMM     00 120 00 00         : RESD         - DEEP RESISTIVITY (DIL)
RHOB.KG/M3    00 350 00 00         : DENS         - BULK DENSITY
~PARAMETER INFORMATION
#MNEM.UNIT           DATA             DESCRIPTION OF MNEMONIC
#---------         -----------     ------------------------------
GL  .M        614.8                : gl           - GROUND LEVEL ELEVATION
EREF.M        618.45               : kb           - ELEVATION OF DEPTH REFERENCE
DATM.M        618.45               : datum        - DATUM ELEVATION
TDD .M        407.6                : tdd          - TOTAL DEPTH DRILLER
RUN .         ONE                  : Run          - RUN NUMBER
ENG .         BILL                 : Engineer     - RECORDING ENGINEER
WIT .         JIM                  : Witness      - WITNESSED BY
MUD .         GEL                  : Mud_type     - MUD TYPE
MATR.         LIMESTONE            : Logunit      - NEUTRON MATRIX
TMAX.C        19                   : BHT          - MAXIMUM RECORDED TEMPERATURE
BHTD.M        407.6                : BHTDEP       - MAXIMUM RECORDED TEMPERATURE
MATR.         1                    : LOGUNIT      - NEUTRON MATRIX
RMT .C        25                   : MDTP         - TEMPERATURE OF MUD
NEUT.         1                    : NEUTRON      - NEUTRON TYPE
RESI.         0                    : RESIST       - RESISTIVITY TYPE
RMC .OHMM     0.25                 : RMC          - RESISTIVITY OF MUD CAKE
RMF .OHMM     0.25                 : RMF          - RESISTIVITY OF MUD FILTRATE
SUFT.C        15                   : SUFT         - SURFACE TEMPERATURE
~A  DEPTH     PHID     PHIN       GR     RESD     DENS
# ...
  357.500    0.255    0.335   63.866   21.149 2274.470
  357.750    0.230    0.313   77.491   17.203 2316.480
  358.000    0.206    0.320   89.257   13.477 2358.500
  358.250    0.193    0.306   96.064   12.501 2379.490
  358.500    0.211    0.295  101.627   11.816 2350.020
  358.750    0.227    0.289  103.480   11.595 2322.650
  359.000    0.225    0.295   96.031   11.379 2324.720
  359.250    0.202    0.304   96.639   11.167 2364.630
  359.500    0.187    0.332  106.546   10.755 2389.820
  359.750    0.182    0.352  112.733   11.165 2398.200
  360.000    0.203    0.341  105.281   11.592 2362.420
  360.250    0.225    0.340  100.934   12.732 2324.540
  360.500    0.228    0.346   92.245   13.984 2320.300
  360.750    0.237    0.353   91.614   16.248 2305.550
  361.000    0.267    0.346   84.785   18.529 2252.950
  361.250    0.297    0.336   79.195   19.601 2202.460
  361.500    0.305    0.331   72.367   21.128 2187.710
  361.750    0.309    0.335   66.157   21.127 2181.360
  362.000    0.302    0.342   64.288   19.597 2193.940
  362.250    0.269    0.349   72.335   18.178 2250.680
  362.500    0.235    0.344   79.756   16.862 2307.400
  362.750    0.211    0.346   83.469   15.642 2349.420
  363.000    0.184    0.354   87.797   15.350 2395.640
  363.250    0.184    0.358   85.924   15.936 2395.610
  363.500    0.258    0.349   84.676   16.545 2269.420
  363.750    0.277    0.357   80.946   15.934 2235.750
  364.000    0.286    0.365   75.973   15.346 2221.000
  364.250    0.290    0.356   73.483   15.060 2214.650
  364.500    0.281    0.350   73.475   15.344 2229.330
  364.750    0.292    0.329   72.845   16.853 2210.370
  365.000    0.296    0.318   49.901   19.218 2204.020
  365.250    0.290    0.312   37.492   21.508 2214.510
  365.500    0.287    0.316   41.818   25.947 2218.680
  365.750    0.289    0.325   46.767   29.039 2216.550
  366.000    0.282    0.332   52.955   29.038 2227.020
  366.250    0.279    0.351   61.002   27.965 2233.300
  366.500    0.289    0.346   65.330   29.034 2216.440
  366.750    0.291    0.327   51.683   33.736 2212.200
  367.000    0.292    0.339   52.292   38.471 2210.060
  367.250    0.306    0.346   59.098   37.752 2186.900
  367.500    0.306    0.365   60.946   35.020 2186.860
  367.750    0.302    0.370   57.837   33.100 2193.140
  368.000    0.307    0.379   60.304   32.483 2184.700
  368.250    0.312    0.356   70.210   31.284 2176.250
  368.500    0.317    0.347   75.779   30.700 2167.800
  368.750    0.321    0.366   81.345   29.567 2161.450
  369.000    0.321    0.368   74.516   27.427 2161.420
  369.250    0.313    0.364   77.603   25.441 2174.010
  369.500    0.296    0.353   81.314   24.046 2203.400
  369.750    0.300    0.348   87.498   22.728 2197.060
  370.000    0.299    0.343   86.250   20.691 2199.130
  370.250    0.278    0.345   88.096   18.486 2234.840
  370.500    0.264    0.344   89.326   15.611 2257.930
  370.750    0.257    0.342   86.217   14.481 2270.500
  371.000    0.228    0.353   92.404   13.183 2320.940
  371.250    0.183    0.332   96.110   11.559 2396.590
  371.500    0.269    0.360  102.917   10.327 2249.380
  371.750    0.278    0.383  110.966    9.761 2234.630
  372.000    0.251    0.378  128.309    8.559 2280.850
  372.250    0.240    0.355  140.695    7.505 2299.740
  372.500    0.235    0.351  154.318    7.093 2308.110
  372.750    0.242    0.351  157.406    7.227 2295.460
  373.000    0.250    0.348  153.058    7.503 2282.810
  373.250    0.236    0.351  135.692    8.241 2305.900
  373.500    0.222    0.346  121.426    9.051 2331.090
  373.750    0.213    0.338  112.736    9.756 2345.780
  374.000    0.223    0.330  107.768   10.321 2328.920
  374.250    0.235    0.319   99.077   10.320 2307.860
  374.500    0.238    0.306  100.307    9.754 2303.620
  374.750    0.232    0.300  100.297    9.572 2314.100
  375.000    0.227    0.305   99.045    9.394 2322.470
  375.250    0.227    0.318   96.554    9.219 2322.430
  375.500    0.228    0.327   96.545    9.047 2320.290
  375.750    0.229    0.330   99.632    8.878 2318.170
  376.000    0.229    0.332  103.339    8.550 2318.130
  376.250    0.230    0.346  107.047    8.550 2315.990
  376.500    0.229    0.355  109.517    8.234 2318.060
  376.750    0.216    0.348  105.167    7.930 2341.150
  377.000    0.196    0.351  110.732    7.930 2374.750
  377.250    0.185    0.349  115.060    7.782 2393.640
  377.500    0.179    0.349  117.530    7.781 2404.120
  377.750    0.181    0.335  119.379    7.781 2399.880
  378.000    0.184    0.329  119.368    7.780 2395.640
  378.250    0.189    0.326  121.216    7.780 2387.190
  378.500    0.189    0.329  115.004    7.635 2387.160
  378.750    0.185    0.336  114.996    7.634 2393.440
  379.000    0.178    0.338  121.182    7.492 2406.020
  379.250    0.177    0.344  121.793    7.491 2408.080
  379.500    0.180    0.341  119.920    7.491 2401.740
  379.750    0.180    0.333  120.530    7.632 2401.700
  380.000    0.182    0.329  108.741    7.776 2399.570
  380.250    0.185    0.339  107.491    7.923 2393.220
  380.500    0.184    0.357  110.578    7.923 2395.290
  380.750    0.189    0.339  113.669    8.072 2386.840
  381.000    0.195    0.330  112.417    8.072 2376.290
  381.250    0.200    0.325  112.403    8.071 2367.850
  381.500    0.190    0.339  110.537    8.071 2384.640
  381.750    0.188    0.329  111.762    8.070 2388.810
  382.000    0.193    0.345  106.794    8.223 2380.360
  382.250    0.194    0.333  108.020    8.222 2378.220
  382.500    0.188    0.324  106.154    8.222 2388.710
  382.750    0.178    0.331  110.482    8.221 2405.490
  383.000    0.182    0.354  121.008    8.221 2399.140
  383.250    0.189    0.356  120.994    8.376 2386.500
  383.500    0.202    0.355  111.068    8.375 2365.430
  383.750    0.204    0.343  108.577    8.219 2361.190
  384.000    0.204    0.348  111.045    8.374 2361.160
  384.250    0.208    0.353  114.752    8.374 2354.820
  384.500    0.204    0.349  107.924    8.532 2361.090
  384.750    0.207    0.341  108.534    8.693 2356.850
  385.000    0.211    0.332  108.523    9.025 2348.410
  385.250    0.221    0.352  108.511    9.370 2331.550
  385.500    0.241    0.353  101.062    9.547 2297.870
  385.750    0.232    0.349   95.474    9.727 2312.560
  386.000    0.230    0.347   95.463   10.099 2316.730
  386.250    0.240    0.353   97.931   10.289 2299.880
  386.500    0.247    0.358   91.721   10.289 2287.230
  386.750    0.228    0.344   93.570   10.483 2320.820
  387.000    0.225    0.337   97.894   10.287 2325.000
  387.250    0.235    0.330   96.026   10.482 2308.140
  387.500    0.241    0.347   97.873   10.679 2297.600
  387.750    0.245    0.362   94.146   11.087 2291.260
  388.000    0.256    0.367   93.516   11.297 2272.300
  388.250    0.257    0.354   94.744   11.510 2270.170
  388.500    0.262    0.342   86.674   11.296 2261.710
  388.750    0.257    0.330   78.606   10.879 2270.090
  389.000    0.257    0.324   74.257   10.477 2270.050
  389.250    0.259    0.321   79.204   10.090 2267.920
  389.500    0.259    0.336   82.292    9.360 2267.880
  389.750    0.266    0.348   79.802    8.682 2255.240
  390.000    0.275    0.354   86.608    8.206 2240.490
  390.250    0.283    0.352   90.317    8.053 2225.730
  390.500    0.288    0.345   82.868    7.756 2217.290
  390.750    0.273    0.342   76.039    7.470 2242.480
  391.000    0.254    0.325   77.886    7.330 2276.090
  391.250    0.237    0.309   85.934    7.194 2305.480
  391.500    0.229    0.302   91.501    7.059 2318.060
  391.750    0.223    0.301   96.448    6.928 2328.550
  392.000    0.221    0.314  106.974    6.672 2332.700
  392.250    0.238    0.302  110.682    6.671 2303.240
  392.500    0.254    0.285  103.854    6.798 2275.870
  392.750    0.254    0.275   86.488    7.057 2275.840
  393.000    0.238    0.261   75.319    7.607 2303.140
  393.250    0.147    0.240   57.333    9.177    0.000
  393.500    0.056    0.197   46.786   12.866    0.000
  393.750    0.044    0.163   30.658   18.378    0.000
