~VERSION INFORMATION
 VERS.                 2.0:   CWLS LOG ASCII STANDARD -VERSION 2.0
 WRAP.                  NO:   ONE LINE PER DEPTH STEP
~WELL INFORMATION BLOCK
#MNEM.UNIT           DATA                    DESCRIPTION OF MNEMONIC
#---------    -------------------            -------------------------------
# Generated from Intellog Unique Number	CN_94_101/WELL/5011
WELL.         10-33-097-06W4                 : Well_name    - WELL
LOC .         AA/10-33-097-06W4/0            : Location     - LOCATION
UWI .         AA/10-33-097-06W400            : Uwi          - UNIQUE WELL ID
ENTR.         JOETTE                         : Entered      - ENTERED BY
SRVC.         SCHLUMBERGER                   : Scn          - SERVICE COMPANY
DATE.         08/11/92                       : Date         - LOG DATE
STRT.M        25                             : top_depth    - START DEPTH
STOP.M        60                             : bot_depth    - STOP DEPTH
STEP.M        0.25                           : increment    - STEP LENGTH
 NULL. -999.2500:NULL Value
~CURVE INFORMATION BLOCK
#MNEM UNIT       ERCB CURVE CODE    CURVE DESCRIPTION
#-----------   ------------------   ----------------------------------
DEPT.M        00 001 00 00         : DEPTH        - DEPTH
NPHI.V/V      00 330 00 00         : PHIN         - NEUTRON POROSITY (SANDSTONE)
DPHI.V/V      00 890 00 00         : PHID         - DENSITY POROSITY (SANDSTONE)
GR  .API      00 310 00 00         : GR           - GAMMA RAY
ILD .OHMM     00 120 00 00         : RESD         - DEEP RESISTIVITY (DIL)
~PARAMETER INFORMATION
#MNEM.UNIT           DATA             DESCRIPTION OF MNEMONIC
#---------         -----------     ------------------------------
GL  .M        0                    : gl           - GROUND LEVEL ELEVATION
EREF.M        0                    : kb           - ELEVATION OF DEPTH REFERENCE
DATM.M        0                    : datum        - DATUM ELEVATION
TDD .M        71.6                 : tdd          - TOTAL DEPTH DRILLER
RUN .         ONE                  : Run          - RUN NUMBER
ENG .         BILL                 : Engineer     - RECORDING ENGINEER
WIT .         JIM                  : Witness      - WITNESSED BY
MUD .         GEL                  : Mud_type     - MUD TYPE
MATR.         SANDSTONE            : Logunit      - NEUTRON MATRIX
TMAX.C        14.2                 : BHT          - MAXIMUM RECORDED TEMPERATURE
BHTD.M        71.6                 : BHTDEP       - MAXIMUM RECORDED TEMPERATURE
RMT .C        14.5                 : MDTP         - TEMPERATURE OF MUD
MUDD.KG/M     1022                 : MWT          - MUD DENSITY
NEUT.         1                    : NEUTRON      - NEUTRON TYPE
RESI.         0                    : RESIST       - RESISTIVITY TYPE
RM  .OHMM     14.6                 : RM           - RESISTIVITY OF MUD
RMC .OHMM     7.81                 : RMC          - RESISTIVITY OF MUD CAKE
RMF .OHMM     11.3                 : RMF          - RESISTIVITY OF MUD FILTRATE
SUFT.C        4                    : SUFT         - SURFACE TEMPERATURE
~A  DEPTH     PHIN     PHID       GR     RESD
   25.000    0.604    0.178   63.508 1426.180
   25.250    0.601    0.178   61.103 1583.240
   25.500    0.603    0.179   56.162 1683.380
   25.750    0.608    0.173   53.757 1736.460
   26.000    0.604    0.169   52.633 1821.310
   26.250    0.602    0.176   55.876 1850.510
   26.500    0.602    0.185   58.491 1885.910
   26.750    0.601    0.181   61.759 1919.060
   27.000    0.604    0.177   59.982 1923.450
   27.250    0.604    0.173   55.694 1929.320
   27.500    0.602    0.179   53.917 1936.680
   27.750    0.602    0.169   53.368 1913.390
   28.000    0.601    0.165   52.819 1838.190
   28.250    0.599    0.169   59.225 1668.490
   28.500    0.599    0.183   59.958 1647.170
   28.750    0.600    0.198   61.318 1727.670
   29.000    0.600    0.205   57.684 1835.540
   29.250    0.600    0.210   57.135 1894.870
   29.500    0.600    0.222   50.965 1928.180
   29.750    0.600    0.278   49.815 1852.390
   30.000    0.601    0.254   49.293 1703.140
   30.250    0.602    0.210   60.693 1415.960
   30.500    0.604    0.186   65.216  857.923
   30.750    0.605    0.198   65.321  617.251
   31.000    0.606    0.208   68.564  491.875
   31.250    0.609    0.201   73.689  408.935
   31.500    0.620    0.201   78.866  360.385
   31.750    0.633    0.276   75.180  317.358
   32.000    0.680    0.277   77.167  292.011
   32.250    0.710    0.271   77.298  319.297
   32.500    0.716    0.298   81.142  289.600
   32.750    0.719    0.385   86.921  282.247
   33.000    0.718    0.334   68.776  411.782
   33.250    0.720    0.291   53.167 3541.800
   33.500    0.688    0.267   42.605 5481.570
   33.750    0.685    0.268   40.173 5419.790
   34.000    0.659    0.289   45.978 5059.140
   34.250    0.625    0.290   46.083 5222.650
   34.500    0.618    0.286   44.332 5710.670
   34.750    0.616    0.292   41.874 5899.710
   35.000    0.614    0.283   46.398 5908.700
   35.250    0.609    0.268   45.248 5676.460
   35.500    0.606    0.269   42.843 5375.490
   35.750    0.610    0.269   47.341 5243.010
   36.000    0.616    0.306   45.537 5179.970
   36.250    0.619    0.310   40.020 5195.770
   36.500    0.615    0.307   39.472 5363.690
   36.750    0.614    0.320   44.597 5079.300
   37.000    0.614    0.329   51.003 5396.450
   37.250    0.619    0.329   56.755 6082.150
   37.500    0.628    0.312   64.443 6013.590
   37.750    0.633    0.282   62.613 5694.740
   38.000    0.631    0.278   58.325 5161.160
   38.250    0.630    0.274   50.900 4817.730
   38.500    0.646    0.376   46.613 5425.750
   38.750    0.659    0.372   44.835 5937.260
   39.000    0.652    0.347   43.058 6032.440
   39.250    0.640    0.334   45.071 6143.160
   39.500    0.631    0.333   43.294 5906.200
   39.750    0.627    0.330   42.091 5584.540
   40.000    0.630    0.314   42.876 5065.140
   40.250    0.630    0.294   41.726 3975.650
   40.500    0.630    0.347   41.151 3711.110
   40.750    0.635    0.349   39.374 3461.530
   41.000    0.637    0.347   35.740 3576.120
   41.250    0.626    0.349   42.747 5373.670
   41.500    0.632    0.359   50.382 6047.260
   41.750    0.642    0.377   44.238 6065.700
   42.000    0.643    0.357   42.435 5827.290
   42.250    0.635    0.339   45.677 6191.160
   42.500    0.624    0.336   48.318 5947.820
   42.750    0.620    0.335   43.377 6140.040
   43.000    0.621    0.346   33.442 6247.980
   43.250    0.626    0.347   38.567 5506.200
   43.500    0.620    0.340   45.574 4990.280
   43.750    0.616    0.338   51.981 5784.080
   44.000    0.618    0.352   51.458 6234.250
   44.250    0.627    0.364   47.798 6343.850
   44.500    0.638    0.349   43.484 6952.490
   44.750    0.630    0.327   44.870 6765.670
   45.000    0.619    0.313   48.113 6234.780
   45.250    0.617    0.321   50.728 6067.240
   45.500    0.616    0.328   51.460 5824.340
   45.750    0.616    0.322   48.454 5519.730
   46.000    0.616    0.314   44.768 5375.490
   46.250    0.614    0.312   41.082 5168.150
   46.500    0.612    0.297   35.539 5183.910
   46.750    0.609    0.306   34.389 5121.580
   47.000    0.609    0.318   33.867 5367.770
   47.250    0.611    0.310   35.854 5789.950
   47.500    0.611    0.308   36.586 5558.150
   47.750    0.610    0.310   32.953 5820.890
   48.000    0.607    0.281   38.705 5437.700
   48.250    0.608    0.301   44.484 5291.580
   48.500    0.610    0.289   42.706 5235.920
   48.750    0.609    0.284   39.020 5487.600
   49.000    0.608    0.281   31.569 5825.820
   49.250    0.606    0.286   21.634 6279.240
   49.500    0.605    0.293   22.994 6298.390
   49.750    0.606    0.318   23.726 6227.400
   50.000    0.608    0.320   24.459 5734.380
   50.250    0.609    0.299   26.446 5352.810
   50.500    0.608    0.297   25.924 5142.420
   50.750    0.607    0.302   23.518 5304.570
   51.000    0.605    0.306   20.486 6055.960
   51.250    0.605    0.298   22.474 6347.070
   51.500    0.605    0.295   25.115 5933.750
   51.750    0.605    0.304   25.821 5778.700
   52.000    0.606    0.292   27.181 5627.700
   52.250    0.609    0.277   28.541 5568.500
   52.500    0.609    0.278   30.528 5576.990
   52.750    0.608    0.289   38.189 5766.000
   53.000    0.608    0.298   50.243 5947.820
   53.250    0.609    0.303   54.113 6233.730
   53.500    0.612    0.307   38.504 6430.290
   53.750    0.615    0.313   24.778 6543.330
   54.000    0.613    0.323   26.164 6377.210
   54.250    0.611    0.319   26.897 6039.080
   54.500    0.609    0.305   25.119 5718.880
   54.750    0.608    0.291   30.872 5186.980
   55.000    0.606    0.306   36.650 4312.350
   55.250    0.606    0.312   38.638 3288.820
   55.500    0.611    0.302   44.390 2172.260
   55.750    0.623    0.273  112.997 1353.530
   56.000    0.684    0.250  138.882  453.739
   56.250    0.717    0.220  142.752  442.220
   56.500    0.732    0.235  147.302  437.901
   56.750    0.717    0.246  141.733  432.307
   57.000    0.706    0.242  135.537  421.652
   57.250    0.697    0.231  131.877  399.296
   57.500    0.695    0.228  131.982  383.602
   57.750    0.705    0.236  127.067  379.278
   58.000    0.699    0.230  122.753  374.717
   58.250    0.696    0.212  108.426  355.120
   58.500    0.692    0.212  103.484  350.583
   58.750    0.657    0.191   84.111  336.803
   59.000    0.630    0.155   84.216  328.502
   59.250    0.616    0.118   82.438  324.800
   59.500    0.614    0.086   83.798  325.542
   59.750    0.618    0.065   94.597  326.535
   60.000    0.626    0.047   98.467  342.492
