~VERSION INFORMATION
 VERS.                 2.0:   CWLS LOG ASCII STANDARD -VERSION 2.0
 WRAP.                  NO:   ONE LINE PER DEPTH STEP
~WELL INFORMATION BLOCK
#MNEM.UNIT           DATA                    DESCRIPTION OF MNEMONIC
#---------    -------------------            -------------------------------
# Generated from Intellog Unique Number	CC_80_83/WELL/2371
NULL.         -999.25                        : NULL_VALUE
WELL.         PEX PCEJ CHARD OV              : Well_name    - WELL
LOC .         10-26-080-09W4                 : Location     - LOCATION          
UWI .         AA/10-26-080-09W400            : Uwi          - UNIQUE WELL ID    
ENTR.         DW                             : Entered      - ENTERED BY        
SRVC.         SCHLUMBERGER                   : Scn          - SERVICE COMPANY   
DATE.         14 JAN 80                      : Date         - LOG DATE
STRT.M        275                            : top_depth    - START DEPTH       
STOP.M        494.891                        : bot_depth    - STOP DEPTH        
STEP.M        0.3                            : increment    - STEP LENGTH       
~CURVE INFORMATION BLOCK
#MNEM UNIT       ERCB CURVE CODE    CURVE DESCRIPTION
#-----------   ------------------   ----------------------------------
DEPT.M        00 001 00 00         : DEPTH        - DEPTH                       
DPHI.V/V      00 890 00 00         : PHID         - DENSITY POROSITY (LIMESTONE)
NPHI.V/V      00 330 00 00         : PHIN         - NEUTRON POROSITY (LIMESTONE)
GR  .API      00 310 00 00         : GR           - GAMMA RAY                   
ILD .OHMM     00 120 00 00         : RESD         - DEEP RESISTIVITY (DIL)      
~PARAMETER INFORMATION       
#MNEM.UNIT           DATA             DESCRIPTION OF MNEMONIC
#---------         -----------     ------------------------------
GL  .M        718.7                : gl           - GROUND LEVEL ELEVATION      
EREF.M        722.4                : kb           - ELEVATION OF DEPTH REFERENCE
DATM.M        722.4                : datum        - DATUM ELEVATION             
TDD .M        505                  : tdd          - TOTAL DEPTH DRILLER         
RUN .         ONE                  : Run          - RUN NUMBER                  
ENG .         BILL                 : Engineer     - RECORDING ENGINEER          
WIT .         JIM                  : Witness      - WITNESSED BY                
MUD .         GEL                  : Mud_type     - MUD TYPE                    
MATR.         LIMESTONE            : Logunit      - NEUTRON MATRIX              
TMAX.C        19                   : BHT          - MAXIMUM RECORDED TEMPERATURE
BHTD.M        505                  : BHTDEP       - MAXIMUM RECORDED TEMPERATURE
MATR.         1                    : LOGUNIT      - NEUTRON MATRIX              
RMT .C        25                   : MDTP         - TEMPERATURE OF MUD          
NEUT.         1                    : NEUTRON      - NEUTRON TYPE                
RESI.         0                    : RESIST       - RESISTIVITY TYPE            
RMC .OHMM     0.25                 : RMC          - RESISTIVITY OF MUD CAKE     
RMF .OHMM     0.25                 : RMF          - RESISTIVITY OF MUD FILTRATE 
SUFT.C        4                    : SUFT         - SURFACE TEMPERATURE         
~A  DEPTH     PHID     PHIN       GR     RESD
# ...
  379.396    0.279    0.625  114.363    3.336
  379.696    0.295    0.619  117.437    3.393
  379.996    0.309    0.630  123.014    3.586
  380.296    0.302    0.651  126.101    3.720
  380.596    0.300    0.651  119.797    4.007
  380.896    0.329    0.603  118.503    4.235
  381.196    0.361    0.600  115.327    4.309
  381.496    0.298    0.566  111.523    4.467
  381.796    0.292    0.550  114.604    4.722
  382.096    0.315    0.580  113.928    5.186
  382.396    0.327    0.579  117.010    5.697
  382.696    0.282    0.523  118.205    5.906
  382.996    0.280    0.502  102.533    5.672
  383.296    0.255    0.484   97.481    5.557
  383.596    0.259    0.461   94.932    5.872
  383.896    0.269    0.464  107.382    6.327
  384.196    0.274    0.478  116.711    6.949
  384.496    0.263    0.482  107.912    7.067
  384.796    0.268    0.457  109.738    6.919
  385.096    0.278    0.448  106.569    6.521
  385.396    0.278    0.453  105.894    6.264
  385.695    0.271    0.450   98.345    6.370
  385.995    0.234    0.460   98.288    6.483
  386.295    0.227    0.444  102.625    7.120
  386.595    0.229    0.426  111.946    7.820
  386.895    0.234    0.419  111.280    7.955
  387.195    0.238    0.432  109.349    7.939
  387.495    0.238    0.416  110.555    7.918
  387.795    0.239    0.403  106.127    7.753
  388.095    0.242    0.433  106.707    7.736
  388.395    0.231    0.472  116.033    7.577
  388.695    0.245    0.479  109.112    7.281
  388.995    0.237    0.458  111.563    6.992
  389.295    0.235    0.456  114.640    6.716
  389.595    0.240    0.452  115.218    6.575
  389.895    0.244    0.454  108.914    6.441
  390.195    0.244    0.454  106.357    5.953
  390.495    0.245    0.435  106.942    5.504
  390.795    0.252    0.454   92.508    5.089
  391.095    0.265    0.479   95.591    4.615
  391.395    0.267    0.505  106.173    4.348
  391.695    0.271    0.504   96.745    4.507
  391.995    0.267    0.493  106.074    4.766
  392.295    0.261    0.469  114.149    5.135
  392.595    0.262    0.493  110.978    5.534
  392.895    0.262    0.485  105.304    6.195
  393.195    0.261    0.476  104.629    6.932
  393.495    0.275    0.524   90.202    7.328
  393.795    0.290    0.511   94.524    7.453
  394.095    0.273    0.485  105.105    7.586
  394.395    0.268    0.480  106.305    7.284
  394.695    0.276    0.485  104.385    6.996
  394.995    0.294    0.520  104.335    6.723
  395.295    0.295    0.528   99.916    6.335
  395.595    0.282    0.553   99.867    5.746
  395.895    0.302    0.552  110.444    5.015
  396.195    0.327    0.589  118.525    4.377
  396.495    0.368    0.602  114.100    4.202
  396.795    0.364    0.606  115.928    4.276
  397.095    0.358    0.595  119.620    4.351
  397.395    0.339    0.582  122.707    4.260
  397.695    0.297    0.597  114.526    4.173
  397.995    0.275    0.594  121.352    4.164
  398.295    0.283    0.594  118.184    4.402
  398.595    0.279    0.574  121.256    4.742
  398.895    0.274    0.552  129.340    5.207
  399.195    0.268    0.501  127.414    5.942
  399.495    0.259    0.469  106.736    6.912
  399.795    0.237    0.464  110.431    7.737
  400.095    0.237    0.488  113.517    8.021
  400.395    0.256    0.499  119.718    8.157
  400.695    0.329    0.517  116.545    8.144
  400.995    0.312    0.570  103.992    7.971
  401.295    0.391    0.608  106.442    7.808
  401.595    0.384    0.604  117.016    7.499
  401.895    0.371    0.605  112.591    7.485
  402.195    0.357    0.601  113.176    7.189
  402.495    0.340    0.608  104.992    6.905
  402.795    0.305    0.619  104.326    6.507
  403.095    0.298    0.633  108.646    5.903
  403.395    0.284    0.592  124.859    4.959
  403.695    0.287    0.598  123.561    4.088
  403.995    0.293    0.595  131.014    3.062
  404.295    0.320    0.592  125.337    2.572
  404.595    0.353    0.596  123.408    2.333
  404.895    0.370    0.596  126.488    2.374
  405.195    0.362    0.592  129.568    2.557
  405.495    0.367    0.595  121.394    2.918
  405.795    0.385    0.593  115.089    3.594
  406.095    0.376    0.579  110.041    4.426
  406.395    0.370    0.562  114.997    5.454
  406.695    0.352    0.535  116.198    6.341
  406.995    0.341    0.505  109.893    6.833
  407.295    0.274    0.475  121.102    7.082
  407.595    0.256    0.474  118.552    7.346
  407.895    0.241    0.467  114.123    7.474
  408.195    0.263    0.445  112.199    7.606
  408.495    0.271    0.405  114.032    7.882
  408.795    0.259    0.415  113.973    8.331
  409.095    0.218    0.414  118.936    8.480
  409.395    0.203    0.382  122.003    8.962
  409.695    0.199    0.393  127.590    9.115
  409.995    0.195    0.386  123.791    8.928
  410.294    0.193    0.396  123.114    8.412
  410.594    0.202    0.417  121.192    7.777
  410.894    0.222    0.411  118.637    7.189
  411.194    0.250    0.427  117.343    6.647
  411.494    0.286    0.447  105.416    6.144
  411.794    0.317    0.480  104.120    6.017
  412.094    0.366    0.505  109.697    6.004
  412.394    0.379    0.519  119.649    6.109
  412.694    0.381    0.514  120.228    6.579
  412.994    0.375    0.481  124.556    7.092
  413.294    0.352    0.431  115.130    8.249
  413.594    0.233    0.428  118.206    8.887
  413.894    0.247    0.423  115.657    8.869
  414.194    0.254    0.417  114.354    8.682
  414.494    0.252    0.445  106.807    8.335
  414.794    0.254    0.454  111.132    8.164
  415.094    0.273    0.467  111.085    7.843
  415.394    0.269    0.465  116.663    7.252
  415.694    0.265    0.437  115.367    6.830
  415.994    0.312    0.450  122.818    6.689
  416.294    0.349    0.469  127.773    6.678
  416.594    0.250    0.476  109.592    6.922
  416.894    0.233    0.447  111.417    7.317
  417.194    0.219    0.425  115.121    7.447
  417.494    0.213    0.418  113.816    7.014
  417.794    0.227    0.409  114.396    6.740
  418.094    0.272    0.442  118.104    6.346
  418.394    0.321    0.465  114.914    6.459
  418.694    0.325    0.486  115.504    6.700
  418.994    0.243    0.510  100.445    6.946
  419.294    0.273    0.485   99.779    7.486
  419.594    0.278    0.468  104.104    7.759
  419.894    0.278    0.445  100.932    7.745
  420.194    0.278    0.442  100.257    7.728
  420.494    0.272    0.450  107.701    7.423
  420.794    0.267    0.464  108.289    6.996
  421.094    0.263    0.527  100.727    6.345
  421.394    0.261    0.512  108.190    5.647
  421.694    0.276    0.531  106.875    4.480
  421.994    0.324    0.541  110.591    4.220
  422.294    0.349    0.534  111.170    4.378
  422.594    0.346    0.473  116.123    4.900
  422.894    0.221    0.443  117.944    5.809
  423.194    0.240    0.455   96.008    7.293
  423.494    0.291    0.455   94.096    7.861
  423.794    0.295    0.446   91.546    8.147
  424.094    0.288    0.456   88.991    7.976
  424.394    0.285    0.450   87.076    7.517
  424.694    0.277    0.449   98.276    6.952
  424.994    0.278    0.440   97.605    7.208
  425.294    0.278    0.414   98.180    8.064
  425.594    0.272    0.414  102.506    8.525
  425.894    0.254    0.410  101.209    8.844
  426.194    0.232    0.317   93.035    8.492
  426.494    0.228    0.523   81.108    8.002
  426.794    0.398    0.589   87.312    7.545
  427.094    0.382    0.590   90.383    6.842
  427.394    0.361    0.596   94.716    6.442
  427.694    0.388    0.598   95.293    6.311
  427.994    0.396    0.575  100.868    6.174
  428.294    0.385    0.560  107.072    6.287
  428.594    0.312    0.554  121.402    6.272
  428.894    0.271    0.550  122.600    6.383
  429.194    0.284    0.524  119.430    6.875
  429.494    0.300    0.511  114.372    7.409
  429.794    0.269    0.496  111.206    7.686
  430.094    0.211    0.489  121.784    7.964
  430.394    0.214    0.469  127.362    7.801
  430.694    0.220    0.480  126.685    6.938
  430.994    0.226    0.487  128.511    6.296
  431.294    0.229    0.482  124.713    5.090
