~VERSION INFORMATION
 VERS.                 2.0:   CWLS LOG ASCII STANDARD -VERSION 2.0
 WRAP.                  NO:   ONE LINE PER DEPTH STEP
~WELL INFORMATION BLOCK
#MNEM.UNIT           DATA                    DESCRIPTION OF MNEMONIC
#---------    -------------------            -------------------------------
# Generated from Intellog Unique Number	CN_94_101/WELL/5027
WELL.         12-06-097-10W4                 : Well_name    - WELL
LOC .         AA/12-06-097-10W4/0            : Location     - LOCATION
UWI .         AA/12-06-097-10W400            : Uwi          - UNIQUE WELL ID
ENTR.         JOETTE                         : Entered      - ENTERED BY
SRVC.         SCHLUMBERGER                   : Scn          - SERVICE COMPANY
DATE.         08/13/92                       : Date         - LOG DATE
STRT.M        10                             : top_depth    - START DEPTH
STOP.M        90.5                           : bot_depth    - STOP DEPTH
STEP.M        0.25                           : increment    - STEP LENGTH
 NULL. -999.2500:NULL Value
~CURVE INFORMATION BLOCK
#MNEM UNIT       ERCB CURVE CODE    CURVE DESCRIPTION
#-----------   ------------------   ----------------------------------
DEPT.M        00 001 00 00         : DEPTH        - DEPTH
GR  .API      00 310 00 00         : GR           - GAMMA RAY
ILD .OHMM     00 120 00 00         : RESD         - DEEP RESISTIVITY (DIL)
NPHI.V/V      00 330 00 00         : PHIN         - NEUTRON POROSITY (SANDSTONE)
DPHI.V/V      00 890 00 00         : PHID         - DENSITY POROSITY (SANDSTONE)
~PARAMETER INFORMATION
#MNEM.UNIT           DATA             DESCRIPTION OF MNEMONIC
#---------         -----------     ------------------------------
GL  .M        284.9                : gl           - GROUND LEVEL ELEVATION
EREF.M        284.9                : kb           - ELEVATION OF DEPTH REFERENCE
DATM.M        284.9                : datum        - DATUM ELEVATION
TDD .M        93.1                 : tdd          - TOTAL DEPTH DRILLER
RUN .         ONE                  : Run          - RUN NUMBER
ENG .         BILL                 : Engineer     - RECORDING ENGINEER
WIT .         JIM                  : Witness      - WITNESSED BY
MUD .         GEL                  : Mud_type     - MUD TYPE
MATR.         SANDSTONE            : Logunit      - NEUTRON MATRIX
TMAX.C        0                    : BHT          - MAXIMUM RECORDED TEMPERATURE
BHTD.M        93.1                 : BHTDEP       - MAXIMUM RECORDED TEMPERATURE
RMT .C        8                    : MDTP         - TEMPERATURE OF MUD
MUDD.KG/M     1250                 : MWT          - MUD DENSITY
NEUT.         1                    : NEUTRON      - NEUTRON TYPE
RESI.         0                    : RESIST       - RESISTIVITY TYPE
RM  .OHMM     16.4                 : RM           - RESISTIVITY OF MUD
RMC .OHMM     16.4                 : RMC          - RESISTIVITY OF MUD CAKE
RMF .OHMM     16.4                 : RMF          - RESISTIVITY OF MUD FILTRATE
SUFT.C        4                    : SUFT         - SURFACE TEMPERATURE
~A  DEPTH       GR     RESD     PHIN     PHID
# ...
   53.500   62.920  206.302    0.446    0.322
   53.750   67.651  164.082    0.436    0.318
   54.000   68.778  123.311    0.431    0.311
   54.250   71.707   96.186    0.458    0.300
   54.500   81.862   82.508    0.495    0.305
   54.750   90.797   85.496    0.465    0.313
   55.000   68.465   93.760    0.454    0.311
   55.250   64.205   83.525    0.449    0.310
   55.500   61.128   86.550    0.426    0.310
   55.750   67.661   77.102    0.420    0.307
   56.000   83.803   55.764    0.419    0.297
   56.250   86.150   40.331    0.410    0.255
   56.500   87.878   37.312    0.420    0.251
   56.750   86.603   33.239    0.443    0.244
   57.000   95.538   14.989    0.449    0.219
   57.250  109.897   12.380    0.464    0.205
   57.500  112.826   13.570    0.457    0.206
   57.750   90.512   14.069    0.435    0.211
   58.000   96.444   13.016    0.364    0.206
   58.250   90.364   13.999    0.415    0.210
   58.500   80.681   16.883    0.425    0.200
   58.750   83.009   17.828    0.384    0.219
   59.000   97.969   14.450    0.438    0.221
   59.250  116.513   13.623    0.458    0.202
   59.500  121.863   10.621    0.477    0.205
   59.750  124.792   11.221    0.459    0.212
   60.000  118.112   12.062    0.445    0.220
   60.250  103.005   10.757    0.501    0.225
   60.500  107.736   10.938    0.470    0.233
   60.750  101.055   13.177    0.424    0.234
   61.000  116.615   13.155    0.403    0.218
   61.250  126.151   10.866    0.440    0.194
   61.500  127.879    9.864    0.459    0.182
   61.750  109.150   10.030    0.427    0.199
   62.000  110.878   10.388    0.412    0.206
   62.250  108.420   10.975    0.421    0.203
   62.500  115.553   12.731    0.430    0.204
   62.750  115.498   12.003    0.410    0.203
   63.000  105.196   11.976    0.438    0.196
   63.250   99.716   11.726    0.457    0.188
   63.500   90.615   12.383    0.437    0.201
   63.750   89.941   13.846    0.453    0.213
   64.000   84.462   14.621    0.446    0.226
   64.250   89.193   16.970    0.436    0.227
   64.500   93.924   16.923    0.462    0.221
   64.750   83.640   18.934    0.464    0.223
   65.000   80.545   19.983    0.454    0.253
   65.250   73.282   17.468    0.428    0.260
   65.500   84.620   20.285    0.430    0.233
   65.750   87.530   20.229    0.422    0.233
   66.000   84.472   18.364    0.453    0.236
   66.250   89.203   16.980    0.464    0.240
   66.500   84.925   17.595    0.476    0.226
   66.750   90.256   18.243    0.441    0.232
   67.000   73.967   18.549    0.399    0.241
   67.250   85.905   19.221    0.445    0.229
   67.500   97.861   18.468    0.408    0.219
   67.750   94.784   22.684    0.427    0.218
   68.000   96.512   15.806    0.441    0.226
   68.250   95.838   20.939    0.449    0.231
   68.500   87.337   23.401    0.456    0.242
   68.750   92.687   27.160    0.467    0.252
   69.000   80.565   23.729    0.452    0.252
   69.250   87.116   25.564    0.439    0.244
   69.500   57.595   32.610    0.451    0.239
   69.750   56.320   48.387    0.444    0.248
   70.000   73.681   29.539    0.443    0.274
   70.250   90.442   23.929    0.421    0.285
   70.500   95.173   27.772    0.448    0.248
   70.750   93.261   32.251    0.446    0.237
   71.000   92.623   21.627    0.439    0.244
   71.250   88.946   32.108    0.456    0.272
   71.500   70.836   49.477    0.517    0.286
   71.750   61.116   44.892    0.474    0.287
   72.000   95.913   27.405    0.448    0.253
   72.250   92.236   31.229    0.414    0.238
   72.500   88.577   23.904    0.434    0.220
   72.750   85.481   24.306    0.437    0.217
   73.000   95.636   23.798    0.450    0.225
   73.250   67.316   35.331    0.470    0.254
   73.500   66.023   47.698    0.410    0.281
   73.750   75.577   35.175    0.441    0.274
   74.000   82.091   27.437    0.478    0.266
   74.250   74.228   43.932    0.485    0.264
   74.500   81.962   34.922    0.439    0.254
   74.750   53.642   58.071    0.454    0.288
   75.000   51.767  116.649    0.445    0.313
   75.250   60.701   48.773    0.412    0.314
   75.500   69.054   44.277    0.442    0.281
   75.750   76.188   34.538    0.414    0.259
   76.000   77.315   36.471    0.413    0.246
   76.250   94.076   25.898    0.435    0.249
   76.500   74.164   41.468    0.475    0.241
   76.750   65.682   54.935    0.422    0.242
   77.000   55.981   31.670    0.407    0.249
   77.250   64.915   36.757    0.380    0.247
   77.500   69.665   34.655    0.383    0.239
   77.750   67.170   22.804    0.429    0.241
   78.000   74.322   26.482    0.443    0.228
   78.250   82.675   21.861    0.474    0.229
   78.500   94.012   18.401    0.471    0.216
   78.750  101.746   16.393    0.434    0.201
   79.000  101.690   15.447    0.447    0.200
   79.250   91.989   41.218    0.457    0.246
   79.500   84.708   20.819    0.409    0.245
   79.750   86.436   16.558    0.437    0.216
   80.000  111.004   15.024    0.447    0.211
   80.250   71.856   17.446    0.420    0.249
   80.500   56.148   54.152    0.402    0.273
   80.750   44.663  158.734    0.432    0.303
   81.000   32.541   70.240    0.439    0.309
   81.250   48.101   13.017    0.415    0.236
   81.500   62.478    6.575    0.373    0.227
   81.750   82.842    5.747    0.355    0.207
   82.000  124.246    5.841    0.456    0.194
   82.250  127.775    5.828    0.521    0.224
   82.500  118.674    5.709    0.501    0.229
   82.750  134.234    6.377    0.494    0.240
   83.000  120.947    6.247    0.477    0.228
   83.250  123.276    5.160    0.469    0.213
   83.500  122.602    4.257    0.457    0.212
   83.750  124.330    4.582    0.518    0.322
   84.000  116.448    5.027    0.614    0.411
   84.250  104.945    4.827    0.665    0.349
   84.500  107.273    4.382    0.639    0.290
   84.750  110.803    3.978    0.516    0.256
   85.000  114.933    4.048    0.562    0.240
   85.250  119.063    4.879    0.593    0.252
   85.500  120.209    4.429    0.622    0.249
   85.750  135.150    3.590    0.493    0.247
   86.000  106.230    6.435    0.450    0.246
   86.250  104.336    8.529    0.452    0.244
   86.500   94.671    9.348    0.442    0.233
   86.750   89.173    8.986    0.413    0.224
   87.000   83.094    7.564    0.420    0.215
   87.250   86.023    7.691    0.433    0.189
   87.500   84.748    9.811    0.444    0.141
   87.750   88.278   14.026    0.443    0.110
   88.000   75.591   16.906    0.364    0.095
   88.250   56.862   19.996    0.337    0.096
   88.500   70.020   20.321    0.332    0.098
   88.750   65.742   18.458    0.320    0.086
   89.000   63.867   20.242    0.294    0.065
   89.250   60.790   34.956    0.304    0.049
   89.500   40.878   53.896    0.279    0.043
   89.750   40.804  100.381    0.218    0.032
   90.000   47.938   62.414    0.202    0.044
   90.250   55.690   22.850    0.299    0.056
   90.500   80.859   21.128    0.342    0.066
