~VERSION INFORMATION
 VERS.                 2.0:   CWLS LOG ASCII STANDARD -VERSION 2.0
 WRAP.                  NO:   ONE LINE PER DEPTH STEP
~WELL INFORMATION BLOCK
#MNEM.UNIT           DATA                    DESCRIPTION OF MNEMONIC
#---------    -------------------            -------------------------------
# Generated from Intellog Unique Number	CC_80_83/WELL/2386
NULL.         -999.25                        : NULL_VALUE
WELL.         PEX PECJU HOUSE                : Well_name    - WELL              
LOC .         10-29-081-14W4                 : Location     - LOCATION          
UWI .         AA/10-29-081-14W400            : Uwi          - UNIQUE WELL ID    
ENTR.         RJA                            : Entered      - ENTERED BY        
SRVC.         SCHLUMBERGER                   : Scn          - SERVICE COMPANY   
DATE.         09 JAN 82                      : Date         - LOG DATE
STRT.M        116                            : top_depth    - START DEPTH       
STOP.M        376.996                        : bot_depth    - STOP DEPTH        
STEP.M        0.3                            : increment    - STEP LENGTH       
~CURVE INFORMATION BLOCK
#MNEM UNIT       ERCB CURVE CODE    CURVE DESCRIPTION
#-----------   ------------------   ----------------------------------
DEPT.M        00 001 00 00         : DEPTH        - DEPTH                       
NPHI.V/V      00 330 00 00         : PHIN         - NEUTRON POROSITY (LIMESTONE)
DPHI.V/V      00 890 00 00         : PHID         - DENSITY POROSITY (LIMESTONE)
GR  .API      00 310 00 00         : GR           - GAMMA RAY                   
ILD .OHMM     00 120 00 00         : RESD         - DEEP RESISTIVITY (DIL)      
~PARAMETER INFORMATION       
#MNEM.UNIT           DATA             DESCRIPTION OF MNEMONIC
#---------         -----------     ------------------------------
GL  .M        585                  : gl           - GROUND LEVEL ELEVATION      
EREF.M        588.6                : kb           - ELEVATION OF DEPTH REFERENCE
DATM.M        588.6                : datum        - DATUM ELEVATION             
TDD .M        385                  : tdd          - TOTAL DEPTH DRILLER         
RUN .         ONE                  : Run          - RUN NUMBER                  
ENG .         BILL                 : Engineer     - RECORDING ENGINEER          
WIT .         JIM                  : Witness      - WITNESSED BY                
MUD .         GEL                  : Mud_type     - MUD TYPE                    
MATR.         LIMESTONE            : Logunit      - NEUTRON MATRIX              
TMAX.C        15                   : BHT          - MAXIMUM RECORDED TEMPERATURE
BHTD.M        385                  : BHTDEP       - MAXIMUM RECORDED TEMPERATURE
MATR.         1                    : LOGUNIT      - NEUTRON MATRIX              
RMT .C        25                   : MDTP         - TEMPERATURE OF MUD          
NEUT.         1                    : NEUTRON      - NEUTRON TYPE                
RESI.         0                    : RESIST       - RESISTIVITY TYPE            
RMC .OHMM     0.25                 : RMC          - RESISTIVITY OF MUD CAKE     
RMF .OHMM     0.25                 : RMF          - RESISTIVITY OF MUD FILTRATE 
SUFT.C        4                    : SUFT         - SURFACE TEMPERATURE         
~A  DEPTH     PHIN     PHID       GR     RESD
# ...
  272.601    0.458    0.238   85.420    7.171
  272.901    0.451    0.228   84.799    7.166
  273.201    0.444    0.219   85.432    7.023
  273.501    0.438    0.227   88.580    6.626
  273.801    0.478    0.217   88.583    6.369
  274.101    0.488    0.208   89.215    6.244
  274.401    0.450    0.228   86.085    6.241
  274.701    0.446    0.207   83.579    6.235
  275.001    0.466    0.342   88.606    6.231
  275.301    0.487    0.245   98.655    6.226
  275.601    0.479    0.183  101.799    5.762
  275.901    0.477    0.240  101.805    5.232
  276.201    0.479    0.253   99.302    5.031
  276.501    0.464    0.200   92.402    5.026
  276.801    0.461    0.124   84.250    4.928
  277.101    0.465    0.279   79.862    4.831
  277.401    0.503    0.318   83.634    4.386
  277.701    0.516    0.351   82.386    3.983
  278.001    0.540    0.364   82.391    3.686
  278.301    0.563    0.327   91.184    4.053
  278.600    0.519    0.278   88.053    4.811
  278.900    0.486    0.254   84.920    5.822
  279.200    0.475    0.252   81.160    6.909
  279.500    0.486    0.263   77.403    7.455
  279.800    0.468    0.243   80.544    7.890
  280.100    0.441    0.239   84.944    8.036
  280.400    0.460    0.248   87.461    7.435
  280.700    0.486    0.208   80.564    7.720
  281.000    0.450    0.114   64.878    8.489
  281.300    0.399    0.119   80.577    9.335
  281.600    0.352    0.265   81.837    9.327
  281.900    0.425    0.281   83.099    8.799
  282.200    0.462    0.258   85.615    7.989
  282.500    0.445    0.250   83.111    7.253
  282.800    0.429    0.254   79.978    7.112
  283.100    0.419    0.229   82.496    7.671
  283.400    0.425    0.233   84.384    7.964
  283.700    0.450    0.278   83.135    7.958
  284.000    0.464    0.279   81.258    7.652
  284.300    0.451    0.259   80.008    7.219
  284.600    0.430    0.254   81.271    6.555
  284.900    0.460    0.266   84.416    5.619
  285.200    0.488    0.249   88.815    5.103
  285.500    0.491    0.245   91.331    4.459
  285.800    0.516    0.221   89.455    4.128
  286.100    0.561    0.304   85.068    4.204
  286.400    0.502    0.296   86.329    4.711
  286.700    0.466    0.274   83.824    5.280
  287.000    0.473    0.260   78.810    5.918
  287.300    0.466    0.231   74.423    6.632
  287.600    0.451    0.221   73.801    7.156
  287.900    0.445    0.234   76.318    7.572
  288.200    0.456    0.271   80.718    8.013
  288.500    0.434    0.236   88.883    7.416
  288.800    0.442    0.187   93.282    6.358
  289.100    0.486    0.203   94.544    5.557
  289.400    0.469    0.216   93.293    5.143
  289.700    0.451    0.225   95.183    4.946
  290.000    0.466    0.198   95.189    4.942
  290.300    0.488    0.247   93.311    5.128
  290.600    0.458    0.195   86.415    5.124
  290.900    0.452    0.210   87.049    5.219
  291.200    0.473    0.301   90.194    5.217
  291.500    0.521    0.317   92.708    4.737
  291.800    0.492    0.275   95.854    6.188
  292.100    0.447    0.227   97.744    7.632
  292.400    0.428    0.191   99.631    9.236
  292.700    0.427    0.193   95.245   10.350
  293.000    0.425    0.152   94.623   10.954
  293.300    0.380    0.123   97.769   10.335
  293.600    0.385    0.225   98.400    9.383
  293.900    0.433    0.217   96.524    8.041
  294.200    0.458    0.161   90.253    7.590
  294.500    0.440    0.191   85.240    6.631
  294.800    0.440    0.189   84.620    5.906
  295.100    0.469    0.183   87.136    5.465
  295.400    0.499    0.189   89.022    5.461
  295.700    0.473    0.246   92.167    5.458
  296.000    0.479    0.291   92.800    6.235
  296.300    0.482    0.280   93.434    6.857
  296.600    0.461    0.242   80.888    7.257
  296.900    0.435    0.253   76.500    7.978
  297.200    0.425    0.288   78.391    8.282
  297.500    0.441    0.274   80.906    8.438
  297.800    0.440    0.237   84.050    8.432
  298.100    0.414    0.199   88.451    8.264
  298.400    0.405    0.194   90.338    7.796
  298.700    0.486    0.293   92.858    7.643
  299.000    0.459    0.263   92.864    7.784
  299.300    0.431    0.233   92.241    8.081
  299.600    0.451    0.256   88.481    8.074
  299.900    0.347    0.007   58.261   11.036
  300.200    0.162    0.004   53.291   11.694
  300.500    0.222    0.075   61.962   11.257
  300.800    0.376    0.147   76.828    9.295
  301.100    0.396    0.214   94.172    8.287
  301.400    0.392    0.213   92.923    7.532
  301.700    0.406    0.225   91.054    7.535
  302.000    0.434    0.229   91.665    7.684
  302.300    0.448    0.228   89.795    7.835
  302.600    0.452    0.245   86.068    7.990
  302.900    0.423    0.255   84.816    7.841
  303.199    0.419    0.261   85.429    7.696
  303.499    0.429    0.269   86.039    7.848
  303.799    0.443    0.273   83.547    7.850
  304.099    0.453    0.249   83.540    8.006
  304.399    0.459    0.243   81.052    8.008
  304.699    0.438    0.246   81.042    7.858
  304.999    0.428    0.256   85.366    8.169
  305.299    0.429    0.265   85.980    8.657
  305.599    0.439    0.212   82.253    8.496
  305.899    0.432    0.183   76.045    8.179
  306.199    0.433    0.185   81.614    7.723
  306.499    0.450    0.228   79.743    7.155
  306.799    0.455    0.269   80.356    6.630
  307.099    0.450    0.277   87.163    6.506
  307.399    0.474    0.277   84.673    6.385
  307.699    0.464    0.248   84.042    6.147
  307.999    0.442    0.235   86.513    5.918
  308.299    0.449    0.235   90.225    5.589
  308.599    0.407    0.160   88.350    4.982
  308.899    0.430    0.206   87.107    4.114
  309.199    0.452    0.255   85.238    3.739
  309.499    0.465    0.225   86.467    3.398
  309.799    0.474    0.216   91.415    3.209
  310.099    0.496    0.240   92.646    3.336
  310.399    0.521    0.271   87.678    3.745
  310.699    0.525    0.254   90.148    4.203
  310.999    0.514    0.235   95.097    4.902
  311.299    0.485    0.275   91.364    5.829
  311.599    0.464    0.251   89.499    8.237
  311.899    0.466    0.074   83.911    9.793
  312.199    0.241    0.015   70.265    9.248
  312.499    0.217    0.076   59.099    7.637
  312.799    0.293    0.172   72.106    7.351
  313.099    0.415    0.220   88.210    7.354
  313.399    0.441    0.245   92.541    7.500
  313.699    0.465    0.275   93.150    7.220
  313.999    0.463    0.191   91.280    6.689
  314.299    0.450    0.125   87.552    6.564
  314.599    0.424    0.129   84.445    6.320
  314.899    0.426    0.219   88.152    6.321
  315.199    0.453    0.244   88.143    6.447
  315.499    0.475    0.229   83.794    6.574
  315.799    0.474    0.203   87.499    7.240
  316.099    0.451    0.154   89.969    7.525
  316.399    0.425    0.164   89.965    7.822
  316.699    0.425    0.214   86.237    7.387
  316.999    0.431    0.175   87.464    6.714
  317.299    0.408    0.174   91.790    6.102
  317.599    0.408    0.231   94.264    4.943
  317.899    0.414    0.223   97.974    4.406
  318.199    0.439    0.206   99.204    3.781
  318.499    0.505    0.251   96.713    2.891
  318.799    0.482    0.254   94.227    2.254
  319.099    0.456    0.218   86.780    2.088
  319.399    0.525    0.230   78.712    2.170
  319.699    0.604    0.302   71.262    2.786
  319.999    0.578    0.323   68.155    4.251
  320.299    0.424    0.209   65.044    5.782
  320.599    0.436    0.245   63.795    6.489
  320.899    0.445    0.271   64.409    6.248
  321.199    0.450    0.188   73.077    5.678
  321.499    0.451    0.224   77.405    4.600
  321.799    0.442    0.276   74.917    4.023
  322.099    0.423    0.292   76.147    3.518
  322.399    0.476    0.281   79.236    3.137
  322.699    0.466    0.150   81.084    3.020
  322.999    0.469    0.134   89.753    3.080
  323.299    0.483    0.156   87.885    3.201
  323.599    0.485    0.195   82.915    3.663
  323.899    0.440    0.211   79.808    4.033
  324.199    0.432    0.229   79.176    4.035
  324.499    0.444    0.235   77.926    3.667
