~VERSION INFORMATION
 VERS.                 2.0:   CWLS LOG ASCII STANDARD -VERSION 2.0
 WRAP.                  NO:   ONE LINE PER DEPTH STEP
~WELL INFORMATION BLOCK
#MNEM.UNIT           DATA                    DESCRIPTION OF MNEMONIC
#---------    -------------------            -------------------------------
# Generated from Intellog Unique Number	CX_WELLS/WELL/3822
WELL.         REGENT HORSE                   : Well_name    - WELL
LOC .         AA/16-34-086-12W4/0            : Location     - LOCATION
UWI .         AA/16-34-086-12W400            : Uwi          - UNIQUE WELL ID
ENTR.         T                              : Entered      - ENTERED BY
SRVC.         SCHLUMBERGER                   : Scn          - SERVICE COMPANY
STRT.F        150                            : top_depth    - START DEPTH
STOP.F        639.665                        : bot_depth    - STOP DEPTH
STEP.F        0.82                           : increment    - STEP LENGTH
 NULL. -999.2500:NULL Value
~CURVE INFORMATION BLOCK
#MNEM UNIT       ERCB CURVE CODE    CURVE DESCRIPTION
#-----------   ------------------   ----------------------------------
DEPT.F        00 001 00 00         : DEPTH        - DEPTH
GR  .API      00 310 00 00         : GR           - GAMMA RAY
NPHI.V/V      00 330 00 00         : PHIN         - NEUTRON POROSITY (SANDSTONE)
ILD .OHMM     00 120 00 00         : RESD         - DEEP RESISTIVITY (DIL)
~PARAMETER INFORMATION
#MNEM.UNIT           DATA             DESCRIPTION OF MNEMONIC
#---------         -----------     ------------------------------
GL  .F        1515                 : gl           - GROUND LEVEL ELEVATION
EREF.F        1515                 : kb           - ELEVATION OF DEPTH REFERENCE
DATM.F        1515                 : datum        - DATUM ELEVATION
TDD .F        647                  : tdd          - TOTAL DEPTH DRILLER
RUN .         ONE                  : Run          - RUN NUMBER
ENG .         BILL                 : Engineer     - RECORDING ENGINEER
WIT .         JIM                  : Witness      - WITNESSED BY
MUD .         GEL                  : Mud_type     - MUD TYPE
MATR.         SANDSTONE            : Logunit      - NEUTRON MATRIX
TMAX.F        58                   : BHT          - MAXIMUM RECORDED TEMPERATURE
BHTD.F        647                  : BHTDEP       - MAXIMUM RECORDED TEMPERATURE
MATR.         1                    : LOGUNIT      - NEUTRON MATRIX
RMT .F        50                   : MDTP         - TEMPERATURE OF MUD
NEUT.         1                    : NEUTRON      - NEUTRON TYPE
RESI.         2.6                  : RESIST       - RESISTIVITY TYPE
RMC .OHMM     0.25                 : RMC          - RESISTIVITY OF MUD CAKE
RMF .OHMM     2.9                  : RMF          - RESISTIVITY OF MUD FILTRATE
SUFT.F        39.2                 : SUFT         - SURFACE TEMPERATURE
~A  DEPTH       GR     PHIN     RESD
  150.000   66.866    0.416   42.437
  150.820   66.915    0.417   37.168
  151.640   67.424    0.419   34.815
  152.461   67.473    0.420   33.937
  153.281   67.110    0.423   33.972
  154.101   65.892    0.422   33.803
  154.921   65.957    0.413   32.560
  155.741   66.022    0.408   32.405
  156.562   65.660    0.393   32.798
  157.382   64.014    0.388   32.278
  158.202   61.941    0.397   29.560
  159.022   62.861    0.399   31.779
  159.843   65.081    0.403   44.797
  160.663   67.696    0.405   44.101
  161.483   69.916    0.406   43.391
  162.303   71.676    0.411   32.812
  163.123   75.179    0.416   29.918
  163.944   77.826    0.421   23.356
  164.764   78.319    0.424   21.558
  165.584   78.384    0.431   21.951
  166.404   79.732    0.438   21.993
  167.224   83.219    0.447   21.094
  168.045   94.009    0.454   18.747
  168.865   96.624    0.466   16.766
  169.685  101.837    0.474   15.888
  170.505  104.896    0.484   15.185
  171.325  107.116    0.494   14.841
  172.146  106.754    0.491   14.328
  172.966  105.108    0.483   13.991
  173.786  102.607    0.477   13.829
  174.606  100.090    0.470   13.675
  175.427   89.463    0.455   13.534
  176.247   87.373    0.448   13.731
  177.067   83.161    0.439   14.314
  177.887   78.522    0.432   15.986
  178.707   74.738    0.429   20.221
  179.528   70.938    0.424   31.405
  180.348   68.009    0.422   35.107
  181.168   67.235    0.413   31.468
  181.988   67.711    0.410   27.105
  182.808   69.536    0.406   33.350
  183.629   69.996    0.406   39.055
  184.449   70.061    0.414   40.368
  185.269   70.159    0.418   40.944
  186.089   69.780    0.425   40.789
  186.909   69.434    0.421   41.738
  187.730   69.467    0.382   42.672
  188.550   68.693    0.341   43.072
  189.370   66.619    0.299   42.911
  190.190   64.102    0.263   42.215
  191.010   61.601    0.251   41.513
  191.831   60.383    0.283   41.899
  192.651   63.870    0.316   42.664
  193.471   67.373    0.350   40.683
  194.291   69.576    0.367   39.060
  195.112   71.368    0.385   38.913
  195.932   71.417    0.394   39.489
  196.752   71.055    0.401   39.531
  197.572   70.725    0.410   39.369
  198.392   69.918    0.417   39.046
  199.213   70.427    0.424   38.884
  200.033   71.332    0.427   38.898
  200.853   72.680    0.428   38.744
  201.673   74.472    0.431   38.406
  202.493   77.119    0.432   37.535
  203.314   79.323    0.436   37.367
  204.134   80.655    0.439   37.212
  204.954   81.608    0.440   27.728
  205.774   79.930    0.440   23.738
  206.594   77.429    0.429   22.853
  207.415   74.928    0.422   24.525
  208.235   72.427    0.412   27.299
  209.055   69.514    0.390   29.344
  209.875   67.013    0.381   29.013
  210.696   66.651    0.385   27.749
  211.516   70.977    0.395   25.957
  212.336   79.612    0.405   25.444
  213.156   85.253    0.423   24.910
  213.976   87.901    0.446   22.564
  214.797   89.660    0.443   20.759
  215.617   93.607    0.438   17.682
  216.437   94.955    0.435   17.169
  217.257   95.448    0.438   18.651
  218.077   95.086    0.446   20.147
  218.898   95.151    0.451   18.904
  219.718   96.071    0.453   18.018
  220.538   98.275    0.460   17.505
  221.358  100.067    0.466   17.337
  222.178  101.399    0.467   17.365
  222.999  104.063    0.467   16.662
  223.819  106.678    0.468   16.149
  224.639  109.737    0.476   15.805
  225.459  112.417    0.490   15.664
  226.280  113.321    0.496   15.685
  227.100  113.370    0.489   15.713
  227.920  113.451    0.477   15.559
  228.740  113.944    0.465   15.404
  229.560  114.437    0.456   15.249
  230.381  114.502    0.446   15.095
  231.201  114.567    0.454   14.947
  232.021  117.642    0.473   14.968
  232.841  118.974    0.495   15.003
  233.661  119.467    0.492   15.024
  234.482  119.121    0.485   15.066
  235.302  119.186    0.482   15.087
  236.122  118.823    0.489   15.115
  236.942  118.461    0.499   14.961
  237.762  119.381    0.509   14.637
  238.583  121.206    0.517   14.658
  239.403  121.666    0.522   14.321
  240.223  122.159    0.515   13.984
  241.043  121.369    0.502   13.822
  241.864  119.707    0.506   13.134
  242.684  117.650    0.510   12.965
  243.504  118.143    0.513   12.817
  244.324  122.912    0.517   12.838
  245.144  122.978    0.517   12.866
  245.965  122.187    0.518   13.084
  246.785  121.825    0.519   13.295
  247.605  122.334    0.520   13.330
  248.425  122.399    0.521   13.540
  249.245  121.609    0.520   13.562
  250.066  120.407    0.517   13.589
  250.886  120.012    0.514   13.632
  251.706  118.794    0.510   13.652
  252.526  118.431    0.507   13.505
  253.346  118.513    0.509   13.350
  254.167  118.578    0.511   13.371
  254.987  118.232    0.513   13.399
  255.807  117.869    0.514   13.252
  256.627  116.224    0.515   13.097
  257.448  115.877    0.512   13.125
  258.268  115.926    0.509   12.970
  259.088  116.008    0.508   12.816
  259.908  116.040    0.507   12.472
  260.728  113.983    0.505   12.317
  261.549  112.749    0.508   12.001
  262.369  109.853    0.512   11.832
  263.189  109.030    0.517   11.874
  264.009  108.240    0.527   11.705
  264.829  107.877    0.531   11.733
  265.650  108.830    0.541   11.782
  266.470  109.734    0.548   11.803
  267.290  111.938    0.551   11.824
  268.110  112.003    0.548   12.042
  268.930  110.374    0.537   12.063
  269.751  108.712    0.516   12.281
  270.571  106.639    0.497   12.674
  271.391  103.710    0.491   13.243
  272.211  102.064    0.490   13.636
  273.031  100.419    0.476   14.599
  273.852   97.918    0.443   14.795
  274.672   94.973    0.417   15.371
  275.492   91.616    0.382   15.954
  276.312   87.405    0.340   16.530
  277.133   84.460    0.303   17.478
  277.953   80.675    0.281   17.872
  278.773   77.319    0.276   19.544
  279.593   75.246    0.292   22.311
  280.413   78.305    0.343   28.928
  281.234   81.824    0.379   27.130
  282.054   83.156    0.383   24.777
  282.874   85.803    0.410   21.152
  283.694   87.135    0.436   18.068
  284.514   88.927    0.469   15.539
  285.335   90.292    0.477   17.393
  286.155   91.196    0.484   16.325
  286.975   92.988    0.489   15.623
  287.795   94.781    0.502   16.016
  288.615   96.984    0.518   16.051
  289.436  100.027    0.530   14.976
  290.256  103.957    0.542   13.178
  291.076  104.483    0.544   13.936
  291.896  103.232    0.537   15.980
  292.717  100.304    0.524   17.287
  293.537   96.947    0.515   17.132
  294.357   94.002    0.485   16.437
  295.177   90.218    0.471   16.275
  295.997   88.589    0.470   15.938
  296.818   89.953    0.477   15.797
  297.638   90.414    0.487   15.636
  298.458   91.778    0.498   15.488
  299.278   92.271    0.496   15.333
  300.098   91.908    0.487   15.179
  300.919   90.295    0.478   15.207
  301.739   89.489    0.474   15.790
  302.559   89.142    0.468   16.914
  303.379   90.030    0.469   18.030
  304.199   93.106    0.476   17.693
  305.020   96.609    0.483   14.244
  305.840   98.368    0.490   12.628
  306.660  101.016    0.493   11.560
  307.480   97.643    0.494   11.595
  308.301  101.590    0.494   11.982
  309.121  105.060    0.493   11.293
  309.941  109.435    0.495   10.773
  310.761  108.217    0.499   10.436
  311.581  107.838    0.509   10.106
  312.402  108.347    0.518    9.944
  313.222  108.840    0.520    9.782
  314.042  108.050    0.519    9.824
  314.862  107.259    0.525    9.838
  315.682  106.881    0.529   10.049
  316.503  104.380    0.523   10.274
  317.323  100.596    0.484   10.470
  318.143   96.811    0.461   10.695
  318.963   93.867    0.452   11.271
  319.783   90.082    0.440   11.847
  320.604   87.598    0.436   15.710
  321.424   88.535    0.428   21.049
  322.244   88.995    0.457   19.244
  323.064   91.231    0.462   15.984
  323.885   92.151    0.462   13.996
  324.705   93.516    0.465   12.570
  325.525   93.976    0.466   13.870
  326.345   95.324    0.473   14.277
  327.165   97.149    0.476   13.764
