~VERSION INFORMATION
 VERS.                 2.0:   CWLS LOG ASCII STANDARD -VERSION 2.0
 WRAP.                  NO:   ONE LINE PER DEPTH STEP
~WELL INFORMATION BLOCK
#MNEM.UNIT           DATA                    DESCRIPTION OF MNEMONIC
#---------    -------------------            -------------------------------
# Generated from Intellog Unique Number	CN_94_101/WELL/5026
WELL.         11-35-097-11W4                 : Well_name    - WELL
LOC .         AA/11-35-097-11W4/0            : Location     - LOCATION
UWI .         AA/11-35-097-11W400            : Uwi          - UNIQUE WELL ID
ENTR.         JOETTE                         : Entered      - ENTERED BY
SRVC.         SCHLUMBERGER                   : Scn          - SERVICE COMPANY
DATE.         08/13/92                       : Date         - LOG DATE
STRT.M        0                              : top_depth    - START DEPTH
STOP.M        85                             : bot_depth    - STOP DEPTH
STEP.M        0.25                           : increment    - STEP LENGTH
 NULL. -999.2500:NULL Value
~CURVE INFORMATION BLOCK
#MNEM UNIT       ERCB CURVE CODE    CURVE DESCRIPTION
#-----------   ------------------   ----------------------------------
DEPT.M        00 001 00 00         : DEPTH        - DEPTH
GR  .API      00 310 00 00         : GR           - GAMMA RAY
ILD .OHMM     00 120 00 00         : RESD         - DEEP RESISTIVITY (DIL)
NPHI.V/V      00 330 00 00         : PHIN         - NEUTRON POROSITY (SANDSTONE)
DPHI.V/V      00 890 00 00         : PHID         - DENSITY POROSITY (SANDSTONE)
~PARAMETER INFORMATION
#MNEM.UNIT           DATA             DESCRIPTION OF MNEMONIC
#---------         -----------     ------------------------------
GL  .M        294.2                : gl           - GROUND LEVEL ELEVATION
EREF.M        294.2                : kb           - ELEVATION OF DEPTH REFERENCE
DATM.M        294.2                : datum        - DATUM ELEVATION
TDD .M        85.3                 : tdd          - TOTAL DEPTH DRILLER
RUN .         ONE                  : Run          - RUN NUMBER
ENG .         BILL                 : Engineer     - RECORDING ENGINEER
WIT .         JIM                  : Witness      - WITNESSED BY
MUD .         GEL                  : Mud_type     - MUD TYPE
MATR.         SANDSTONE            : Logunit      - NEUTRON MATRIX
TMAX.C        10                   : BHT          - MAXIMUM RECORDED TEMPERATURE
BHTD.M        85.3                 : BHTDEP       - MAXIMUM RECORDED TEMPERATURE
RMT .C        10                   : MDTP         - TEMPERATURE OF MUD
MUDD.KG/M     1090                 : MWT          - MUD DENSITY
NEUT.         1                    : NEUTRON      - NEUTRON TYPE
RESI.         0                    : RESIST       - RESISTIVITY TYPE
RM  .OHMM     13.1                 : RM           - RESISTIVITY OF MUD
RMC .OHMM     13.1                 : RMC          - RESISTIVITY OF MUD CAKE
RMF .OHMM     13.1                 : RMF          - RESISTIVITY OF MUD FILTRATE
SUFT.C        4                    : SUFT         - SURFACE TEMPERATURE
~A  DEPTH       GR     RESD     PHIN     PHID
    0.000   55.737   68.803    0.568    0.004
    0.250   54.560   68.806    0.567    0.004
    0.500   53.972   67.846    0.568    0.004
    0.750   53.385   67.849    0.575    0.004
    1.000   52.799   67.852    0.579    0.004
    1.250   48.062   68.819    0.585    0.002
    1.500   44.513   68.821    0.591    0.002
    1.750   48.078   68.824    0.593    0.004
    2.000   46.897   68.827    0.558    0.006
    2.250   43.347   65.058    0.551    0.009
    2.500   43.947   62.366    0.594    0.015
    2.750   44.546   59.786    0.598    0.016
    3.000   44.553   54.940    0.591    0.015
    3.250   48.118   46.392    0.559    0.012
    3.500   48.717   35.998    0.492    0.010
    3.750   46.946   24.953    0.456    0.009
    4.000   45.767   15.237    0.425    0.006
    4.250   43.995   10.268    0.472    0.006
    4.500   49.931    7.531    0.504    0.006
    4.750   51.124    5.927    0.497    0.007
    5.000   47.575    6.096    0.467    0.010
    5.250   45.210    5.446    0.426    0.038
    5.500   45.808    5.682    0.430    0.230
    5.750   48.188    6.097    0.437    0.283
    6.000   49.974    5.763    0.408    0.320
    6.250   50.572    5.006    0.387    0.249
    6.500   49.986    4.798    0.378    0.237
    6.750   45.843    4.600    0.361    0.229
    7.000   45.257    4.600    0.359    0.259
    7.250   49.414    4.600    0.364    0.253
    7.500   47.049    4.732    0.393    0.182
    7.750   47.058    4.868    0.419    0.153
    8.000   42.320    5.078    0.450    0.165
    8.250   39.957    5.224    0.471    0.165
    8.500   42.334    5.224    0.445    0.197
    8.750   44.712    5.151    0.440    0.230
    9.000   40.569    5.079    0.425    0.159
    9.250   39.983    5.008    0.410    0.131
    9.500   38.211    4.938    0.412    0.133
    9.750   38.813    4.869    0.445    0.208
   10.000   37.634    4.870    0.470    0.226
   10.250   35.269    4.870    0.440    0.166
   10.500   38.239    4.870    0.412    0.270
   10.750   37.654    4.870    0.365    0.359
   11.000   39.440    4.802    0.314    0.399
   11.250   35.298    4.803    0.279    0.389
   11.500   35.898    4.803    0.244    0.360
   11.750   39.463    4.803    0.240    0.371
   12.000   42.432    5.301    0.253    0.382
   12.250   43.032    5.227    0.281    0.350
   12.500   40.075    5.302    0.313    0.344
   12.750   39.490    5.302    0.344    0.397
   13.000   40.088    5.302    0.355    0.450
   13.250   37.724    5.302    0.388    0.436
   13.500   38.916    5.228    0.403    0.438
   13.750   40.111    5.083    0.398    0.463
   14.000   38.339    5.012    0.399    0.476
   14.250   40.716    5.013    0.404    0.454
   14.500   40.723    5.013    0.402    0.454
   14.750   38.953    5.013    0.413    0.457
   15.000   40.738    5.013    0.397    0.462
   15.250   40.151    5.014    0.370    0.429
   15.500   37.193    5.014    0.386    0.451
   15.750   34.830    4.875    0.380    0.428
   16.000   36.616    4.875    0.371    0.468
   16.250   37.807    4.807    0.390    0.471
   16.500   38.407    4.807    0.429    0.475
   16.750   37.821    4.807    0.419    0.472
   17.000   39.013    4.807    0.386    0.456
   17.250   41.394    4.808    0.356    0.451
   17.500   44.365    4.808    0.312    0.452
   17.750   47.928    4.876    0.338    0.470
   18.000   47.343    4.946    0.381    0.465
   18.250   48.536    5.016    0.354    0.449
   18.500   46.170    5.160    0.311    0.446
   18.750   44.993    5.308    0.287    0.455
   19.000   47.371    5.776    0.472    0.459
   19.250   47.971    6.375    0.509    0.349
   19.500   48.571    8.817    0.524    0.232
   19.750   51.542   17.592    0.533    0.195
   20.000   55.700   29.637    0.546    0.157
   20.250   52.740   38.198    0.558    0.327
   20.500   55.119   44.606    0.578    0.326
   20.750   54.533   49.933    0.600    0.337
   21.000   60.469   57.495    0.536    0.369
   21.250   58.697   80.644    0.407    0.229
   21.500   57.520   87.764    0.326    0.085
   21.750   60.490   92.858    0.334    0.148
   22.000   67.612   65.283    0.382    0.137
   22.250   78.885   55.126    0.450    0.201
   22.500   89.565   42.775    0.523    0.372
   22.750   91.943   40.431    0.581    0.424
   23.000   94.322   38.217    0.512    0.385
   23.250   89.589   35.617    0.423    0.297
   23.500   91.964   30.936    0.481    0.375
   23.750   96.716   28.832    0.518    0.404
   24.000   98.502   26.495    0.515    0.435
   24.250   91.392   25.399    0.508    0.438
   24.500   87.841   24.694    0.501    0.412
   24.750   88.443   24.350    0.494    0.406
   25.000   92.007   24.010    0.506    0.400
   25.250   93.793   24.011    0.517    0.393
   25.500   91.427   24.012    0.510    0.384
   25.750   90.841   23.677    0.498    0.388
   26.000   92.628   23.347    0.490    0.416
   26.250   94.414   23.021    0.496    0.398
   26.500   89.084   22.700    0.503    0.422
   26.750   89.091   22.383    0.503    0.417
   27.000   89.689   21.762    0.526    0.384
   27.250   93.255   21.458    0.515    0.377
   27.500   93.262   21.159    0.501    0.372
   27.750   96.825   20.864    0.487    0.380
   28.000   91.496   20.865    0.476    0.388
   28.250   95.064   20.865    0.470    0.385
   28.500   93.881   21.163    0.481    0.391
   28.750   90.924   21.163    0.493    0.413
   29.000   90.931   21.165    0.498    0.407
   29.250   95.088   21.165    0.496    0.401
   29.500   91.537   20.870    0.485    0.405
   29.750   89.766   20.579    0.482    0.396
   30.000   90.958   20.579    0.491    0.382
   30.250   95.709   20.581    0.499    0.407
   30.500   88.007   20.582    0.499    0.419
   30.750   70.227   20.582    0.488    0.395
   31.000   56.597   21.472    0.438    0.340
   31.250   51.268   28.068    0.414    0.147
   31.500   53.646   29.697    0.385    0.060
   31.750   70.255   84.282    0.294    0.215
   32.000   86.863   56.005    0.439    0.322
   32.250   86.870   56.803    0.480    0.337
   32.500   88.063   61.818    0.490    0.322
   32.750   91.034   75.307    0.486    0.329
   33.000   85.112   90.456    0.518    0.359
   33.250   96.977   89.194    0.509    0.353
   33.500   99.949   84.308    0.498    0.341
   33.750   92.841   87.953    0.502    0.352
   34.000   96.407  101.272    0.503    0.333
   34.250   88.704  104.173    0.481    0.343
   34.500   88.711  111.784    0.509    0.355
   34.750   83.975  132.390    0.496    0.326
   35.000   80.424  104.186    0.572    0.286
   35.250  106.523   84.334    0.566    0.273
   35.500  101.786   76.414    0.451    0.297
   35.750   94.677   79.718    0.422    0.327
   36.000   80.454   85.542    0.470    0.325
   36.250   66.824   95.757    0.493    0.300
   36.500   70.981  104.214    0.491    0.289
   36.750   80.474  104.219    0.522    0.286
   37.000   78.703  154.658    0.528    0.268
   37.250   63.888  249.762    0.520    0.264
   37.500   68.046  283.560    0.511    0.279
   37.750   69.238  268.030    0.501    0.289
   38.000   68.059  253.341    0.511    0.289
   38.250   69.844  220.043    0.543    0.318
   38.500   77.558  165.995    0.544    0.316
   38.750   81.717  125.222    0.522    0.285
   39.000   85.280   89.285    0.550    0.264
   39.250  104.853   48.704    0.421    0.289
   39.500  107.824   41.127    0.357    0.297
   39.750   98.938   42.905    0.411    0.323
   40.000   90.644   75.404    0.544    0.331
   40.250   82.945  110.332    0.492    0.300
   40.500   82.357  123.507    0.470    0.284
   40.750   80.587  134.414    0.500    0.285
   41.000   78.813  125.271    0.508    0.289
   41.250   74.079  113.506    0.506    0.268
   41.500   72.900  115.122    0.514    0.298
   41.750   77.055  123.534    0.485    0.302
   42.000   80.621  121.810    0.476    0.304
   42.250   82.998  107.303    0.458    0.311
   42.500   83.598  100.005    0.475    0.304
   42.750   82.419   90.613    0.475    0.305
   43.000   81.835   71.308    0.470    0.328
   43.250   83.619   65.529    0.422    0.326
