~VERSION INFORMATION
 VERS.                 2.0:   CWLS LOG ASCII STANDARD -VERSION 2.0
 WRAP.                  NO:   ONE LINE PER DEPTH STEP
~WELL INFORMATION BLOCK
#MNEM.UNIT           DATA                    DESCRIPTION OF MNEMONIC
#---------    -------------------            -------------------------------
# Generated from Intellog Unique Number	CC_84_87/WELL/2324
NULL.         -999.25                        : NULL_VALUE
WELL.         PEX PCEJ HANGST OV             : Well_name    - WELL
LOC .         11-07-084-08W4                 : Location     - LOCATION          
UWI .         AA/11-07-084-08W4/0            : Uwi          - UNIQUE WELL ID    
ENTR.         RJA                            : Entered      - ENTERED BY        
SRVC.         DRESSER ATLAS                  : Scn          - SERVICE COMPANY   
DATE.         30 JAN 80                      : Date         - LOG DATE
STRT.M        250                            : top_depth    - START DEPTH       
STOP.M        537.089                        : bot_depth    - STOP DEPTH        
STEP.M        0.3                            : increment    - STEP LENGTH       
~CURVE INFORMATION BLOCK
#MNEM UNIT       ERCB CURVE CODE    CURVE DESCRIPTION
#-----------   ------------------   ----------------------------------
DEPT.M        00 001 00 00         : DEPTH        - DEPTH                       
DPHI.V/V      00 890 00 00         : PHID         - DENSITY POROSITY (LIMESTONE)
NPHI.V/V      00 330 00 00         : PHIN         - NEUTRON POROSITY (LIMESTONE)
GR  .API      00 310 00 00         : GR           - GAMMA RAY                   
ILD .OHMM     00 120 00 00         : RESD         - DEEP RESISTIVITY (DIL)      
~PARAMETER INFORMATION       
#MNEM.UNIT           DATA             DESCRIPTION OF MNEMONIC
#---------         -----------     ------------------------------
GL  .M        272.32               : gl           - GROUND LEVEL ELEVATION      
EREF.M        730.92               : kb           - ELEVATION OF DEPTH REFERENCE
DATM.M        730.92               : datum        - DATUM ELEVATION             
TDD .M        541                  : tdd          - TOTAL DEPTH DRILLER         
RUN .         ONE                  : Run          - RUN NUMBER                  
ENG .         BILL                 : Engineer     - RECORDING ENGINEER          
WIT .         JIM                  : Witness      - WITNESSED BY                
MUD .         GEL                  : Mud_type     - MUD TYPE                    
MATR.         LIMESTONE            : Logunit      - NEUTRON MATRIX              
TMAX.C        20                   : BHT          - MAXIMUM RECORDED TEMPERATURE
BHTD.M        541                  : BHTDEP       - MAXIMUM RECORDED TEMPERATURE
MATR.         1                    : LOGUNIT      - NEUTRON MATRIX              
RMT .C        25                   : MDTP         - TEMPERATURE OF MUD          
NEUT.         1                    : NEUTRON      - NEUTRON TYPE                
RESI.         0                    : RESIST       - RESISTIVITY TYPE            
RMC .OHMM     0.25                 : RMC          - RESISTIVITY OF MUD CAKE     
RMF .OHMM     0.25                 : RMF          - RESISTIVITY OF MUD FILTRATE 
SUFT.C        15                   : SUFT         - SURFACE TEMPERATURE         
~A  DEPTH     PHID     PHIN       GR     RESD
# ...
  458.792    0.277    0.408   94.901   36.514
  459.092    0.266    0.406   97.675   30.274
  459.392    0.238    0.402   92.166   22.501
  459.692    0.242    0.399   95.674   18.899
  459.992    0.223    0.400   95.504   17.381
  460.292    0.207    0.391   89.380   16.961
  460.592    0.201    0.390   90.312   16.798
  460.892    0.198    0.378   98.914   16.180
  461.192    0.195    0.387  110.768   15.216
  461.492    0.192    0.396  102.374   13.942
  461.792    0.199    0.413  116.744   12.775
  462.092    0.227    0.417  107.866   13.879
  462.392    0.255    0.409  100.388   15.619
  462.692    0.247    0.403   83.649   16.323
  462.992    0.245    0.418   87.956   15.264
  463.292    0.214    0.428   86.189   14.143
  463.592    0.170    0.411  101.171   12.627
  463.892    0.164    0.382  115.785   12.119
  464.192    0.166    0.366  112.546   11.934
  464.492    0.170    0.378  113.724   12.018
  464.792    0.174    0.385   95.452   12.375
  465.092    0.173    0.394  104.176   13.224
  465.392    0.183    0.401  102.226   14.394
  465.692    0.208    0.373   84.077   14.959
  465.992    0.200    0.391   90.777   15.319
  466.292    0.190    0.392  100.851   14.378
  466.591    0.191    0.383   90.924   13.824
  466.891    0.207    0.388   78.789   16.024
  467.191    0.226    0.399   79.476   16.531
  467.491    0.210    0.394   93.721   16.131
  467.791    0.210    0.395   99.379   16.125
  468.091    0.225    0.407   87.980   16.388
  468.391    0.255    0.393   77.377   16.598
  468.691    0.260    0.373   65.976   17.344
  468.991    0.227    0.368   96.789   19.056
  469.291    0.240    0.364   86.555   24.098
  469.591    0.260    0.328   64.233   25.137
  469.891    0.103    0.307   84.247   25.220
  470.191    0.194    0.264   81.008   31.661
  470.491    0.275    0.354   69.301   34.399
  470.791    0.286    0.355   78.149   44.233
  471.091    0.278    0.350   64.418   52.817
  471.391    0.249    0.350   72.099   50.785
  471.691    0.233    0.347   89.167   40.798
  471.991    0.225    0.372   92.309   32.900
  472.291    0.217    0.366   92.075   25.708
  472.591    0.217    0.370   99.941   21.751
  472.891    0.225    0.382   94.002   21.266
  473.191    0.249    0.384   83.462   22.018
  473.491    0.271    0.389   82.675   24.825
  473.791    0.275    0.386   73.300   32.101
  474.091    0.294    0.431   70.123   45.284
  474.391    0.305    0.435   51.545  137.001
  474.691    0.317    0.444   43.702 1495.770
  474.991    0.322    0.470   35.861  663.168
  475.291    0.302    0.442   37.530  171.848
  475.591    0.285    0.437   53.617  114.935
  475.891    0.304    0.422   60.993   96.713
  476.191    0.299    0.426   46.771   91.110
  476.491    0.287    0.428   55.802   78.533
  476.791    0.283    0.432   57.961   64.271
  477.091    0.282    0.419   52.880   68.802
  477.391    0.294    0.452   52.342   76.714
  477.691    0.292    0.465   47.322   72.543
  477.991    0.236    0.394   49.850   52.343
  478.291    0.207    0.377   72.379   37.910
  478.591    0.244    0.393   85.340   29.240
  478.891    0.272    0.416   75.594   23.798
  479.191    0.303    0.451   68.857   23.658
  479.491    0.311    0.459   52.611   30.142
  479.791    0.297    0.426   43.112   44.534
  480.091    0.248    0.434   46.869   50.585
  480.391    0.232    0.444   62.158   35.238
  480.691    0.222    0.432   79.103   27.689
  480.991    0.222    0.433   82.552   22.410
  481.291    0.247    0.423   85.140   21.113
  481.591    0.284    0.453   56.622   24.886
  481.891    0.309    0.460   34.914   32.962
  482.191    0.305    0.464   39.773   54.828
  482.491    0.297    0.484   42.487  111.810
  482.791    0.290    0.468   44.277  128.893
  483.091    0.289    0.469   47.911  131.739
  483.391    0.310    0.497   42.093  145.276
  483.691    0.323    0.508   41.369  200.429
  483.991    0.317    0.517   39.297  396.771
  484.291    0.309    0.525   40.535 2476.340
  484.591    0.305    0.529   38.706 2466.260
  484.891    0.308    0.542   40.192 1902.240
  485.191    0.306    0.481   35.540  849.660
  485.491    0.309    0.498   47.270  186.024
  485.791    0.320    0.497   42.374  237.008
  486.091    0.322    0.503   34.963  240.454
  486.391    0.303    0.487   38.473  127.110
  486.691    0.228    0.445   63.026   80.274
  486.991    0.216    0.437   88.747   45.868
  487.291    0.231    0.449   84.158   33.527
  487.591    0.275    0.441   68.401   30.835
  487.891    0.304    0.423   54.977   34.380
  488.191    0.265    0.400   70.695   39.127
  488.491    0.237    0.379   86.109   38.679
  488.791    0.252    0.358   99.617   34.215
  489.091    0.285    0.390   82.696   30.606
  489.391    0.294    0.413   74.487   29.919
  489.691    0.302    0.392   88.734   33.485
  489.991    0.291    0.375   77.579   35.847
  490.291    0.278    0.349  100.783   31.533
  490.591    0.270    0.353   90.182   27.485
  490.891    0.276    0.331   81.910   23.735
  491.190    0.280    0.332   65.479   20.763
  491.490    0.276    0.324   65.245   19.097
  491.790    0.275    0.335   78.388   15.979
  492.090    0.275    0.331   71.037   13.876
  492.390    0.275    0.315   61.539   12.005
  492.690    0.279    0.338   66.032   10.581
  492.990    0.283    0.346   59.296    9.036
  493.290    0.290    0.331   52.127    8.008
  493.590    0.294    0.339   46.557    7.544
  493.890    0.299    0.333   43.869    7.389
  494.190    0.297    0.336   45.294    7.442
  494.490    0.303    0.350   43.894    7.522
  494.790    0.310    0.365   37.402    7.533
  495.090    0.313    0.379   46.433    7.364
  495.390    0.306    0.384   46.261    7.106
  495.690    0.305    0.375   46.028    6.683
  495.990    0.306    0.348   36.164    6.509
  496.290    0.304    0.317   32.186    6.293
  496.590    0.301    0.326   30.971    6.152
  496.890    0.304    0.339   30.187    6.253
  497.190    0.307    0.338   38.297    6.380
  497.490    0.308    0.336   41.194    6.569
  497.790    0.288    0.326   38.077    6.789
  498.090    0.283    0.316   34.038    6.925
  498.390    0.275    0.298   41.538    6.949
  498.690    0.273    0.273   44.617    6.985
  498.990    0.269    0.286   43.280    7.087
  499.290    0.270    0.289   29.671    7.338
  499.590    0.265    0.275   24.283    7.279
  499.890    0.245    0.283   27.364    7.130
  500.190    0.234    0.288   29.645    6.971
  500.490    0.221    0.286   38.492    6.955
  500.790    0.199    0.300   39.977    7.148
  501.090    0.207    0.304   37.045    7.213
  501.390    0.230    0.303   48.714    7.468
  501.690    0.229    0.317   63.023    7.848
  501.990    0.244    0.323   62.666    7.816
  502.290    0.230    0.308   84.521    8.003
  502.590    0.210    0.307   82.939    8.210
  502.890    0.216    0.277   68.164    8.485
  503.190    0.222    0.303   69.341    8.999
  503.490    0.220    0.314   68.494    9.181
  503.790    0.222    0.313   72.374    9.126
  504.090    0.227    0.306   74.043    8.889
  504.390    0.231    0.308   74.423    8.484
  504.690    0.237    0.295   63.020    8.450
  504.990    0.243    0.291   56.346    8.094
  505.290    0.240    0.290   46.175    7.120
  505.590    0.179    0.265   54.836    6.172
  505.890    0.000    0.212   56.627    5.686
  506.190    0.008    0.201   66.272    5.580
  506.490    0.005    0.189   75.918    6.256
  506.790    0.000    0.178   82.372    8.810
  507.090    0.000    0.181   89.074   16.963
  507.390    0.000    0.187   86.875   24.695
  507.690    0.000    0.194   80.938   31.230
  507.990    0.006    0.198   75.980   31.683
  508.290    0.019    0.204   74.456   31.495
  508.590    0.026    0.197   86.618   30.849
  508.890    0.024    0.204   87.059   24.464
  509.190    0.025    0.212   81.794   21.562
  509.490    0.028    0.220   80.887   23.081
  509.790    0.024    0.222   85.991   24.891
  510.090    0.028    0.224   79.439   25.773
  510.390    0.035    0.230   83.132   26.538
  510.690    0.028    0.219   87.623   26.090
