~VERSION INFORMATION
 VERS.                 2.0:   CWLS LOG ASCII STANDARD -VERSION 2.0
 WRAP.                  NO:   ONE LINE PER DEPTH STEP
~WELL INFORMATION BLOCK
#MNEM.UNIT           DATA                    DESCRIPTION OF MNEMONIC
#---------    -------------------            -------------------------------
# Generated from Intellog Unique Number	CN_94_101/WELL/5025
WELL.         11-30-101-13W4                 : Well_name    - WELL
LOC .         AA/11-30-101-13W4/0            : Location     - LOCATION
UWI .         AA/11-30-101-13W400            : Uwi          - UNIQUE WELL ID
ENTR.         TIM                            : Entered      - ENTERED BY
SRVC.         SCHLUMBERGER                   : Scn          - SERVICE COMPANY
DATE.         08/13/92                       : Date         - LOG DATE
STRT.M        390                            : top_depth    - START DEPTH
STOP.M        500                            : bot_depth    - STOP DEPTH
STEP.M        0.25                           : increment    - STEP LENGTH
NULL. -999.2500:NULL Value
~CURVE INFORMATION BLOCK
#MNEM UNIT       ERCB CURVE CODE    CURVE DESCRIPTION
#-----------   ------------------   ----------------------------------
DEPT.M        00 001 00 00         : DEPTH        - DEPTH
GR  .API      00 310 00 00         : GR           - GAMMA RAY
ILD .OHMM     00 120 00 00         : RESD         - DEEP RESISTIVITY (DIL)
NPHI.V/V      00 330 00 00         : PHIN         - NEUTRON POROSITY (SANDSTONE)
DPHI.V/V      00 890 00 00         : PHID         - DENSITY POROSITY (SANDSTONE)
~PARAMETER INFORMATION
#MNEM.UNIT           DATA             DESCRIPTION OF MNEMONIC
#---------         -----------     ------------------------------
GL  .M        723.6                : gl           - GROUND LEVEL ELEVATION
EREF.M        726.86               : kb           - ELEVATION OF DEPTH REFERENCE
DATM.M        726.86               : datum        - DATUM ELEVATION
TDD .M        503                  : tdd          - TOTAL DEPTH DRILLER
RUN .         ONE                  : Run          - RUN NUMBER
ENG .         BILL                 : Engineer     - RECORDING ENGINEER
WIT .         JIM                  : Witness      - WITNESSED BY
MUD .         GEL                  : Mud_type     - MUD TYPE
MATR.         SANDSTONE            : Logunit      - NEUTRON MATRIX
TMAX.C        30                   : BHT          - MAXIMUM RECORDED TEMPERATURE
BHTD.M        503                  : BHTDEP       - MAXIMUM RECORDED TEMPERATURE
RMT .C        10                   : MDTP         - TEMPERATURE OF MUD
MUDD.KG/M     1090                 : MWT          - MUD DENSITY
NEUT.         1                    : NEUTRON      - NEUTRON TYPE
RESI.         0                    : RESIST       - RESISTIVITY TYPE
RM  .OHMM     0.75                 : RM           - RESISTIVITY OF MUD
RMC .OHMM     0.75                 : RMC          - RESISTIVITY OF MUD CAKE
RMF .OHMM     0.75                 : RMF          - RESISTIVITY OF MUD FILTRATE
SUFT.C        4                    : SUFT         - SURFACE TEMPERATURE
~A  DEPTH       GR     RESD     PHIN     PHID
  390.000   99.047    4.211    0.558    0.228
  390.250  103.415    3.899    0.563    0.242
  390.500  105.275    3.972    0.556    0.256
  390.750   99.616    4.284    0.538    0.263
  391.000   97.715    4.799    0.535    0.260
  391.250   94.562    4.983    0.524    0.262
  391.500   93.912    4.614    0.524    0.262
  391.750   92.641    4.439    0.533    0.258
  392.000   91.364    4.608    0.543    0.257
  392.250   90.719    5.066    0.529    0.264
  392.500   89.448    5.675    0.464    0.264
  392.750   88.803    5.565    0.452    0.264
  393.000   91.290    5.353    0.473    0.270
  393.250   95.031    5.350    0.493    0.286
  393.500   93.757    4.954    0.521    0.279
  393.750   91.229    4.333    0.510    0.294
  394.000   89.960    3.937    0.528    0.292
  394.250   88.056    3.646    0.583    0.278
  394.500   83.023    3.714    0.572    0.287
  394.750   76.105    4.846    0.483    0.300
  395.000   80.477    7.087    0.452    0.316
  395.250   82.335    6.689    0.457    0.290
  395.500   78.553    6.194    0.450    0.266
  395.750   79.165    5.736    0.414    0.214
  396.000   79.771    5.114    0.460    0.228
  396.250   82.885    4.473    0.487    0.263
  396.500   84.119    3.837    0.511    0.275
  396.750   82.844    3.909    0.512    0.277
  397.000   86.585    4.059    0.505    0.278
  397.250   87.197    3.979    0.507    0.277
  397.500   85.923    4.374    0.513    0.287
  397.750   87.785    4.995    0.505    0.293
  398.000   88.392    5.087    0.517    0.278
  398.250   83.354    4.123    0.534    0.309
  398.500   87.722    3.406    0.524    0.316
  398.750   87.704    3.154    0.544    0.313
  399.000   85.805    3.152    0.558    0.308
  399.250   82.024    3.335    0.563    0.300
  399.500   83.886    3.463    0.553    0.275
  399.750   86.998    3.734    0.549    0.286
  400.000   89.490    3.731    0.547    0.281
  400.250   90.097    3.874    0.561    0.270
  400.500   81.924    4.022    0.577    0.270
  400.750   76.267    3.797    0.564    0.279
  401.000   73.739    4.503    0.516    0.300
  401.250   73.089    4.676    0.494    0.310
  401.500   71.193    4.248    0.487    0.291
  401.750   71.797    4.759    0.480    0.267
  402.000   78.675    4.666    0.466    0.253
  402.250   86.806    4.239    0.466    0.221
  402.500   94.306    3.926    0.523    0.269
  402.750   96.796    3.777    0.545    0.272
  403.000   97.402    3.634    0.555    0.278
  403.250   97.382    3.563    0.555    0.285
  403.500   96.734    3.560    0.554    0.274
  403.750   95.465    3.627    0.559    0.289
  404.000   92.308    3.765    0.559    0.301
  404.250   89.151    4.138    0.540    0.314
  404.500   86.628    4.636    0.498    0.306
  404.750   83.470    4.906    0.529    0.318
  405.000   81.574    5.191    0.539    0.329
  405.250   80.930    5.288    0.519    0.325
  405.500   82.163    5.087    0.508    0.298
  405.750   84.021    5.084    0.513    0.293
  406.000   82.749    4.890    0.499    0.303
  406.250   82.729    4.615    0.530    0.308
  406.500   88.980    4.357    0.542    0.281
  406.750   98.362    3.738    0.544    0.280
  407.000   92.700    3.147    0.537    0.288
  407.250   92.053    3.394    0.538    0.293
  407.500   87.020    3.731    0.536    0.304
  407.750   84.492    3.874    0.511    0.318
  408.000   81.337    3.656    0.510    0.304
  408.250   80.695    3.451    0.525    0.290
  408.500   80.042    4.252    0.518    0.269
  408.750   80.654    4.586    0.496    0.235
  409.000   86.902    4.853    0.469    0.206
  409.250   88.138    4.943    0.490    0.281
  409.500   86.237    4.665    0.507    0.276
  409.750   84.966    4.662    0.537    0.273
  410.000   86.199    4.749    0.535    0.266
  410.250   86.176    4.838    0.528    0.265
  410.500   86.156    5.119    0.515    0.265
  410.750   85.511    4.476    0.509    0.276
  411.000   85.496    4.307    0.543    0.281
  411.250   86.099    4.557    0.537    0.281
  411.500   86.708    4.914    0.531    0.285
  411.750   87.944    5.005    0.525    0.280
  412.000   91.056    4.636    0.515    0.275
  412.250   97.304    3.481    0.513    0.270
  412.500  102.931    3.414    0.529    0.266
  412.750  106.672    3.682    0.524    0.274
  413.000  107.278    3.679    0.530    0.284
  413.250  107.258    3.607    0.544    0.274
  413.500   99.090    3.340    0.556    0.287
  413.750   94.055    3.153    0.578    0.292
  414.000   90.273    3.151    0.593    0.282
  414.250   87.748    3.271    0.569    0.292
  414.500   88.354    3.269    0.577    0.302
  414.750   84.570    3.394    0.540    0.292
  415.000   84.552    3.591    0.518    0.288
  415.250   88.293    3.588    0.530    0.288
  415.500   90.158    3.656    0.539    0.289
  415.750   91.392    3.653    0.516    0.296
  416.000   93.876    3.514    0.513    0.289
  416.250   95.115    3.446    0.535    0.280
  416.500   95.092    3.444    0.519    0.286
  416.750   93.193    3.508    0.539    0.287
  417.000   90.665    3.506    0.536    0.296
  417.250   89.394    3.853    0.502    0.306
  417.500   90.000    3.925    0.503    0.301
  417.750   90.607    3.635    0.534    0.286
  418.000   91.213    3.563    0.570    0.277
  418.250   91.190    3.562    0.557    0.272
  418.500   91.177    3.559    0.552    0.276
  418.750   93.035    3.423    0.565    0.276
  419.000   96.151    3.357    0.586    0.291
  419.250   99.266    3.291    0.594    0.292
  419.500  101.128    3.353    0.579    0.279
  419.750  102.359    3.415    0.563    0.289
  420.000  102.971    3.413    0.584    0.276
  420.250  102.318    3.347    0.579    0.269
  420.500  101.049    3.344    0.580    0.278
  420.750  101.658    3.407    0.550    0.304
  421.000   94.113    3.604    0.547    0.300
  421.250   91.585    3.813    0.522    0.298
  421.500   92.194    3.811    0.521    0.293
  421.750   94.056    3.809    0.530    0.294
  422.000   95.917    3.806    0.541    0.308
  422.250   97.153    3.877    0.521    0.311
  422.500   99.010    4.025    0.518    0.278
  422.750  100.873    4.259    0.509    0.241
  423.000  103.363    4.176    0.489    0.193
  423.250  105.220    3.794    0.523    0.241
  423.500  107.708    3.514    0.522    0.248
  423.750  108.319    3.380    0.531    0.262
  424.000  107.042    3.314    0.543    0.315
  424.250   93.862    3.128    0.560    0.328
  424.500   94.466    2.953    0.587    0.329
  424.750   94.446    2.841    0.602    0.335
  425.000   93.174    2.839    0.581    0.344
  425.250   91.271    2.892    0.559    0.350
  425.500   89.370    3.002    0.589    0.340
  425.750   88.103    3.058    0.594    0.330
  426.000   84.946    3.426    0.560    0.324
  426.250   80.540    4.063    0.545    0.319
  426.500   76.755    4.729    0.580    0.317
  426.750   71.093    6.170    0.512    0.324
  427.000   71.073    7.181    0.470    0.330
  427.250   74.189    7.176    0.452    0.317
  427.500   78.557    7.037    0.491    0.281
  427.750   83.557    6.770    0.526    0.240
  428.000   91.061    4.366    0.554    0.232
  428.250   93.546    4.043    0.538    0.308
  428.500   90.391    4.117    0.518    0.306
  428.750   87.239    4.526    0.505    0.292
  429.000   83.457    4.881    0.498    0.290
  429.250   85.947    4.607    0.500    0.315
  429.500   81.541    4.432    0.517    0.323
  429.750   70.861    4.780    0.503    0.339
  430.000   62.691    5.890    0.488    0.352
  430.250   62.671    7.398    0.503    0.346
  430.500   65.158    8.132    0.488    0.337
  430.750   68.272    7.530    0.477    0.326
  431.000   70.766    6.341    0.488    0.325
  431.250   77.642    4.167    0.508    0.337
  431.500   85.766    3.378    0.572    0.332
  431.750   88.258    3.011    0.602    0.330
  432.000   88.240    3.009    0.581    0.324
  432.250   88.847    3.124    0.563    0.316
  432.500   89.453    3.369    0.544    0.318
  432.750   88.179    3.847    0.524    0.332
  433.000   88.158    4.149    0.494    0.319
  433.250   90.648    3.770    0.540    0.309
