~VERSION INFORMATION
 VERS.                 2.0:   CWLS LOG ASCII STANDARD -VERSION 2.0
 WRAP.                  NO:   ONE LINE PER DEPTH STEP
~WELL INFORMATION BLOCK
#MNEM.UNIT           DATA                    DESCRIPTION OF MNEMONIC
#---------    -------------------            -------------------------------
# Generated from Intellog Unique Number	CN_94_101/WELL/3226
WELL.         11-05-096-08W4                 : Well_name    - WELL
LOC .         AA/11-05-096-08W4/0            : Location     - LOCATION
UWI .         AA/11-05-096-08W400            : Uwi          - UNIQUE WELL ID
ENTR.         JOETTE                         : Entered      - ENTERED BY
SRVC.         SCHLUMBERGER                   : Scn          - SERVICE COMPANY
DATE.         07/20/92                       : Date         - LOG DATE
STRT.F        10                             : top_depth    - START DEPTH
STOP.F        470.138                        : bot_depth    - STOP DEPTH
STEP.F        0.8202                         : increment    - STEP LENGTH
 NULL. -999.2500:NULL Value
~CURVE INFORMATION BLOCK
#MNEM UNIT       ERCB CURVE CODE    CURVE DESCRIPTION
#-----------   ------------------   ----------------------------------
DEPT.F        00 001 00 00         : DEPTH        - DEPTH
GR  .API      00 310 00 00         : GR           - GAMMA RAY
ILD .OHMM     00 120 00 00         : RESD         - DEEP RESISTIVITY (DIL)
NPHI.V/V      00 330 00 00         : PHIN         - NEUTRON POROSITY (SANDSTONE)
~PARAMETER INFORMATION
#MNEM.UNIT           DATA             DESCRIPTION OF MNEMONIC
#---------         -----------     ------------------------------
GL  .M        331.909              : gl           - GROUND LEVEL ELEVATION
EREF.M        333.433              : kb           - ELEVATION OF DEPTH REFERENCE
DATM.M        333.433              : datum        - DATUM ELEVATION
TDD .M        146.609              : tdd          - TOTAL DEPTH DRILLER
RUN .         ONE                  : Run          - RUN NUMBER
ENG .         BILL                 : Engineer     - RECORDING ENGINEER
WIT .         JIM                  : Witness      - WITNESSED BY
MUD .         GEL                  : Mud_type     - MUD TYPE
MATR.         SANDSTONE            : Logunit      - NEUTRON MATRIX
TMAX.F        40                   : BHT          - MAXIMUM RECORDED TEMPERATURE
BHTD.F        481                  : BHTDEP       - MAXIMUM RECORDED TEMPERATURE
RMT .F        40                   : MDTP         - TEMPERATURE OF MUD
MUDD.LB/G     1.02                 : MWT          - MUD DENSITY
NEUT.         1                    : NEUTRON      - NEUTRON TYPE
RESI.         0                    : RESIST       - RESISTIVITY TYPE
RM  .OHMM     9.5                  : RM           - RESISTIVITY OF MUD
RMC .OHMM     9.5                  : RMC          - RESISTIVITY OF MUD CAKE
RMF .OHMM     9.5                  : RMF          - RESISTIVITY OF MUD FILTRATE
SUFT.F        5                    : SUFT         - SURFACE TEMPERATURE
~A  DEPTH       GR     RESD     PHIN
   10.000   25.574 2701.070    0.070
   10.820   22.561 2655.940    0.096
   11.640   22.226 2564.670    0.115
   12.461   21.522 2389.920    0.102
   13.281   19.271 2266.370    0.096
   14.101   18.936 2149.190    0.149
   14.921   20.899 2038.730    0.228
   15.742   20.934 2004.030    0.295
   16.562   20.611 1970.540    0.295
   17.382   20.300 2200.290    0.289
   18.202   20.704 2411.960    0.258
   19.022   21.905 2595.700    0.247
   19.843   23.464 2695.730    0.255
   20.663   25.057 2651.530    0.247
   21.483   24.711 2559.600    0.233
   22.303   23.245 2383.690    0.235
   23.123   20.244 2260.460    0.232
   23.944   18.754 2223.390    0.237
   24.764   18.824 2226.200    0.257
   25.584   19.228 2269.770    0.245
   26.404   19.667 2272.650    0.207
   27.224   21.261 2117.130    0.212
   28.045   21.677 1971.010    0.228
   28.865   22.473 1707.240    0.241
   29.685   23.282 1505.800    0.229
   30.505   24.875 1304.290    0.217
   31.326   24.160 1171.800    0.217
   32.146   23.052 1091.270    0.209
   32.966   21.204 1053.770    0.205
   33.786   19.358 1155.140    0.211
   34.606   19.000 1336.990    0.219
   35.426   18.307 1757.260    0.218
   36.247   18.342 2147.500    0.216
   37.067   18.400 2626.890    0.211
   37.887   18.828 2676.610    0.214
   38.707   19.624 2728.990    0.228
   39.528   20.814 2587.900    0.246
   40.348   22.026 2366.780    0.261
   41.168   22.073 2245.130    0.274
   41.988   20.965 2248.680    0.248
   42.808   19.117 2335.350    0.243
   43.629   18.032 2379.550    0.253
   44.449   17.675 2517.230    0.254
   45.269   17.733 2613.420    0.242
   46.089   18.922 2712.420    0.231
   46.910   20.885 2716.710    0.214
   47.730   20.932 2576.260    0.201
   48.550   20.978 2399.210    0.193
   49.370   22.537 2154.810    0.203
   50.190   22.214 1901.170    0.203
   51.011   19.605 1770.510    0.200
   51.831   18.901 1648.830    0.202
   52.651   19.686 1774.440    0.209
   53.471   21.256 2209.540    0.219
   54.291   22.065 2211.640    0.234
   55.111   22.123 2023.300    0.234
   55.932   19.514 1784.010    0.238
   56.752   19.168 1411.440    0.264
   57.572   18.094 1057.610    0.296
   58.392   18.117 1078.650    0.300
   59.213   18.937 1225.660    0.321
   60.033   19.746 1296.160    0.360
   60.853   19.792 1251.620    0.374
   61.673   19.458 1209.000    0.330
   62.493   19.135 1210.140    0.341
   63.314   19.562 1147.940    0.341
   64.134   21.514  976.469    0.333
   64.954   22.322  772.301    0.344
   65.774   21.606  538.241    0.357
   66.594   17.854  646.575    0.368
   67.415   16.377  659.021    0.332
   68.235   16.423  659.855    0.321
   69.055   17.612  649.035    0.350
   69.875   17.278  637.786    0.361
   70.695   20.372  605.004    0.361
   71.516   20.811  573.725    0.360
   72.336   17.810  617.822    0.352
   73.156   17.094  641.429    0.354
   73.976   18.283  597.346    0.364
   74.797   18.318  508.118    0.381
   75.617   17.984  490.812    0.386
   76.437   16.899  491.279    0.390
   77.257   16.183  500.894    0.376
   78.077   16.229  501.687    0.368
   78.898   18.192  511.506    0.370
   79.718   19.001  476.503    0.338
   80.538   18.297  435.651    0.340
   81.358   17.962  377.350    0.349
   82.178   17.247  371.045    0.348
   82.999   16.531  327.369    0.357
   83.819   15.815  304.774    0.373
   84.639   15.862  278.821    0.385
   85.459   16.670  250.419    0.380
   86.279   16.336  220.942    0.363
   87.100   15.620  205.693    0.368
   87.920   15.285  198.624    0.381
   88.740   17.618  206.279    0.382
   89.560   23.772  206.475    0.371
   90.381   24.199  199.380    0.349
   91.201   20.817  182.459    0.343
   92.021   17.434  172.972    0.346
   92.841   17.480  161.084    0.340
   93.661   19.062  147.320    0.350
   94.482   21.788  137.196    0.361
   95.302   24.120  127.767    0.360
   96.122   26.060  119.024    0.352
   96.942   30.690  112.906    0.337
   97.763   34.166  108.992    0.333
   98.583   39.188  111.125    0.346
   99.403   41.140  148.678    0.363
  100.223   40.805  234.225    0.361
  101.043   39.327  256.758    0.364
  101.864   39.755  397.230    0.377
  102.684   41.706  836.212    0.362
  103.504   39.097  933.709    0.357
  104.324   37.989 1060.960    0.366
  105.144   38.797 1320.690    0.354
  105.965   41.141 1322.370    0.354
  106.785   42.712  905.054    0.355
  107.605   43.520  690.565    0.356
  108.425   47.007  679.241    0.363
  109.245   47.827  771.813    0.356
  110.066   47.481 1052.180    0.344
  110.886   47.147  979.873    0.339
  111.706   47.967  928.920    0.337
  112.526   48.025  849.817    0.330
  113.346   48.833  850.894    0.328
  114.167   50.773  697.815    0.325
  114.987   53.867  562.178    0.335
  115.807   58.116  421.246    0.346
  116.627   55.888  273.058    0.362
  117.448   54.018  167.637    0.350
  118.268   54.457  180.464    0.345
  119.088   53.349  145.387    0.333
  119.908   46.918  117.127    0.335
  120.728   42.011  279.904    0.344
  121.549   38.629  354.796    0.347
  122.369   36.008  622.926    0.346
  123.189   38.341  458.530    0.329
  124.009   41.435  210.600    0.319
  124.829   46.446  131.656    0.319
  125.650   55.267  104.161    0.325
  126.470   60.648  108.141    0.344
  127.290   71.755   84.021    0.375
  128.110   79.814   71.471    0.396
  128.930   84.445   57.579    0.404
  129.751   78.776   40.128    0.407
  130.571   78.441   38.749    0.413
  131.391   80.012   44.850    0.418
  132.211   77.391   45.742    0.408
  133.031   65.234   42.598    0.385
  133.852   53.076   41.135    0.384
  134.672   44.740   42.706    0.369
  135.492   40.215   57.139    0.350
  136.312   35.296  102.218    0.346
  137.133   36.509  112.016    0.354
  137.953   37.687  144.584    0.353
  138.773   40.031  189.972    0.355
  139.593   40.458  288.629    0.357
  140.413   39.361  430.511    0.350
  141.234   38.646  498.601    0.351
  142.054   39.454  609.134    0.336
  142.874   39.882  758.496    0.349
  143.694   35.356  528.285    0.367
  144.514   32.354  312.786    0.366
  145.335   34.698  243.022    0.353
  146.155   35.126  199.364    0.341
  146.975   28.302  185.663    0.325
  147.795   26.063  207.310    0.312
  148.615   28.407  211.367    0.303
  149.436   28.453  204.169    0.301
  150.256   25.071  197.090    0.303
  151.076   23.200  212.239    0.309
  151.896   22.115  224.448    0.316
  152.717   21.781  233.024    0.328
  153.537   23.732  233.319    0.333
  154.357   25.326  237.886    0.325
  155.177   24.968  246.976    0.316
  155.997   23.895  285.856    0.312
  156.818   25.084  382.459    0.316
  157.638   24.369  511.870    0.326
  158.458   22.498  571.370    0.336
  159.278   21.425  582.737    0.330
  160.098   22.995  627.327    0.334
  160.919   24.577  739.360    0.332
  161.739   24.612  936.891    0.332
  162.559   23.515  938.672    0.328
  163.379   22.026  957.043    0.356
  164.199   22.835  907.564    0.358
  165.020   23.262  717.804    0.351
  165.840   21.415  417.365    0.348
  166.660   23.378  425.668    0.345
  167.480   24.567  501.528    0.344
  168.301   25.376  671.228    0.338
  169.121   26.184  592.031    0.331
  169.941   27.374  390.778    0.325
  170.761   28.563  309.169    0.315
  171.581   26.716  332.827    0.308
  172.402   24.477  496.593    0.304
  173.222   21.856  740.941    0.313
  174.042   21.140  857.313    0.324
  174.862   20.806 1279.560    0.322
  175.682   20.471 1304.600    0.330
  176.503   20.136 1306.250    0.338
  177.323   19.421  996.367    0.348
  178.143   21.753  600.711    0.343
  178.963   27.526  355.668    0.336
  179.783   29.478  369.258    0.334
  180.604   27.631  763.855    0.327
  181.424   25.772  792.541    0.332
  182.244   24.664  765.307    0.344
  183.064   23.186  794.802    0.358
  183.885   23.614  971.306    0.341
  184.705   26.720  224.111    0.324
  185.525   30.207  228.497    0.315
  186.345   30.242  237.228    0.325
  187.165   28.002  220.994    0.329
