~VERSION INFORMATION
 VERS.                 2.0:   CWLS LOG ASCII STANDARD -VERSION 2.0
 WRAP.                  NO:   ONE LINE PER DEPTH STEP
~WELL INFORMATION BLOCK
#MNEM.UNIT           DATA                    DESCRIPTION OF MNEMONIC
#---------    -------------------            -------------------------------
# Generated from Intellog Unique Number	CN_91_93/WELL/3123
WELL.         10-29-092-17W4                 : Well_name    - WELL
LOC .         AA/10-29-092-17W4/0            : Location     - LOCATION
UWI .         AA/10-29-092-17W400            : Uwi          - UNIQUE WELL ID
ENTR.         JOETTE                         : Entered      - ENTERED BY
SRVC.         SCHLUMBERGER                   : Scn          - SERVICE COMPANY
DATE.         04/12/92                       : Date         - LOG DATE
STRT.F        250                            : top_depth    - START DEPTH
STOP.F        850.394                        : bot_depth    - STOP DEPTH
STEP.F        0.82                           : increment    - STEP LENGTH
 NULL. -999.2500:NULL Value
~CURVE INFORMATION BLOCK
#MNEM UNIT       ERCB CURVE CODE    CURVE DESCRIPTION
#-----------   ------------------   ----------------------------------
DEPT.F        00 001 00 00         : DEPTH        - DEPTH
CALI.IN       00 280 01 00         : CAL          - CALIPER
GR  .API      00 310 00 00         : GR           - GAMMA RAY
NPHI.V/V      00 330 00 00         : PHIN         - NEUTRON POROSITY (SANDSTONE)
DPHI.V/V      00 890 00 00         : PHID         - DENSITY POROSITY (SANDSTONE)
ILD .OHMM     00 120 00 00         : RESD         - DEEP RESISTIVITY (DIL)
~PARAMETER INFORMATION
#MNEM.UNIT           DATA             DESCRIPTION OF MNEMONIC
#---------         -----------     ------------------------------
GL  .M        512.6                : gl           - GROUND LEVEL ELEVATION
EREF.M        514.807              : kb           - ELEVATION OF DEPTH REFERENCE
DATM.M        514.807              : datum        - DATUM ELEVATION
TDD .M        270.358              : tdd          - TOTAL DEPTH DRILLER
RUN .         ONE                  : Run          - RUN NUMBER
ENG .         BILL                 : Engineer     - RECORDING ENGINEER
WIT .         JIM                  : Witness      - WITNESSED BY
MUD .         GEL                  : Mud_type     - MUD TYPE
MATR.         SANDSTONE            : Logunit      - NEUTRON MATRIX
TMAX.F        75                   : BHT          - MAXIMUM RECORDED TEMPERATURE
BHTD.F        887                  : BHTDEP       - MAXIMUM RECORDED TEMPERATURE
RMT .F        53                   : MDTP         - TEMPERATURE OF MUD
MUDD.LB/G     9.2                  : MWT          - MUD DENSITY
NEUT.         1                    : NEUTRON      - NEUTRON TYPE
RESI.         0                    : RESIST       - RESISTIVITY TYPE
RM  .OHMM     6.23                 : RM           - RESISTIVITY OF MUD
RMC .OHMM     6.23                 : RMC          - RESISTIVITY OF MUD CAKE
RMF .OHMM     6.23                 : RMF          - RESISTIVITY OF MUD FILTRATE
SUFT.F        39.2                 : SUFT         - SURFACE TEMPERATURE
~A  DEPTH      CAL       GR     PHIN     PHID     RESD
  250.000    7.849   80.449    0.541    0.301    3.929
  250.820    8.226   80.440    0.541    0.290    3.925
  251.640    8.477   81.055    0.540    0.311    3.849
  252.461    8.602   82.306    0.539    0.317    3.703
  253.281    8.559   81.040    0.536    0.324    3.702
  254.101    8.433   78.519    0.535    0.339    3.768
  254.921    8.181   79.767    0.534    0.316    4.058
  255.741    8.138   83.530    0.533    0.302    4.289
  256.562    8.263   87.921    0.530    0.307    4.127
  257.382    8.389   85.398    0.528    0.316    3.825
  258.202    8.430   79.100    0.527    0.324    3.547
  259.022    8.890   77.834    0.523    0.311    3.544
  259.843    9.476   78.454    0.519    0.233    3.888
  260.663    9.098   78.445    0.517    0.183    3.742
  261.483    8.553   75.922    0.517    0.121    3.279
  262.303    7.547   72.773    0.517    0.225    2.984
  263.123    7.672   77.164    0.518    0.285    3.036
  263.944    8.132   87.209    0.524    0.310    3.210
  264.764    8.299   87.831    0.527    0.321    3.588
  265.584    8.173   89.075    0.533    0.333    3.723
  266.404    7.795   89.070    0.540    0.259    3.934
  267.224    7.837   89.061    0.543    0.292    3.930
  268.045    7.920   88.424    0.541    0.293    3.852
  268.865    7.835   80.243    0.540    0.311    3.708
  269.685    8.086   82.117    0.545    0.333    3.503
  270.505    7.960   83.368    0.561    0.329    3.500
  271.325    7.624   80.847    0.549    0.255    3.631
  272.146    7.456   78.953    0.542    0.244    4.212
  272.966    7.372   77.058    0.540    0.212    4.454
  273.786    6.952   70.762    0.542    0.183    4.450
  274.606    7.161   70.754    0.545    0.268    3.756
  275.427    7.579   77.658    0.546    0.325    3.418
  276.247    7.705   78.278    0.548    0.328    3.821
  277.067    7.410   78.269    0.544    0.284    4.870
  277.887    7.326   73.233    0.542    0.239    8.067
  278.707    7.326   64.425    0.531    0.220   12.400
  279.528    7.283   55.617    0.491    0.304   13.602
  280.348    7.324   44.923    0.464    0.345   13.850
  281.168    7.408   39.258    0.462    0.345   14.366
  281.988    7.533   37.990    0.468    0.337   14.357
  282.808    7.616   37.981    0.472    0.341   14.889
  283.629    7.615   37.973    0.472    0.348   14.879
  284.449    7.656   37.964    0.466    0.348   15.137
  285.269    7.614   38.584    0.455    0.348   15.414
  286.089    7.614   38.577    0.446    0.347   15.404
  286.909    7.655   38.564    0.447    0.348   15.674
  287.730    7.780   38.555    0.449    0.353   15.960
  288.550    7.737   38.544    0.449    0.337   15.950
  289.370    7.611   37.909    0.458    0.347   15.933
  290.190    7.275   34.132    0.468    0.351   15.915
  291.010    7.359   33.494    0.465    0.342   15.908
  291.831    7.442   34.114    0.458    0.355   15.891
  292.651    7.399   35.362    0.460    0.354   15.877
  293.471    7.147   35.351    0.463    0.340   15.867
  294.291    7.063   34.086    0.468    0.338   15.853
  295.112    7.146   32.820    0.471    0.333   15.840
  295.932    7.313   32.811    0.471    0.333   15.532
  296.752    7.396   34.057    0.473    0.342   15.509
  297.572    7.312   35.310    0.477    0.343   15.218
  298.392    7.270   37.182    0.473    0.338   15.201
  299.213    7.395   40.318    0.462    0.335   15.475
  300.033    7.687   43.450    0.453    0.326   15.465
  300.853    7.771   44.700    0.453    0.327   15.744
  301.673    7.896   46.579    0.459    0.332   16.024
  302.493    7.769   47.827    0.470    0.338   16.014
  303.314    7.392   42.160    0.461    0.345   16.000
  304.134    7.265   38.380    0.456    0.346   15.982
  304.954    7.307   35.228    0.462    0.351   15.968
  305.774    7.348   35.218    0.467    0.348   15.652
  306.594    7.180   35.837    0.462    0.342   15.645
  307.415    7.137   35.828    0.453    0.346   15.341
  308.235    7.137   35.191    0.448    0.340   15.325
  309.055    7.178   34.552    0.450    0.330   15.315
  309.875    7.219   34.547    0.456    0.326   15.291
  310.696    7.302   34.536    0.460    0.325   15.574
  311.516    7.302   35.154    0.456    0.326   15.851
  312.336    7.260   35.778    0.447    0.326   15.844
  313.156    7.385   37.655    0.433    0.337   16.123
  313.976    7.510   39.532    0.438    0.344   16.417
  314.797    7.425   37.637    0.466    0.335   16.403
  315.617    7.425   35.114    0.459    0.339   16.695
  316.437    7.173   33.218    0.448    0.342   16.687
  317.257    7.214   33.207    0.448    0.333   17.305
  318.077    7.214   33.829    0.450    0.328   17.617
  318.898    7.213   33.820    0.453    0.349   17.939
  319.718    7.254   35.066    0.463    0.358   17.923
  320.538    7.253   35.688    0.468    0.361   17.575
  321.358    7.420   36.304    0.471    0.343   16.914
  322.178    7.462   36.297    0.471    0.324   16.586
  322.999    7.335   35.031    0.468    0.320   17.853
  323.819    7.209   32.506    0.468    0.325   18.526
  324.639    7.167   31.873    0.468    0.328   20.323
  325.459    7.166   31.236    0.468    0.330   22.725
  326.280    7.165   33.113    0.464    0.333   26.369
  327.100    7.165   35.618    0.459    0.335   35.551
  327.920    7.122   34.979    0.458    0.088   39.753
  328.740    6.912   32.456    0.318    0.005  103.226
  329.560    6.702   28.047    0.313   -0.009  244.136
  330.381    6.660   25.527    0.367    0.010  461.089
  331.201    6.659   24.261    0.446    0.039  404.087
  332.021    6.575   26.766    0.463    0.072  149.637
  332.841    6.449   29.898    0.469    0.191   63.160
  333.661    6.448   33.032    0.472    0.308   27.676
  334.482    6.447   33.654    0.474    0.323   21.270
  335.302    6.447   34.269    0.473    0.327   20.862
  336.122    6.446   34.262    0.469    0.324   20.844
  336.942    6.446   33.625    0.473    0.312   20.060
  337.762    6.445   32.986    0.473    0.323   18.948
  338.583    6.444   32.977    0.453    0.331   17.565
  339.403    6.444   32.968    0.451    0.332   15.978
  340.223    6.485   33.588    0.454    0.331   16.266
  341.043    6.526   36.722    0.459    0.324   16.559
  341.864    6.610   39.227    0.467    0.322   15.936
  342.684    6.693   40.475    0.477    0.318   15.052
  343.504    6.734   37.952    0.479    0.320   14.760
  344.324    6.859   38.570    0.478    0.332   14.744
  345.144    6.984   39.194    0.475    0.331   14.732
  345.965    7.026   41.699    0.473    0.332   14.716
  346.785    6.941   43.576    0.472    0.334   14.709
  347.605    6.857   42.310    0.467    0.331   14.697
  348.425    6.856   38.528    0.463    0.334   14.958
  349.245    6.814   39.148    0.466    0.339   15.228
  350.066    6.645   41.025    0.468    0.339   15.211
  350.886    6.603   41.642    0.468    0.332   15.204
  351.706    6.603   43.519    0.462    0.327   14.358
  352.526    6.518   47.283    0.453    0.320   13.562
  353.346    6.518   53.560    0.452    0.301   12.342
  354.167    6.517   59.208    0.458    0.266   11.441
  354.987    6.600   65.484    0.471    0.250   10.027
  355.807    6.725   70.503    0.494    0.268    7.853
  356.627    7.228   77.406    0.506    0.295    5.496
  357.448    7.520   82.427    0.548    0.299    4.553
  358.268    7.562   88.075    0.561    0.292    4.300
  359.088    7.561   94.980    0.564    0.257    3.986
  359.908    7.728  103.768    0.564    0.250    3.627
  360.728    7.895  105.644    0.566    0.276    3.179
  361.549    8.355  108.152    0.573    0.277    2.892
  362.369    8.480  113.171    0.580    0.265    2.631
  363.189    8.563  113.789    0.585    0.267    2.579
  364.009    8.563  110.637    0.591    0.267    2.626
  364.829    8.604  109.369    0.596    0.260    2.626
  365.650    8.646  110.620    0.591    0.254    2.721
  366.470    8.645  112.497    0.571    0.245    2.619
  367.290    8.686  113.745    0.568    0.257    2.617
  368.110    8.728  112.481    0.562    0.267    2.714
  368.930    8.895  106.183    0.558    0.270    2.815
