~VERSION INFORMATION
 VERS.                 2.0:   CWLS LOG ASCII STANDARD -VERSION 2.0
 WRAP.                  NO:   ONE LINE PER DEPTH STEP
~WELL INFORMATION BLOCK
#MNEM.UNIT           DATA                    DESCRIPTION OF MNEMONIC
#---------    -------------------            -------------------------------
# Generated from Intellog Unique Number	CC_88_90/WELL/3145
WELL.         TRIAD OIL CO.                  : Well_name    - WELL
LOC .         AA/10-07-089-11W4/0            : Location     - LOCATION
UWI .         AA/10-07-089-11W400            : Uwi          - UNIQUE WELL ID
ENTR.         JOETTE                         : Entered      - ENTERED BY
SRVC.         SCHLUMBERGER                   : Scn          - SERVICE COMPANY
DATE.         03/11/92                       : Date         - LOG DATE
STRT.M        60.960                         : top_depth    - START DEPTH
STOP.M        161.960                        : bot_depth    - STOP DEPTH
STEP.M        0.25                           : increment    - STEP LENGTH
 NULL. -999.2500:NULL Value
~CURVE INFORMATION BLOCK
#MNEM UNIT       ERCB CURVE CODE    CURVE DESCRIPTION
#-----------   ------------------   ----------------------------------
DEPT.M        00 001 00 00         : DEPTH        - DEPTH
GR  .API      00 310 00 00         : GR           - GAMMA RAY
NPHI.V/V      00 330 00 00         : PHIN         - NEUTRON POROSITY (SANDSTONE)
ILD .OHMM     00 120 00 00         : RESD         - DEEP RESISTIVITY (DIL)
~PARAMETER INFORMATION
#MNEM.UNIT           DATA             DESCRIPTION OF MNEMONIC
#---------         -----------     ------------------------------
GL  .M        459.273              : gl           - GROUND LEVEL ELEVATION
EREF.M        461.01               : kb           - ELEVATION OF DEPTH REFERENCE
DATM.M        461.01               : datum        - DATUM ELEVATION
TDD .M        189.586              : tdd          - TOTAL DEPTH DRILLER
RUN .         ONE                  : Run          - RUN NUMBER
ENG .         BILL                 : Engineer     - RECORDING ENGINEER
WIT .         JIM                  : Witness      - WITNESSED BY
MUD .         GEL                  : Mud_type     - MUD TYPE
MATR.         SANDSTONE            : Logunit      - NEUTRON MATRIX
TMAX.C        23.8889              : BHT          - MAXIMUM RECORDED TEMPERATURE
BHTD.M        189.586              : BHTDEP       - MAXIMUM RECORDED TEMPERATURE
RMT .C        23.8889              : MDTP         - TEMPERATURE OF MUD
MUDD.KG/M     9583.33              : MWT          - MUD DENSITY
NEUT.         1                    : NEUTRON      - NEUTRON TYPE
RESI.         0                    : RESIST       - RESISTIVITY TYPE
RM  .OHMM     3.85                 : RM           - RESISTIVITY OF MUD
RMC .OHMM     3.85                 : RMC          - RESISTIVITY OF MUD CAKE
RMF .OHMM     3.85                 : RMF          - RESISTIVITY OF MUD FILTRATE
SUFT.C        4                    : SUFT         - SURFACE TEMPERATURE
~A  DEPTH       GR     PHIN     RESD
# ...
  115.210   84.881    0.516   18.949
  115.460   82.425    0.502   18.365
  115.710   80.585    0.499   20.387
  115.960   91.650    0.516   18.593
  116.210  115.622    0.522   17.003
  116.460  122.385    0.512   15.611
  116.710  116.857    0.504   15.019
  116.960  121.162    0.499   16.249
  117.210  121.780    0.514   15.460
  117.460  121.783    0.525   15.069
  117.710  108.880    0.469   15.487
  117.960   92.905    0.275   22.746
  118.210   83.075    0.138   94.782
  118.460  100.286    0.111   97.416
  118.710  124.257    0.220   88.780
  118.960  124.875    0.360   83.966
  119.210  116.889    0.436   74.127
  119.460  111.361    0.469   27.468
  119.710   97.229    0.499   17.827
  119.960   84.940    0.490   14.829
  120.210   64.663    0.509   15.042
  120.460   41.313    0.509   14.253
  120.710   43.774    0.504   15.684
  120.960   40.705    0.503   15.096
  121.210   33.333    0.510   16.720
  121.460   35.179    0.516   16.133
  121.710   59.151    0.530   15.340
  121.960   99.101    0.535   13.344
  122.210  105.250    0.528   11.952
  122.460  108.326    0.522   11.967
  122.710   84.361    0.533   11.782
  122.960   68.385    0.552   10.591
  123.210   48.722    0.571    9.604
  123.460   46.267    0.571   10.219
  123.710   60.406    0.547   13.054
  123.960   65.940    0.526   15.281
  124.210   57.953    0.511   14.902
  124.460   45.050    0.516   14.508
  124.710   45.668    0.520   13.723
  124.960   51.203    0.523   13.336
  125.210   58.581    0.528   13.147
  125.460   58.584    0.536   12.965
  125.710   54.900    0.552   12.578
  125.960   57.975    0.547   12.396
  126.210   63.510    0.532   12.810
  126.460   61.669    0.511   15.239
  126.710   61.673    0.511   18.073
  126.960   55.530    0.514   16.078
  127.210   62.908    0.525   14.891
  127.460   75.817    0.544   14.098
  127.710   83.809    0.535   14.314
  127.960   83.198    0.507   16.542
  128.210   78.284    0.493   16.159
  128.460   67.840    0.491   17.984
  128.710   57.396    0.500   17.195
  128.960   47.566    0.515   15.803
  129.210   35.892    0.495   14.616
  129.460   32.823    0.484   15.030
  129.710   35.284    0.479   16.855
  129.960   38.360    0.496   16.673
  130.210   37.134    0.509   15.478
  130.460   40.210    0.517   14.287
  130.710   46.359    0.514   14.105
  130.960   38.987    0.507   14.117
  131.210   43.907    0.494   14.743
  131.460   48.826    0.484   15.760
  131.710   48.830    0.484   17.183
  131.960   46.989    0.490   17.605
  132.210   46.377    0.489   16.414
  132.460   46.381    0.490   15.822
  132.710   42.697    0.506   15.242
  132.960   48.231    0.525   15.258
  133.210   48.849    0.520   16.275
  133.460   36.560    0.518   19.709
  133.710   29.189    0.515   19.724
  133.960   25.505    0.504   16.124
  134.210   21.820    0.494   15.331
  134.460   31.042    0.495   14.747
  134.710   48.867    0.513   15.165
  134.960   44.568    0.522   15.385
  135.210   42.728    0.516   15.400
  135.460   45.190    0.519   14.812
  135.710   47.651    0.503   14.623
  135.960   71.622    0.498   14.839
  136.210   87.604    0.480   16.062
  136.460   92.523    0.464   17.485
  136.710   94.370    0.489   19.515
  136.960   77.780    0.508   18.123
  137.210   71.638    0.534   16.127
  137.460   86.391    0.553   14.538
  137.710   96.841    0.567   13.343
  137.960   96.230    0.562   12.152
  138.210   95.618    0.544   10.160
  138.460   82.716    0.531    9.166
  138.710   72.272    0.520    8.582
  138.960   64.285    0.499    8.799
  139.210   64.903    0.488   10.620
  139.460   82.728    0.492   13.455
  139.710   82.117    0.516   15.485
  139.960   75.360    0.529   15.698
  140.210   75.363    0.526   14.514
  140.460   77.210    0.495   14.321
  140.710   71.068    0.463   14.940
  140.960   69.227    0.413   17.171
  141.210   66.772    0.427   20.002
  141.460   63.702    0.451   23.034
  141.710   46.498    0.568   20.435
  141.960   45.886    0.613   11.200
  142.210   55.722    0.613    8.597
  142.460   73.548    0.582    7.410
  142.710   83.999    0.556    8.230
  142.960   79.700    0.542   11.060
  143.210   66.797    0.532   13.493
  143.460   48.978    0.514   12.909
  143.710   71.105    0.488   12.518
  143.960   95.691    0.495   12.337
  144.210  123.964    0.512   16.974
  144.460  115.978    0.507   21.823
  144.710  115.981    0.510   21.030
  144.960  124.588    0.528   17.426
  145.210  120.904    0.542   15.229
  145.460   92.637    0.556   15.044
  145.710   76.047    0.569   13.253
  145.960   47.780    0.569   11.656
  146.210   63.762    0.544   10.062
  146.460  106.785    0.533   10.484
  146.710  104.330    0.541   10.298
  146.960  106.176    0.533   10.310
  147.210   93.888    0.529   10.530
  147.460   61.934    0.525   10.948
  147.710   44.115    0.539   11.165
  147.960   65.014    0.551   11.783
  148.210   74.235    0.534   12.603
  148.460   83.457    0.497   12.216
  148.710  113.573    0.480   11.226
  148.960   96.984    0.492   10.240
  149.210   55.196    0.509   13.268
  149.460   39.221    0.525   20.728
  149.710   52.744    0.525   19.742
  149.960   66.882    0.505   18.547
  150.210   77.948    0.465   15.144
  150.460   87.169    0.454   12.947
  150.710   83.485    0.446   18.195
  150.960   75.499    0.457   21.026
  151.210   73.044    0.487   21.041
  151.460   77.349    0.495   18.643
  151.710   74.894    0.495   16.250
  151.960   76.126    0.472   15.256
  152.210   67.525    0.349   14.869
  152.460   63.841    0.280   23.334
  152.710   65.688    0.022   56.543
  152.960   59.545    0.041   75.876
  153.210   54.632    0.034   74.681
  153.460   60.781    0.044   74.093
  153.710   63.242    0.042   75.721
  153.960   58.944   -0.018   74.329
  154.210   62.020   -0.048   69.313
  154.460   70.627   -0.039   56.052
  154.710   73.703   -0.010   51.643
  154.960   74.935    0.113   56.083
  155.210   74.324    0.238   68.373
  155.460   71.869    0.369   65.971
  155.710   63.883    0.419   30.783
  155.960   63.885    0.401   21.343
  156.210   66.347    0.399   15.526
  156.460   67.579    0.405   15.344
  156.710   76.187    0.421   16.764
  156.960   71.887    0.437   15.975
  157.210   69.432    0.435   14.988
  157.460   66.362    0.440   15.414
  157.710   66.980    0.450   15.421
  157.960   68.213    0.477   15.437
  158.210   65.757    0.488   15.050
  158.460   67.605    0.473   14.864
  158.710   76.212    0.444   14.679
  158.960   74.371    0.436   15.097
  159.210   70.072    0.452   15.719
  159.460   72.534    0.471   15.735
  159.710   71.308    0.484   15.348
  159.960   67.623    0.477   14.764
  160.210   65.168    0.472   14.779
  160.460   74.390    0.458   15.997
  160.710   71.935    0.448   16.817
  160.960   59.032    0.440   17.041
  161.210   39.369    0.439   16.852
  161.460   20.320    0.406   16.871
  161.710   21.553    0.446   16.887
  161.960   25.243    0.442   17.107
