~Version : LASO    vs 4.00
VERS.                2.00:   CWLS Log ASCII Standard -VERSION 2.0
WRAP.                  NO:
~Well Information Block
#MNEM.UNIT       Data                        Description of Mnemonic
#----.----      -------------------------- : -----------------------------
STRT.M            21.0000:
STOP.M           215.4000:
STEP.M             0.2000:
NULL.           -999.2500:
COMP.  MOBIL OIL CANADA                 :COMPANY
WELL.  MOBIL CLARKE OV PROG. 2-81       :WELL
FLD.                                    :FIELD
LOC.   13-28-089-07W4                   :LOCATION
CTRY.  CANADA                           :COUNTRY
PROV.  ALBERTA                          :PROVINCE
SRVC.  SCHLUMBERGER                     :SERVICE COMPANY
DATE.  31-JAN-81                        :LOG DATE
UWI.   AA/13-28-089-07W400              :UNIQUE WELL ID
~Parameter Information Block
#MNEM.UNIT       Data                        Description of Mnemonic
#----.----      -------------------------- : -----------------------------
RUN .                   1                 : Run Number
GL  .M           458.5000                 : Ground Level Elevation
DREF.                  GD                 : Depth Reference
EREF.M           458.5000                 : Elevation of Depth Reference
TDL .M           216.0000                 : Total Depth Logger
TDD .M           216.0000                 : Total Depth Driller
CSGL.M            22.0000                 : Casing Bottom Logger
CSGD.M            22.0000                 : Casing Bottom Driller
CSGS.MM          219.0000                 : Casing Size
CSGW.KG/M          0.0000                 : Casing Weight
BHT .DEGC         12.0000                 : Bottom Hole Temperature
BS  .MM          171.0000                 : Bit Size
DFD .           9999.0000                 : Mud Weight (Density)
DFV .             45.0000                 : Mud Viscosity
DFPH.             11.0000                 : Mud pH
RM  .OHMM          5.7400                 : Mud Resistivity
RMT .DEGC         12.0000                 : Mud Resistivity Temperature
~Curve Information Block
#MNEM.UNIT        API CODE    Curve Description
#---------    ------------    -------------------------------------------
DEPT.M                    :   DEPTH
CALI.MM       42 280  1  1:   3 DENSITY CALIPER
DPHI.V/V                  :   DPHI
DT  .US/M     60 520  0  1:   2 SONIC INTERVAL TRANSIT TIME (COMPENSATED)
GR  .GAPI     42 310  1  1:   4 GAMMA RAY
ILD .OHMM      5 120 46  1:   7 DEEP INDUCTION
ILM .OHMM      5 120 44  1:   8 MEDIUM INDUCTION
NPHI.V/V      42 890  3  1:   5 NEUTRON POROSITY (SANDSTONE)
RHOB.K/M3     42 350  1  1:   6 BULK DENSITY
SFLU.OHMM      5 220  1  1:   9 FOCUSSED RESISTIVITY
SP  .MV        5  10  1  1:   10 SPONTANEOUS POTENTIAL
~A  Depth           CALI        DPHI          DT          GR         ILD         ILM        NPHI        RHOB        SFLU          SP
# ...
130.8000        186.2000      0.2156    507.1600     91.2150      5.5441      5.2412      0.4769   2304.3999      5.6628    -78.6150
131.0000        186.1000      0.2256    505.8800     91.1400      5.6472      5.2412      0.4729   2311.0000      5.9297    -78.3750
131.2000        188.7750      0.2333    493.1200     94.2150      5.9680      5.4379      0.4639   2337.8000      6.0399    -77.3700
131.4000        194.6000      0.2396    487.1600     96.4800      5.9680      5.5390      0.4586   2350.5000      6.0399    -77.6250
131.6000        194.2000      0.2332    482.0400     97.3050      5.8591      5.4882      0.4534   2348.6001      5.9845    -77.6250
131.8000        195.9000      0.2237    478.0000     97.2900      5.0099      4.8689      0.4678   2315.1001      6.5077    -76.3800
132.0000        200.7250      0.2164    477.1200     97.5450      4.5272      4.2406      0.4874   2285.6001      6.0958    -74.8950
132.2000        203.9750      0.2119    485.4400     97.8150      4.1671      3.6596      0.5114   2266.2000      4.1786    -72.9000
132.4000        189.7250      0.2079    520.6000     96.8850      3.5631      3.0160      0.5590   2237.3999      2.0148    -69.6600
132.6000        187.9750      0.2155    537.4400     93.5850      3.2496      2.8538      0.5812   2224.0000      2.1490    -69.4200
132.8000        186.2250      0.2342    545.9600     91.1100      2.9911      2.7254      0.5968   2219.2000      2.4245    -69.4200
133.0000        186.0500      0.2504    547.6400     88.3800      2.7029      2.5086      0.6103   2212.8999      3.0243    -69.1650
133.2000        186.3000      0.2585    546.8000     88.0200      2.6536      2.4402      0.6088   2203.5000      2.9966    -68.9250
133.4000        186.1750      0.2672    545.9600     88.6200      2.6536      2.4179      0.6032   2195.2000      2.5860    -68.6700
133.6000        185.7500      0.2819    545.0800     89.2200      2.6781      2.4628      0.5956   2188.7000      2.1689    -68.4150
133.8000        185.2750      0.2904    542.3200     90.6600      2.7029      2.5552      0.5704   2206.3999      2.4470    -68.9250
134.0000        185.6750      0.2943    539.3600     91.1700      2.7532      2.6027      0.5592   2216.3000      2.8095    -68.9250
134.2000        186.1500      0.2732    536.5600     90.5550      2.8303      2.6757      0.5584   2220.6001      2.6341    -68.9250
134.4000        189.0000      0.2610    527.6400     90.7200      2.9637      2.8802      0.5676   2231.5000      2.9691    -68.4150
134.6000        188.4750      0.2514    519.1200     91.1400      3.0467      2.9069      0.5681   2238.6001      3.3468    -68.6700
134.8000        188.0750      0.2458    513.3600     92.4300      3.1610      2.9883      0.5578   2248.1001      3.2556    -68.9250
135.0000        187.8500      0.2419    508.4400     95.8050      3.5631      3.2766      0.5313   2274.0000      2.9691    -69.1650
135.2000        187.9750      0.2379    508.8800     97.1700      3.7310      3.5598      0.5193   2285.8000      3.0243    -69.1650
135.4000        188.3750      0.2329    505.0400     98.1000      3.8711      3.8675      0.4994   2312.8000      3.4724    -69.1650
135.6000        188.4750      0.2265    481.1600     96.4950      4.0535      4.2017      0.4939   2333.7000      6.1522    -70.6650
135.8000        188.2000      0.2176    468.4000     94.7400      4.0910      4.1251      0.4868   2342.3000      6.5680    -70.6650
136.0000        188.3500      0.2121    459.0400     92.8800      4.1671      3.9394      0.4774   2350.2000      5.6628    -69.9150
136.2000        189.1000      0.2022    467.5600     94.0950      4.2838      3.7969      0.4773   2360.5000      3.3778    -68.9250
136.4000        188.9250      0.1865    482.8800     95.5500      4.2838      3.9033      0.4812   2364.2000      3.0523    -69.1650
136.6000        188.7750      0.1716    493.1200     95.1450      4.2838      4.0498      0.4865   2362.3999      3.3161    -69.4200
136.8000        188.6750      0.1844    494.8000     94.1400      4.2838      4.2017      0.4916   2336.2000      4.0647    -70.1550
137.0000        188.5750      0.1947    476.4800     93.5550      4.6540      4.5230      0.4857   2312.2000      5.6109    -73.3950
137.2000        188.3000      0.2058    470.9600     94.4250      4.9640      4.7362      0.4768   2313.8999      6.1522    -75.3900
137.4000        187.9250      0.2124    470.1200     95.2800      5.3930      5.0053      0.4711   2324.8999      6.0399    -75.6300
137.6000        186.1000      0.2162    476.9200     93.8700      5.6472      5.7469      0.4736   2404.8000      5.5594    -71.9100
137.8000        187.0250      0.2190    470.5200     92.4750      5.4429      5.8537      0.4769   2445.1001      7.0054    -71.1600
138.0000        188.2250      0.2075    447.9600     92.2050      5.0563      5.4379      0.4751   2465.6001      8.7384    -71.1600
138.2000        187.3750      0.1924    427.4800     96.2400      4.4038      4.1632      0.4658   2295.7000      6.0399    -71.1600
138.4000        187.2500      0.1706    441.3600     98.1750      4.1671      3.7621      0.4971   2281.0000      4.2173    -70.6650
138.6000        187.3250      0.1580    481.4000     99.6750      3.9069      3.5272      0.5075   2264.5000      2.9419    -70.6650
138.8000        192.5750      0.1550    532.3200     99.1350      3.4981      3.2766      0.5212   2245.7000      2.7582    -70.9050
139.0000        195.3000      0.2025    539.9600     98.8800      3.4027      3.2466      0.5229   2276.3999      2.8882    -70.9050
139.2000        198.1500      0.2294    535.7200     98.9550      3.3406      3.3070      0.5172   2312.0000      3.1091    -70.4100
139.4000        203.8500      0.2423    523.8000    100.4400      3.4027      3.3070      0.5056   2307.3000      4.1403    -69.6600
139.6000        204.0500      0.2185    514.4000    100.7100      3.4981      3.3070      0.5165   2296.8000      4.0647    -69.6600
139.8000        203.0250      0.2189    507.6000    100.3200      3.5304      3.3376      0.5296   2286.0000      3.6027    -69.9150
140.0000        201.9750      0.2332    507.6000     99.9150      3.5631      3.3996      0.5374   2279.1001      3.2857    -69.9150
140.2000        196.7000      0.2377    509.7200    100.4250      3.4660      3.3996      0.5413   2261.5000      3.6361    -70.4100
140.4000        195.6500      0.2305    506.7600    101.5350      3.4660      3.3376      0.5382   2255.0000      3.9539    -70.4100
140.6000        195.0750      0.2286    504.8400    102.1800      3.4981      3.3376      0.5317   2252.5000      3.9539    -70.4100
140.8000        196.0000      0.2284    511.8400    100.8750      3.6629      3.4949      0.5232   2262.0000      3.3161    -70.1550
141.0000        196.0250      0.2348    515.2800    101.5650      3.7310      3.5928      0.5258   2260.7000      3.2257    -69.9150
141.2000        195.5500      0.2401    513.5600    101.3250      3.7656      3.7276      0.5290   2268.5000      3.4724    -70.4100
141.4000        195.1250      0.2413    501.6000     98.3100      3.8356      3.8320      0.5273   2294.2000      4.5397    -71.6550
141.6000        195.3500      0.2445    496.5200     97.8750      3.8711      3.7969      0.5273   2293.0000      4.5817    -71.6550
141.8000        195.5500      0.2397    496.5200     99.8250      3.8711      3.7621      0.5305   2297.7000      4.1786    -71.4000
142.0000        196.1500      0.2311    500.5200    101.4450      3.9430      3.7276      0.5344   2327.0000      3.5045    -70.4100
142.2000        196.4750      0.2232    507.6000     99.6300      3.9430      3.7969      0.5384   2329.5000      3.4406    -70.6650
142.4000        196.5750      0.2228    513.5600     99.4350      3.9430      3.8675      0.5431   2319.8999      3.8074    -70.6650
142.6000        196.4750      0.2246    516.9600     99.9750      4.0910      3.9394      0.5409   2303.6001      4.6669    -70.6650
142.8000        196.3750      0.2278    512.0800    100.5750      4.2838      4.0126      0.5280   2319.6001      4.4569    -70.6650
