~VERSION INFORMATION
 VERS.                 2.0:   CWLS LOG ASCII STANDARD -VERSION 2.0
 WRAP.                  NO:   ONE LINE PER DEPTH STEP
~WELL INFORMATION BLOCK
#MNEM.UNIT           DATA                    DESCRIPTION OF MNEMONIC
#---------    -------------------            -------------------------------
# Generated from Intellog Unique Number	CN_94_101/WELL/5021
WELL.         11-24-099-14W4                 : Well_name    - WELL
LOC .         AA/11-24-099-14W4/0            : Location     - LOCATION
UWI .         AA/11-24-099-14W400            : Uwi          - UNIQUE WELL ID
ENTR.         TIM                            : Entered      - ENTERED BY
SRVC.         SCHLUMBERGER                   : Scn          - SERVICE COMPANY
DATE.         08/13/92                       : Date         - LOG DATE
STRT.M        370                            : top_depth    - START DEPTH
STOP.M        570                            : bot_depth    - STOP DEPTH
STEP.M        0.25                           : increment    - STEP LENGTH
 NULL. -999.2500:NULL Value
~CURVE INFORMATION BLOCK
#MNEM UNIT       ERCB CURVE CODE    CURVE DESCRIPTION
#-----------   ------------------   ----------------------------------
DEPT.M        00 001 00 00         : DEPTH        - DEPTH
GR  .API      00 310 00 00         : GR           - GAMMA RAY
ILD .OHMM     00 120 00 00         : RESD         - DEEP RESISTIVITY (DIL)
NPHI.V/V      00 330 00 00         : PHIN         - NEUTRON POROSITY (SANDSTONE)
DPHI.V/V      00 890 00 00         : PHID         - DENSITY POROSITY (SANDSTONE)
~PARAMETER INFORMATION
#MNEM.UNIT           DATA             DESCRIPTION OF MNEMONIC
#---------         -----------     ------------------------------
GL  .M        815.9                : gl           - GROUND LEVEL ELEVATION
EREF.M        819.1                : kb           - ELEVATION OF DEPTH REFERENCE
DATM.M        819.1                : datum        - DATUM ELEVATION
TDD .M        573                  : tdd          - TOTAL DEPTH DRILLER
RUN .         ONE                  : Run          - RUN NUMBER
ENG .         BILL                 : Engineer     - RECORDING ENGINEER
WIT .         JIM                  : Witness      - WITNESSED BY
MUD .         GEL                  : Mud_type     - MUD TYPE
MATR.         SANDSTONE            : Logunit      - NEUTRON MATRIX
TMAX.C        25                   : BHT          - MAXIMUM RECORDED TEMPERATURE
BHTD.M        573                  : BHTDEP       - MAXIMUM RECORDED TEMPERATURE
RMT .C        25                   : MDTP         - TEMPERATURE OF MUD
MUDD.KG/M     1090                 : MWT          - MUD DENSITY
NEUT.         1                    : NEUTRON      - NEUTRON TYPE
RESI.         0                    : RESIST       - RESISTIVITY TYPE
RM  .OHMM     4.6                  : RM           - RESISTIVITY OF MUD
RMC .OHMM     4.6                  : RMC          - RESISTIVITY OF MUD CAKE
RMF .OHMM     4.6                  : RMF          - RESISTIVITY OF MUD FILTRATE
SUFT.C        4                    : SUFT         - SURFACE TEMPERATURE
~A  DEPTH       GR     RESD     PHIN     PHID
  370.000  134.074    3.571    0.536    0.224
  370.250  133.474    3.782    0.543    0.224
  370.500  134.686    3.782    0.553    0.225
  370.750  135.898    3.782    0.559    0.228
  371.000  136.503    3.782    0.563    0.231
  371.250  137.715    3.992    0.572    0.234
  371.500  138.322    3.992    0.580    0.236
  371.750  138.325    3.992    0.588    0.237
  372.000  138.330    4.202    0.572    0.235
  372.250  137.728    4.202    0.568    0.231
  372.500  137.127    4.202    0.580    0.228
  372.750  137.132    4.202    0.590    0.229
  373.000  137.737    3.992    0.579    0.231
  373.250  137.138    3.782    0.562    0.229
  373.500  136.537    3.571    0.537    0.233
  373.750  135.935    3.361    0.523    0.236
  374.000  133.524    3.361    0.536    0.239
  374.250  130.507    3.571    0.551    0.240
  374.500  126.282    4.202    0.553    0.240
  374.750  122.058    4.622    0.521    0.236
  375.000  118.438    4.622    0.507    0.228
  375.250  117.234    4.622    0.517    0.220
  375.500  117.239    4.622    0.520    0.213
  375.750  117.240    4.622    0.485    0.214
  376.000  119.056    4.622    0.488    0.212
  376.250  122.078    4.412    0.500    0.195
  376.500  129.330    4.412    0.479    0.161
  376.750  132.957    4.202    0.478    0.146
  377.000  135.375    4.202    0.510    0.136
  377.250  134.170    3.992    0.527    0.203
  377.500  128.134    3.992    0.514    0.229
  377.750  126.326    3.782    0.486    0.229
  378.000  127.538    3.571    0.492    0.226
  378.250  128.145    3.571    0.544    0.226
  378.500  127.544    3.361    0.574    0.228
  378.750  123.319    3.571    0.540    0.230
  379.000  116.075    4.202    0.490    0.233
  379.250  110.039    5.462    0.462    0.229
  379.500  107.627    6.303    0.436    0.205
  379.750  111.253    6.303    0.428    0.182
  380.000  116.088    5.882    0.452    0.158
  380.250  122.735    5.672    0.463    0.272
  380.500  126.361    5.252    0.511    0.278
  380.750  126.970    4.832    0.497    0.282
  381.000  124.556    4.412    0.516    0.271
  381.250  126.371    4.202    0.549    0.249
  381.500  126.375    3.782    0.543    0.249
  381.750  123.962    3.571    0.511    0.254
  382.000  120.343    4.202    0.504    0.257
  382.250  117.930    4.622    0.489    0.259
  382.500  117.934    4.622    0.478    0.254
  382.750  121.560    4.622    0.511    0.248
  383.000  126.999    4.412    0.563    0.243
  383.250  125.795    4.202    0.564    0.236
  383.500  125.194    3.992    0.532    0.241
  383.750  124.595    3.992    0.512    0.243
  384.000  125.202    4.202    0.486    0.244
  384.250  126.412    4.202    0.477    0.238
  384.500  128.226    4.202    0.472    0.230
  384.750  130.042    4.202    0.472    0.234
  385.000  131.253    3.782    0.480    0.245
  385.250  130.049    3.361    0.505    0.259
  385.500  127.032    2.941    0.540    0.262
  385.750  124.619    2.731    0.563    0.265
  386.000  122.207    2.521    0.583    0.270
  386.250  120.398    2.731    0.592    0.272
  386.500  116.175    2.941    0.522    0.264
  386.750  113.761    3.571    0.495    0.255
  387.000  114.973    3.782    0.495    0.253
  387.250  116.788    3.992    0.510    0.248
  387.500  116.188    4.202    0.529    0.237
  387.750  118.003    4.202    0.532    0.222
  388.000  121.026    4.202    0.509    0.202
  388.250  124.048    3.992    0.538    0.217
  388.500  128.883    3.782    0.543    0.246
  388.750  132.510    3.571    0.556    0.250
  389.000  127.682    3.361    0.572    0.250
  389.250  122.250    2.941    0.584    0.250
  389.500  117.422    2.941    0.594    0.251
  389.750  113.198    2.941    0.592    0.261
  390.000  108.973    3.782    0.552    0.266
  390.250  109.580    4.202    0.529    0.266
  390.500  111.999    4.412    0.496    0.268
  390.750  113.211    4.202    0.480    0.269
  391.000  113.818    4.202    0.490    0.269
  391.250  113.821    3.782    0.504    0.266
  391.500  113.220    4.412    0.519    0.268
  391.750  110.808    4.832    0.495    0.275
  392.000  105.376    5.462    0.489    0.291
  392.250  102.963    5.882    0.451    0.308
  392.500  104.778    6.092    0.349    0.320
  392.750  112.029    6.092    0.381    0.286
  393.000  118.072    5.672    0.500    0.255
  393.250  119.887    5.462    0.498    0.245
  393.500  121.703    5.042    0.487    0.263
  393.750  122.310    4.412    0.494    0.270
  394.000  121.106    3.992    0.503    0.256
  394.250  120.504    3.992    0.511    0.254
  394.500  119.904    4.202    0.519    0.255
  394.750  119.906    4.412    0.514    0.255
  395.000  119.910    4.622    0.484    0.255
  395.250  119.914    4.622    0.473    0.260
  395.500  119.916    4.622    0.468    0.266
  395.750  119.920    4.622    0.476    0.270
  396.000  119.923    4.412    0.499    0.271
  396.250  119.927    4.412    0.506    0.266
  396.500  119.327    4.202    0.523    0.268
  396.750  117.519    3.992    0.488    0.275
  397.000  116.314    4.202    0.490    0.280
  397.250  115.109    4.202    0.495    0.257
  397.500  117.528    4.202    0.497    0.255
  397.750  120.550    4.202    0.495    0.257
  398.000  125.989    3.992    0.495    0.258
  398.250  130.824    3.992    0.497    0.254
  398.500  132.035    3.992    0.504    0.250
  398.750  128.415    4.202    0.531    0.253
  399.000  126.003    4.412    0.524    0.254
  399.250  123.590    4.622    0.511    0.254
  399.500  122.385    4.622    0.504    0.255
  399.750  121.181    4.832    0.498    0.259
  400.000  118.769    4.832    0.497    0.260
  400.250  116.959    4.622    0.497    0.265
  400.500  113.339    4.622    0.490    0.262
  400.750  109.115    4.622    0.483    0.259
  401.000  103.079    5.252    0.450    0.266
  401.250   98.854    5.672    0.413    0.274
  401.500   95.234    6.933    0.398    0.294
  401.750   91.615    9.034    0.387    0.300
  402.000   89.201   10.084    0.375    0.309
  402.250   91.018   10.714    0.368    0.317
  402.500   92.228   11.134    0.364    0.332
  402.750   93.439   11.134    0.363    0.356
  403.000   95.254   11.345    0.359    0.368
  403.250   94.655   11.345    0.352    0.373
  403.500   92.847   10.714    0.347    0.375
  403.750   91.641    9.664    0.344    0.373
  404.000   91.644    8.613    0.369    0.349
  404.250   96.479    7.563    0.434    0.326
  404.500  103.125    6.513    0.455    0.302
  404.750  110.376    5.882    0.482    0.284
  405.000  115.210    4.832    0.540    0.265
  405.250  115.818    4.622    0.585    0.249
  405.500  115.218    4.622    0.544    0.252
  405.750  114.618    4.622    0.505    0.257
  406.000  114.620    4.622    0.479    0.258
  406.250  114.624    4.622    0.474    0.259
  406.500  114.627    4.832    0.471    0.263
  406.750  114.629    4.832    0.471    0.270
  407.000  114.633    4.832    0.477    0.254
  407.250  114.637    4.832    0.486    0.254
  407.500  114.641    4.832    0.498    0.262
  407.750  114.642    4.622    0.512    0.263
  408.000  114.646    4.622    0.497    0.265
  408.250  114.045    4.622    0.471    0.269
  408.500  113.444    4.622    0.471    0.275
  408.750  113.449    4.412    0.475    0.280
  409.000  113.453    4.412    0.489    0.269
  409.250  113.454    4.412    0.505    0.269
  409.500  115.270    4.412    0.517    0.270
  409.750  115.877    4.412    0.515    0.267
  410.000  117.692    4.412    0.517    0.264
  410.250  119.508    4.412    0.519    0.263
  410.500  120.116    4.202    0.518    0.268
  410.750  120.118    4.202    0.512    0.270
  411.000  120.122    3.992    0.501    0.263
  411.250  120.125    3.782    0.501    0.260
  411.500  121.336    3.992    0.523    0.263
  411.750  123.152    4.202    0.540    0.264
  412.000  124.363    4.412    0.540    0.265
  412.250  125.574    4.832    0.541    0.259
  412.500  126.784    5.042    0.548    0.253
  412.750  129.204    4.832    0.559    0.254
  413.000  131.019    4.622    0.572    0.253
  413.250  132.834    4.412    0.577    0.247
