~VERSION INFORMATION
 VERS.                 2.0:   CWLS LOG ASCII STANDARD -VERSION 2.0
 WRAP.                  NO:   ONE LINE PER DEPTH STEP
~WELL INFORMATION BLOCK
#MNEM.UNIT           DATA                    DESCRIPTION OF MNEMONIC
#---------    -------------------            -------------------------------
# Generated from Intellog Unique Number	CN_94_101/WELL/5058
WELL.         16-17-101-13W4                 : Well_name    - WELL
LOC .         AA/16-17-101-13W4/0            : Location     - LOCATION
UWI .         AA/16-17-101-13W400            : Uwi          - UNIQUE WELL ID
ENTR.         TIM                            : Entered      - ENTERED BY
SRVC.         SCHLUMBERGER                   : Scn          - SERVICE COMPANY
DATE.         08/13/92                       : Date         - LOG DATE
STRT.M        320.04                         : top_depth    - START DEPTH
STOP.M        542.54                         : bot_depth    - STOP DEPTH
STEP.M        0.25                           : increment    - STEP LENGTH
NULL. -999.2500:NULL Value
~CURVE INFORMATION BLOCK
#MNEM UNIT       ERCB CURVE CODE    CURVE DESCRIPTION
#-----------   ------------------   ----------------------------------
DEPT.M        00 001 00 00         : DEPTH        - DEPTH
NPHI.V/V      00 330 00 00         : PHIN         - NEUTRON POROSITY (SANDSTONE)
ILD .OHMM     00 120 00 00         : RESD         - DEEP RESISTIVITY (DIL)
GR  .API      00 310 00 00         : GR           - GAMMA RAY
~PARAMETER INFORMATION
#MNEM.UNIT           DATA             DESCRIPTION OF MNEMONIC
#---------         -----------     ------------------------------
GL  .M        755.752              : gl           - GROUND LEVEL ELEVATION
EREF.M        759.104              : kb           - ELEVATION OF DEPTH REFERENCE
DATM.M        759.104              : datum        - DATUM ELEVATION
TDD .M        543.763              : tdd          - TOTAL DEPTH DRILLER
RUN .         ONE                  : Run          - RUN NUMBER
ENG .         BILL                 : Engineer     - RECORDING ENGINEER
WIT .         JIM                  : Witness      - WITNESSED BY
MUD .         GEL                  : Mud_type     - MUD TYPE
MATR.         SANDSTONE            : Logunit      - NEUTRON MATRIX
TMAX.C        20.5556              : BHT          - MAXIMUM RECORDED TEMPERATURE
BHTD.M        543.763              : BHTDEP       - MAXIMUM RECORDED TEMPERATURE
RMT .C        10                   : MDTP         - TEMPERATURE OF MUD
MUDD.KG/M     1090                 : MWT          - MUD DENSITY
NEUT.         1                    : NEUTRON      - NEUTRON TYPE
RESI.         0                    : RESIST       - RESISTIVITY TYPE
RM  .OHMM     9.8                  : RM           - RESISTIVITY OF MUD
RMC .OHMM     8.7                  : RMC          - RESISTIVITY OF MUD CAKE
RMF .OHMM     9.2                  : RMF          - RESISTIVITY OF MUD FILTRATE
SUFT.C        4                    : SUFT         - SURFACE TEMPERATURE
~A  DEPTH     PHIN     RESD       GR
  320.040    0.470    3.031  105.999
  320.290    0.477    2.863  102.675
  320.540    0.479    2.756  102.673
  320.790    0.481    2.705  103.503
  321.040    0.490    2.706  103.086
  321.290    0.501    2.707  101.423
  321.540    0.510    2.708   99.761
  321.790    0.510    2.709   99.759
  322.040    0.507    2.658  101.419
  322.290    0.504    2.609  103.079
  322.540    0.508    2.609  104.323
  322.790    0.514    2.610  105.568
  323.040    0.511    2.713  106.396
  323.290    0.506    2.875  106.811
  323.540    0.500    2.931  106.809
  323.790    0.493    2.933  105.146
  324.040    0.487    2.878  101.822
  324.290    0.481    2.824   98.498
  324.540    0.475    2.719   98.912
  324.790    0.472    2.720   99.326
  325.040    0.478    2.721   99.739
  325.290    0.481    2.775   98.907
  325.540    0.478    2.776   97.660
  325.790    0.471    2.830   95.998
  326.040    0.461    2.998   91.428
  326.290    0.453    3.116   86.858
  326.540    0.451    3.302   88.518
  326.790    0.459    3.367   88.516
  327.040    0.459    3.433   88.930
  327.290    0.465    3.501   88.513
  327.540    0.490    3.501   91.003
  327.790    0.486    3.436   93.079
  328.040    0.477    3.372   94.323
  328.290    0.475    3.125   95.152
  328.540    0.500    3.008   95.566
  328.790    0.506    2.842   96.395
  329.040    0.509    2.789   96.394
  329.290    0.509    2.685   97.223
  329.540    0.511    2.536   97.221
  329.790    0.519    2.489   95.558
  330.040    0.525    2.538   92.234
  330.290    0.527    2.688   90.572
  330.540    0.529    3.017   90.570
  330.790    0.522    3.450   90.569
  331.040    0.510    3.518   88.491
  331.290    0.493    3.520   85.582
  331.540    0.353    3.454   91.395
  331.790    0.368    3.201   95.962
  332.040    0.404    3.141   98.867
  332.290    0.421    3.203   98.451
  332.540    0.482    3.265   90.974
  332.790    0.486    3.267   88.065
  333.040    0.429    3.206   86.818
  333.290    0.445    3.028   86.816
  333.540    0.497    2.753   86.814
  333.790    0.525    2.600   86.398
  334.040    0.542    2.409   85.566
  334.290    0.542    2.364   82.242
  334.540    0.541    2.411   83.486
  334.790    0.528    2.654   85.977
  335.040    0.511    2.866   88.882
  335.290    0.513    2.867   93.449
  335.540    0.521    2.924   90.540
  335.790    0.531    2.924   86.801
  336.040    0.545    2.925   82.647
  336.290    0.536    2.926   81.399
  336.540    0.470    2.927   87.212
  336.790    0.451    2.928   92.610
  337.040    0.483    2.662   99.668
  337.290    0.507    2.285   97.590
  337.540    0.518    1.852   94.681
  337.790    0.495    1.683   92.188
  338.040    0.498    1.684   92.187
  338.290    0.523    1.717   90.524
  338.540    0.545    1.784   86.785
  338.790    0.546    1.890   83.046
  339.040    0.535    2.081   82.629
  339.290    0.526    2.205   84.288
  339.540    0.528    2.336   84.702
  339.790    0.528    2.523   84.701
  340.040    0.523    2.622   86.775
  340.290    0.519    2.832   88.020
  340.540    0.517    2.887   88.434
  340.790    0.521    2.780   88.847
  341.040    0.529    2.527   88.015
  341.290    0.536    2.387   87.184
  341.540    0.540    2.298   85.521
  341.790    0.538    2.299   85.104
  342.040    0.532    2.531   84.687
  342.290    0.526    2.733   84.271
  342.540    0.511    3.009   83.023
  342.790    0.498    3.127   82.191
  343.040    0.483    3.189   81.774
  343.290    0.460    3.129   83.019
  343.540    0.430    3.013   85.094
  343.790    0.426    2.901   89.245
  344.040    0.452    2.637   93.812
  344.290    0.479    2.443   97.548
  344.540    0.522    2.398   98.792
  344.790    0.529    2.445   99.206
  345.040    0.542    2.744   99.205
  345.290    0.541    3.020   98.372
  345.540    0.536    3.080   96.294
  345.790    0.538    3.201   94.631
  346.040    0.540    3.327   93.800
  346.290    0.541    3.458   94.213
  346.540    0.542    3.663   94.212
  346.790    0.536    3.808   93.795
  347.040    0.533    3.883   91.717
  347.290    0.534    3.884   89.639
  347.540    0.535    3.885   88.392
  347.790    0.529    3.887   90.051
  348.040    0.524    3.963   91.296
  348.290    0.516    3.964   91.295
  348.540    0.504    3.966   90.047
  348.790    0.502    3.967   87.969
  349.040    0.509    3.747   89.629
  349.290    0.517    3.406   90.873
  349.540    0.527    2.980   90.872
  349.790    0.534    2.607   90.870
  350.040    0.536    2.370   90.869
  350.290    0.536    2.238   90.868
  350.540    0.539    2.239   92.527
  350.790    0.540    2.240   95.017
  351.040    0.540    2.284   95.015
  351.290    0.532    2.374   95.014
  351.540    0.521    2.468   95.844
  351.790    0.521    2.565   95.842
  352.040    0.522    2.615   93.349
  352.290    0.520    2.667   91.271
  352.540    0.520    2.772   89.192
  352.790    0.524    2.773   89.606
  353.040    0.528    2.773   90.851
  353.290    0.532    2.939   90.434
  353.540    0.535    2.997   88.356
  353.790    0.533    2.998   85.032
  354.040    0.505    3.056   85.030
  354.290    0.494    3.116   87.105
  354.540    0.496    3.178   87.935
  354.790    0.490    3.240   88.348
  355.040    0.484    3.241   88.347
  355.290    0.480    3.305   88.345
  355.540    0.479    3.306   88.759
  355.790    0.480    3.372   89.588
  356.040    0.490    3.372   90.002
  356.290    0.509    3.374   90.001
  356.540    0.523    3.440   89.999
  356.790    0.539    3.441   89.997
  357.040    0.541    3.443   89.996
  357.290    0.532    3.378   89.995
  357.540    0.514    3.316   90.409
  357.790    0.502    3.132   91.237
  358.040    0.497    3.015   91.651
  358.290    0.508    2.741   92.480
  358.540    0.517    2.638   93.309
  358.790    0.512    2.492   93.723
  359.040    0.506    2.493   93.722
  359.290    0.499    2.542   93.305
  359.540    0.497    2.642   92.473
  359.790    0.491    2.694   92.057
  360.040    0.484    2.800   92.054
  360.290    0.476    2.856   92.053
  360.540    0.468    2.911   92.052
  360.790    0.462    2.969   91.635
  361.040    0.469    3.027   90.388
  361.290    0.479    2.971   90.801
  361.540    0.497    2.753   93.707
  361.790    0.491    2.502   97.859
  362.040    0.487    2.319  104.502
  362.290    0.490    2.276  103.669
  362.540    0.490    2.276  103.253
  362.790    0.493    2.321  103.667
  363.040    0.510    2.367  103.250
  363.290    0.522    2.414  101.587
  363.540    0.528    2.461   98.679
  363.790    0.532    2.462   95.355
  364.040    0.532    2.416   93.692
  364.290    0.535    2.326   92.445
  364.540    0.550    2.197   92.858
  364.790    0.567    2.075   94.103
  365.040    0.562    1.886   94.101
  365.290    0.555    1.851   92.854
  365.540    0.552    1.924   87.869
  365.790    0.546    2.118   84.130
  366.040    0.539    2.201   82.051
  366.290    0.533    2.288   85.373
  366.540    0.540    2.378   88.278
  366.790    0.549    1.686   89.937
  367.040    0.544    1.928   90.767
  367.290    0.538    2.123   91.596
  367.540    0.531    2.249   92.840
  367.790    0.527    2.337   93.669
  368.040    0.519    2.383   94.498
  368.290    0.505    2.430   94.081
  368.540    0.498    2.431   93.665
  368.790    0.502    2.432   93.249
  369.040    0.509    2.341   92.416
  369.290    0.513    2.298   92.415
  369.540    0.509    2.255   92.413
  369.790    0.505    2.299   92.412
  370.040    0.508    2.344   92.410
  370.290    0.515    2.437   92.409
  370.540    0.526    2.533   92.407
  370.790    0.539    2.533   92.821
  371.040    0.527    2.584   93.650
  371.290    0.521    2.584   94.479
  371.540    0.532    2.585   94.893
  371.790    0.531    2.586   94.892
  372.040    0.526    2.538   95.720
  372.290    0.523    2.491   96.134
  372.540    0.528    2.444   98.209
  372.790    0.531    2.353   98.623
  373.040    0.534    2.266  100.698
  373.290    0.525    2.181  101.112
  373.540    0.516    2.141  103.187
  373.790    0.515    2.101  104.846
  374.040    0.519    2.142  104.845
