~VERSION INFORMATION
 VERS.                 2.0:   CWLS LOG ASCII STANDARD -VERSION 2.0
 WRAP.                  NO:   ONE LINE PER DEPTH STEP
~WELL INFORMATION BLOCK
#MNEM.UNIT           DATA                    DESCRIPTION OF MNEMONIC
#---------    -------------------            -------------------------------
# Generated from Intellog Unique Number	CN_94_101/WELL/3576
WELL.         15-36-096-11W4                 : Well_name    - WELL
LOC .         AA/15-36-096-11W4/0            : Location     - LOCATION
UWI .         AA/15-36-096-11W400            : Uwi          - UNIQUE WELL ID
ENTR.         JOETTE                         : Entered      - ENTERED BY
SRVC.         SCHLUMBERGER                   : Scn          - SERVICE COMPANY
DATE.         07/31/92                       : Date         - LOG DATE
STRT.M        10                             : top_depth    - START DEPTH
STOP.M        125                            : bot_depth    - STOP DEPTH
STEP.M        0.25                           : increment    - STEP LENGTH
 NULL. -999.2500:NULL Value
~CURVE INFORMATION BLOCK
#MNEM UNIT       ERCB CURVE CODE    CURVE DESCRIPTION
#-----------   ------------------   ----------------------------------
DEPT.M        00 001 00 00         : DEPTH        - DEPTH
GR  .API      00 310 00 00         : GR           - GAMMA RAY
ILD .OHMM     00 120 00 00         : RESD         - DEEP RESISTIVITY (DIL)
NPHI.V/V      00 330 00 00         : PHIN         - NEUTRON POROSITY (SANDSTONE)
RHOB.KG/M3    00 350 00 00         : DENS         - BULK DENSITY
DPHI.V/V      00 890 00 00         : PHID         - DENSITY POROSITY (SANDSTONE)
~PARAMETER INFORMATION
#MNEM.UNIT           DATA             DESCRIPTION OF MNEMONIC
#---------         -----------     ------------------------------
GL  .M        0                    : gl           - GROUND LEVEL ELEVATION
EREF.M        0                    : kb           - ELEVATION OF DEPTH REFERENCE
DATM.M        0                    : datum        - DATUM ELEVATION
TDD .M        127.7                : tdd          - TOTAL DEPTH DRILLER
RUN .         ONE                  : Run          - RUN NUMBER
ENG .         BILL                 : Engineer     - RECORDING ENGINEER
WIT .         JIM                  : Witness      - WITNESSED BY
MUD .         GEL                  : Mud_type     - MUD TYPE
MATR.         SANDSTONE            : Logunit      - NEUTRON MATRIX
TMAX.C        3                    : BHT          - MAXIMUM RECORDED TEMPERATURE
BHTD.M        127.7                : BHTDEP       - MAXIMUM RECORDED TEMPERATURE
RMT .C        3                    : MDTP         - TEMPERATURE OF MUD
MUDD.KG/M     1180                 : MWT          - MUD DENSITY
NEUT.         1                    : NEUTRON      - NEUTRON TYPE
RESI.         0                    : RESIST       - RESISTIVITY TYPE
RM  .OHMM     17                   : RM           - RESISTIVITY OF MUD
RMC .OHMM     17                   : RMC          - RESISTIVITY OF MUD CAKE
RMF .OHMM     17                   : RMF          - RESISTIVITY OF MUD FILTRATE
SUFT.C        4                    : SUFT         - SURFACE TEMPERATURE
~A  DEPTH       GR     RESD     PHIN     DENS     PHID
# ...
   46.500   46.598  177.358    0.477 2163.080    0.295
   46.750   46.674  139.203    0.409 2177.660    0.286
   47.000   52.843  109.385    0.381 2175.790    0.287
   47.250   45.613  129.741    0.377 2180.140    0.285
   47.500   45.728  137.578    0.398 2186.490    0.281
   47.750   50.036   89.556    0.432 2176.390    0.287
   48.000   59.831   71.621    0.438 2174.520    0.288
   48.250   73.895   69.144    0.458 2187.050    0.281
   48.500   61.844   79.083    0.434 2189.340    0.279
   48.750   61.901   82.301    0.407 2175.080    0.288
   49.000   62.585   65.820    0.402 2187.610    0.280
   49.250   64.484   76.707    0.416 2191.910    0.278
   49.500   67.597   62.508    0.409 2194.150    0.276
   49.750   56.742   43.861    0.423 2212.850    0.265
   50.000   46.474   56.113    0.410 2231.550    0.254
   50.250   45.336   70.493    0.418 2198.820    0.273
   50.500   52.094   56.376    0.418 2205.220    0.270
   50.750   63.121   45.968    0.429 2207.470    0.268
   51.000   79.615   45.218    0.462 2209.660    0.267
   51.250   77.870   46.183    0.473 2176.980    0.287
   51.500   65.780   38.370    0.464 2185.350    0.282
   51.750   51.281   50.076    0.410 2199.940    0.273
   52.000   66.541   46.563    0.438 2191.890    0.278
   52.250   64.188   50.281    0.450 2194.140    0.276
   52.500   53.333   73.357    0.444 2179.970    0.285
   52.750   63.734   50.517    0.461 2186.330    0.281
   53.000   74.762   46.127    0.474 2180.290    0.285
   53.250   66.943   48.913    0.445 2192.870    0.277
   53.500   62.768   53.851    0.459 2209.510    0.267
   53.750   64.059   62.686    0.475 2224.090    0.258
   54.000   71.424   44.819    0.428 2228.390    0.256
   54.250   80.630   33.271    0.418 2210.070    0.267
   54.500   75.829   28.166    0.421 2224.650    0.258
   54.750   73.476   36.033    0.422 2214.550    0.264
   55.000   81.486   40.423    0.441 2192.160    0.277
   55.250   80.955   38.299    0.402 2190.240    0.279
   55.500   87.086   33.663    0.450 2182.200    0.284
   55.750   84.733   36.372    0.463 2188.560    0.280
   56.000   66.571   45.667    0.382 2196.970    0.275
   56.250   48.408  110.718    0.395 2180.700    0.284
   56.500   41.197   74.784    0.386 2193.230    0.277
   56.750   44.310   57.672    0.392 2255.170    0.239
   57.000   41.957   53.595    0.423 2224.450    0.258
   57.250   60.273   40.563    0.442 2218.470    0.262
   57.500   65.208   39.160    0.418 2243.380    0.246
   57.750   75.021   37.103    0.397 2260.020    0.236
   58.000   87.871   33.839    0.443 2276.670    0.226
   58.250   90.984   25.105    0.444 2243.940    0.246
   58.500  104.441   17.616    0.410 2246.230    0.245
   58.750  105.733   18.680    0.403 2256.650    0.238
   59.000  114.919   22.590    0.398 2267.170    0.232
   59.250  110.744   36.221    0.421 2236.460    0.251
   59.500  101.104   62.604    0.438 2203.680    0.270
   59.750   75.653   84.730    0.481 2181.240    0.284
   60.000   75.103  116.915    0.443 2132.060    0.314
   60.250   80.665  136.175    0.438 2130.240    0.315
   60.500   73.454  147.221    0.433 2138.650    0.310
   60.750   67.438  156.113    0.422 2132.670    0.314
   61.000   59.619  139.814    0.423 2124.580    0.318
   61.250   66.983  156.846    0.444 2116.530    0.323
   61.500   60.987  123.104    0.457 2122.940    0.319
   61.750   62.278   86.382    0.429 2139.530    0.309
   62.000   70.269   64.124    0.409 2170.570    0.291
   62.250   72.168   42.507    0.386 2207.830    0.268
   62.500   80.747   44.263    0.401 2224.470    0.258
   62.750   89.345   36.069    0.373 2243.170    0.247
   63.000   91.851   29.410    0.397 2272.200    0.229
   63.250   83.425   31.204    0.402 2272.390    0.229
   63.500   83.521   27.930    0.408 2270.510    0.230
   63.750   78.700   19.970    0.450 2241.860    0.247
   64.000   87.299   18.910    0.423 2277.060    0.226
   64.250   87.983   14.574    0.421 2289.580    0.218
   64.500   90.489   16.975    0.477 2314.450    0.203
   64.750   99.694   20.146    0.456 2341.430    0.187
   65.000   99.164   21.780    0.433 2306.600    0.208
   65.250   94.989   20.240    0.434 2288.320    0.219
   65.500   90.795   22.719    0.424 2276.110    0.227
   65.750   84.817   25.013    0.444 2274.290    0.228
   66.000   84.875   19.278    0.427 2286.770    0.220
   66.250   95.903   16.935    0.407 2299.350    0.213
   66.500   94.157   16.349    0.391 2278.920    0.225
   66.750  110.044   18.362    0.381 2235.900    0.251
   67.000   99.776   20.216    0.435 2219.630    0.261
   67.250   84.669   24.432    0.466 2211.640    0.266
   67.500   73.795   32.471    0.458 2220.010    0.261
   67.750   81.159   30.783    0.452 2244.880    0.246
   68.000   83.685   27.041    0.448 2234.780    0.252
   68.250   77.061   22.878    0.432 2206.170    0.269
   68.500   65.599   21.677    0.429 2191.950    0.278
   68.750   59.583   39.636    0.491 2192.140    0.277
   69.000   66.359   53.675    0.473 2190.270    0.279
   69.250   66.436   67.391    0.510 2161.610    0.296
   69.500   52.524   81.543    0.452 2147.400    0.305
   69.750   44.098   26.977    0.426 2203.260    0.271
   70.000   69.095   27.552    0.406 2211.630    0.266
   70.250   77.105   32.091    0.406 2213.870    0.264
   70.500   82.021   28.740    0.411 2212.040    0.265
   70.750   87.583   25.755    0.390 2218.310    0.262
   71.000   78.530   32.336    0.412 2228.780    0.255
   71.250   63.404   48.980    0.381 2218.680    0.261
   71.500   68.947   77.075    0.416 2196.240    0.275
   71.750   76.938   40.054    0.386 2202.590    0.271
   72.000   81.873   38.646    0.379 2208.950    0.267
   72.250   78.306   40.980    0.400 2213.250    0.265
   72.500   60.143  235.719    0.429 2194.920    0.276
   72.750   48.680  178.298    0.441 2149.860    0.303
   73.000   74.891   90.881    0.400 2172.670    0.289
   73.250   90.171   28.958    0.425 2220.260    0.260
   73.500   80.511   66.326    0.447 2228.630    0.255
   73.750   65.423   57.213    0.433 2234.980    0.252
   74.000   66.088   54.207    0.442 2198.100    0.274
   74.250   47.318  158.558    0.478 2150.970    0.302
   74.500   53.468  191.741    0.440 2114.130    0.325
   74.750   65.710  245.442    0.424 2126.660    0.317
   75.000   79.775  207.781    0.418 2149.470    0.303
   75.250   88.354   51.843    0.430 2178.460    0.286
   75.500   86.001   75.680    0.443 2199.260    0.273
   75.750   84.863  121.345    0.407 2180.930    0.284
   76.000   74.008   66.674    0.448 2191.450    0.278
   76.250   60.723   76.213    0.407 2187.520    0.280
   76.500   72.339   82.395    0.393 2216.460    0.263
   76.750   82.133   49.727    0.416 2228.980    0.255
   77.000   77.351   48.916    0.490 2167.460    0.292
   77.250   65.869   94.626    0.473 2142.920    0.307
   77.500   55.621  287.370    0.454 2118.420    0.322
   77.750   33.207  374.603    0.455 2102.150    0.332
   78.000   46.664  444.837    0.466 2102.330    0.332
   78.250   59.494  462.934    0.440 2114.860    0.324
   78.500   75.988  295.568    0.430 2104.810    0.330
   78.750   73.635  392.820    0.428 2115.230    0.324
   79.000   76.749  178.797    0.407 2158.660    0.298
   79.250   65.893   81.430    0.414 2162.960    0.295
   79.500   59.896  238.184    0.421 2148.750    0.304
   79.750   54.488  277.419    0.444 2107.750    0.329
   80.000   52.135  342.033    0.439 2103.820    0.331
   80.250   66.807  462.914    0.420 2095.780    0.336
   80.500   72.349  195.577    0.429 2141.310    0.308
   80.750   69.997   84.195    0.442 2139.390    0.309
   81.000   57.927  270.503    0.435 2125.180    0.318
   81.250   50.108  417.504    0.384 2152.110    0.302
   81.500   46.521   72.967    0.388 2139.950    0.309
   81.750   56.334  102.533    0.395 2127.840    0.316
   82.000   59.447  453.490    0.372 2134.200    0.313
   82.250   77.156  231.151    0.380 2121.990    0.320
   82.500   79.662  188.364    0.392 2165.380    0.294
   82.750   74.272  101.573    0.410 2167.620    0.292
