~VERSION INFORMATION
 VERS.                 2.0:   CWLS LOG ASCII STANDARD -VERSION 2.0
 WRAP.                  NO:   ONE LINE PER DEPTH STEP
~WELL INFORMATION BLOCK
#MNEM.UNIT           DATA                    DESCRIPTION OF MNEMONIC
#---------    -------------------            -------------------------------
# Generated from Intellog Unique Number	CC_80_83/WELL/2337
NULL.         -999.25                        : NULL_VALUE
WELL.         PEX PCEJU HOUSE OV             : Well_name    - WELL              
LOC .         10-08-081-13W4                 : Location     - LOCATION          
UWI .         AA/10-08-081-13W400            : Uwi          - UNIQUE WELL ID    
ENTR.         DW                             : Entered      - ENTERED BY        
SRVC.         DRESSER ATLAS                  : Scn          - SERVICE COMPANY   
DATE.         31 JAN 81                      : Date         - LOG DATE
STRT.M        225                            : top_depth    - START DEPTH       
STOP.M        474.891                        : bot_depth    - STOP DEPTH        
STEP.M        0.3                            : increment    - STEP LENGTH       
~CURVE INFORMATION BLOCK
#MNEM UNIT       ERCB CURVE CODE    CURVE DESCRIPTION
#-----------   ------------------   ----------------------------------
DEPT.M        00 001 00 00         : DEPTH        - DEPTH                       
DPHI.V/V      00 890 00 00         : PHID         - DENSITY POROSITY (LIMESTONE)
NPHI.V/V      00 330 00 00         : PHIN         - NEUTRON POROSITY (LIMESTONE)
GR  .API      00 310 00 00         : GR           - GAMMA RAY                   
ILD .OHMM     00 120 00 00         : RESD         - DEEP RESISTIVITY (DIL)      
~PARAMETER INFORMATION       
#MNEM.UNIT           DATA             DESCRIPTION OF MNEMONIC
#---------         -----------     ------------------------------
GL  .M        667.8                : gl           - GROUND LEVEL ELEVATION      
EREF.M        670.7                : kb           - ELEVATION OF DEPTH REFERENCE
DATM.M        670.7                : datum        - DATUM ELEVATION             
TDD .M        477                  : tdd          - TOTAL DEPTH DRILLER         
RUN .         ONE                  : Run          - RUN NUMBER                  
ENG .         BILL                 : Engineer     - RECORDING ENGINEER          
WIT .         JIM                  : Witness      - WITNESSED BY                
MUD .         GEL                  : Mud_type     - MUD TYPE                    
MATR.         LIMESTONE            : Logunit      - NEUTRON MATRIX              
TMAX.C        18                   : BHT          - MAXIMUM RECORDED TEMPERATURE
BHTD.M        4772                 : BHTDEP       - MAXIMUM RECORDED TEMPERATURE
MATR.         1                    : LOGUNIT      - NEUTRON MATRIX              
RMT .C        25                   : MDTP         - TEMPERATURE OF MUD          
NEUT.         1                    : NEUTRON      - NEUTRON TYPE                
RESI.         0                    : RESIST       - RESISTIVITY TYPE            
RMC .OHMM     0.25                 : RMC          - RESISTIVITY OF MUD CAKE     
RMF .OHMM     0.25                 : RMF          - RESISTIVITY OF MUD FILTRATE 
SUFT.C        4                    : SUFT         - SURFACE TEMPERATURE         
~A  DEPTH     PHID     PHIN       GR     RESD
# ...
  329.397    0.286    0.450   89.112   10.357
  329.697    0.274    0.442   95.335    9.599
  329.997    0.233    0.439  100.910    8.732
  330.297    0.240    0.446  100.243    8.093
  330.597    0.261    0.457   88.910    6.818
  330.897    0.284    0.451   79.457    5.855
  331.197    0.297    0.449   71.263    5.427
  331.497    0.296    0.512   71.208    5.977
  331.797    0.300    0.483   71.161    6.708
  332.097    0.302    0.476   62.963    8.774
  332.397    0.299    0.459   59.773   11.924
  332.697    0.297    0.479   60.982   13.643
  332.997    0.294    0.457   74.089   14.738
  333.297    0.288    0.441   78.414   14.198
  333.597    0.284    0.450   80.264   13.416
  333.897    0.283    0.437   70.805   12.437
  334.197    0.310    0.477   70.122   11.529
  334.497    0.310    0.511   69.455   10.484
  334.797    0.294    0.503   80.061    9.354
  335.097    0.304    0.514   76.878    8.033
  335.397    0.304    0.489   86.857    7.032
  335.697    0.300    0.490  105.616    5.811
  335.997    0.293    0.507  110.577    5.185
  336.297    0.284    0.492  113.033    5.288
  336.597    0.299    0.459  114.238    6.409
  336.897    0.313    0.476   99.772    7.474
  337.197    0.326    0.482   79.036    8.884
  337.497    0.333    0.475   75.848   10.972
  337.797    0.332    0.469   82.069   11.854
  338.097    0.315    0.465   80.765   11.865
  338.397    0.290    0.479   77.580   11.647
  338.697    0.312    0.473   73.767   11.432
  338.997    0.313    0.463   75.598   10.804
  339.297    0.318    0.437   78.685   10.606
  339.597    0.322    0.453   91.800   10.818
  339.897    0.317    0.446   89.869   11.036
  340.197    0.314    0.433   76.643   10.835
  340.497    0.311    0.492   73.468    9.483
  340.797    0.303    0.503   81.569    7.690
  341.097    0.297    0.485   85.907    6.235
  341.397    0.327    0.490   91.495    5.153
  341.697    0.350    0.497  102.104    4.342
  341.997    0.365    0.536  105.816    3.801
  342.297    0.425    0.542  108.893    3.456
  342.597    0.401    0.549  109.477    3.204
  342.897    0.270    0.557  112.558    2.971
  343.197    0.268    0.541  114.388    2.862
  343.497    0.284    0.567  118.101    2.809
  343.797    0.295    0.592  119.289    2.758
  344.097    0.285    0.581  121.115    2.760
  344.397    0.283    0.584  122.326    2.762
  344.697    0.284    0.600  122.915    2.983
  344.997    0.288    0.592  124.107    3.285
  345.297    0.265    0.561  105.891    3.831
  345.597    0.262    0.544  105.836    4.823
  345.897    0.272    0.528  107.673    5.517
  346.197    0.274    0.508  105.732    6.193
  346.497    0.270    0.497  107.571    6.820
  346.797    0.276    0.484   96.853    7.090
  347.097    0.265    0.468  103.708    7.660
  347.397    0.257    0.461  104.912    8.275
  347.697    0.257    0.485  112.372    8.770
  347.997    0.255    0.476  112.331    9.294
  348.297    0.251    0.483  108.516    9.851
  348.597    0.242    0.484  107.212    9.488
  348.897    0.236    0.477   86.482    8.628
  349.197    0.283    0.466   87.061    7.132
  349.497    0.307    0.456  100.165    4.177
  349.797    0.342    0.463  107.644    2.745
  350.096    0.365    0.505  111.982    2.357
  350.396    0.365    0.549  122.590    1.986
  350.696    0.268    0.566  123.161    1.580
  350.996    0.282    0.549  109.951    1.331
  351.296    0.303    0.567  106.136    1.332
  351.596    0.313    0.573  111.106    1.411
  351.896    0.317    0.596  108.547    1.554
  352.196    0.324    0.590   94.079    2.324
  352.496    0.353    0.565  105.313    3.611
  352.796    0.357    0.543  108.398    5.099
  353.096    0.330    0.533   92.678    7.063
  353.396    0.269    0.536  100.771    8.237
  353.696    0.280    0.500   96.959    7.636
  353.996    0.348    0.479   87.502    6.684
  354.296    0.379    0.488   89.342    6.079
  354.596    0.362    0.564   95.559    5.635
  354.896    0.279    0.537  102.406    5.126
  355.196    0.284    0.521   88.563    4.843
  355.496    0.327    0.570   92.275    4.755
  355.796    0.316    0.556   97.867    4.760
  356.096    0.323    0.541  100.951    4.854
  356.396    0.377    0.534   99.648    4.857
  356.696    0.376    0.566  103.986    5.050
  356.996    0.376    0.553   88.885    5.250
  357.296    0.337    0.559   92.602    5.356
  357.596    0.344    0.552  109.478    5.466
  357.896    0.356    0.543   95.637    5.575
  358.196    0.342    0.543   96.206    5.796
  358.496    0.337    0.537   96.789    5.911
  358.796    0.335    0.522  100.490    6.147
  359.096    0.371    0.510  100.444    6.391
  359.396    0.376    0.515  102.905    6.644
  359.696    0.402    0.506   99.091    6.908
  359.996    0.403    0.515  102.806    6.912
  360.296    0.381    0.515  102.127    6.658
  360.596    0.314    0.493  108.335    6.413
  360.896    0.346    0.495  107.672    6.060
  361.196    0.354    0.493  106.994    5.726
  361.496    0.323    0.502  115.720    5.621
  361.796    0.345    0.525  111.909    5.520
  362.096    0.372    0.518   93.043    5.630
  362.396    0.349    0.518  111.182    4.834
  362.696    0.270    0.526  112.378    4.397
  362.996    0.262    0.521  110.445    4.571
  363.296    0.254    0.523  106.640    5.131
  363.596    0.252    0.516  104.074    6.337
  363.896    0.243    0.490  106.524    7.827
  364.196    0.228    0.436  106.484    9.304
  364.496    0.223    0.444  102.671   10.244
  364.796    0.204    0.419   97.617   10.653
  365.096    0.093    0.389   70.611   10.262
  365.396    0.122    0.286   67.427    9.514
  365.696    0.230    0.383   74.272    8.987
  365.996    0.234    0.458   96.162    8.331
  366.296    0.255    0.476   99.240    7.724
  366.596    0.265    0.457   99.186    7.440
  366.896    0.266    0.467  101.022    7.304
  367.196    0.330    0.498  104.097    7.308
  367.496    0.341    0.484   97.164    7.315
  367.796    0.311    0.507   97.107    7.462
  368.096    0.242    0.499  100.196    7.327
  368.396    0.261    0.464  104.536    7.191
  368.696    0.270    0.460  102.596    6.794
  368.996    0.284    0.468  106.936    6.180
  369.296    0.353    0.477  100.621    5.307
  369.596    0.418    0.487   96.184    4.919
  369.896    0.398    0.486  100.520    4.561
  370.196    0.319    0.523  106.745    4.564
  370.496    0.309    0.505  101.674    4.930
  370.796    0.341    0.520  101.624    5.640
  371.096    0.375    0.529  105.340    6.705
  371.396    0.404    0.510  103.394    8.124
  371.696    0.400    0.492  102.090    9.119
  371.996    0.172    0.496  102.677    9.482
  372.296    0.210    0.466   92.595    8.300
  372.596    0.271    0.424   95.058    7.405
  372.896    0.318    0.437  104.413    6.481
  373.196    0.395    0.457  110.627    5.784
  373.496    0.287    0.478  113.089    5.465
  373.796    0.267    0.535  103.624    5.264
  374.096    0.282    0.517  105.457    5.267
  374.396    0.289    0.506  106.040    5.690
  374.695    0.294    0.514  108.499    6.386
  374.995    0.326    0.504  109.077    7.167
  375.295    0.358    0.519  112.150    8.359
  375.595    0.223    0.504  122.135    9.565
  375.895    0.218    0.483  123.345   10.734
  376.195    0.196    0.451  116.399   11.377
  376.495    0.121    0.400  112.586   10.750
  376.795    0.176    0.378   90.594    9.966
  377.095    0.216    0.362  120.623    8.559
  377.395    0.249    0.448  116.194    7.348
  377.695    0.278    0.451  112.385    6.434
  377.995    0.317    0.463  108.569    6.315
  378.295    0.380    0.473  112.272    6.085
  378.595    0.398    0.496  114.736    6.087
  378.895    0.395    0.516  104.652    6.092
  379.195    0.379    0.526  105.854    6.215
  379.495    0.364    0.485  112.071    6.338
  379.795    0.349    0.506  113.286    7.253
  380.095    0.384    0.493  113.865    7.834
  380.395    0.358    0.492  103.158    8.627
  380.695    0.214    0.465   89.941    8.970
  380.995    0.164    0.424   84.875    8.640
  381.295    0.184    0.387   97.990    8.321
