~VERSION INFORMATION
 VERS.                 2.0:   CWLS LOG ASCII STANDARD -VERSION 2.0
 WRAP.                  NO:   ONE LINE PER DEPTH STEP
~WELL INFORMATION BLOCK
#MNEM.UNIT           DATA                    DESCRIPTION OF MNEMONIC
#---------    -------------------            -------------------------------
# Generated from Intellog Unique Number	CN_91_93/WELL/3550
WELL.         10-24-093-08W4                 : Well_name    - WELL
LOC .         AA/10-24-093-08W4/0            : Location     - LOCATION
UWI .         AA/10-24-093-08W400            : Uwi          - UNIQUE WELL ID
ENTR.         JOETTE                         : Entered      - ENTERED BY
SRVC.         SCHLUMBERGER                   : Scn          - SERVICE COMPANY
DATE.         03/16/92                       : Date         - LOG DATE
STRT.M        5                              : top_depth    - START DEPTH
STOP.M        225                            : bot_depth    - STOP DEPTH
STEP.M        0.25                           : increment    - STEP LENGTH
 NULL. -999.2500:NULL Value
~CURVE INFORMATION BLOCK
#MNEM UNIT       ERCB CURVE CODE    CURVE DESCRIPTION
#-----------   ------------------   ----------------------------------
DEPT.M        00 001 00 00         : DEPTH        - DEPTH
GR  .API      00 310 00 00         : GR           - GAMMA RAY
CALI.MM       00 280 01 00         : CAL          - CALIPER
NPHI.V/V      00 330 00 00         : PHIN         - NEUTRON POROSITY (SANDSTONE)
DPHI.V/V      00 890 00 00         : PHID         - DENSITY POROSITY (SANDSTONE)
ILD .OHMM     00 120 00 00         : RESD         - DEEP RESISTIVITY (DIL)
~PARAMETER INFORMATION
#MNEM.UNIT           DATA             DESCRIPTION OF MNEMONIC
#---------         -----------     ------------------------------
GL  .M        486.6                : gl           - GROUND LEVEL ELEVATION
EREF.M        486.6                : kb           - ELEVATION OF DEPTH REFERENCE
DATM.M        486.6                : datum        - DATUM ELEVATION
TDD .M        226.7                : tdd          - TOTAL DEPTH DRILLER
RUN .         ONE                  : Run          - RUN NUMBER
ENG .         BILL                 : Engineer     - RECORDING ENGINEER
WIT .         JIM                  : Witness      - WITNESSED BY
MUD .         GEL                  : Mud_type     - MUD TYPE
MATR.         SANDSTONE            : Logunit      - NEUTRON MATRIX
TMAX.C        18                   : BHT          - MAXIMUM RECORDED TEMPERATURE
BHTD.M        226.7                : BHTDEP       - MAXIMUM RECORDED TEMPERATURE
RMT .C        16                   : MDTP         - TEMPERATURE OF MUD
MUDD.KG/M     1.01                 : MWT          - MUD DENSITY
NEUT.         1                    : NEUTRON      - NEUTRON TYPE
RESI.         0                    : RESIST       - RESISTIVITY TYPE
RM  .OHMM     4.5                  : RM           - RESISTIVITY OF MUD
RMC .OHMM     4.5                  : RMC          - RESISTIVITY OF MUD CAKE
RMF .OHMM     4.5                  : RMF          - RESISTIVITY OF MUD FILTRATE
SUFT.C        4                    : SUFT         - SURFACE TEMPERATURE
~A  DEPTH       GR      CAL     PHIN     PHID     RESD
# ...
   78.000   78.626  178.917    0.553   -0.048    3.274
   78.250   80.439  178.788    0.557   -0.050    3.281
   78.500   85.377  179.753    0.564   -0.045    3.287
   78.750   89.080  179.573    0.570   -0.049    3.239
   79.000   84.004  179.495    0.556   -0.051    3.190
   79.250   81.442  179.418    0.561   -0.055    3.199
   79.500   84.505  179.341    0.563   -0.065    3.205
   79.750   85.068  179.187    0.556   -0.071    3.212
   80.000   94.381  179.135    0.576   -0.056    3.276
   80.250   91.819  179.033    0.570   -0.053    3.339
   80.500   89.258  178.904    0.569   -0.012    3.342
   80.750   96.055  180.884    0.578    0.058    3.590
   81.000   97.883  184.973    0.589    0.150    3.851
   81.250  102.212  184.845    0.579    0.213    4.131
   81.500  117.148  184.742    0.567    0.253    4.583
   81.750  122.711  182.556    0.557    0.272    5.541
   82.000  115.150  180.396    0.560    0.288    6.588
   82.250  111.339  181.334    0.571    0.266    6.169
   82.500  111.277  181.231    0.575    0.266    5.581
   82.750  124.324  181.077    0.558    0.278    5.593
   83.000  122.403  181.000    0.549    0.293    5.898
   83.250  118.560  181.939    0.554    0.306    5.911
   83.500  117.280  181.836    0.559    0.312    5.823
   83.750  116.593  182.749    0.552    0.315    5.736
   84.000  119.640  182.646    0.562    0.315    5.651
   84.250  115.829  183.610    0.572    0.283    5.567
   84.500  109.518  183.507    0.563    0.287    5.675
   84.750  106.332  184.446    0.556    0.316    5.686
   85.000  118.769  184.317    0.554    0.340    5.507
   85.250  117.457  184.215    0.554    0.364    5.246
   85.500  112.396  184.137    0.565    0.370    5.163
   85.750  114.193  182.967    0.558    0.380    5.000
   86.000  113.507  182.890    0.553    0.389    4.761
   86.250  114.710  181.720    0.567    0.402    4.611
   86.500  109.649  181.643    0.577    0.409    4.031
   86.750  107.072  182.530    0.581    0.414    4.251
   87.000  112.026  182.479    0.563    0.406    4.408
   87.250  108.183  182.350    0.555    0.395    4.417
   87.500  109.387  182.273    0.564    0.383    4.426
   87.750  106.185  182.144    0.568    0.378    4.436
   88.000  116.153  181.990    0.566    0.372    4.370
   88.250  111.701  181.939    0.559    0.364    4.232
   88.500  116.030  181.784    0.559    0.355    4.171
   88.750  111.563  181.733    0.566    0.352    4.250
   89.000  107.767  181.604    0.552    0.346    4.484
   89.250  103.315  181.527    0.551    0.317    4.496
   89.500  103.253  181.373    0.556    0.315    4.501
   89.750  105.066  181.296    0.564    0.303    4.359
   90.000  105.020  182.260    0.561    0.303    4.294
   90.250  102.443  182.106    0.554    0.307    4.159
   90.500   99.882  183.070    0.547    0.306    4.170
   90.750   94.805  182.993    0.549    0.282    4.108
   91.000   91.634  183.906    0.547    0.279    4.047
   91.250   89.698  183.829    0.530    0.269    3.919
   91.500   97.135  183.726    0.514    0.262    3.929
   91.750  103.948  184.639    0.513    0.264    4.001
   92.000  100.761  184.562    0.533    0.269    4.222
   92.250   95.075  184.407    0.543    0.274    4.529
   92.500   88.139  184.330    0.534    0.299    4.777
   92.750   84.312  184.227    0.522    0.308    5.041
   93.000   79.251  184.073    0.505    0.311    5.051
   93.250   73.565  183.996    0.500    0.280    5.064
   93.500   67.238  183.919    0.509    0.282    5.070
   93.750   64.052  183.816    0.509    0.269    5.083
   94.000   60.866  184.755    0.511    0.194    5.270
   94.250   57.679  184.626    0.483    0.179    5.278
   94.500   66.367  185.565    0.486    0.280    5.112
   94.750   75.679  187.545    0.472    0.319    4.785
   95.000   85.632  189.500    0.504    0.309    4.479
   95.250   93.069  190.490    0.522    0.315    4.054
   95.500   94.257  193.511    0.527    0.317    3.859
   95.750   96.070  195.492    0.536    0.313    3.800
   96.000   99.118  196.430    0.544    0.321    3.744
   96.250  102.181  197.343    0.537    0.320    3.751
   96.500  100.885  197.266    0.515    0.302    3.824
   96.750   96.448  197.112    0.487    0.294    3.898
   97.000   91.372  197.035    0.477    0.300    3.775
   97.250   88.170  196.958    0.501    0.308    3.594
   97.500   91.889  196.855    0.512    0.313    3.481
   97.750   94.921  198.835    0.518    0.320    3.488
   98.000   98.015  202.898    0.513    0.321    3.808
   98.250  106.077  201.754    0.518    0.312    4.017
   98.500  106.640  196.392    0.532    0.316    4.096
   98.750   98.454  193.164    0.521    0.323    4.031
   99.000   85.879  191.004    0.519    0.328    3.838
   99.250   86.442  191.943    0.529    0.324    3.654
   99.500   94.489  192.881    0.543    0.297    3.662
   99.750   93.193  193.820    0.538    0.307    3.797
  100.000   93.115  191.634    0.507    0.275    4.365
  100.250   85.570  187.365    0.470    0.149    4.843
  100.500   74.869  184.112    0.437    0.207    5.022
  100.750   67.933  182.967    0.457    0.250    4.468
  101.000   72.871  182.864    0.489    0.296    4.114
  101.250   86.573  184.819    0.501    0.333    3.913
  101.500  100.885  186.799    0.521    0.314    3.480
  101.750  102.073  187.738    0.535    0.317    3.257
  102.000   97.012  190.734    0.536    0.326    3.099
  102.250   92.575  193.807    0.524    0.335    2.951
  102.500   95.638  197.871    0.530    0.334    2.909
  102.750  101.811  205.084    0.531    0.330    2.963
  103.000  101.139  216.439    0.533    0.328    3.076
  103.250   96.688  211.102    0.509    0.324    3.186
  103.500   93.501  206.859    0.507    0.317    3.599
  103.750   91.565  199.439    0.495    0.322    4.136
  104.000   85.254  195.170    0.483    0.328    4.434
  104.250   76.427  189.834    0.492    0.295    4.080
  104.500   78.865  190.798    0.489    0.298    3.569
  104.750   80.678  193.794    0.497    0.308    3.339
  105.000   86.257  198.899    0.509    0.344    3.022
  105.250  104.943  201.921    0.548    0.354    2.829
  105.500   99.257  202.886    0.576    0.368    2.884
  105.750   96.055  204.840    0.583    0.376    2.990
  106.000   93.493  205.779    0.564    0.337    3.153
  106.250   93.447  205.650    0.534    0.296    3.326
  106.500   99.635  205.573    0.503    0.311    3.331
  106.750   97.683  205.419    0.518    0.315    3.397
  107.000  100.746  205.393    0.523    0.326    3.402
  107.250   97.559  205.290    0.508    0.298    3.470
  107.500   96.248  205.187    0.501    0.265    3.598
  107.750   94.311  205.059    0.470    0.255    3.794
  108.000   91.125  204.930    0.455    0.265    4.002
  108.250   90.438  204.827    0.464    0.273    4.223
  108.500   94.751  204.699    0.462    0.253    4.456
  108.750  100.298  203.606    0.443    0.267    4.537
  109.000   97.127  201.368    0.439    0.270    4.625
  109.250   96.441  200.249    0.446    0.268    4.479
  109.500   98.879  198.038    0.461    0.281    4.193
  109.750   98.817  197.986    0.478    0.287    3.793
  110.000  101.255  195.800    0.480    0.273    3.373
  110.250  101.193  194.630    0.468    0.267    3.212
  110.500  103.616  192.418    0.460    0.272    3.274
  110.750   97.945  190.284    0.468    0.278    3.636
  111.000   96.634  185.938    0.475    0.257    3.898
  111.250   99.697  184.819    0.482    0.265    3.974
  111.500   99.635  183.700    0.462    0.319    3.984
  111.750   98.948  182.530    0.435    0.335    4.131
  112.000   85.747  182.453    0.414    0.283    4.662
  112.250   77.561  181.283    0.417    0.199    5.934
  112.500   69.985  181.206    0.425    0.146    6.475
  112.750   61.174  181.051    0.421    0.104    6.165
  113.000   61.737  180.974    0.422    0.141    5.771
  113.250   75.424  181.939    0.431    0.321    5.220
  113.500   84.127  181.810    0.443    0.328    4.804
  113.750   90.940  181.707    0.458    0.309    4.274
  114.000   99.627  181.604    0.468    0.282    4.135
  114.250   98.300  181.527    0.466    0.297    3.937
