~VERSION INFORMATION
 VERS.                 2.0:   CWLS LOG ASCII STANDARD -VERSION 2.0
 WRAP.                  NO:   ONE LINE PER DEPTH STEP
~WELL INFORMATION BLOCK
#MNEM.UNIT           DATA                    DESCRIPTION OF MNEMONIC
#---------    -------------------            -------------------------------
# Generated from Intellog Unique Number	CC_80_83/WELL/2373
NULL.         -999.25                        : NULL_VALUE
WELL.         PEX PCEJ HOUSE OV              : Well_name    - WELL
LOC .         10-26-081-14W4                 : Location     - LOCATION          
UWI .         AA/10-26-081-14W400            : Uwi          - UNIQUE WELL ID    
ENTR.         DW                             : Entered      - ENTERED BY        
SRVC.         SCHLUMBERGER                   : Scn          - SERVICE COMPANY   
DATE.         20 DEC 81                      : Date         - LOG DATE
STRT.M        200                            : top_depth    - START DEPTH       
STOP.M        379.996                        : bot_depth    - STOP DEPTH        
STEP.M        0.3                            : increment    - STEP LENGTH       
~CURVE INFORMATION BLOCK
#MNEM UNIT       ERCB CURVE CODE    CURVE DESCRIPTION
#-----------   ------------------   ----------------------------------
DEPT.M        00 001 00 00         : DEPTH        - DEPTH                       
DPHI.V/V      00 890 00 00         : PHID         - DENSITY POROSITY (LIMESTONE)
NPHI.V/V      00 330 00 00         : PHIN         - NEUTRON POROSITY (LIMESTONE)
GR  .API      00 310 00 00         : GR           - GAMMA RAY                   
ILD .OHMM     00 120 00 00         : RESD         - DEEP RESISTIVITY (DIL)      
~PARAMETER INFORMATION       
#MNEM.UNIT           DATA             DESCRIPTION OF MNEMONIC
#---------         -----------     ------------------------------
GL  .M        592.5                : gl           - GROUND LEVEL ELEVATION      
EREF.M        596.2                : kb           - ELEVATION OF DEPTH REFERENCE
DATM.M        596.2                : datum        - DATUM ELEVATION             
TDD .M        388                  : tdd          - TOTAL DEPTH DRILLER         
RUN .         ONE                  : Run          - RUN NUMBER                  
ENG .         BILL                 : Engineer     - RECORDING ENGINEER          
WIT .         JIM                  : Witness      - WITNESSED BY                
MUD .         GEL                  : Mud_type     - MUD TYPE                    
MATR.         LIMESTONE            : Logunit      - NEUTRON MATRIX              
TMAX.C        22.2                 : BHT          - MAXIMUM RECORDED TEMPERATURE
BHTD.M        387                  : BHTDEP       - MAXIMUM RECORDED TEMPERATURE
MATR.         1                    : LOGUNIT      - NEUTRON MATRIX              
RMT .C        25                   : MDTP         - TEMPERATURE OF MUD          
NEUT.         1                    : NEUTRON      - NEUTRON TYPE                
RESI.         0                    : RESIST       - RESISTIVITY TYPE            
RMC .OHMM     0.25                 : RMC          - RESISTIVITY OF MUD CAKE     
RMF .OHMM     0.25                 : RMF          - RESISTIVITY OF MUD FILTRATE 
SUFT.C        15                   : SUFT         - SURFACE TEMPERATURE         
~A  DEPTH     PHID     PHIN       GR     RESD
  200.000    0.243    0.433   79.987   13.680
  200.300    0.254    0.428   84.333   12.439
  200.600    0.259    0.422   83.717   11.312
  200.900    0.252    0.431   81.862   10.485
  201.200    0.278    0.448   79.388    9.720
  201.500    0.303    0.464   77.532    9.539
  201.800    0.311    0.453   75.677    9.918
  202.100    0.309    0.446   77.543   10.507
  202.400    0.305    0.431   84.989   11.130
  202.700    0.305    0.424   85.613   11.791
  203.000    0.304    0.424   80.657   12.735
  203.300    0.289    0.439   84.383   12.985
  203.600    0.246    0.427   95.549   12.990
  203.900    0.244    0.411   98.656   12.274
  204.200    0.300    0.441  103.000   11.162
  204.500    0.306    0.498  109.825   10.544
  204.800    0.301    0.453  105.490    8.884
  205.100    0.259    0.477  104.875    7.629
  205.400    0.246    0.483  115.421    6.938
  205.700    0.253    0.501  119.146    6.554
  206.000    0.300    0.515  116.051    6.312
  206.300    0.259    0.488  106.756    5.421
  206.600    0.251    0.472  108.621    5.424
  206.900    0.241    0.504  116.688    5.857
  207.200    0.263    0.531  112.971    6.204
  207.500    0.243    0.509   94.995    7.096
  207.800    0.240    0.460  104.921    7.810
  208.100    0.246    0.480  104.306    7.963
  208.400    0.258    0.450   99.971    8.766
  208.700    0.279    0.443  101.216   10.026
  209.000    0.279    0.424   99.362   10.221
  209.300    0.277    0.440   95.025   10.830
  209.600    0.280    0.450   90.690   11.043
  209.900    0.301    0.433  103.717   11.261
  210.200    0.310    0.439  101.861   11.930
  210.500    0.308    0.454   93.186   12.641
  210.800    0.287    0.458   95.671   12.646
  211.100    0.231    0.461  103.737   11.722
  211.400    0.236    0.490  102.501   10.067
  211.700    0.265    0.516   78.944    9.331
  212.000    0.296    0.531   53.529    9.884
  212.300    0.325    0.447   48.572   13.423
  212.600    0.333    0.430   50.438   16.567
  212.900    0.330    0.444   51.683   18.946
  213.200    0.334    0.429   46.727   20.071
  213.500    0.338    0.455   51.693   19.701
  213.800    0.337    0.474   50.459   20.482
  214.100    0.331    0.445   45.504   20.490
  214.400    0.317    0.410   44.270   20.895
  214.700    0.311    0.390   43.653   20.910
  215.000    0.321    0.413   43.039   20.918
  215.300    0.319    0.465   46.145   20.529
  215.600    0.316    0.460   46.149   20.147
  215.900    0.318    0.413   43.674   19.776
  216.200    0.326    0.409   43.060   19.787
  216.500    0.329    0.412   43.684   20.175
  216.800    0.318    0.403   44.928   20.189
  217.100    0.323    0.418   48.034   20.585
  217.400    0.338    0.436   48.040   20.592
  217.700    0.321    0.398   46.805   20.608
  218.000    0.313    0.413   47.428   20.228
  218.300    0.308    0.400   45.574   19.480
  218.600    0.314    0.383   44.959   19.488
  218.900    0.339    0.390   46.824   19.497
  219.200    0.343    0.416   46.209   19.506
  219.500    0.328    0.433   44.355   19.893
  219.800    0.322    0.440   43.739   20.285
  220.100    0.331    0.408   48.085   20.293
  220.400    0.352    0.423   54.291   19.919
  220.700    0.340    0.424   51.815   19.927
  221.000    0.324    0.433   46.239   19.557
  221.300    0.332    0.398   51.826   19.196
  221.600    0.332    0.394   54.930   19.207
  221.900    0.330    0.406   54.316   18.850
  222.200    0.348    0.430   51.840   17.812
  222.500    0.339    0.445   56.807   17.152
  222.800    0.364    0.471   59.291   16.833
  223.100    0.345    0.492   56.816   15.607
  223.400    0.334    0.508   51.861   15.316
  223.700    0.353    0.498   46.905   15.621
  224.000    0.350    0.475   45.052   16.237
  224.300    0.338    0.463   46.295   16.557
  224.600    0.338    0.472   50.021   16.563
  224.900    0.348    0.480   50.027   16.889
  225.200    0.344    0.496   48.792   16.899
  225.500    0.349    0.505   45.697   16.905
  225.800    0.351    0.478   43.842   16.912
  226.100    0.327    0.466   43.226   17.250
  226.400    0.319    0.451   48.191   17.588
  226.700    0.346    0.453   52.536   19.360
  227.000    0.349    0.471   46.341   21.722
  227.300    0.341    0.476   44.487   22.574
  227.600    0.343    0.466   44.493   23.021
  227.900    0.363    0.432   45.736   23.034
  228.200    0.356    0.511   46.983   21.764
  228.500    0.346    0.512   46.986   20.953
  228.800    0.349    0.496   45.751   19.055
  229.100    0.344    0.504   45.138   17.329
  229.400    0.336    0.492   45.761   16.691
  229.700    0.343    0.445   49.488   16.698
  230.000    0.344    0.414   50.734   16.706
  230.300    0.336    0.457   50.117   16.710
  230.600    0.346    0.471   47.641   16.720
  230.900    0.353    0.467   43.306   17.049
  231.200    0.343    0.472   42.072   17.386
  231.500    0.335    0.461   47.658   17.397
  231.800    0.328    0.446   49.522   17.073
  232.100    0.329    0.461   48.908   16.441
  232.400    0.340    0.481   49.533   15.536
  232.700    0.347    0.474   52.019   15.540
  233.000    0.345    0.473   52.642   15.257
  233.300    0.354    0.474   48.928   15.262
  233.600    0.351    0.472   47.072   15.565
  233.900    0.335    0.477   49.559   15.869
  234.200    0.332    0.483   53.285   16.186
  234.500    0.335    0.477   53.288   16.191
  234.800    0.321    0.469   53.913   15.896
  235.100    0.335    0.446   56.398   15.900
  235.400    0.344    0.494   60.124   16.530
  235.700    0.350    0.507   55.169   16.855
  236.000    0.349    0.441   52.073   16.860
  236.300    0.344    0.446   52.079   16.872
  236.600    0.341    0.467   58.904   16.875
  236.900    0.312    0.472   63.250   16.255
  237.200    0.324    0.457   60.154   15.953
  237.500    0.342    0.447   54.581   15.657
  237.800    0.340    0.480   54.585   15.973
  238.100    0.327    0.494   56.450   15.980
  238.400    0.330    0.490   58.935   16.296
  238.700    0.332    0.448   57.080   16.301
  239.000    0.334    0.463   54.605   16.620
  239.300    0.336    0.470   58.950   16.312
  239.600    0.325    0.433   60.195   15.416
  239.900    0.320    0.432   60.200   15.130
  240.200    0.315    0.449   63.925   15.136
  240.500    0.306    0.475   68.271   15.144
  240.800    0.304    0.480   65.795   15.151
  241.100    0.305    0.428   60.842   15.450
  241.400    0.316    0.429   60.228   15.459
  241.700    0.324    0.457   60.851   15.761
  242.000    0.322    0.462   62.717   15.770
  242.300    0.328    0.452   62.103   15.778
  242.600    0.335    0.447   63.968   14.906
  242.900    0.318    0.435   67.693   13.820
  243.200    0.292    0.442   69.556   14.092
  243.500    0.300    0.464   70.182   14.370
  243.800    0.320    0.467   64.606   14.936
  244.100    0.330    0.455   63.371   15.523
  244.400    0.316    0.435   68.336   16.134
  244.700    0.312    0.448   65.863   16.143
  245.000    0.308    0.476   65.866   15.844
  245.300    0.306    0.476   69.592   15.851
  245.600    0.305    0.469   73.317   15.262
  245.900    0.298    0.469   77.044   14.420
  246.200    0.290    0.456   77.048   13.627
  246.500    0.298    0.458   68.372   12.872
  246.800    0.305    0.434   65.897   11.705
  247.100    0.297    0.408   80.164   11.274
  247.400    0.266    0.434   80.168   11.716
  247.700    0.280    0.470   69.633   12.413
  248.000    0.293    0.469   59.718   13.403
  248.300    0.301    0.425   57.243   13.671
  248.600    0.308    0.418   55.386   12.915
  248.900    0.297    0.400   52.913   11.523
  249.201    0.286    0.407   56.017   10.683
  249.501    0.280    0.443   58.503   10.688
  249.801    0.281    0.441   59.748   11.538
  250.101    0.287    0.404   63.473   12.227
  250.401    0.295    0.446   65.958   13.201
  250.701    0.296    0.469   66.583   14.532
  251.001    0.302    0.461   62.868   14.816
  251.301    0.312    0.444   58.533   14.824
  251.601    0.307    0.431   54.817   14.005
  251.901    0.287    0.431   63.503   12.737
