~VERSION INFORMATION
 VERS.                 2.0:   CWLS LOG ASCII STANDARD -VERSION 2.0
 WRAP.                  NO:   ONE LINE PER DEPTH STEP
~WELL INFORMATION BLOCK
#MNEM.UNIT           DATA                    DESCRIPTION OF MNEMONIC
#---------    -------------------            -------------------------------
# Generated from Intellog Unique Number	CC_80_83/WELL/2386
NULL.         -999.25                        : NULL_VALUE
WELL.         PEX PECJU HOUSE                : Well_name    - WELL              
LOC .         10-29-081-14W4                 : Location     - LOCATION          
UWI .         AA/10-29-081-14W400            : Uwi          - UNIQUE WELL ID    
ENTR.         RJA                            : Entered      - ENTERED BY        
SRVC.         SCHLUMBERGER                   : Scn          - SERVICE COMPANY   
DATE.         09 JAN 82                      : Date         - LOG DATE
STRT.M        116                            : top_depth    - START DEPTH       
STOP.M        376.996                        : bot_depth    - STOP DEPTH        
STEP.M        0.3                            : increment    - STEP LENGTH       
~CURVE INFORMATION BLOCK
#MNEM UNIT       ERCB CURVE CODE    CURVE DESCRIPTION
#-----------   ------------------   ----------------------------------
DEPT.M        00 001 00 00         : DEPTH        - DEPTH                       
NPHI.V/V      00 330 00 00         : PHIN         - NEUTRON POROSITY (LIMESTONE)
DPHI.V/V      00 890 00 00         : PHID         - DENSITY POROSITY (LIMESTONE)
GR  .API      00 310 00 00         : GR           - GAMMA RAY                   
ILD .OHMM     00 120 00 00         : RESD         - DEEP RESISTIVITY (DIL)      
~PARAMETER INFORMATION       
#MNEM.UNIT           DATA             DESCRIPTION OF MNEMONIC
#---------         -----------     ------------------------------
GL  .M        585                  : gl           - GROUND LEVEL ELEVATION      
EREF.M        588.6                : kb           - ELEVATION OF DEPTH REFERENCE
DATM.M        588.6                : datum        - DATUM ELEVATION             
TDD .M        385                  : tdd          - TOTAL DEPTH DRILLER         
RUN .         ONE                  : Run          - RUN NUMBER                  
ENG .         BILL                 : Engineer     - RECORDING ENGINEER          
WIT .         JIM                  : Witness      - WITNESSED BY                
MUD .         GEL                  : Mud_type     - MUD TYPE                    
MATR.         LIMESTONE            : Logunit      - NEUTRON MATRIX              
TMAX.C        15                   : BHT          - MAXIMUM RECORDED TEMPERATURE
BHTD.M        385                  : BHTDEP       - MAXIMUM RECORDED TEMPERATURE
MATR.         1                    : LOGUNIT      - NEUTRON MATRIX              
RMT .C        25                   : MDTP         - TEMPERATURE OF MUD          
NEUT.         1                    : NEUTRON      - NEUTRON TYPE                
RESI.         0                    : RESIST       - RESISTIVITY TYPE            
RMC .OHMM     0.25                 : RMC          - RESISTIVITY OF MUD CAKE     
RMF .OHMM     0.25                 : RMF          - RESISTIVITY OF MUD FILTRATE 
SUFT.C        4                    : SUFT         - SURFACE TEMPERATURE         
~A  DEPTH     PHIN     PHID       GR     RESD
# ...
  168.201    0.444    0.173   93.958    7.547
  168.501    0.466    0.182   95.217    7.122
  168.801    0.448    0.214  105.894    6.219
  169.101    0.464    0.232  113.432    5.868
  169.401    0.478    0.214  114.693    5.755
  169.701    0.467    0.212  112.188    5.430
  170.001    0.499    0.179  103.408    5.220
  170.301    0.474    0.165  100.904    5.118
  170.601    0.464    0.270   90.866    5.846
  170.901    0.442    0.292   84.597    6.679
  171.201    0.423    0.306   79.582    7.633
  171.501    0.414    0.290   82.727    9.594
  171.801    0.390    0.264   87.126   10.753
  172.101    0.423    0.269   87.132   11.164
  172.401    0.432    0.277   78.979   11.372
  172.701    0.404    0.303   72.710   12.034
  173.001    0.387    0.312   72.714   12.981
  173.301    0.373    0.308   75.233   13.480
  173.601    0.389    0.305   79.631   13.469
  173.901    0.406    0.304   88.425   13.203
  174.201    0.399    0.282   92.825   12.452
  174.501    0.396    0.263   92.204   12.210
  174.801    0.418    0.300   89.070   11.739
  175.101    0.410    0.315   87.193   11.954
  175.401    0.405    0.312   91.595   11.949
  175.701    0.414    0.289   94.110   11.711
  176.001    0.419    0.281   99.137   11.263
  176.301    0.414    0.274  108.557   10.227
  176.601    0.401    0.226  104.170    8.600
  176.901    0.415    0.140   97.272    7.662
  177.201    0.436    0.164  108.577    6.321
  177.501    0.460    0.214  112.350    5.524
  177.801    0.482    0.230  114.237    4.828
  178.101    0.459    0.160  112.988    4.300
  178.401    0.476    0.190  104.207    3.979
  178.701    0.501    0.293   99.191    3.902
  179.001    0.511    0.314  102.964    3.824
  179.301    0.554    0.283  104.225    3.821
  179.601    0.505    0.240  101.094    3.967
  179.901    0.497    0.225  100.471    4.197
  180.201    0.487    0.217  105.502    4.358
  180.501    0.506    0.231  105.504    4.612
  180.801    0.491    0.247   96.097    4.789
  181.101    0.452    0.266   86.689    5.367
  181.401    0.415    0.256   77.908    5.901
  181.701    0.387    0.256   72.894    6.872
  182.001    0.401    0.252   71.643    7.558
  182.301    0.382    0.236   74.787    8.968
  182.601    0.370    0.226   78.562    9.138
  182.901    0.390    0.227   79.822    8.957
  183.201    0.412    0.212   79.199    7.676
  183.501    0.415    0.226   82.971    7.242
  183.801    0.393    0.217   84.232    6.966
  184.101    0.413    0.206   84.240    6.572
  184.401    0.447    0.225   81.734    6.441
  184.701    0.387    0.255   72.328    6.562
  185.001    0.388    0.269   73.587    7.214
  185.301    0.400    0.270   88.656    7.932
  185.601    0.406    0.260   89.920    9.235
  185.901    0.424    0.232   91.180    9.963
  186.201    0.413    0.176   88.047   10.348
  186.501    0.377    0.227   78.639    9.759
  186.801    0.398    0.300   70.487   10.529
  187.101    0.412    0.315   80.536   12.027
  187.401    0.394    0.216   89.327   12.730
  187.701    0.397    0.225   94.981   12.011
  188.001    0.409    0.245   96.871   10.102
  188.301    0.448    0.240  101.270    8.659
  188.601    0.458    0.251  108.810    8.015
  188.901    0.467    0.261  108.187    7.004
  189.201    0.442    0.247  105.056    6.237
  189.501    0.418    0.266  101.295    6.355
  189.801    0.405    0.260   98.790    7.401
  190.101    0.408    0.242   97.541    8.784
  190.401    0.405    0.257   94.410    9.846
  190.701    0.432    0.257   86.256    9.839
  191.001    0.439    0.262   74.338    9.831
  191.301    0.419    0.297   62.420   11.227
  191.601    0.388    0.302   56.777   11.884
  191.901    0.397    0.310   54.272   13.841
  192.201    0.407    0.311   54.279   14.932
  192.501    0.378    0.293   59.933   15.800
  192.801    0.388    0.258   67.470   15.489
  193.101    0.394    0.238   71.871   13.793
  193.401    0.400    0.224   72.505   13.014
  193.701    0.370    0.204   77.532   11.817
  194.001    0.379    0.202   80.047   10.730
  194.301    0.414    0.214   76.291    9.559
  194.601    0.431    0.264   80.688    8.352
  194.901    0.439    0.213   83.832    7.299
  195.201    0.446    0.225   85.722    6.756
  195.501    0.456    0.248   88.237    6.253
  195.801    0.446    0.243   89.500    6.013
  196.101    0.488    0.229   85.740    6.008
  196.401    0.498    0.269   81.981    6.119
  196.701    0.481    0.240   78.848    5.998
  197.001    0.468    0.245   73.834    5.992
  197.301    0.426    0.243   72.583    5.988
  197.601    0.401    0.233   81.377    6.099
  197.901    0.421    0.235   84.522    6.212
  198.201    0.459    0.244   86.410    6.208
  198.501    0.475    0.239   85.788    5.970
  198.801    0.456    0.239   82.656    5.850
  199.101    0.465    0.242   84.545    5.735
  199.401    0.471    0.234   90.830    5.623
  199.701    0.435    0.250  100.248    5.617
  200.001    0.451    0.265  100.254    5.832
  200.301    0.425    0.262   99.633    6.172
  200.601    0.407    0.259  105.918    7.187
  200.901    0.425    0.265  107.176    8.209
  201.201    0.442    0.253  102.163    8.526
  201.501    0.444    0.264   95.891    8.684
  201.801    0.465    0.295   89.622    8.348
  202.101    0.456    0.285   90.257    8.344
  202.401    0.442    0.288   93.401    9.171
  202.701    0.418    0.291   96.544    9.708
  203.001    0.418    0.290   90.902   10.471
  203.301    0.441    0.280   87.769   11.083
  203.601    0.460    0.284   92.170   11.507
  203.901    0.438    0.275   91.549   11.281
  204.201    0.450    0.225   90.925   10.049
  204.501    0.478    0.273   79.635    8.614
  204.801    0.506    0.334   65.832    7.385
  205.101    0.463    0.290   55.798    6.579
  205.401    0.437    0.293   52.666    7.516
  205.701    0.426    0.291   52.045   10.804
  206.001    0.430    0.293   52.049   14.385
  206.301    0.411    0.303   57.704   17.737
  206.601    0.411    0.279   63.359   18.420
  206.901    0.469    0.264   64.621   19.127
  207.201    0.463    0.294   53.330   18.043
  207.501    0.437    0.275   61.495   17.348
  207.801    0.437    0.265   64.639   17.334
  208.101    0.469    0.284   58.996   17.657
  208.401    0.463    0.301   50.843   17.311
  208.701    0.429    0.306   46.456   16.968
  209.001    0.394    0.301   38.931   16.625
  209.301    0.394    0.286   40.193   16.301
  209.601    0.399    0.287   43.336   16.292
  209.901    0.379    0.294   47.108   15.667
  210.201    0.418    0.292   45.234   15.350
  210.501    0.428    0.310   43.356   15.339
  210.801    0.402    0.310   42.107   15.331
  211.101    0.412    0.302   41.484   15.315
  211.401    0.428    0.305   44.629   15.305
  211.701    0.437    0.300   48.400   15.294
  212.001    0.433    0.292   47.779   15.282
  212.301    0.434    0.302   47.157   14.977
  212.601    0.419    0.316   47.791   14.962
  212.901    0.395    0.322   48.427   14.957
  213.201    0.404    0.316   48.431   14.661
  213.501    0.389    0.319   51.575   14.646
  213.801    0.400    0.325   53.463   14.356
  214.101    0.422    0.329   50.959   13.809
  214.401    0.438    0.326   51.593   12.779
  214.701    0.449    0.313   51.600   12.289
  215.001    0.441    0.310   53.488   11.819
  215.301    0.430    0.332   61.027   11.807
  215.601    0.434    0.340   62.288   11.800
  215.901    0.459    0.315   57.900   12.726
  216.201    0.400    0.242   44.098   13.996
  216.501    0.284    0.080   31.552   16.932
  216.801    0.284    0.208   40.973   20.097
  217.101    0.328    0.281   50.393   20.870
  217.401    0.409    0.313   51.656   20.856
  217.701    0.465    0.312   51.660   18.576
  218.001    0.489    0.320   51.667   16.868
  218.301    0.464    0.330   49.162   15.316
  218.601    0.450    0.305   49.797   15.008
  218.901    0.467    0.283   49.175   15.288
  219.201    0.469    0.293   46.042   15.277
  219.501    0.440    0.309   43.539   15.863
  219.801    0.454    0.301   47.937   16.151
  220.101    0.456    0.296   48.573   16.141
