~VERSION INFORMATION
 VERS.                 2.0:   CWLS LOG ASCII STANDARD -VERSION 2.0
 WRAP.                  NO:   ONE LINE PER DEPTH STEP
~WELL INFORMATION BLOCK
#MNEM.UNIT           DATA                    DESCRIPTION OF MNEMONIC
#---------    -------------------            -------------------------------
# Generated from Intellog Unique Number	CS_77_79/WELL/992
WELL.         PEX PCEJ LEISMER OV            : Well_name    - WELL
LOC .         AA/11-08-078-08W4/0            : Location     - LOCATION
UWI .         AA/11-08-078-08W4/0            : Uwi          - UNIQUE WELL ID
ENTR.         JHS                            : Entered      - ENTERED BY
SRVC.         SCHLUMBERGER                   : Scn          - SERVICE COMPANY
STRT.M        155                            : top_depth    - START DEPTH
STOP.M        375                            : bot_depth    - STOP DEPTH
STEP.M        0.25                           : increment    - STEP LENGTH
 NULL. -999.2500:NULL Value
~CURVE INFORMATION BLOCK
#MNEM UNIT       ERCB CURVE CODE    CURVE DESCRIPTION
#-----------   ------------------   ----------------------------------
DEPT.M        00 001 00 00         : DEPTH        - DEPTH
DPHI.V/V      00 890 00 00         : PHID         - DENSITY POROSITY (LIMESTONE)
NPHI.V/V      00 330 00 00         : PHIN         - NEUTRON POROSITY (LIMESTONE)
GR  .API      00 310 00 00         : GR           - GAMMA RAY
ILD .OHMM     00 120 00 00         : RESD         - DEEP RESISTIVITY (DIL)
RHOB.KG/M3    00 350 00 00         : DENS         - BULK DENSITY
~PARAMETER INFORMATION
#MNEM.UNIT           DATA             DESCRIPTION OF MNEMONIC
#---------         -----------     ------------------------------
GL  .M        587.96               : gl           - GROUND LEVEL ELEVATION
EREF.M        591.54               : kb           - ELEVATION OF DEPTH REFERENCE
DATM.M        591.54               : datum        - DATUM ELEVATION
TDD .M        377.6                : tdd          - TOTAL DEPTH DRILLER
RUN .         ONE                  : Run          - RUN NUMBER
ENG .         BILL                 : Engineer     - RECORDING ENGINEER
WIT .         JIM                  : Witness      - WITNESSED BY
MUD .         GEL                  : Mud_type     - MUD TYPE
MATR.         LIMESTONE            : Logunit      - NEUTRON MATRIX
TMAX.C        17                   : BHT          - MAXIMUM RECORDED TEMPERATURE
BHTD.M        377.6                : BHTDEP       - MAXIMUM RECORDED TEMPERATURE
MATR.         1                    : LOGUNIT      - NEUTRON MATRIX
RMT .C        25                   : MDTP         - TEMPERATURE OF MUD
NEUT.         1                    : NEUTRON      - NEUTRON TYPE
RESI.         0                    : RESIST       - RESISTIVITY TYPE
RMC .OHMM     0.25                 : RMC          - RESISTIVITY OF MUD CAKE
RMF .OHMM     0.25                 : RMF          - RESISTIVITY OF MUD FILTRATE
SUFT.C        15                   : SUFT         - SURFACE TEMPERATURE
~A  DEPTH     PHID     PHIN       GR     RESD     DENS
# ...
  264.500    0.328    0.458   76.524    9.995    0.000
  264.750    0.328    0.485   79.634    9.630    0.000
  265.000    0.324    0.482   81.504    9.631    0.000
  265.250    0.317    0.470   83.373    9.280    0.000
  265.500    0.313    0.459   82.764    9.110    0.000
  265.750    0.316    0.464   85.256    8.942    0.000
  266.000    0.319    0.456   85.885    8.944    0.000
  266.250    0.329    0.445   88.374    8.946    0.000
  266.500    0.334    0.460   78.470    9.117    0.000
  266.750    0.328    0.482   84.060    9.292    0.000
  267.000    0.322    0.464   87.167    9.294    0.000
  267.250    0.318    0.473   80.359    9.295    0.000
  267.500    0.318    0.473   84.089    8.956    0.000
  267.750    0.314    0.495   90.299    8.792    0.000
  268.000    0.327    0.476   86.590    8.793    0.000
  268.250    0.330    0.465   78.544    8.961    0.000
  268.500    0.325    0.454   77.313    9.306    0.000
  268.750    0.320    0.478   75.463    9.307    0.000
  269.000    0.317    0.478   80.433    9.485    0.000
  269.250    0.317    0.474   87.264    9.311    0.000
  269.500    0.322    0.462   86.653    9.141    0.000
  269.750    0.317    0.452   84.806    9.142    0.000
  270.000    0.311    0.452   84.814    9.317    0.000
  270.250    0.306    0.444   87.926    9.495    0.000
  270.500    0.304    0.435   91.033    9.321    0.000
  270.750    0.298    0.438   85.469    8.980    0.000
  271.000    0.292    0.455   88.576    8.652    0.000
  271.250    0.276    0.471   99.123    8.336    0.000
  271.500    0.260    0.479  109.053    8.031    0.000
  271.750    0.257    0.447  116.500    7.738    0.000
  272.000    0.257    0.436  115.272    7.455    0.000
  272.250    0.260    0.440  108.463    7.318    0.000
  272.500    0.262    0.464  104.136    7.320    0.000
  272.750    0.260    0.458  107.867    7.322    0.000
  273.000    0.258    0.475  104.776    7.462    0.000
  273.250    0.263    0.483  107.266    7.604    0.000
  273.500    0.270    0.478   97.358    8.197    0.000
  273.750    0.274    0.465  100.469    8.512    0.000
  274.000    0.272    0.474   91.802    8.513    0.000
  274.250    0.264    0.456   95.531    8.357    0.000
  274.500    0.253    0.462  104.839    8.204    0.000
  274.750    0.254    0.451  111.668    8.053    0.000
  275.000    0.256    0.443  118.498    7.906    0.000
  275.250    0.254    0.436  105.490    8.057    0.000
  275.500    0.255    0.445  111.080    8.211    0.000
  275.750    0.260    0.440  109.851    8.368    0.000
  276.000    0.260    0.440  110.481    8.215    0.000
  276.250    0.249    0.452  106.773    8.064    0.000
  276.500    0.244    0.471  111.742    7.916    0.000
  276.750    0.243    0.477  118.574    7.627    0.000
  277.000    0.242    0.460  120.441    7.629    0.000
  277.250    0.240    0.451  118.592    7.630    0.000
  277.500    0.239    0.466  121.704    7.631    0.000
  277.750    0.237    0.470  123.572    7.491    0.000
  278.000    0.233    0.463  109.326    7.493    0.000
  278.250    0.228    0.460  108.717    7.495    0.000
  278.500    0.228    0.449  111.826    7.496    0.000
  278.750    0.227    0.441  116.176    7.785    0.000
  279.000    0.237    0.449  116.807    7.786    0.000
  279.250    0.238    0.445  114.957    7.788    0.000
  279.500    0.233    0.452  108.149    7.645    0.000
  279.750    0.228    0.453  116.219    7.504    0.000
  280.000    0.223    0.465  128.628    7.230    0.000
  280.250    0.223    0.462  131.735    6.966    0.000
  280.500    0.229    0.470  121.828    6.838    0.000
  280.750    0.246    0.500  123.699    6.466    0.000
  281.000    0.290    0.497  123.090    6.001    0.000
  281.250    0.315    0.521  124.959    5.466    0.000
  281.500    0.330    0.544  118.771    4.795    0.000
  281.750    0.316    0.593  120.641    3.904    0.000
  282.000    0.332    0.613  129.330    3.178    0.000
  282.250    0.338    0.633  129.963    2.736    0.000
  282.500    0.339    0.632  130.591    2.228    0.000
  282.750    0.345    0.635  120.683    2.106    0.000
  283.000    0.336    0.641  115.738    2.107    0.000
  283.250    0.323    0.647  120.705    2.271    0.000
  283.500    0.313    0.631  110.180    2.448    0.000
  283.750    0.322    0.614  102.751    2.898    0.000
  284.000    0.357    0.589   97.802    3.305    0.000
  284.250    0.330    0.531  102.771    4.460    0.000
  284.500    0.264    0.462  117.038    5.690    0.000
  284.750    0.263    0.430  115.811    6.368    0.000
  285.000    0.263    0.416  112.721    7.126    0.000
  285.250    0.265    0.406  111.491    7.539    0.000
  285.500    0.276    0.396  101.584    7.977    0.000
  285.750    0.292    0.383  103.454    7.978    0.000
  286.000    0.312    0.367  102.225    7.832    0.000
  286.250    0.304    0.381   98.516    7.406    0.000
  286.500    0.291    0.408   99.767    6.873    0.000
  286.750    0.287    0.429   97.918    6.747    0.000
  287.000    0.285    0.422   93.590    6.501    0.000
  287.250    0.277    0.412   97.320    6.750    0.000
  287.500    0.270    0.407  100.431    7.276    0.000
  287.750    0.232    0.395  105.398    7.556    0.000
  288.000    0.200    0.381   99.210    7.557    0.000
  288.250    0.215    0.365   90.542    7.847    0.000
  288.500    0.281    0.359   93.033    8.302    0.000
  288.750    0.289    0.348   98.623    9.291    0.000
  289.000    0.280    0.329   99.872    9.829    0.000
  289.250    0.208    0.228  101.125   10.796    0.000
  289.500    0.079    0.186   92.455   11.422    0.000
  289.750    0.073    0.159   79.449   11.425    0.000
  290.000    0.128    0.181   80.700   10.213    0.000
  290.250    0.248    0.256   88.147    9.131    0.000
  290.500    0.273    0.390   99.317    8.316    0.000
  290.750    0.278    0.435   95.608    7.718    0.000
  291.000    0.288    0.447  103.057    7.030    0.000
  291.250    0.289    0.454   98.730    6.773    0.000
  291.500    0.289    0.462   99.979    6.648    0.000
  291.750    0.293    0.470  106.807    6.527    0.000
  292.000    0.295    0.448   99.379    6.528    0.000
  292.250    0.278    0.438  106.209    6.289    0.000
  292.500    0.267    0.454  105.599    6.174    0.000
  292.750    0.260    0.466  102.510    6.175    0.000
  293.000    0.260    0.486  108.719    6.294    0.000
  293.250    0.265    0.510  106.252    6.414    0.000
  293.500    0.268    0.503  111.840    6.660    0.000
  293.750    0.271    0.486  107.511    6.916    0.000
  294.000    0.262    0.472  102.563    7.048    0.000
  294.250    0.257    0.456  108.152    6.918    0.000
  294.500    0.265    0.443  110.641    6.421    0.000
  294.750    0.271    0.456  108.173    6.186    0.000
  295.000    0.278    0.458  113.142    6.072    0.000
  295.250    0.280    0.444  112.534    5.850    0.000
  295.500    0.283    0.437  123.082    5.852    0.000
  295.750    0.290    0.453  115.653    5.964    0.000
  296.000    0.300    0.467  103.888    6.078    0.000
  296.250    0.296    0.462  103.277    6.430    0.000
  296.500    0.284    0.448   97.090    6.677    0.000
  296.750    0.272    0.450  100.820    6.678    0.000
  297.000    0.267    0.457  103.930    6.556    0.000
  297.250    0.262    0.475  108.898    6.317    0.000
  297.500    0.262    0.492  112.629    6.318    0.000
  297.750    0.259    0.473  105.821    6.319    0.000
  298.000    0.267    0.472  112.030    6.320    0.000
  298.250    0.273    0.467  109.560    6.441    0.000
  298.500    0.272    0.444  108.333    6.564    0.000
  298.750    0.274    0.433  112.681    6.817    0.000
  299.000    0.275    0.438  114.550    6.947    0.000
  299.250    0.274    0.439  107.743    6.948    0.000
  299.500    0.271    0.438   96.596    6.950    0.000
  299.750    0.270    0.425   97.847    6.951    0.000
  300.000    0.273    0.413   91.658    6.953    0.000
  300.250    0.279    0.425   84.850    6.954    0.000
  300.500    0.284    0.451   90.440    6.826    0.000
  300.750    0.287    0.428   93.549    6.828    0.000
