~Version : LASO    vs 4.00
VERS.                2.00:   CWLS Log ASCII Standard -VERSION 2.0
WRAP.                  NO:
~Well Information Block
#MNEM.UNIT       Data                        Description of Mnemonic
#----.----      -------------------------- : -----------------------------
STRT.M            15.0000:
STOP.M           203.4000:
STEP.M             0.1000:
NULL.           -999.2500:
COMP.  MOBIL OIL CANADA LTD.     :COMPANY
WELL.  MOBIL CLARKE OV 12-34     :WELL
FLD.   CLARKE                    :FIELD
LOC.   12-34-089-08W4            :LOCATION
CTRY.  CANADA                    :COUNTRY
PROV.  ALBERTA                   :PROVINCE
SRVC.  SCHLUMBERGER              :SERVICE COMPANY
DATE.  20-FEB-81                 :LOG DATE
UWI.   AA/12-34-089-08W400       :UNIQUE WELL ID
~Parameter Information Block
#MNEM.UNIT       Data                        Description of Mnemonic
#----.----      -------------------------- : -----------------------------
RUN .                   1                 : Run Number
GL  .M           415.1000                 : Ground Level Elevation
DREF.                  KB                 : Depth Reference
EREF.M           418.1000                 : Elevation of Depth Reference
TDL .M           203.0000                 : Total Depth Logger
TDD .M           200.0000                 : Total Depth Driller
CSGL.M            18.0000                 : Casing Bottom Logger
CSGD.M            15.0000                 : Casing Bottom Driller
CSGS.MM          219.0000                 : Casing Size
CSGW.KG/M          0.0000                 : Casing Weight
BHT .DEGC         12.0000                 : Bottom Hole Temperature
BS  .MM          159.0000                 : Bit Size
DFD .           1110.0000                 : Mud Weight (Density)
DFV .             90.0000                 : Mud Viscosity
DFPH.             10.0000                 : Mud pH
RM  .OHMM          1.9600                 : Mud Resistivity
RMT .DEGC         20.0000                 : Mud Resistivity Temperature
~Curve Information Block
#MNEM.UNIT        API CODE    Curve Description
#---------    ------------    -------------------------------------------
DEPT.M                    :   DEPTH
CALI.MM       42 280  1  1:   3 DENSITY CALIPER
DPHI.V/V                  :   DPHI
DT  .US/M     60 520  0  1:   2 SONIC INTERVAL TRANSIT TIME (COMPENSATED)
GR  .GAPI     42 310  1  1:   4 GAMMA RAY
ILD .OHMM      7 120 46  1:   7 DEEP INDUCTION
ILM .OHMM      7 120 44  1:   8 MEDIUM INDUCTION
NPHI.V/V      42 890  3  1:   5 NEUTRON POROSITY (SANDSTONE)
RHOB.K/M3     42 350  1  1:   6 BULK DENSITY
SFLU.OHMM      7 220  1  1:   9 FOCUSSED RESISTIVITY
SP  .MV        7  10  1  1:   10 SPONTANEOUS POTENTIAL
~A  Depth           CALI        DPHI          DT          GR         ILD         ILM        NPHI        RHOB        SFLU          SP
# ...
149.2000        156.0500      0.3931    446.7200     35.5350     41.0610     46.1137      0.4928   2041.2000     65.8006    -66.1000
149.3000        156.0500      0.3979    450.2800     35.9700     41.0610     46.1137      0.4928   2041.2000     65.8006    -66.1000
149.4000        154.7000      0.4000    452.6000     36.4200     43.1152     49.5028      0.4985   2072.3000     60.9579    -65.8700
149.5000        154.7000      0.3993    453.2000     37.2600     43.1152     49.5028      0.4985   2072.3000     60.9579    -65.8700
149.6000        157.7500      0.3952    447.4800     38.4600     44.6098     53.1410      0.4780   2100.8999     59.9004    -65.4900
149.7000        157.7500      0.3889    443.4000     39.8100     44.6098     53.1410      0.4780   2100.8999     59.9004    -65.4900
149.8000        160.8500      0.3817    440.1200     41.5350     35.7297     42.8775      0.4325   2113.1001     78.8188    -62.7200
149.9000        160.8500      0.3744    438.0400     48.2400     35.7297     42.8775      0.4325   2113.1001     78.8188    -62.7200
150.0000        159.8250      0.3665    436.6000     54.0000     30.6076     32.7665      0.4370   2133.2000    133.7303    -62.7300
150.1000        159.8250      0.3640    435.6400     57.9150     30.6076     32.7665      0.4370   2133.2000    133.7303    -62.7300
150.2000        157.8500      0.3594    436.7600     61.8300     25.1785     26.8059      0.4421   2155.7000     91.4176    -62.7400
150.3000        157.8500      0.3539    440.1600     68.5800     25.1785     26.8059      0.4421   2155.7000     91.4176    -62.7400
150.4000        153.7500      0.3437    446.6000     75.3150     17.1803     18.8899      0.4469   2174.2000     63.7720    -60.6000
150.5000        153.7500      0.3368    449.8800     82.0500     17.1803     18.8899      0.4469   2174.2000     63.7720    -60.6000
150.6000        155.9750      0.3302    454.7600     85.1250     14.4487     15.5106      0.4503   2198.7000     24.6735    -55.4900
150.7000        155.9750      0.3250    459.8000     88.2000     14.4487     15.5106      0.4503   2198.7000     24.6735    -55.4900
150.8000        158.2250      0.3198    458.6000     90.0300     12.8065     13.5341      0.4429   2251.5000     18.3920    -51.2000
150.9000        158.2250      0.3152    456.6000     91.7250     12.8065     13.5341      0.4429   2251.5000     18.3920    -51.2000
151.0000        159.7500      0.3091    454.4000     93.4650     10.9605     11.4138      0.4688   2220.7000     12.5035    -51.0500
151.1000        159.7500      0.3019    451.3600     95.2350     10.9605     11.4138      0.4688   2220.7000     12.5035    -51.0500
151.2000        165.3500      0.2941    449.2000     97.0050     10.5155     10.9605      0.4879   2259.3999     14.2899    -46.6800
151.3000        165.3500      0.2889    448.3600     98.8050     10.5155     10.9605      0.4879   2259.3999     14.2899    -46.6800
151.4000        172.2750      0.2846    451.3200     97.0050     10.0145     10.3236      0.4943   2257.3000     13.4719    -44.3500
151.5000        172.2750      0.2792    453.6000     96.2250     10.0145     10.3236      0.4943   2257.3000     13.4719    -44.3500
151.6000        172.8250      0.2719    454.8400     95.5200      9.2264      9.4674      0.5030   2272.2000      8.6982    -43.7900
151.7000        172.8250      0.2655    455.8400     95.8350      9.2264      9.4674      0.5030   2272.2000      8.6982    -43.7900
151.8000        183.4750      0.2600    456.8400     96.1200      8.9254      9.0830      0.5071   2240.0000      9.1671    -43.3100
151.9000        183.4750      0.2542    456.0400     96.2850      8.9254      9.0830      0.5071   2240.0000      9.1671    -43.3100
152.0000        193.8250      0.2451    455.2400     96.1950      8.7787      8.8599      0.5052   2249.5000      8.3067    -41.7800
152.1000        193.8250      0.2407    454.4400     96.1350      8.7787      8.8599      0.5052   2249.5000      8.3067    -41.7800
152.2000        180.1500      0.2354    453.8800     96.0600      8.5002      8.6026      0.4925   2265.8000      7.4239    -40.5400
152.3000        180.1500      0.2312    453.3200     96.1950      8.5002      8.6026      0.4925   2265.8000      7.4239    -40.5400
152.4000        176.1500      0.2357    452.9200     96.3900      8.3836      8.4846      0.4931   2256.3000      8.0581    -40.1900
152.5000        176.1500      0.2317    455.0000     96.6450      8.3836      8.4846      0.4931   2256.3000      8.0581    -40.1900
152.6000        176.3750      0.2285    456.6000     96.2550      8.2686      8.3913      0.4905   2248.3999      8.4068    -40.4100
152.7000        176.3750      0.2294    457.3600     95.6100      8.2686      8.3913      0.4905   2248.3999      8.4068    -40.4100
152.8000        174.5500      0.2339    457.7600     93.9300      8.1626      8.3759      0.4885   2248.5000      7.9475    -40.5700
152.9000        174.5500      0.2349    458.2800     91.3350      8.1626      8.3759      0.4885   2248.5000      7.9475    -40.5700
153.0000        171.1250      0.2334    456.7600     91.7250      8.0063      8.4846      0.5018   2251.3999      7.5689    -40.3600
153.1000        171.1250      0.2323    454.2400     92.1600      8.0063      8.4846      0.5018   2251.3999      7.5689    -40.3600
153.2000        167.5250      0.2329    452.8800     93.9000      7.9842      8.4846      0.5024   2210.1001      8.1551    -41.7100
153.3000        167.5250      0.2301    452.6000     96.2250      7.9842      8.4846      0.5024   2210.1001      8.1551    -41.7100
153.4000        169.2000      0.2318    456.3600     98.2800      8.0063      8.3682      0.5156   2204.8000      8.5159    -42.5400
153.5000        169.2000      0.2367    460.5600     99.2400      8.0063      8.3682      0.5156   2204.8000      8.5159    -42.5400
153.6000        178.4000      0.2374    465.8400    100.2000      8.0358      8.2382      0.5503   2221.5000      8.8111    -41.8500
153.7000        178.4000      0.2375    473.6400    101.4000      8.0358      8.2382      0.5503   2221.5000      8.8111    -41.8500
153.8000        175.6250      0.2385    481.2000    102.6150      7.9842      8.2079      0.5650   2231.2000      8.7625    -38.2100
153.9000        175.6250      0.2432    480.3200    104.3700      7.9842      8.2079      0.5650   2231.2000      8.7625    -38.2100
154.0000        176.2750      0.2493    479.2000    104.2350      8.0284      8.1852      0.5495   2209.6001      7.6389    -37.7900
154.1000        176.2750      0.2550    476.3200    104.0100      8.0284      8.1852      0.5495   2209.6001      7.6389    -37.7900
154.2000        175.2750      0.2587    472.7200     97.8600      8.2003      8.2838      0.5098   2175.5000      6.6962    -37.7500
154.3000        175.2750      0.2617    469.1200     95.8050      8.2003      8.2838      0.5098   2175.5000      6.6962    -37.7500
154.4000        173.4000      0.2607    464.5600     94.9200      8.3605      8.4534      0.5044   2169.6001      6.6716    -37.7600
154.5000        173.4000      0.2568    459.6800     94.5300      8.3605      8.4534      0.5044   2169.6001      6.6716    -37.7600
154.6000        173.3000      0.2551    453.4800     94.1400      8.5237      8.6902      0.5102   2156.7000      7.8674    -37.8600
154.7000        173.3000      0.2534    453.9200     92.2950      8.5237      8.6902      0.5102   2156.7000      7.8674    -37.8600
154.8000        186.8000      0.2532    454.8400     89.4450      9.5286      9.5198      0.5084   2095.8000      9.0330    -38.3100
154.9000        186.8000      0.2566    456.1600     85.1100      9.5286      9.5198      0.5084   2095.8000      9.0330    -38.3100
155.0000        193.4500      0.2613    458.4400     79.6500     10.1819     10.3617      0.4940   2119.1001      8.7464    -40.8700
155.1000        193.4500      0.2653    461.0000     71.1150     10.1819     10.3617      0.4940   2119.1001      8.7464    -40.8700
155.2000        175.4750      0.2711    454.1600     61.9950     11.4876     11.8858      0.4669   2133.3999      7.7666    -43.7700
