~VERSION INFORMATION
 VERS.                 2.0:   CWLS LOG ASCII STANDARD -VERSION 2.0
 WRAP.                  NO:   ONE LINE PER DEPTH STEP
~WELL INFORMATION BLOCK
#MNEM.UNIT           DATA                    DESCRIPTION OF MNEMONIC
#---------    -------------------            -------------------------------
# Generated from Intellog Unique Number	CN_94_101/WELL/4474
WELL.         11-27-096-14W4                 : Well_name    - WELL
LOC .         AA/11-27-096-14W4/0            : Location     - LOCATION
UWI .         AA/11-27-096-14W400            : Uwi          - UNIQUE WELL ID
ENTR.         JOETTE                         : Entered      - ENTERED BY
SRVC.         SCHLUMBERGER                   : Scn          - SERVICE COMPANY
DATE.         07/08/92                       : Date         - LOG DATE
STRT.M        75                             : top_depth    - START DEPTH
STOP.M        350                            : bot_depth    - STOP DEPTH
STEP.M        0.25                           : increment    - STEP LENGTH
 NULL. -999.2500:NULL Value
~CURVE INFORMATION BLOCK
#MNEM UNIT       ERCB CURVE CODE    CURVE DESCRIPTION
#-----------   ------------------   ----------------------------------
DEPT.M        00 001 00 00         : DEPTH        - DEPTH
GR  .API      00 310 00 00         : GR           - GAMMA RAY
ILD .OHMM     00 120 00 00         : RESD         - DEEP RESISTIVITY (DIL)
NPHI.V/V      00 330 00 00         : PHIN         - NEUTRON POROSITY (SANDSTONE)
DPHI.V/V      00 890 00 00         : PHID         - DENSITY POROSITY (SANDSTONE)
~PARAMETER INFORMATION
#MNEM.UNIT           DATA             DESCRIPTION OF MNEMONIC
#---------         -----------     ------------------------------
GL  .M        598                  : gl           - GROUND LEVEL ELEVATION
EREF.M        601                  : kb           - ELEVATION OF DEPTH REFERENCE
DATM.M        601                  : datum        - DATUM ELEVATION
TDD .M        354                  : tdd          - TOTAL DEPTH DRILLER
RUN .         ONE                  : Run          - RUN NUMBER
ENG .         BILL                 : Engineer     - RECORDING ENGINEER
WIT .         JIM                  : Witness      - WITNESSED BY
MUD .         GEL                  : Mud_type     - MUD TYPE
MATR.         SANDSTONE            : Logunit      - NEUTRON MATRIX
TMAX.C        25                   : BHT          - MAXIMUM RECORDED TEMPERATURE
BHTD.M        354                  : BHTDEP       - MAXIMUM RECORDED TEMPERATURE
RMT .C        14                   : MDTP         - TEMPERATURE OF MUD
MUDD.KG/M     1155                 : MWT          - MUD DENSITY
NEUT.         1                    : NEUTRON      - NEUTRON TYPE
RESI.         0                    : RESIST       - RESISTIVITY TYPE
RM  .OHMM     0.2                  : RM           - RESISTIVITY OF MUD
RMC .OHMM     0.2                  : RMC          - RESISTIVITY OF MUD CAKE
RMF .OHMM     0.2                  : RMF          - RESISTIVITY OF MUD FILTRATE
SUFT.C        4                    : SUFT         - SURFACE TEMPERATURE
~A  DEPTH       GR     RESD     PHIN     PHID
# ...
  292.500  111.428    6.634    0.380    0.210
  292.750  112.653    6.756    0.382    0.236
  293.000  112.033    6.753    0.382    0.242
  293.250  111.416    6.752    0.385    0.235
  293.500  110.799    6.625    0.385    0.222
  293.750  109.565    6.621    0.385    0.214
  294.000  109.564    6.497    0.386    0.214
  294.250  108.945    6.494    0.390    0.214
  294.500  108.328    6.371    0.391    0.216
  294.750  107.709    6.251    0.391    0.216
  295.000  107.091    6.133    0.391    0.211
  295.250  106.473    6.017    0.395    0.214
  295.500  105.240    6.015    0.405    0.216
  295.750  104.007    5.901    0.411    0.223
  296.000  104.004    5.898    0.416    0.235
  296.250  104.002    5.897    0.419    0.247
  296.500  105.228    5.894    0.419    0.255
  296.750  108.297    5.783    0.417    0.260
  297.000  107.680    5.673    0.415    0.262
  297.250  105.217    5.671    0.410    0.254
  297.500  103.985    5.360    0.410    0.246
  297.750  102.137    5.162    0.417    0.230
  298.000  101.518    4.878    0.442    0.208
  298.250  101.517    4.610    0.450    0.206
  298.500  101.512    4.523    0.445    0.235
  298.750  101.510    4.438    0.437    0.231
  299.000  100.277    4.354    0.432    0.225
  299.250   98.428    4.352    0.427    0.221
  299.500   97.196    4.270    0.420    0.228
  299.750   96.579    4.189    0.413    0.256
  300.000   95.345    4.110    0.413    0.261
  300.250   94.728    3.958    0.439    0.281
  300.500   94.726    3.671    0.458    0.300
  300.750   93.493    3.535    0.482    0.316
  301.000   88.573    3.159    0.493    0.327
  301.250   86.111    2.823    0.503    0.328
  301.500   85.493    2.618    0.508    0.328
  301.750   85.489    2.474    0.507    0.326
  302.000   84.256    2.474    0.498    0.323
  302.250   81.794    2.519    0.478    0.320
  302.500   77.489    2.614    0.451    0.306
  302.750   66.421    2.713    0.411    0.290
  303.000   58.428    3.091    0.372    0.272
  303.250   53.506    3.656    0.352    0.279
  303.500   54.732    4.324    0.366    0.287
  303.750   58.417    5.020    0.368    0.291
  304.000   62.717    5.408    0.347    0.282
  304.250   67.016    5.825    0.330    0.265
  304.500   73.159    6.393    0.328    0.198
  304.750   79.302    6.633    0.387    0.229
  305.000   82.987    6.756    0.397    0.266
  305.250   86.672    6.754    0.399    0.270
  305.500   88.510    6.503    0.397    0.269
  305.750   88.509    6.263    0.395    0.265
  306.000   89.120    6.031    0.395    0.268
  306.250   90.346    6.258    0.397    0.270
  306.500   90.957    6.493    0.402    0.266
  306.750   89.109    6.492    0.407    0.274
  307.000   87.263    6.611    0.403    0.279
  307.250   81.728    6.860    0.397    0.285
  307.500   75.578    7.389    0.388    0.294
  307.750   70.043    7.962    0.374    0.297
  308.000   66.350    8.903    0.359    0.292
  308.250   68.191   10.728    0.351    0.297
  308.500   70.647   11.343    0.353    0.307
  308.750   73.717   10.923    0.368    0.301
  309.000   78.631    9.942    0.379    0.294
  309.250   81.701    9.575    0.384    0.281
  309.500   84.770    9.220    0.392    0.268
  309.750   85.996    8.880    0.400    0.275
  310.000   87.223    8.712    0.404    0.285
  310.250   88.448    8.233    0.402    0.281
  310.500   89.674    8.078    0.397    0.273
  310.750   89.056    7.633    0.394    0.267
  311.000   87.209    7.490    0.392    0.264
  311.250   84.747    7.349    0.389    0.265
  311.500   79.213    7.210    0.377    0.265
  311.750   66.916    7.206    0.341    0.265
  312.000   60.765    7.339    0.342    0.265
  312.250   60.148    7.617    0.334    0.252
  312.500   58.300    8.053    0.324    0.249
  312.750   57.068    8.839    0.324    0.247
  313.000   55.221   10.259    0.322    0.242
  313.250   58.290   10.847    0.286    0.232
  313.500   60.746   10.641    0.270    0.222
  313.750   63.817   10.248    0.337    0.246
  314.000   68.115    9.869    0.365    0.254
  314.250   70.571    9.155    0.382    0.263
  314.500   73.026    8.651    0.376    0.268
  314.750   76.096    8.176    0.351    0.270
  315.000   77.322    7.874    0.349    0.269
  315.250   78.548    6.652    0.367    0.265
  315.500   78.545    6.287    0.381    0.268
  315.750   76.082    6.168    0.378    0.272
  316.000   72.390    6.282    0.376    0.278
  316.250   70.543    6.518    0.397    0.285
  316.500   68.081    6.639    0.411    0.290
  316.750   65.005    7.018    0.396    0.301
  317.000   58.855    7.149    0.383    0.314
  317.250   50.861    7.557    0.367    0.321
  317.500   44.097    7.844    0.356    0.319
  317.750   43.479    8.449    0.362    0.316
  318.000   43.475    8.769    0.371    0.311
  318.250   44.087    9.623    0.372    0.310
  318.500   44.084   10.174    0.372    0.305
  318.750   44.080   10.757    0.369    0.302
  319.000   43.461   10.957    0.365    0.299
  319.250   43.459   11.370    0.361    0.290
  319.500   42.841   11.798    0.356    0.283
  319.750   46.525   12.243    0.348    0.279
  320.000   53.898   12.944    0.341    0.274
  320.250   68.647   13.685    0.341    0.267
  320.500   79.707   14.741    0.341    0.254
  320.750   85.236   15.014    0.343    0.241
  321.000   93.837   15.874    0.343    0.211
  321.250   96.907   16.471    0.341    0.232
  321.500   93.831   16.778    0.339    0.251
  321.750   91.369   17.087    0.343    0.258
  322.000   87.064   17.402    0.353    0.263
  322.250   82.757   17.396    0.359    0.273
  322.500   79.679   16.749    0.358    0.272
  322.750   79.063   16.746    0.350    0.261
  323.000   78.445   16.124    0.344    0.224
  323.250   76.597   15.820    0.307    0.166
  323.500   74.135   15.520    0.281    0.124
  323.750   75.975   15.228    0.323    0.098
  324.000   79.661   14.662    0.360    0.104
  324.250   83.344   14.385    0.380    0.175
  324.500   83.956   13.595    0.387    0.270
  324.750   85.795   12.850    0.384    0.288
  325.000   86.408   11.920    0.376    0.286
  325.250   88.863   11.056    0.369    0.282
  325.500   88.859   10.647    0.363    0.278
  325.750   88.243   10.251    0.368    0.268
  326.000   87.010   10.058    0.379    0.256
  326.250   85.163   10.054    0.380    0.261
  326.500   85.773   10.241    0.351    0.268
  326.750   86.999   10.237    0.361    0.271
  327.000   89.454   10.232    0.378    0.268
  327.250   91.910   10.038    0.379    0.262
  327.500   93.136   10.036    0.374    0.265
  327.750   94.362    9.664    0.374    0.275
  328.000   94.974    9.305    0.389    0.272
  328.250   93.126    9.129    0.397    0.271
  328.500   90.663    8.956    0.399    0.270
  328.750   89.431    8.787    0.394    0.267
  329.000   90.042    8.785    0.385    0.262
  329.250   92.498    8.618    0.378    0.255
  329.500   94.953    8.614    0.373    0.250
  329.750   98.022    8.610    0.370    0.250
  330.000   98.635    8.609    0.365    0.251
  330.250   93.099    9.102    0.365    0.247
  330.500   89.408    9.804    0.364    0.244
  330.750   85.718   10.562    0.359    0.249
  331.000   81.412   11.378    0.357    0.260
  331.250   77.106   12.724    0.350    0.272
  331.500   74.644   12.719    0.344    0.280
  331.750   79.558   11.153    0.343    0.280
  332.000   91.233   10.542    0.336    0.277
  332.250   96.760    9.963    0.331    0.274
  332.500  107.207    9.593    0.331    0.255
  332.750  106.588    9.589    0.342    0.239
  333.000  105.971    9.950    0.346    0.228
  333.250  105.351   10.135    0.347    0.231
  333.500  104.735   10.517    0.351    0.248
  333.750  102.273   10.712    0.354    0.251
  334.000   99.811   11.325    0.351    0.250
  334.250   93.662   12.200    0.342    0.236
  334.500   89.970   12.660    0.329    0.214
  334.750   89.967   12.422    0.333    0.191
  335.000   89.963   11.960    0.348    0.260
  335.250   91.188   11.735    0.358    0.270
  335.500   93.029   11.091    0.356    0.270
  335.750   94.255   10.097    0.347    0.267
