~VERSION INFORMATION
 VERS.                 2.0:   CWLS LOG ASCII STANDARD -VERSION 2.0
 WRAP.                  NO:   ONE LINE PER DEPTH STEP
~WELL INFORMATION BLOCK
#MNEM.UNIT           DATA                    DESCRIPTION OF MNEMONIC
#---------    -------------------            -------------------------------
# Generated from Intellog Unique Number	CX_WELLS/WELL/3178
WELL.         ARCO ACI MCMURRAY              : Well_name    - WELL
LOC .         AA/10-26-083-11W4/0            : Location     - LOCATION
UWI .         AA/10-26-083-11W4/0            : Uwi          - UNIQUE WELL ID
ENTR.         TIM                            : Entered      - ENTERED BY
SRVC.         SCHLUMBERGER                   : Scn          - SERVICE COMPANY
STRT.F        750                            : top_depth    - START DEPTH
STOP.F        1479.99                        : bot_depth    - STOP DEPTH
STEP.F        0.82                           : increment    - STEP LENGTH
 NULL. -999.2500:NULL Value
~CURVE INFORMATION BLOCK
#MNEM UNIT       ERCB CURVE CODE    CURVE DESCRIPTION
#-----------   ------------------   ----------------------------------
DEPT.F        00 001 00 00         : DEPTH        - DEPTH
GR  .API      00 310 00 00         : GR           - GAMMA RAY
DPHI.V/V      00 890 00 00         : PHID         - DENSITY POROSITY (SANDSTONE)
ILD .OHMM     00 120 00 00         : RESD         - DEEP RESISTIVITY (DIL)
~PARAMETER INFORMATION
#MNEM.UNIT           DATA             DESCRIPTION OF MNEMONIC
#---------         -----------     ------------------------------
GL  .F        2254                 : gl           - GROUND LEVEL ELEVATION
EREF.F        2264                 : kb           - ELEVATION OF DEPTH REFERENCE
DATM.F        2264                 : datum        - DATUM ELEVATION
TDD .F        1485                 : tdd          - TOTAL DEPTH DRILLER
RUN .         ONE                  : Run          - RUN NUMBER
ENG .         BILL                 : Engineer     - RECORDING ENGINEER
WIT .         JIM                  : Witness      - WITNESSED BY
MUD .         GEL                  : Mud_type     - MUD TYPE
MATR.         SANDSTONE            : Logunit      - NEUTRON MATRIX
TMAX.F        71                   : BHT          - MAXIMUM RECORDED TEMPERATURE
BHTD.F        1486                 : BHTDEP       - MAXIMUM RECORDED TEMPERATURE
MATR.         1                    : LOGUNIT      - NEUTRON MATRIX
RMT .F        77                   : MDTP         - TEMPERATURE OF MUD
NEUT.         1                    : NEUTRON      - NEUTRON TYPE
RESI.         3.8                  : RESIST       - RESISTIVITY TYPE
RMC .OHMM     3.8                  : RMC          - RESISTIVITY OF MUD CAKE
RMF .OHMM     3.8                  : RMF          - RESISTIVITY OF MUD FILTRATE
SUFT.F        32                   : SUFT         - SURFACE TEMPERATURE
~A  DEPTH       GR     PHID     RESD
# ...
  927.986   78.189    0.261   23.024
  928.806   72.983    0.290   23.060
  929.626   74.802    0.335   23.119
  930.446   78.424    0.345   23.591
  931.266   77.337    0.353   23.639
  932.087   76.214    0.353   23.687
  932.907   73.361    0.353   23.748
  933.727   71.079    0.354   23.784
  934.547   72.311    0.356   23.845
  935.367   67.674    0.361   23.475
  936.188   64.840    0.363   23.511
  937.008   64.894    0.366   23.122
  937.828   64.966    0.365   22.752
  938.648   65.038    0.364   22.387
  939.469   64.540    0.364   22.062
  940.289   61.651    0.364   22.096
  941.109   59.352    0.366   21.731
  941.929   59.460    0.371   21.797
  942.749   59.532    0.375   21.831
  943.570   60.193    0.377   21.470
  944.390   60.247    0.375   21.547
  945.210   60.925    0.371   21.569
  946.030   60.979    0.366   21.635
  946.850   61.088    0.365   21.657
  947.671   61.160    0.365   21.723
  948.491   61.232    0.365   21.756
  949.311   62.499    0.367   21.812
  950.131   62.535    0.368   21.845
  950.951   63.214    0.368   21.890
  951.772   63.875    0.368   21.946
  952.592   63.947    0.364   21.979
  953.412   64.037    0.360   22.024
  954.232   62.932    0.359   22.080
  955.052   62.398    0.361   21.727
  955.873   61.293    0.362   21.771
  956.693   60.794    0.363   21.422
  957.513   60.866    0.362   21.466
  958.333   62.704    0.362   21.143
  959.154   63.383    0.362   21.176
  959.974   62.278    0.361   21.208
  960.794   61.155    0.362   21.273
  961.614   59.480    0.364   21.306
  962.434   59.552    0.366   21.360
  963.255   61.425    0.367   21.404
  964.075   62.657    0.369   21.447
  964.895   64.512    0.369   21.502
  965.715   68.134    0.369   21.524
  966.535   68.758    0.368   21.975
  967.356   69.419    0.367   22.020
  968.176   68.903    0.366   22.076
  968.996   69.011    0.366   22.121
  969.816   68.495    0.363   22.178
  970.636   68.549    0.361   22.212
  971.457   68.639    0.359   22.246
  972.277   68.693    0.358   22.302
  973.097   69.372    0.357   22.348
  973.917   70.032    0.356   21.990
  974.738   70.122    0.358   22.035
  975.558   70.195    0.357   22.114
  976.378   70.249    0.358   22.125
  977.198   70.927    0.358   22.170
  978.018   70.981    0.359   21.815
  978.839   71.660    0.358   21.859
  979.659   72.321    0.359   21.926
  980.479   72.393    0.359   21.960
  981.299   73.054    0.360   22.016
  982.119   73.126    0.360   21.674
  982.940   73.234    0.358   21.696
  983.760   73.913    0.358   21.741
  984.580   73.967    0.358   21.785
  985.400   74.021    0.358   21.458
  986.220   74.129    0.359   21.491
  987.041   74.183    0.360   21.534
  987.861   74.844    0.362   21.589
  988.681   76.093    0.364   21.634
  989.501   77.949    0.363   21.298
  990.322   79.787    0.361   21.330
  991.142   80.447    0.359   21.385
  991.962   82.303    0.358   21.428
  992.782   82.357    0.355   21.472
  993.602   82.429    0.352   21.128
  994.423   83.090    0.342   21.160
  995.243   91.419    0.322   20.821
  996.063  101.515    0.300   19.049
  996.883  111.003    0.309   15.626
  997.703  111.093    0.312   13.053
  998.524  109.400    0.314   10.325
  999.344  109.472    0.314    8.629
 1000.160  104.836    0.315    7.895
 1000.980   97.846    0.315    7.764
 1001.800   94.405    0.315    8.217
 1002.620   93.300    0.314    9.018
 1003.440   92.766    0.315    9.548
 1004.270   91.661    0.319    9.743
 1005.090   90.574    0.320    9.773
 1005.910   90.646    0.323    9.783
 1006.730   91.895    0.320    9.813
 1007.550   94.910    0.321    9.823
 1008.370   98.531    0.322    9.853
 1009.190   98.585    0.322   10.059
 1010.010   96.910    0.324   10.070
 1010.830   96.376    0.329   10.095
 1011.650   96.466    0.331    9.934
 1012.470   98.339    0.323    9.779
 1013.290   98.964    0.308    9.618
 1014.110  102.585    0.294    9.459
 1014.930  105.600    0.292    9.149
 1015.750  107.438    0.291    8.998
 1016.570  108.687    0.287    8.541
 1017.390  108.777    0.282    8.104
 1018.210  108.849    0.279    7.693
 1019.030  108.333    0.285    7.562
 1019.850  108.994    0.291    7.441
 1020.670  111.456    0.293    7.067
 1021.490  113.276    0.303    6.951
 1022.310  114.525    0.303    6.719
 1023.130  116.381    0.297    6.608
 1023.950  117.023    0.290    6.273
 1024.770  117.702    0.285    6.058
 1025.590  118.363    0.283    5.548
 1026.410  119.023    0.280    5.356
 1027.230  120.291    0.275    4.902
 1028.050  121.522    0.274    4.734
 1028.870  126.338    0.277    4.416
 1029.690  129.923    0.281    4.340
 1030.510  135.292    0.278    4.125
 1031.330  137.148    0.271    4.056
 1032.150  133.707    0.274    3.987
 1032.970  133.191    0.278    3.927
 1033.790  130.927    0.285    3.864
 1034.610  129.786    0.296    3.870
 1035.430  128.681    0.304    3.950
 1036.250  128.165    0.306    4.036
 1037.070  127.060    0.311    4.117
 1037.890  130.092    0.313    4.123
 1038.710  132.519    0.313    4.059
 1039.530  134.945    0.312    3.847
 1040.350  135.642    0.312    3.522
 1041.170  133.360    0.311    3.166
 1041.990  131.078    0.315    2.949
 1042.810  128.796    0.318    3.065
 1043.640  125.319    0.322    3.303
 1044.460  122.448    0.326    3.758
 1045.280  120.184    0.328    4.602
 1046.100  119.061    0.325    6.061
 1046.920  117.956    0.310    6.781
 1047.740  116.263    0.304    7.304
 1048.560  112.822    0.253    8.168
 1049.380  109.933    0.224    8.635
 1050.200  107.651    0.232    9.481
 1051.020  102.427    0.215   10.602
 1051.840   97.220    0.179   11.849
 1052.660   93.154    0.192   13.249
 1053.480   84.381    0.235   14.548
 1054.300   75.036    0.429   15.110
 1055.120   74.538    0.446   15.694
 1055.940   80.495    0.433   15.742
 1056.760   82.922    0.372   14.410
 1057.580   81.817    0.371   13.916
 1058.400   78.358    0.369   12.732
 1059.220   77.253    0.369   12.081
 1060.040   77.361    0.369   11.667
 1060.860   77.415    0.366   11.075
 1061.680   77.505    0.365   10.707
 1062.500   77.559    0.362   10.535
 1063.320   78.238    0.362   10.546
 1064.140   78.899    0.362   10.578
 1064.960   77.812    0.362   10.605
 1065.780   77.277    0.362   10.616
 1066.600   76.797    0.360   10.838
 1067.420   76.851    0.359   10.855
 1068.240   76.905    0.358   10.883
 1069.060   76.996    0.356   10.911
 1069.880   77.068    0.357   11.128
 1070.700   77.158    0.365   11.150
 1071.520   77.230    0.367   11.179
 1072.340   77.302    0.370   11.413
 1073.160   76.786    0.377   11.425
 1073.980   76.858    0.381   11.448
 1074.800   76.912    0.381   11.271
 1075.620   77.591    0.379   11.294
 1076.440   77.681    0.377   10.929
 1077.260   77.753    0.375   10.946
 1078.080   78.396    0.374   10.957
 1078.900   79.056    0.374   10.990
 1079.720   77.381    0.374   11.209
 1080.540   75.687    0.374   11.226
 1081.360   76.348    0.374   11.255
 1082.190   77.633    0.373   11.278
 1083.010   78.276    0.373   11.307
 1083.830   78.937    0.372   11.324
 1084.650   79.615    0.370   11.359
 1085.470   79.688    0.369   11.370
 1086.290   79.189    0.368   11.399
 1087.110   78.673    0.368   11.434
 1087.930   78.138    0.369   11.452
 1088.750   77.622    0.371   11.481
 1089.570   77.712    0.376   11.493
 1090.390   78.373    0.377   11.309
 1091.210   78.445    0.377   11.338
 1092.030   78.535    0.375   11.361
 1092.850   78.589    0.370   11.179
 1093.670   79.250    0.368   11.201
 1094.490   79.322    0.364   11.230
 1095.310   79.394    0.362   11.253
 1096.130   79.484    0.361   11.270
 1096.950   79.575    0.360   11.293
 1097.770   80.235    0.358   11.112
 1098.590   80.860    0.357   11.146
 1099.410   81.538    0.362   10.973
 1100.230   81.058    0.364   10.990
 1101.050   81.094    0.368   11.007
 1101.870   80.596    0.363   10.836
 1102.690   79.473    0.358   10.858
 1103.510   78.368    0.354   10.880
 1104.330   78.458    0.352   10.903
 1105.150   79.119    0.353   10.925
