~VERSION INFORMATION
 VERS.                 2.0:   CWLS LOG ASCII STANDARD -VERSION 2.0
 WRAP.                  NO:   ONE LINE PER DEPTH STEP
~WELL INFORMATION BLOCK
#MNEM.UNIT           DATA                    DESCRIPTION OF MNEMONIC
#---------    -------------------            -------------------------------
# Generated from Intellog Unique Number	CN_94_101/WELL/5003
WELL.         10-15-097-06W4                 : Well_name    - WELL
LOC .         AA/10-15-097-06W4/0            : Location     - LOCATION
UWI .         AA/10-15-097-06W400            : Uwi          - UNIQUE WELL ID
ENTR.         JOETTE                         : Entered      - ENTERED BY
SRVC.         SCHLUMBERGER                   : Scn          - SERVICE COMPANY
DATE.         08/11/92                       : Date         - LOG DATE
STRT.M        0                              : top_depth    - START DEPTH
STOP.M        75                             : bot_depth    - STOP DEPTH
STEP.M        0.25                           : increment    - STEP LENGTH
 NULL. -999.2500:NULL Value
~CURVE INFORMATION BLOCK
#MNEM UNIT       ERCB CURVE CODE    CURVE DESCRIPTION
#-----------   ------------------   ----------------------------------
DEPT.M        00 001 00 00         : DEPTH        - DEPTH
ILD .OHMM     00 120 00 00         : RESD         - DEEP RESISTIVITY (DIL)
DPHI.V/V      00 890 00 00         : PHID         - DENSITY POROSITY (SANDSTONE)
NPHI.V/V      00 330 00 00         : PHIN         - NEUTRON POROSITY (SANDSTONE)
GR  .API      00 310 00 00         : GR           - GAMMA RAY
~PARAMETER INFORMATION
#MNEM.UNIT           DATA             DESCRIPTION OF MNEMONIC
#---------         -----------     ------------------------------
GL  .M        367.9                : gl           - GROUND LEVEL ELEVATION
EREF.M        367.9                : kb           - ELEVATION OF DEPTH REFERENCE
DATM.M        367.9                : datum        - DATUM ELEVATION
TDD .M        78.6                 : tdd          - TOTAL DEPTH DRILLER
RUN .         ONE                  : Run          - RUN NUMBER
ENG .         BILL                 : Engineer     - RECORDING ENGINEER
WIT .         JIM                  : Witness      - WITNESSED BY
MUD .         GEL                  : Mud_type     - MUD TYPE
MATR.         SANDSTONE            : Logunit      - NEUTRON MATRIX
TMAX.C        10                   : BHT          - MAXIMUM RECORDED TEMPERATURE
BHTD.M        78.6                 : BHTDEP       - MAXIMUM RECORDED TEMPERATURE
RMT .C        10                   : MDTP         - TEMPERATURE OF MUD
MUDD.KG/M     1090                 : MWT          - MUD DENSITY
NEUT.         1                    : NEUTRON      - NEUTRON TYPE
RESI.         0                    : RESIST       - RESISTIVITY TYPE
RM  .OHMM     13.1                 : RM           - RESISTIVITY OF MUD
RMC .OHMM     13.1                 : RMC          - RESISTIVITY OF MUD CAKE
RMF .OHMM     13.1                 : RMF          - RESISTIVITY OF MUD FILTRATE
SUFT.C        4                    : SUFT         - SURFACE TEMPERATURE
~A  DEPTH     RESD     PHID     PHIN       GR
    0.000   28.942    0.008    0.060   49.372
    0.250   28.135    0.009    0.062   49.978
    0.500   27.349    0.009    0.064   49.380
    0.750   26.584    0.009    0.067   47.579
    1.000   26.207    0.009    0.068   45.776
    1.250   25.835    0.009    0.068   44.576
    1.500   25.830    0.010    0.068   44.580
    1.750   25.464    0.010    0.067   42.779
    2.000   25.102    0.011    0.066   46.997
    2.250   25.096    0.011    0.069   48.206
    2.500   25.088    0.012    0.078   47.005
    2.750   24.733    0.013    0.085   49.419
    3.000   24.380    0.016    0.091   48.218
    3.250   24.377    0.018    0.084   44.610
    3.500   24.029    0.021    0.077   41.604
    3.750   24.022    0.023    0.077   40.404
    4.000   24.019    0.024    0.079   41.010
    4.250   24.012    0.026    0.075   38.607
    4.500   24.344    0.027    0.092   35.600
    4.750   24.685    0.027    0.120   32.594
    5.000   25.027    0.027    0.144   34.404
    5.250   25.375    0.027    0.156   35.614
    5.500   25.729    0.027    0.167   36.822
    5.750   26.083    0.026    0.178   39.234
    6.000   26.078    0.024    0.168   41.647
    6.250   26.442    0.024    0.171   42.856
    6.500   26.442    0.023    0.168   40.452
    6.750   26.802    0.023    0.177   38.048
    7.000   27.176    0.024    0.182   39.255
    7.250   27.554    0.025    0.157   45.280
    7.500   27.547    0.027    0.149   46.489
    7.750   28.320    0.029    0.152   41.074
    8.000   28.316    0.031    0.201   36.865
    8.250   28.710    0.033    0.246   37.470
    8.500   29.108    0.036    0.572   36.873
    8.750   29.509    0.038    0.588   38.683
    9.000   29.502    0.039    0.600   35.678
    9.250   29.914    0.040    0.618   30.866
    9.500   29.905    0.042    0.618   36.288
    9.750   29.901    0.046    0.573   42.916
   10.000   29.892    0.049    0.498   43.524
   10.250   29.468    0.050    0.443   43.526
   10.500   29.459    0.052    0.421   43.530
   10.750   28.637    0.056    0.416   44.739
   11.000   28.231    0.057    0.424   45.947
   11.250   27.444    0.060    0.433   49.564
   11.500   26.677    0.061    0.423   47.763
   11.750   25.565    0.061    0.420   45.359
   12.000   25.207    0.061    0.414   44.761
   12.250   24.849    0.061    0.409   47.775
   12.500   24.155    0.059    0.425   50.791
   12.750   23.812    0.057    0.426   50.192
   13.000   23.471    0.057    0.439   50.197
   13.250   23.468    0.057    0.470   48.394
   13.500   23.135    0.057    0.479   44.787
   13.750   22.807    0.057    0.483   48.403
   14.000   22.483    0.058    0.490   50.815
   14.250   22.477    0.059    0.437   49.013
   14.500   22.472    0.061    0.461   47.211
   14.750   22.466    0.063    0.490   47.818
   15.000   22.146    0.064    0.504   47.221
   15.250   22.139    0.065    0.444   46.623
   15.500   22.135    0.067    0.410   49.638
   15.750   22.130    0.068    0.418   49.642
   16.000   22.126    0.070    0.436   46.635
   16.250   21.505    0.071    0.472   45.435
   16.500   21.502    0.073    0.414   44.838
   16.750   20.899    0.073    0.404   45.444
   17.000   20.896    0.073    0.388   45.448
   17.250   20.891    0.073    0.399   45.454
   17.500   20.885    0.073    0.415   44.854
   17.750   20.881    0.071    0.425   44.858
   18.000   21.170    0.071    0.414   48.475
   18.250   21.166    0.071    0.404   47.877
   18.500   21.459    0.072    0.409   47.282
   18.750   21.459    0.075    0.396   46.082
   19.000   22.370    0.080    0.394   44.280
   19.250   23.003    0.084    0.343   43.682
   19.500   23.324    0.090    0.356   46.695
   19.750   24.322    0.091    0.358   43.689
   20.000   25.008    0.173    0.358   37.071
   20.250   27.200    0.187    0.474   32.862
   20.500   28.366    0.213    0.532   33.467
   20.750   32.636    0.240    0.560   37.085
   21.000   45.072    0.258    0.576   41.302
   21.250   61.379    0.274    0.591   49.134
   21.500   96.192    0.293    0.615   59.975
   21.750  164.008    0.301    0.619   73.225
   22.000  226.506    0.304    0.619   78.648
   22.250  226.450    0.306    0.592   77.448
   22.500  220.122    0.307    0.567   78.054
   22.750  246.243    0.309    0.520   87.692
   23.000  291.385    0.301    0.545   92.513
   23.250  335.250    0.284    0.545   89.507
   23.500  380.339    0.278    0.509   84.694
   23.750  419.511    0.273    0.527   78.076
   24.000  413.531    0.273    0.519   72.059
   24.250  402.001    0.283    0.544   67.248
   24.500  390.791    0.294    0.541   69.057
   24.750  364.172    0.299    0.513   90.134
   25.000  339.387    0.286    0.504   90.139
   25.250  316.289    0.273    0.501   87.132
   25.500  325.222    0.275    0.530   89.546
   25.750  343.956    0.279    0.566   88.948
   26.000  368.870    0.286    0.562   86.543
   26.250  374.020    0.281    0.579   87.751
   26.500  436.412    0.281    0.598   90.766
   26.750  455.057    0.279    0.572   87.158
   27.000  430.113    0.273    0.524   73.315
   27.250  418.068    0.281    0.493   67.900
   27.500  474.324    0.292    0.477   73.323
   27.750  389.543    0.303    0.509   65.500
   28.000  311.053    0.313    0.458   70.924
   28.250  187.541    0.320    0.450   95.011
   28.500  174.767    0.270    0.572   90.801
   28.750  165.166    0.271    0.572   95.020
   29.000  158.321    0.267    0.564   98.637
   29.250  156.074    0.271    0.606  101.049
   29.500  160.492    0.250    0.594  101.657
   29.750  172.128    0.229    0.593  102.864
   30.000  195.277    0.238    0.607   93.837
   30.250  215.402    0.244    0.574   90.831
   30.500  221.486    0.244    0.562   95.052
   30.750  240.904    0.245    0.574   95.656
   31.000  269.491    0.250    0.586   98.070
   31.250  281.004    0.259    0.589   96.870
   31.500  273.152    0.265    0.583   95.068
   31.750  273.102    0.251    0.551   93.265
   32.000  288.798    0.254    0.533   87.851
   32.250  336.995    0.270    0.547   83.038
   32.500  371.726    0.266    0.558   79.430
   32.750  376.892    0.256    0.562   85.455
   33.000  376.800    0.262    0.520   89.674
   33.250  409.835    0.257    0.486   86.668
   33.500  471.531    0.254    0.505   75.835
   33.750  573.873    0.262    0.542   63.798
   34.000  874.451    0.273    0.510   54.169
   34.250  850.015    0.271    0.504   52.367
   34.500  491.314    0.267    0.453   69.229
   34.750  360.606    0.274    0.396   87.898
   35.000  246.719    0.268    0.446   98.739
   35.250  205.487    0.253    0.550   98.142
   35.500  205.424    0.244    0.560  102.963
   35.750  217.257    0.245    0.562  102.364
   36.000  229.758    0.237    0.570   98.757
   36.250  232.937    0.245    0.576   95.750
   36.500  232.865    0.243    0.529   93.948
   36.750  232.837    0.246    0.498   95.759
   37.000  242.769    0.245    0.544   91.549
   37.250  249.656    0.227    0.539   96.972
   37.500  275.386    0.235    0.555   97.579
   37.750  316.823    0.245    0.528   83.133
   38.000  335.073    0.254    0.539   78.923
   38.250  339.709    0.272    0.549   86.754
   38.500  316.569    0.253    0.556   86.758
   38.750  303.468    0.226    0.538   82.549
   39.000  286.798    0.256    0.506   84.962
   39.250  286.727    0.264    0.525   82.557
   39.500  303.226    0.272    0.509   77.745
   39.750  320.673    0.284    0.514   75.341
   40.000  320.594    0.296    0.530   87.386
   40.250  303.021    0.262    0.544   83.778
   40.500  294.535    0.275    0.519   80.772
   40.750  311.482    0.285    0.531   78.970
   41.000  311.406    0.295    0.529   91.016
   41.250  278.253    0.295    0.529   87.407
   41.500  222.187    0.243    0.556   92.830
   41.750  278.116    0.225    0.475   81.997
   42.000  494.601    0.255    0.476   66.348
   42.250  831.534    0.269    0.511   54.311
   42.500 1132.380    0.264    0.361   53.111
   42.750 1417.420    0.287    0.325   48.301
   43.000 1876.770    0.303    0.351   50.711
   43.250 2382.420    0.309    0.386   54.329
