~VERSION INFORMATION
 VERS.                 2.0:   CWLS LOG ASCII STANDARD -VERSION 2.0
 WRAP.                  NO:   ONE LINE PER DEPTH STEP
~WELL INFORMATION BLOCK
#MNEM.UNIT           DATA                    DESCRIPTION OF MNEMONIC
#---------    -------------------            -------------------------------
# Generated from Intellog Unique Number	CN_94_101/WELL/5021
WELL.         11-24-099-14W4                 : Well_name    - WELL
LOC .         AA/11-24-099-14W4/0            : Location     - LOCATION
UWI .         AA/11-24-099-14W400            : Uwi          - UNIQUE WELL ID
ENTR.         TIM                            : Entered      - ENTERED BY
SRVC.         SCHLUMBERGER                   : Scn          - SERVICE COMPANY
DATE.         08/13/92                       : Date         - LOG DATE
STRT.M        370                            : top_depth    - START DEPTH
STOP.M        570                            : bot_depth    - STOP DEPTH
STEP.M        0.25                           : increment    - STEP LENGTH
 NULL. -999.2500:NULL Value
~CURVE INFORMATION BLOCK
#MNEM UNIT       ERCB CURVE CODE    CURVE DESCRIPTION
#-----------   ------------------   ----------------------------------
DEPT.M        00 001 00 00         : DEPTH        - DEPTH
GR  .API      00 310 00 00         : GR           - GAMMA RAY
ILD .OHMM     00 120 00 00         : RESD         - DEEP RESISTIVITY (DIL)
NPHI.V/V      00 330 00 00         : PHIN         - NEUTRON POROSITY (SANDSTONE)
DPHI.V/V      00 890 00 00         : PHID         - DENSITY POROSITY (SANDSTONE)
~PARAMETER INFORMATION
#MNEM.UNIT           DATA             DESCRIPTION OF MNEMONIC
#---------         -----------     ------------------------------
GL  .M        815.9                : gl           - GROUND LEVEL ELEVATION
EREF.M        819.1                : kb           - ELEVATION OF DEPTH REFERENCE
DATM.M        819.1                : datum        - DATUM ELEVATION
TDD .M        573                  : tdd          - TOTAL DEPTH DRILLER
RUN .         ONE                  : Run          - RUN NUMBER
ENG .         BILL                 : Engineer     - RECORDING ENGINEER
WIT .         JIM                  : Witness      - WITNESSED BY
MUD .         GEL                  : Mud_type     - MUD TYPE
MATR.         SANDSTONE            : Logunit      - NEUTRON MATRIX
TMAX.C        25                   : BHT          - MAXIMUM RECORDED TEMPERATURE
BHTD.M        573                  : BHTDEP       - MAXIMUM RECORDED TEMPERATURE
RMT .C        25                   : MDTP         - TEMPERATURE OF MUD
MUDD.KG/M     1090                 : MWT          - MUD DENSITY
NEUT.         1                    : NEUTRON      - NEUTRON TYPE
RESI.         0                    : RESIST       - RESISTIVITY TYPE
RM  .OHMM     4.6                  : RM           - RESISTIVITY OF MUD
RMC .OHMM     4.6                  : RMC          - RESISTIVITY OF MUD CAKE
RMF .OHMM     4.6                  : RMF          - RESISTIVITY OF MUD FILTRATE
SUFT.C        4                    : SUFT         - SURFACE TEMPERATURE
~A  DEPTH       GR     RESD     PHIN     PHID
# ...
  544.000  121.876    9.664    0.405    0.251
  544.250  121.880    9.034    0.408    0.257
  544.500  100.745    8.824    0.409    0.263
  544.750   89.274    8.824    0.410    0.269
  545.000   82.634    9.664    0.412    0.275
  545.250   78.409   10.504    0.413    0.285
  545.500   75.997   11.765    0.414    0.293
  545.750   74.793   13.866    0.417    0.297
  546.000   74.796   16.597    0.415    0.300
  546.250   75.403   20.378    0.405    0.303
  546.500   75.406   24.160    0.396    0.304
  546.750   74.202   52.311    0.381    0.304
  547.000   72.997   53.782    0.373    0.304
  547.250   71.189   54.202    0.372    0.304
  547.500   70.588   54.832    0.372    0.306
  547.750   70.591   55.252    0.372    0.308
  548.000   71.198   55.462    0.375    0.311
  548.250   70.598   55.882    0.378    0.311
  548.500   69.997   56.092    0.384    0.308
  548.750   68.792   54.832    0.387    0.309
  549.000   70.004   53.571    0.388    0.311
  549.250   70.611   52.731    0.382    0.308
  549.500   70.615   51.471    0.377    0.302
  549.750   69.409   51.261    0.378    0.298
  550.000   66.997   50.210    0.382    0.300
  550.250   62.773   49.370    0.387    0.304
  550.500   56.133   47.479    0.389    0.307
  550.750   53.117   50.000    0.386    0.311
  551.000   58.556   61.975    0.381    0.315
  551.250   60.975   63.656    0.376    0.316
  551.500   62.790   61.135    0.376    0.311
  551.750   65.209   57.773    0.381    0.307
  552.000   67.629   54.622    0.385    0.300
  552.250   68.235   51.681    0.387    0.299
  552.500   67.635   50.840    0.388    0.302
  552.750   65.827   50.630    0.391    0.309
  553.000   64.621   50.630    0.393    0.314
  553.250   64.020   50.630    0.394    0.316
  553.500   64.629   50.630    0.396    0.313
  553.750   67.047   50.840    0.396    0.310
  554.000   68.862   50.840    0.397    0.307
  554.250   73.093   51.471    0.396    0.315
  554.500   79.135   52.521    0.391    0.315
  554.750   81.555   55.672    0.387    0.312
  555.000   81.558   60.294    0.382    0.304
  555.250   80.957   63.445    0.383    0.299
  555.500   78.545   61.344    0.385    0.289
  555.750   76.132   54.832    0.382    0.286
  556.000   71.304   50.840    0.377    0.287
  556.250   67.683   51.050    0.372    0.287
  556.500   66.479   52.101    0.371    0.288
  556.750   68.294   53.782    0.377    0.288
  557.000   70.110   56.723    0.387    0.297
  557.250   71.925   58.193    0.397    0.315
  557.500   73.741   55.252    0.396    0.323
  557.750   76.159   19.328    0.388    0.324
  558.000   81.597   15.126    0.377    0.313
  558.250   91.868   12.395    0.373    0.298
  558.500   95.496   11.134    0.386    0.287
  558.750   96.102   10.294    0.411    0.284
  559.000   96.105    9.874    0.408    0.284
  559.250   99.128    9.664    0.402    0.289
  559.500  102.755    9.244    0.401    0.291
  559.750  105.174    9.244    0.402    0.286
  560.000  107.594    8.824    0.408    0.283
  560.250  108.805    8.613    0.411    0.277
  560.500  110.016    8.403    0.411    0.271
  560.750  111.226    8.193    0.409    0.268
  561.000  113.041    8.193    0.409    0.263
  561.250  109.421    8.403    0.408    0.262
  561.500  102.177    8.824    0.412    0.261
  561.750   96.141    9.244    0.424    0.256
  562.000   90.709    9.874    0.422    0.260
  562.250   88.297   10.294    0.413    0.277
  562.500   85.281   11.975    0.413    0.293
  562.750   82.868   16.597    0.417    0.307
  563.000   83.475   19.958    0.418    0.312
  563.250   84.082   20.798    0.417    0.309
  563.500   86.501   21.639    0.416    0.308
  563.750   96.772   22.899    0.412    0.309
  564.000   90.132   22.689    0.409    0.312
  564.250   81.076   25.000    0.402    0.315
  564.500   78.060   23.950    0.393    0.315
  564.750   78.063   23.529    0.396    0.315
  565.000   78.670   24.580    0.396    0.312
  565.250   75.050   46.849    0.396    0.308
  565.500   65.994   48.950    0.395    0.298
  565.750   63.583   50.000    0.390    0.293
  566.000   62.378   49.790    0.385    0.299
  566.250   62.985   49.160    0.382    0.320
  566.500   62.989   47.899    0.379    0.324
  566.750   62.387   47.269    0.370    0.329
  567.000   61.182   45.588    0.366    0.320
  567.250   61.185   12.605    0.360    0.304
  567.500   61.189    9.874    0.346    0.290
  567.750   59.984    7.983    0.308    0.272
  568.000   58.176    7.353    0.277    0.177
  568.250   56.367    7.353    0.262    0.049
  568.500   55.163    7.563    0.262    0.045
  568.750   53.354    7.563    0.264    0.037
  569.000   49.734    7.983    0.264    0.033
  569.250   54.568    8.193    0.264    0.035
  569.500   63.027    8.403    0.261    0.037
  569.750   86.584    8.403    0.261    0.053
  570.000  104.101    8.403    0.264    0.061
