~VERSION INFORMATION
 VERS.                 2.0:   CWLS LOG ASCII STANDARD -VERSION 2.0
 WRAP.                  NO:   ONE LINE PER DEPTH STEP
~WELL INFORMATION BLOCK
#MNEM.UNIT           DATA                    DESCRIPTION OF MNEMONIC
#---------    -------------------            -------------------------------
# Generated from Intellog Unique Number	CC_80_83/WELL/2401
NULL.         -999.25                        : NULL_VALUE
WELL.         DOME BUTTES NEWBY OV           : Well_name    - WELL              
LOC .         11-19-081-05W4                 : Location     - LOCATION          
UWI .         AA/11-19-081-05W4/0            : Uwi          - UNIQUE WELL ID    
ENTR.         DW                             : Entered      - ENTERED BY        
SRVC.         SCHLUMBERGER                   : Scn          - SERVICE COMPANY   
DATE.         07 MAR 81                      : Date         - LOG DATE
STRT.M        100                            : top_depth    - START DEPTH       
STOP.M        300.1                          : bot_depth    - STOP DEPTH        
STEP.M        0.3                            : increment    - STEP LENGTH       
~CURVE INFORMATION BLOCK
#MNEM UNIT       ERCB CURVE CODE    CURVE DESCRIPTION
#-----------   ------------------   ----------------------------------
DEPT.M        00 001 00 00         : DEPTH        - DEPTH                       
ILD .OHMM     00 120 00 00         : RESD         - DEEP RESISTIVITY (DIL)      
GR  .API      00 310 00 00         : GR           - GAMMA RAY                   
NPHI.V/V      00 330 00 00         : PHIN         - NEUTRON POROSITY (LIMESTONE)
DPHI.V/V      00 890 00 00         : PHID         - DENSITY POROSITY (LIMESTONE)
~PARAMETER INFORMATION       
#MNEM.UNIT           DATA             DESCRIPTION OF MNEMONIC
#---------         -----------     ------------------------------
GL  .M        487                  : gl           - GROUND LEVEL ELEVATION      
EREF.M        491.5                : kb           - ELEVATION OF DEPTH REFERENCE
DATM.M        491.5                : datum        - DATUM ELEVATION             
TDD .M        305                  : tdd          - TOTAL DEPTH DRILLER         
RUN .         ONE                  : Run          - RUN NUMBER                  
ENG .         BILL                 : Engineer     - RECORDING ENGINEER          
WIT .         JIM                  : Witness      - WITNESSED BY                
MUD .         GEL                  : Mud_type     - MUD TYPE                    
MATR.         LIMESTONE            : Logunit      - NEUTRON MATRIX              
TMAX.C        20                   : BHT          - MAXIMUM RECORDED TEMPERATURE
BHTD.M        305                  : BHTDEP       - MAXIMUM RECORDED TEMPERATURE
MATR.         1                    : LOGUNIT      - NEUTRON MATRIX              
RMT .C        25                   : MDTP         - TEMPERATURE OF MUD          
NEUT.         1                    : NEUTRON      - NEUTRON TYPE                
RESI.         0                    : RESIST       - RESISTIVITY TYPE            
RMC .OHMM     0.25                 : RMC          - RESISTIVITY OF MUD CAKE     
RMF .OHMM     0.25                 : RMF          - RESISTIVITY OF MUD FILTRATE 
SUFT.C        4                    : SUFT         - SURFACE TEMPERATURE         
~A  DEPTH     RESD       GR     PHIN     PHID
  100.000   17.461   29.023    0.398    0.352
  100.300   17.444   30.198    0.405    0.388
  100.600   22.321   30.127    0.429    0.419
  100.900   23.607   29.461    0.450    0.397
  101.200   21.034   40.517    0.469    0.411
  101.500   14.076   68.868    0.462    0.287
  101.800   12.779   84.852    0.449    0.273
  102.100   12.525   83.566    0.430    0.275
  102.400   12.749   82.890    0.409    0.275
  102.700   12.736   84.056    0.398    0.272
  103.000   11.787   95.117    0.408    0.262
  103.300   10.700  116.669    0.467    0.230
  103.600   10.094  117.844    0.459    0.230
  103.900    9.520  120.878    0.428    0.233
  104.200    9.329  120.810    0.421    0.236
  104.500    9.678  117.048    0.436    0.242
  104.800   10.238  113.281    0.452    0.251
  105.100   12.612  102.100    0.437    0.288
  105.400   13.858   98.946    0.446    0.316
  105.700   14.381  107.532    0.441    0.293
  106.000   14.363  109.324    0.439    0.295
  106.300   14.077   93.213    0.467    0.307
  106.600   14.325   93.150    0.474    0.294
  106.900   14.589   98.635    0.461    0.260
  107.200   14.572  106.613    0.416    0.244
  107.500   14.548  112.728    0.416    0.230
  107.800   14.260  112.043    0.467    0.211
  108.100   13.196  118.784    0.514    0.224
  108.400   12.214  118.726    0.510    0.242
  108.700   12.674  106.929    0.453    0.238
  109.000   14.746   98.215    0.466    0.218
  109.300   16.511   86.423    0.443    0.213
  109.600   16.494   71.533    0.422    0.273
  109.900   17.778   78.267    0.412    0.314
  110.200   18.101  109.094    0.423    0.337
  110.500   17.403   94.208    0.472    0.339
  110.800   15.504   79.326    0.468    0.351
  111.100   12.794   69.999    0.462    0.384
  111.400   11.184   79.814    0.476    0.379
  111.700   10.155   98.905    0.475    0.252
  112.000   10.143  101.927    0.418    0.249
  112.300   11.359   94.456    0.428    0.260
  112.600   12.244   73.400    0.427    0.293
  112.900   12.701   62.834    0.412    0.301
  113.200   11.757   67.095    0.408    0.272
  113.500   10.080   76.917    0.421    0.253
  113.800    9.878   84.264    0.447    0.251
  114.100   10.252   97.798    0.443    0.257
  114.400   12.390   97.736    0.441    0.273
  114.700   16.792   82.235    0.485    0.295
  115.000   19.910   70.440    0.447    0.322
  115.300   21.873   63.584    0.433    0.338
  115.600   21.845   64.758    0.429    0.347
  115.900   21.814   66.542    0.418    0.339
  116.200   21.388   60.305    0.395    0.330
  116.500   20.958   67.040    0.398    0.325
  116.800   20.141   67.600    0.407    0.330
  117.100   19.363   59.501    0.417    0.339
  117.400   19.351   56.974    0.422    0.344
  117.700   19.324   62.474    0.419    0.342
  118.000   20.055   57.476    0.446    0.344
  118.300   21.209   55.555    0.407    0.342
  118.600   22.009   56.107    0.413    0.330
  118.900   22.402   51.111    0.413    0.320
  119.200   21.953   46.112    0.352    0.321
  119.500   21.512   45.434    0.367    0.343
  119.800   21.898   50.303    0.422    0.351
  120.100   21.872   50.252    0.437    0.325
  120.400   21.435   55.749    0.431    0.332
  120.700   20.610   60.008    0.445    0.353
  121.000   20.196   58.705    0.436    0.363
  121.300   20.174   63.588    0.434    0.353
  121.600   20.144   66.617    0.432    0.342
  121.900   20.508   65.323    0.437    0.339
  122.200   20.875   60.323    0.447    0.344
  122.500   21.257   66.438    0.434    0.356
  122.800   22.058   68.225    0.440    0.348
  123.100   25.180   66.918    0.448    0.265
  123.400   36.830   65.635    0.400    0.234
  123.700   61.557   63.100    0.424    0.000
  124.000   83.403   58.722    0.243    0.000
  124.300   81.746   53.100    0.142    0.000
  124.600   71.447   53.658    0.130    0.013
  124.900   44.299   53.582    0.160    0.038
  125.200   30.800   52.910    0.218    0.038
  125.500   21.413   55.933    0.199    0.057
  125.800   19.072   58.973    0.227    0.157
  126.100   19.793   61.369    0.334    0.218
  126.400   35.705   62.546    0.422    0.260
  126.700   79.440   62.492    0.468    0.000
  127.000   85.608   62.431    0.452    0.000
  127.300   79.248   53.108    0.122    0.000
  127.600   43.002   51.802    0.129    0.000
  127.900   23.330   52.988    0.151    0.023
  128.200   19.259   56.629    0.180    0.096
  128.500   17.819   70.155    0.231    0.202
  128.800   17.466   71.948    0.400    0.327
  129.100   18.472   73.120    0.468    0.359
  129.400   17.423   84.181    0.489    0.364
  129.700   17.073   78.556    0.455    0.316
  130.000   17.052   69.234    0.471    0.327
  130.300   16.398   61.758    0.466    0.341
  130.600   15.764   66.633    0.444    0.336
  130.900   14.867   65.342    0.462    0.375
  131.200   12.749   62.808    0.520    0.249
  131.500    8.698   65.215    0.447    0.248
  131.800    6.779   70.097    0.464    0.299
  132.100    6.901   74.981    0.471    0.291
  132.400    8.185   83.570    0.480    0.297
  132.700   10.277   90.298    0.507    0.286
  133.000   12.901   85.298    0.522    0.264
  133.300   15.300   69.792    0.428    0.261
  133.600   16.180   74.674    0.444    0.293
  133.900   15.859   68.433    0.498    0.314
  134.200   12.600   66.523    0.444    0.316
  134.500    8.117   63.361    0.446    0.325
  134.800    5.974   63.316    0.477    0.334
  135.100    6.083   73.755    0.494    0.332
  135.400    6.943   90.369    0.506    0.318
  135.700    9.963   88.454    0.524    0.315
  136.000   11.592   79.129    0.546    0.321
  136.300   11.144   77.215    0.499    0.329
  136.600    8.204   83.947    0.489    0.331
  136.900    5.386   71.534    0.489    0.334
  137.200    4.618   74.560    0.438    0.283
  137.500    4.526  102.294    0.442    0.257
  137.800    4.520  116.438    0.495    0.272
  138.100    4.264  120.691    0.471    0.245
  138.400    4.022  120.633    0.491    0.251
  138.700    3.868  113.154    0.534    0.230
  139.000    3.717  108.155    0.539    0.206
  139.300    3.713  109.332    0.547    0.244
  139.600    3.780  108.659    0.561    0.289
  139.900    3.777  105.501    0.573    0.292
  140.200    3.631  109.155    0.592    0.285
  140.500    3.557  110.938    0.613    0.263
  140.800    3.621  114.589    0.610    0.245
  141.100    3.831  107.115    0.554    0.249
  141.400    4.290  108.909    0.549    0.239
  141.700    4.896  110.070    0.544    0.263
  142.000    5.080  108.159    0.553    0.273
  142.300    4.979  108.107    0.561    0.271
  142.600    4.519  107.416    0.501    0.246
  142.900    4.184  109.827    0.494    0.234
  143.200    3.872  113.483    0.499    0.268
  143.500    3.514  110.950    0.526    0.248
  143.800    3.315  104.080    0.555    0.242
  144.100    3.249  102.184    0.584    0.236
  144.400    3.065  107.063    0.600    0.262
  144.700    3.003  102.051    0.578    0.290
  145.000    3.117  100.140    0.579    0.304
  145.300    3.360  109.346    0.590    0.291
  145.600    4.061  111.760    0.607    0.304
  145.900    5.099  106.753    0.576    0.316
  146.200    5.933   98.658    0.504    0.310
  146.500    6.772   93.037    0.508    0.281
  146.800    7.877   90.509    0.525    0.258
  147.100    8.493   86.744    0.477    0.270
  147.400    9.329   80.507    0.496    0.317
  147.700   10.449   84.770    0.506    0.305
  148.000   12.390   89.029    0.455    0.284
  148.300   14.974   80.323    0.463    0.283
  148.600   17.759   72.852    0.375    0.326
  148.900   18.424   66.618    0.277    0.408
  149.201   17.713   69.642    0.328    0.422
  149.501   17.033   71.432    0.372    0.334
  149.801   16.693   68.286    0.424    0.347
  150.101   17.651   63.903    0.439    0.354
  150.401   18.310   60.136    0.441    0.357
  150.701   18.640   60.687    0.431    0.357
  151.001   18.621   63.717    0.405    0.333
  151.301   17.907   63.030    0.401    0.310
  151.601   17.538   57.417    0.403    0.321
  151.901   17.526   55.501    0.400    0.329
