~VERSION INFORMATION
 VERS.                 2.0:   CWLS LOG ASCII STANDARD -VERSION 2.0
 WRAP.                  NO:   ONE LINE PER DEPTH STEP
~WELL INFORMATION BLOCK
#MNEM.UNIT           DATA                    DESCRIPTION OF MNEMONIC
#---------    -------------------            -------------------------------
# Generated from Intellog Unique Number	CW_82_90/WELL/995
WELL.         11-17-082-19W4                 : Well_name    - WELL
LOC .         AA/11-17-082-19W4/0            : Location     - LOCATION
UWI .         AA/11-17-082-19W400            : Uwi          - UNIQUE WELL ID
ENTR.         JAYE                           : Entered      - ENTERED BY
SRVC.         SCHLUMBERGER                   : Scn          - SERVICE COMPANY
DATE.         28 JAN 78                      : Date         - LOG DATE
STRT.M        173.736                        : top_depth    - START DEPTH
STOP.M        363.986                        : bot_depth    - STOP DEPTH
STEP.M        0.25                           : increment    - STEP LENGTH
 NULL. -999.2500:NULL Value
~CURVE INFORMATION BLOCK
#MNEM UNIT       ERCB CURVE CODE    CURVE DESCRIPTION
#-----------   ------------------   ----------------------------------
DEPT.M        00 001 00 00         : DEPTH        - DEPTH
CALI.MM       00 280 01 00         : CAL          - CALIPER
GR  .API      00 310 00 00         : GR           - GAMMA RAY
NPHI.V/V      00 330 00 00         : PHIN         - NEUTRON POROSITY (SANDSTONE)
DPHI.V/V      00 890 00 00         : PHID         - DENSITY POROSITY (SANDSTONE)
ILD .OHMM     00 120 00 00         : RESD         - DEEP RESISTIVITY (DIL)
~PARAMETER INFORMATION
#MNEM.UNIT           DATA             DESCRIPTION OF MNEMONIC
#---------         -----------     ------------------------------
GL  .M        585.216              : gl           - GROUND LEVEL ELEVATION
EREF.M        588.569              : kb           - ELEVATION OF DEPTH REFERENCE
DATM.M        585.216              : datum        - DATUM ELEVATION
TDD .M        366.37               : tdd          - TOTAL DEPTH DRILLER
RUN .         ONE                  : Run          - RUN NUMBER
ENG .         GUNN                 : Engineer     - RECORDING ENGINEER
WIT .         BICKHAM              : Witness      - WITNESSED BY
BASE.         EDMONTON             : Branch       - HOME BASE OF LOGGING UNIT
MUD .         GEL CHEM             : Mud_type     - MUD TYPE
MATR.         SANDSTONE            : Logunit      - NEUTRON MATRIX
TMAX.C        27.7778              : BHT          - MAXIMUM RECORDED TEMPERATURE
BHTD.M        366.37               : BHTDEP       - MAXIMUM RECORDED TEMPERATURE
RMT .C        18.3333              : MDTP         - TEMPERATURE OF MUD
MUDD.KG/M     9300                 : MWT          - MUD DENSITY
NEUT.         0                    : NEUTRON      - NEUTRON TYPE
RESI.         0                    : RESIST       - RESISTIVITY TYPE
RM  .OHMM     4.82                 : RM           - RESISTIVITY OF MUD
RMC .OHMM     0                    : RMC          - RESISTIVITY OF MUD CAKE
RMF .OHMM     0                    : RMF          - RESISTIVITY OF MUD FILTRATE
SUFT.C        4                    : SUFT         - SURFACE TEMPERATURE
~A  DEPTH      CAL       GR     PHIN     PHID     RESD
  173.736  172.982  108.086    0.583    0.240    2.851
  173.986  171.096  107.469    0.577    0.231    2.847
  174.236  170.887  106.358    0.553    0.219    2.826
  174.486  172.144  104.445    0.555    0.211    2.795
  174.736  174.029  104.074    0.562    0.215    2.774
  174.986  176.753  105.741    0.570    0.220    2.759
  175.236  177.695  107.161    0.578    0.222    2.749
  175.486  176.753  107.778    0.580    0.235    2.739
  175.736  176.334  108.704    0.565    0.239    2.719
  175.986  174.134  108.951    0.549    0.240    2.690
  176.236  172.458  109.013    0.551    0.234    2.690
  176.486  171.620  110.618    0.553    0.232    2.706
  176.736  171.411  112.470    0.550    0.215    2.757
  176.986  171.306  112.779    0.557    0.213    2.831
  177.236  171.096  111.606    0.559    0.227    2.917
  177.486  170.887  106.606    0.547    0.232    3.040
  177.736  171.306  103.767    0.533    0.212    3.150
  177.986  172.039   99.446    0.533    0.197    3.252
  178.236  173.715   93.520    0.538    0.203    3.402
  178.486  175.810   84.755    0.539    0.204    3.806
  178.736  176.438   74.570    0.527    0.179    4.572
  178.986  165.964   66.730    0.461    0.195    5.906
  179.236  158.213   58.582    0.454    0.194    8.536
  179.486  151.091   59.199    0.479    0.262   11.578
  179.736  147.948   60.804    0.496    0.284   13.321
  179.986  148.263   61.237    0.494    0.300   13.524
  180.236  148.053   60.866    0.488    0.308   12.670
  180.486  147.320   60.002    0.499    0.305   11.223
  180.736  147.111   60.620    0.491    0.308    9.996
  180.986  147.111   58.891    0.504    0.314    9.209
  181.236  147.215   61.422    0.489    0.325    9.023
  181.486  147.529   60.496    0.499    0.315    9.075
  181.736  147.425   58.398    0.485    0.305    9.457
  181.986  147.425   58.274    0.465    0.306   10.231
  182.236  147.529   59.015    0.467    0.307   11.006
  182.486  147.529   59.818    0.485    0.309   11.342
  182.736  151.091   60.805    0.495    0.321   10.487
  182.986  151.510   61.114    0.494    0.322    9.536
  183.236  149.101   60.991    0.500    0.316    8.399
  183.486  149.101   61.176    0.523    0.322    7.481
  183.736  149.939   61.547    0.520    0.323    7.413
  183.986  150.986   61.361    0.503    0.320    8.065
  184.236  151.719   59.757    0.483    0.321    9.159
  184.486  151.719   57.658    0.499    0.320   10.757
  184.736  151.510   58.090    0.497    0.331   12.285
  184.986  151.405   58.707    0.495    0.336   13.290
  185.236  151.510   58.090    0.483    0.327   14.351
  185.486  152.033   56.670    0.457    0.316   15.612
  185.736  152.033   57.411    0.453    0.320   17.079
  185.986  152.662   59.819    0.461    0.299   18.408
  186.236  153.186   58.955    0.469    0.295   19.655
  186.486  153.081   60.004    0.466    0.306   20.407
  186.736  152.557   61.733    0.458    0.316   20.756
  186.986  152.033   62.659    0.468    0.318   20.299
  187.236  152.767   62.844    0.477    0.326   19.052
  187.486  153.395   64.634    0.478    0.330   17.226
  187.736  154.338   69.819    0.468    0.319   14.319
  187.986  156.118   76.733    0.456    0.257   11.402
  188.236  156.956   83.585    0.474    0.207    8.894
  188.486  159.994   89.820    0.506    0.235    6.402
  188.736  164.812   90.252    0.573    0.260    5.051
  188.986  169.630   93.523    0.591    0.263    3.984
  189.236  172.249   95.746    0.578    0.255    3.263
  189.486  171.201   97.042    0.569    0.253    2.874
  189.736  170.887   98.956    0.565    0.260    2.764
  189.986  176.334   95.252    0.552    0.253    2.843
  190.236  163.241   88.462    0.537    0.233    2.940
  190.486  154.128   83.339    0.516    0.225    3.187
  190.736  153.919   80.314    0.500    0.233    3.743
  190.986  152.767   73.894    0.481    0.256    4.429
  191.236  148.682   68.771    0.458    0.272    5.300
  191.486  149.415   61.981    0.451    0.283    7.109
  191.736  149.205   58.771    0.453    0.299    9.934
  191.986  148.891   57.907    0.443    0.297   16.150
  192.236  148.682   59.821    0.430    0.300   15.736
  192.486  149.205   65.685    0.450    0.291   14.992
  192.736  150.253   68.772    0.458    0.287   13.530
  192.986  152.452   69.327    0.459    0.297   12.348
  193.236  153.500   68.834    0.474    0.268   11.764
  193.486  152.033   65.315    0.473    0.276   11.355
  193.736  151.091   64.574    0.461    0.266   11.357
  193.986  150.881   63.463    0.462    0.258   12.898
  194.236  150.567   61.550    0.465    0.260   13.670
  194.486  150.148   60.254    0.470    0.276   14.325
  194.736  150.253   64.760    0.458    0.302   14.680
  194.986  150.672   66.921    0.449    0.294   14.411
  195.236  151.405   66.489    0.448    0.300   14.041
  195.486  151.824   67.723    0.440    0.279   13.402
  195.736  151.405   73.279    0.441    0.261   12.720
  195.986  151.300   77.847    0.445    0.242   12.029
  196.236  151.091   77.970    0.456    0.254   11.332
  196.486  150.358   76.551    0.472    0.261   10.756
  196.736  149.415   77.415    0.479    0.260   10.191
  196.986  148.891   79.637    0.470    0.265   10.404
  197.236  149.205   82.168    0.454    0.283   11.403
  197.486  149.834   84.699    0.448    0.274   12.131
  197.736  152.452   89.144    0.447    0.276   12.431
  197.986  154.338   89.144    0.451    0.284   12.179
  198.236  152.662   90.502    0.461    0.265   10.549
  198.486  156.118   96.366    0.488    0.156    8.574
  198.736  163.660  105.379    0.522    0.192    6.917
  198.986  169.211  107.230    0.529    0.229    5.487
  199.236  159.889  105.873    0.513    0.208    4.771
  199.486  160.622  102.786    0.477    0.191    5.298
  199.736  166.278  101.058    0.471    0.195    5.763
  199.986  168.897  102.539    0.475    0.205    6.040
  200.236  170.154  102.107    0.487    0.209    6.497
  200.486  166.593  100.935    0.490    0.218    7.365
  200.736  158.004  101.182    0.480    0.204    8.028
  200.986  157.689  103.466    0.465    0.199    8.303
  201.236  159.889  106.120    0.469    0.208    8.686
  201.486  154.233  105.626    0.452    0.216    8.967
  201.736  152.243  103.034    0.460    0.199    9.224
  201.986  150.672  100.565    0.455    0.190    9.329
  202.236  148.158  100.873    0.431    0.191    9.278
  202.486  149.729  104.824    0.412    0.173    8.940
  202.736  151.405  105.256    0.414    0.182    8.613
  202.986  153.186  104.886    0.436    0.206    8.175
  203.236  154.966  104.454    0.432    0.207    7.630
  203.486  158.108  105.874    0.443    0.190    7.351
  203.736  159.994  108.590    0.459    0.179    6.874
  203.986  162.612  113.220    0.471    0.173    6.192
  204.236  163.974  116.430    0.490    0.183    5.413
  204.486  163.974  117.541    0.506    0.151    4.724
  204.736  162.089  125.442    0.519    0.153    4.360
  204.986  160.622  130.381    0.521    0.145    4.177
  205.236  160.832  129.023    0.519    0.164    4.313
  205.486  162.089  124.084    0.517    0.191    4.503
  205.736  160.308  123.529    0.520    0.162    4.428
  205.986  158.842  125.257    0.532    0.145    4.243
  206.236  164.602  130.690    0.534    0.143    3.982
  206.486  169.840  129.455    0.530    0.156    3.627
  206.736  165.859  126.184    0.542    0.161    3.280
  206.986  165.336  124.826    0.563    0.196    2.988
  207.236  169.002  123.283    0.571    0.210    2.878
  207.486  174.029  121.863    0.545    0.224    3.079
  207.736  164.917  119.270    0.496    0.242    3.897
  207.986  160.308  109.209    0.459    0.229    4.787
  208.236  162.193  107.172    0.465    0.222    6.174
  208.486  157.794  107.357    0.451    0.196    7.457
  208.736  160.936  108.715    0.467    0.190    7.903
  208.986  160.413  110.752    0.492    0.209    7.657
  209.236  157.061  115.814    0.476    0.234    6.757
  209.486  156.537  117.913    0.457    0.197    6.087
  209.736  161.460  117.666    0.487    0.181    5.713
  209.986  160.936  113.222    0.504    0.218    5.484
