~VERSION INFORMATION
 VERS.                 2.0:   CWLS LOG ASCII STANDARD -VERSION 2.0
 WRAP.                  NO:   ONE LINE PER DEPTH STEP
~WELL INFORMATION BLOCK
#MNEM.UNIT           DATA                    DESCRIPTION OF MNEMONIC
#---------    -------------------            -------------------------------
# Generated from Intellog Unique Number	CW_79_81/WELL/2487
WELL.         13-06-081-21W4                 : Well_name    - WELL
LOC .         AA/13-06-081-21W4/0            : Location     - LOCATION
UWI .         AA/13-06-081-21W4/0            : Uwi          - UNIQUE WELL ID
ENTR.         MAX                            : Entered      - ENTERED BY
SRVC.         SCHLUMBERGER                   : Scn          - SERVICE COMPANY
STRT.M        185                            : top_depth    - START DEPTH
STOP.M        434.75                         : bot_depth    - STOP DEPTH
STEP.M        0.25                           : increment    - STEP LENGTH
 NULL. -999.2500:NULL Value
~CURVE INFORMATION BLOCK
#MNEM UNIT       ERCB CURVE CODE    CURVE DESCRIPTION
#-----------   ------------------   ----------------------------------
DEPT.M        00 001 00 00         : DEPTH        - DEPTH
ILD .OHMM     00 120 00 00         : RESD         - DEEP RESISTIVITY (DIL)
NPHI.V/V      00 330 00 00         : PHIN         - NEUTRON POROSITY (SANDSTONE)
DPHI.V/V      00 890 00 00         : PHID         - DENSITY POROSITY (SANDSTONE)
GR  .API      00 310 00 00         : GR           - GAMMA RAY
CALI.MM       00 280 01 00         : CAL          - CALIPER
~PARAMETER INFORMATION
#MNEM.UNIT           DATA             DESCRIPTION OF MNEMONIC
#---------         -----------     ------------------------------
GL  .M        604.15               : gl           - GROUND LEVEL ELEVATION
EREF.M        608.75               : kb           - ELEVATION OF DEPTH REFERENCE
DATM.M        604.15               : datum        - DATUM ELEVATION
TDD .M        442                  : tdd          - TOTAL DEPTH DRILLER
RUN .         ONE                  : Run          - RUN NUMBER
ENG .         BILL                 : Engineer     - RECORDING ENGINEER
WIT .         JIM                  : Witness      - WITNESSED BY
MUD .         GEL                  : Mud_type     - MUD TYPE
MATR.         SANDSTONE            : Logunit      - NEUTRON MATRIX
TMAX.C        28.9                 : BHT          - MAXIMUM RECORDED TEMPERATURE
BHTD.M        442                  : BHTDEP       - MAXIMUM RECORDED TEMPERATURE
MATR.         1                    : LOGUNIT      - NEUTRON MATRIX
RMT .C        23.9                 : MDTP         - TEMPERATURE OF MUD
NEUT.         1                    : NEUTRON      - NEUTRON TYPE
RESI.         0                    : RESIST       - RESISTIVITY TYPE
RMC .OHMM     5.54                 : RMC          - RESISTIVITY OF MUD CAKE
RMF .OHMM     3.27                 : RMF          - RESISTIVITY OF MUD FILTRATE
SUFT.C        -20                  : SUFT         - SURFACE TEMPERATURE
~A  DEPTH     RESD     PHIN     PHID       GR      CAL
# ...
  404.000   40.057    0.368    0.288   49.184  151.683
  404.250   38.000    0.365    0.284   51.327  150.075
  404.500   35.846    0.368    0.274   50.961  149.960
  404.750   33.631    0.368    0.270   50.473  150.543
  405.000   31.387    0.365    0.275   51.121  151.125
  405.250   28.483    0.363    0.285   53.873  151.109
  405.500   25.573    0.364    0.287   58.098  151.092
  405.750   22.306    0.373    0.288   61.676  151.478
  406.000   20.061    0.380    0.287   66.150  152.160
  406.250   18.056    0.382    0.284   71.283  152.743
  406.500   15.702    0.377    0.276   76.774  153.328
  406.750   12.433    0.368    0.258   84.404  154.922
  407.000   10.829    0.362    0.239   95.105  156.982
  407.250   10.351    0.357    0.213  102.031  158.962
  407.500    9.782    0.363    0.177  103.217  163.331
  407.750    8.375    0.375    0.173  103.448  166.305
  408.000    6.962    0.383    0.191  105.113  168.283
  408.250    6.486    0.375    0.176  109.257  174.258
  408.500    6.849    0.371    0.180  114.479  176.320
  408.750    9.758    0.418    0.185   97.496  169.930
  409.000   13.299    0.421    0.185   78.896  163.240
  409.250   15.443    0.400    0.174   67.050  159.041
  409.500   14.699    0.367    0.152   65.547  157.531
  409.750   11.890    0.298    0.110   78.220  156.237
  410.000    8.803    0.216    0.023  103.367  155.808
  410.250    7.918    0.193    0.029  111.726  156.190
  410.500    7.252    0.299    0.055  116.859  157.771
  410.750    7.020    0.384    0.106  121.394  159.351
  411.000    7.227    0.398    0.160  125.927  159.934
  411.250    8.111    0.399    0.175  127.831  158.889
  411.500   10.210    0.434    0.185  121.844  159.704
  411.750   13.503    0.444    0.198  104.621  161.283
  412.000   17.037    0.426    0.204   85.782  160.770
  412.250   20.461    0.378    0.210   77.046  158.763
  412.500   22.975    0.324    0.218   78.889  155.961
  412.750   22.602    0.325    0.224   80.802  152.986
  413.000   20.922    0.340    0.228   82.038  152.141
  413.250   20.149    0.342    0.217   83.226  151.726
  413.500   20.298    0.339    0.207   85.489  151.612
  413.750   20.831    0.334    0.192   88.349  151.598
  414.000   21.342    0.329    0.176   91.927  151.684
  414.250   21.328    0.324    0.166   96.591  152.397
  414.500   20.515    0.327    0.165   94.838  154.042
  414.750   16.688    0.321    0.160   89.330  157.217
  415.000   11.521    0.302    0.148   87.050  158.897
  415.250    8.194    0.286    0.140   91.941  159.479
  415.500    6.383    0.307    0.137  102.394  159.563
  415.750    5.535    0.452    0.148  111.779  160.033
  416.000    5.449    0.594    0.183  114.509  160.433
  416.250    5.780    0.589    0.219  112.587  162.010
  416.500    6.368    0.573    0.218  112.639  162.694
  416.750    7.219    0.512    0.200  113.467  162.680
  417.000    8.471    0.431    0.185  114.116  162.267
  417.250   10.834    0.412    0.197  114.215  161.851
  417.500   11.808    0.396    0.185  115.951  161.834
  417.750   13.473    0.382    0.168  106.858  161.424
  418.000   17.905    0.385    0.161   78.395  161.311
  418.250   24.742    0.344    0.182   54.715  161.096
  418.500   31.833    0.261    0.233   45.380  160.882
  418.750   40.828    0.202    0.307   45.669  161.596
  419.000   45.208    0.196    0.323   47.154  163.241
  419.250   48.668    0.218    0.320   50.254  162.828
  419.500   51.568    0.232    0.305   49.050  159.727
  419.750   54.521    0.232    0.288   42.109  155.329
  420.000   57.468    0.219    0.277   32.953  151.726
  420.250   58.832    0.198    0.281   30.471  151.707
  420.500   57.026    0.182    0.288   32.455  151.692
  420.750   50.903    0.192    0.288   33.404  152.872
  421.000   40.242    0.227    0.282   35.428  154.057
  421.250   30.136    0.256    0.273   42.232  155.837
  421.500   24.338    0.268    0.261   54.478  158.611
  421.750   24.227    0.281    0.244   73.756  162.746
  422.000   24.604    0.304    0.218   93.672  163.561
  422.250   25.531    0.363    0.226   84.101  161.554
  422.500   26.495    0.376    0.244   73.093  161.640
  422.750   26.896    0.369    0.259   63.162  162.820
  423.000   26.282    0.357    0.269   57.233  164.099
  423.250   24.772    0.335    0.278   58.806  164.150
  423.500   25.754    0.317    0.260   59.546  162.474
  423.750   26.724    0.324    0.239   59.778  161.662
  424.000   27.127    0.346    0.234   54.090  161.150
  424.250   26.200    0.365    0.238   46.312  160.937
  424.500   23.663    0.367    0.249   41.938  161.024
  424.750   19.412    0.337    0.268   51.780  161.321
  425.000   16.908    0.294    0.260   69.955  160.892
  425.250   16.780    0.305    0.240   81.422  160.878
  425.500   16.653    0.324    0.216   87.332  160.563
  425.750   16.027    0.339    0.205   86.248  160.349
  426.000   14.836    0.350    0.215   80.560  160.334
  426.250   13.166    0.369    0.243   79.921  160.319
  426.500   12.186    0.360    0.255   97.099  160.305
  426.750   12.093    0.336    0.236  116.695  161.086
  427.000   12.002    0.334    0.208  131.632  162.765
  427.250   11.776    0.354    0.177  138.438  164.545
  427.500   11.473    0.374    0.154  139.564  165.728
  427.750   11.301    0.338    0.157  144.028  165.709
  428.000   11.299    0.319    0.152  147.256  165.695
  428.250   11.467    0.340    0.141  148.205  166.078
  428.500   11.832    0.351    0.145  147.180  166.164
  428.750   12.413    0.363    0.152  143.466  165.551
  429.000   13.131    0.381    0.156  134.731  164.540
  429.250   13.796    0.399    0.160  116.030  163.959
  429.500   14.120    0.383    0.145  111.038  163.114
  429.750   14.544    0.306    0.098  123.223  162.702
  430.000   15.397    0.275    0.095  131.822  162.588
  430.250   16.406    0.314    0.101  132.532  162.773
  430.500   17.508    0.377    0.092  125.651  163.157
  430.750   19.047    0.330    0.041  114.880  163.953
  431.000   19.193    0.263    0.004  108.894  166.015
  431.250   18.623    0.241    0.049  105.059  167.196
  431.500   17.969    0.252    0.070  102.300  166.285
  431.750   17.507    0.270    0.079  100.379  164.477
  432.000   17.278    0.283    0.082   99.235  162.967
  432.250   17.200    0.304    0.081   99.133  163.030
  432.500   17.466    0.311    0.086   99.872  163.433
  432.750   18.394    0.298    0.086   99.626  163.419
  433.000   19.374    0.288    0.092   97.764  163.404
  433.250   20.702    0.284    0.105   94.885  163.389
  433.500   22.708    0.285    0.111   91.948  163.075
  433.750   26.544    0.287    0.078   90.114  161.449
  434.000   30.828    0.285    0.061   89.356  159.359
  434.250   34.920    0.277    0.057   87.908  157.751
  434.500   38.567    0.264    0.049   87.903  156.141
  434.750   43.514    0.262    0.042   89.027  154.321
