~VERSION INFORMATION
 VERS.                 2.0:   CWLS LOG ASCII STANDARD -VERSION 2.0
 WRAP.                  NO:   ONE LINE PER DEPTH STEP
~WELL INFORMATION BLOCK
#MNEM.UNIT           DATA                    DESCRIPTION OF MNEMONIC
#---------    -------------------            -------------------------------
# Generated from Intellog Unique Number	CN_94_101/WELL/3228
WELL.         11-11-096-08W4                 : Well_name    - WELL
LOC .         AA/11-11-096-08W4/0            : Location     - LOCATION
UWI .         AA/11-11-096-08W400            : Uwi          - UNIQUE WELL ID
ENTR.         JOETTE                         : Entered      - ENTERED BY
SRVC.         SCHLUMBERGER                   : Scn          - SERVICE COMPANY
DATE.         07/20/92                       : Date         - LOG DATE
STRT.F        20                             : top_depth    - START DEPTH
STOP.F        360.387                        : bot_depth    - STOP DEPTH
STEP.F        0.8202                         : increment    - STEP LENGTH
 NULL. -999.2500:NULL Value
~CURVE INFORMATION BLOCK
#MNEM UNIT       ERCB CURVE CODE    CURVE DESCRIPTION
#-----------   ------------------   ----------------------------------
DEPT.F        00 001 00 00         : DEPTH        - DEPTH
GR  .API      00 310 00 00         : GR           - GAMMA RAY
DPHI.V/V      00 890 00 00         : PHID         - DENSITY POROSITY (SANDSTONE)
NPHI.V/V      00 330 00 00         : PHIN         - NEUTRON POROSITY (SANDSTONE)
ILD .OHMM     00 120 00 00         : RESD         - DEEP RESISTIVITY (DIL)
~PARAMETER INFORMATION
#MNEM.UNIT           DATA             DESCRIPTION OF MNEMONIC
#---------         -----------     ------------------------------
GL  .M        331.318              : gl           - GROUND LEVEL ELEVATION
EREF.M        332.842              : kb           - ELEVATION OF DEPTH REFERENCE
DATM.M        332.842              : datum        - DATUM ELEVATION
TDD .M        115.519              : tdd          - TOTAL DEPTH DRILLER
RUN .         ONE                  : Run          - RUN NUMBER
ENG .         BILL                 : Engineer     - RECORDING ENGINEER
WIT .         JIM                  : Witness      - WITNESSED BY
MUD .         GEL                  : Mud_type     - MUD TYPE
MATR.         SANDSTONE            : Logunit      - NEUTRON MATRIX
TMAX.F        63                   : BHT          - MAXIMUM RECORDED TEMPERATURE
BHTD.F        379                  : BHTDEP       - MAXIMUM RECORDED TEMPERATURE
RMT .F        42.8                 : MDTP         - TEMPERATURE OF MUD
MUDD.LB/G     1.05                 : MWT          - MUD DENSITY
NEUT.         1                    : NEUTRON      - NEUTRON TYPE
RESI.         0                    : RESIST       - RESISTIVITY TYPE
RM  .OHMM     7.5                  : RM           - RESISTIVITY OF MUD
RMC .OHMM     7.5                  : RMC          - RESISTIVITY OF MUD CAKE
RMF .OHMM     7.5                  : RMF          - RESISTIVITY OF MUD FILTRATE
SUFT.F        39.2                 : SUFT         - SURFACE TEMPERATURE
~A  DEPTH       GR     PHID     PHIN     RESD
   20.000   32.455    0.187    0.410  588.393
   20.820   34.462    0.160    0.430  734.174
   21.640   33.694    0.172    0.277  933.371
   22.461   33.739    0.158    0.270  988.006
   23.281   32.179    0.123    0.261  902.588
   24.101   31.418    0.112    0.242  739.022
   24.921   33.433    0.156    0.236  468.227
   25.741   37.023    0.184    0.226  412.519
   26.562   42.590    0.233    0.247  444.566
   27.382   46.971    0.287    0.288  413.799
   28.202   52.150    0.312    0.325  314.874
   29.022   54.560    0.313    0.349  192.321
   29.843   53.799    0.322    0.322  128.683
   30.663   53.822    0.314    0.330  126.592
   31.483   49.896    0.318    0.332  136.427
   32.303   47.157    0.321    0.342  131.774
   33.123   49.568    0.312    0.350  118.288
   33.944   49.598    0.304    0.343  110.017
   34.764   50.023    0.303    0.333  100.544
   35.584   53.225    0.303    0.341   97.078
   36.404   53.658    0.296    0.334  110.614
   37.224   53.292    0.290    0.335  121.411
   38.045   53.315    0.291    0.330  130.843
   38.865   55.330    0.301    0.325  135.988
   39.685   57.725    0.310    0.330  138.717
   40.505   60.927    0.303    0.333  144.172
   41.325   57.397    0.296    0.349  144.283
   42.146   53.867    0.278    0.357  129.467
   42.966   49.547    0.282    0.339   96.728
   43.786   44.830    0.278    0.323   95.120
   44.606   44.069    0.290    0.316   97.066
   45.426   47.659    0.291    0.327   92.018
   46.247   50.062    0.298    0.340   95.600
   47.067   43.763    0.290    0.341  160.031
   47.887   42.614    0.281    0.329  160.279
   48.707   43.450    0.279    0.323  143.764
   49.528   46.234    0.283    0.317  115.575
   50.348   47.450    0.294    0.307  134.022
   51.168   43.525    0.302    0.311  152.651
   51.988   41.182    0.291    0.326  150.113
   52.808   44.376    0.292    0.337  127.545
   53.629   43.622    0.305    0.339  108.286
   54.449   39.704    0.303    0.342   88.663
   55.269   37.757    0.294    0.347   81.029
   56.089   37.391    0.286    0.331   92.292
   56.910   37.421    0.280    0.315  123.913
   57.730   38.242    0.275    0.322  128.736
   58.550   40.653    0.271    0.330  113.419
   59.370   43.056    0.281    0.340  115.695
   60.190   43.877    0.293    0.333  115.874
   61.011   43.503    0.296    0.320   94.876
   61.831   43.138    0.298    0.316   70.912
   62.651   41.981    0.282    0.317  108.231
   63.471   39.645    0.255    0.303  125.506
   64.291   38.093    0.180    0.262  130.492
   65.112   36.146    0.141    0.198  159.806
   65.932   34.989    0.169    0.190  272.350
   66.752   39.765    0.216    0.288  333.660
   67.572   50.086    0.283    0.356   99.720
   68.392   54.870    0.302    0.349   50.694
   69.213   52.519    0.297    0.361   61.002
   70.033   53.347    0.302    0.357   56.802
   70.853   44.273    0.294    0.325   57.919
   71.673   38.370    0.290    0.302   73.634
   72.493   37.609    0.292    0.290   97.068
   73.314   39.243    0.289    0.296  114.730
   74.134   39.258    0.296    0.287  128.207
   74.954   40.079    0.289    0.284  165.941
   75.774   42.087    0.285    0.288  248.773
   76.594   44.885    0.276    0.295  283.244
   77.415   43.348    0.261    0.293  258.957
   78.235   41.788    0.255    0.288  228.147
   79.055   40.236    0.270    0.292  250.416
   79.875   41.057    0.286    0.303  349.028
   80.695   43.856    0.284    0.310  369.172
   81.516   47.057    0.274    0.311  383.541
   82.336   46.692    0.244    0.304  247.494
   83.156   43.170    0.259    0.305  214.174
   83.976   42.408    0.279    0.318  206.710
   84.797   42.438    0.276    0.330  175.633
   85.617   40.879    0.274    0.335  192.702
   86.437   35.371    0.287    0.340  219.403
   87.257   31.842    0.293    0.336  268.898
   88.077   31.476    0.284    0.315  323.452
   88.898   35.476    0.281    0.302  342.253
   89.718   39.058    0.276    0.307  229.093
   90.538   39.491    0.298    0.314  201.836
   91.358   37.141    0.287    0.321  209.692
   92.178   36.775    0.269    0.317  256.996
   92.999   39.581    0.274    0.311  287.296
   93.819   39.215    0.288    0.308  272.356
   94.639   36.081    0.304    0.310  235.597
   95.459   32.551    0.311    0.316  203.799
   96.279   30.208    0.303    0.312  196.849
   97.100   29.447    0.300    0.296  236.786
   97.920   28.701    0.301    0.303  411.003
   98.740   28.320    0.307    0.327  687.739
   99.560   26.768    0.305    0.339 1011.930
  100.381   28.791    0.304    0.322 1924.930
  101.201   32.373    0.307    0.299  909.422
  102.021   37.149    0.295    0.294  320.507
  102.841   42.328    0.292    0.301  243.886
  103.661   44.731    0.288    0.302  231.203
  104.482   43.970    0.296    0.311  258.562
  105.302   42.030    0.296    0.321  311.018
  106.122   42.851    0.289    0.306  264.158
  106.942   44.075    0.284    0.298  228.506
  107.762   42.523    0.277    0.308  260.269
  108.583   40.963    0.261    0.320  313.072
  109.403   41.784    0.258    0.326  307.985
  110.223   44.187    0.267    0.316  206.075
  111.043   39.866    0.280    0.303  206.394
  111.864   36.732    0.282    0.309  239.430
  112.684   37.956    0.286    0.306  277.645
  113.504   38.381    0.290    0.303  321.960
  114.324   38.023    0.290    0.292  353.660
  115.144   39.635    0.295    0.289  329.184
  115.965   38.874    0.300    0.299  300.724
  116.785   38.516    0.299    0.306  250.779
  117.605   33.792    0.301    0.304  212.995
  118.425   31.456    0.302    0.311  251.557
  119.245   31.479    0.302    0.319  413.295
  120.066   34.285    0.300    0.331  488.121
  120.886   35.897    0.300    0.353  407.210
  121.706   37.113    0.306    0.362  400.284
  122.526   39.912    0.302    0.369  299.062
  123.346   43.114    0.300    0.353  236.059
  124.167   41.158    0.304    0.341  155.142
  124.987   36.047    0.304    0.343  425.688
  125.807   32.524    0.310    0.341  725.481
  126.627   31.756    0.322    0.362  889.141
  127.448   35.748    0.315    0.366  573.530
  128.268   39.338    0.318    0.352  286.379
  129.088   40.159    0.328    0.345  225.960
  129.908   37.823    0.310    0.339  454.108
  130.728   39.831    0.294    0.326 1366.050
  131.549   43.025    0.287    0.321  669.463
  132.369   39.502    0.300    0.330  299.489
  133.189   39.129    0.308    0.319  166.850
  134.009   42.331    0.309    0.313  254.760
  134.829   44.338    0.310    0.321  250.524
  135.650   41.995    0.299    0.334  280.169
  136.470   44.003    0.291    0.334  330.893
  137.290   53.137    0.291    0.323  436.198
  138.110   55.152    0.295    0.311  370.477
  138.930   50.824    0.305    0.303  218.143
  139.751   44.928    0.302    0.317  332.948
  140.571   44.167    0.292    0.317  365.588
  141.391   46.563    0.275    0.331  366.155
  142.211   53.720    0.262    0.358  200.366
  143.031   60.473    0.248    0.356   86.377
  143.852   68.817    0.258    0.347   65.728
  144.672   62.914    0.262    0.361   51.861
  145.492   64.130    0.246    0.373   73.591
  146.312   72.466    0.256    0.384   43.331
  147.133   69.727    0.263    0.375   36.817
  147.953   63.825    0.256    0.358   44.269
  148.773   63.854    0.262    0.365   54.235
  149.593   52.414    0.274    0.372   45.227
  150.413   42.161    0.295    0.367   77.079
  151.234   43.773    0.307    0.361   89.416
  152.054   47.362    0.297    0.356  126.833
  152.874   52.146    0.301    0.355  127.030
  153.694   59.295    0.297    0.357  109.885
  154.514   51.019    0.306    0.359   68.383
  155.335   42.348    0.346    0.365   57.004
  156.155   38.027    0.349    0.370  127.869
  156.975   36.079    0.323    0.374  292.131
  157.795   38.878    0.288    0.383  555.702
  158.615   46.430    0.276    0.374  195.921
  159.436   52.393    0.270    0.366   82.896
  160.256   59.945    0.271    0.347   48.811
  161.076   47.706    0.281    0.335   83.186
  161.896   37.453    0.300    0.348  117.996
