~VERSION INFORMATION
 VERS.                 2.0:   CWLS LOG ASCII STANDARD -VERSION 2.0
 WRAP.                  NO:   ONE LINE PER DEPTH STEP
~WELL INFORMATION BLOCK
#MNEM.UNIT           DATA                    DESCRIPTION OF MNEMONIC
#---------    -------------------            -------------------------------
# Generated from Intellog Unique Number	CC_84_87/WELL/2328
NULL.         -999.25                        : NULL_VALUE
WELL.         TEXACO HANG ST OV              : Well_name    - WELL              
LOC .         11-15-085-12W4                 : Location     - LOCATION          
UWI .         AA/11-15-085-12W400            : Uwi          - UNIQUE WELL ID    
ENTR.         RJA                            : Entered      - ENTERED BY        
SRVC.         SCHLUMBERGER                   : Scn          - SERVICE COMPANY   
DATE.         07 FEB 81                      : Date         - LOG DATE
STRT.M        40                             : top_depth    - START DEPTH       
STOP.M        255.102                        : bot_depth    - STOP DEPTH        
STEP.M        0.3                            : increment    - STEP LENGTH       
~CURVE INFORMATION BLOCK
#MNEM UNIT       ERCB CURVE CODE    CURVE DESCRIPTION
#-----------   ------------------   ----------------------------------
DEPT.M        00 001 00 00         : DEPTH        - DEPTH                       
DPHI.V/V      00 890 00 00         : PHID         - DENSITY POROSITY (LIMESTONE)
NPHI.V/V      00 330 00 00         : PHIN         - NEUTRON POROSITY (LIMESTONE)
GR  .API      00 310 00 00         : GR           - GAMMA RAY                   
ILD .OHMM     00 120 00 00         : RESD         - DEEP RESISTIVITY (DIL)      
~PARAMETER INFORMATION       
#MNEM.UNIT           DATA             DESCRIPTION OF MNEMONIC
#---------         -----------     ------------------------------
GL  .M        531                  : gl           - GROUND LEVEL ELEVATION      
EREF.M        534                  : kb           - ELEVATION OF DEPTH REFERENCE
DATM.M        534                  : datum        - DATUM ELEVATION             
TDD .M        255                  : tdd          - TOTAL DEPTH DRILLER         
RUN .         ONE                  : Run          - RUN NUMBER                  
ENG .         BILL                 : Engineer     - RECORDING ENGINEER          
WIT .         JIM                  : Witness      - WITNESSED BY                
MUD .         GEL                  : Mud_type     - MUD TYPE                    
MATR.         LIMESTONE            : Logunit      - NEUTRON MATRIX              
TMAX.C        15                   : BHT          - MAXIMUM RECORDED TEMPERATURE
BHTD.M        255                  : BHTDEP       - MAXIMUM RECORDED TEMPERATURE
MATR.         1                    : LOGUNIT      - NEUTRON MATRIX              
RMT .C        25                   : MDTP         - TEMPERATURE OF MUD          
NEUT.         1                    : NEUTRON      - NEUTRON TYPE                
RESI.         0                    : RESIST       - RESISTIVITY TYPE            
RMC .OHMM     0.25                 : RMC          - RESISTIVITY OF MUD CAKE     
RMF .OHMM     0.25                 : RMF          - RESISTIVITY OF MUD FILTRATE 
SUFT.C        15                   : SUFT         - SURFACE TEMPERATURE         
~A  DEPTH     PHID     PHIN       GR     RESD
# ...
  196.601    0.187    0.427   99.058    8.355
  196.901    0.189    0.439  100.381    7.952
  197.201    0.199    0.458   98.334    7.848
  197.501    0.216    0.443   99.856    8.441
  197.801    0.211    0.424  101.878    8.771
  198.101    0.220    0.415   97.269    9.469
  198.401    0.252    0.423   92.029    9.783
  198.701    0.231    0.423   92.110   10.146
  199.001    0.222    0.432   93.506   10.130
  199.301    0.223    0.417   88.836    9.997
  199.601    0.229    0.421   84.598    9.735
  199.901    0.250    0.434   80.862    9.608
  200.201    0.239    0.448   79.001    9.465
  200.501    0.242    0.448   77.205    9.306
  200.801    0.266    0.428   77.292    9.324
  201.101    0.282    0.421   78.937    9.202
  201.401    0.253    0.413   81.394    9.400
  201.701    0.230    0.391   83.101    9.455
  202.001    0.248    0.403   84.998    9.584
  202.301    0.222    0.438   90.146    9.406
  202.601    0.228    0.464   95.111    9.195
  202.901    0.193    0.436   95.191    9.023
  203.201    0.213    0.424   89.515    9.128
  203.501    0.210    0.409   85.216   10.678
  203.801    0.194    0.296   82.608   11.396
  204.101    0.116    0.209   72.304   11.752
  204.401    0.052    0.290   66.314   11.576
  204.701    0.098    0.380   69.025   10.564
  205.001    0.225    0.442   79.556    8.451
  205.301    0.241    0.471   85.644    8.246
  205.601    0.236    0.465   87.100    8.343
  205.901    0.216    0.447   82.428    8.473
  206.201    0.225    0.443   81.945    8.507
  206.501    0.237    0.462   81.652    8.347
  206.801    0.248    0.492   76.422    7.575
  207.101    0.245    0.512   78.498    6.717
  207.401    0.249    0.518   83.963    5.626
  207.701    0.279    0.538   85.173    4.649
  208.001    0.284    0.531   84.813    3.827
  208.301    0.275    0.567   91.717    3.573
  208.601    0.290    0.584   96.501    3.561
  208.901    0.273    0.513   97.697    4.294
  209.201    0.250    0.489   99.592    5.401
  209.501    0.207    0.440   98.484    6.627
  209.801    0.203    0.416   91.624    7.992
  210.101    0.215    0.439   86.007    9.768
  210.401    0.168    0.444   86.841   10.150
  210.701    0.203    0.406   88.362   10.172
  211.001    0.206    0.402   88.383   10.193
  211.301    0.225    0.413   88.089   10.392
  211.601    0.216    0.422   85.668   10.394
  211.901    0.183    0.436   87.876   10.122
  212.201    0.172    0.438   92.092    9.783
  212.501    0.189    0.443   93.235    9.654
  212.801    0.195    0.447   92.500    9.419
  213.101    0.177    0.433   90.269    8.695
  213.401    0.162    0.446   88.907    7.815
  213.701    0.178    0.449   86.551    6.145
  214.001    0.232    0.540   84.004    4.326
  214.301    0.249    0.555   79.954    3.520
  214.601    0.340    0.487   71.402    3.448
  214.901    0.269    0.462   67.988    3.942
  215.201    0.243    0.432   69.248    5.112
  215.501    0.252    0.456   72.088    7.168
  215.801    0.242    0.474   71.041    8.321
  216.101    0.247    0.451   69.305    6.785
  216.401    0.259    0.456   71.517    5.781
  216.701    0.239    0.456   73.975    5.882
  217.001    0.259    0.445   73.120    6.399
  217.301    0.247    0.442   73.200    7.150
  217.602    0.206    0.449   76.156    7.530
  217.902    0.192    0.436   83.060    7.446
  218.202    0.174    0.469   87.645    6.992
  218.502    0.155    0.493   83.785    5.007
  218.802    0.276    0.528   83.616    3.655
  219.102    0.246    0.541   90.771    3.003
  219.402    0.255    0.546   93.917    2.947
  219.702    0.281    0.556   89.061    3.188
  220.002    0.266    0.526   84.885    3.337
  220.302    0.259    0.492   86.778    3.845
  220.602    0.231    0.476   91.990    4.329
  220.902    0.270    0.493   96.075    4.397
  221.202    0.250    0.519   97.225    4.356
  221.502    0.208    0.538   96.742    4.218
  221.802    0.212    0.547   94.317    4.060
  222.102    0.166    0.507   91.334    3.947
  222.402    0.126    0.456   95.671    3.851
  222.702    0.207    0.533   98.066    3.844
  223.002    0.244    0.515  101.591    3.964
  223.302    0.242    0.460   96.982    4.699
  223.602    0.247    0.414   83.797    6.590
  223.902    0.249    0.401   78.248    7.978
  224.202    0.239    0.408   74.697    9.068
  224.502    0.238    0.396   73.400    9.752
  224.802    0.222    0.409   72.294    9.461
  225.102    0.118    0.441   68.997    9.144
  225.402    0.222    0.464   74.646   10.158
  225.702    0.263    0.453   56.457   13.453
  226.002    0.254    0.428   40.018   19.302
  226.302    0.270    0.416   30.092   29.722
  226.602    0.303    0.407   30.985   43.719
  226.902    0.305    0.410   39.139   39.369
  227.202    0.279    0.422   44.225   29.346
  227.502    0.277    0.419   47.437   26.527
  227.802    0.284    0.424   50.275   24.818
  228.102    0.284    0.411   49.418   23.578
  228.402    0.272    0.395   47.680   22.872
  228.702    0.293    0.400   47.572   21.235
  229.002    0.264    0.401   52.226   19.527
  229.302    0.271    0.405   58.194   16.014
  229.602    0.247    0.394   61.907   13.033
  229.902    0.226    0.377   61.854   11.383
  230.202    0.240    0.377   58.556   10.568
  230.502    0.266    0.382   51.566   10.117
  230.802    0.242    0.396   49.020   11.811
  231.102    0.246    0.388   50.355   12.702
  231.402    0.270    0.394   52.313   14.194
  231.702    0.250    0.404   51.516   14.496
  232.002    0.257    0.389   50.347   15.092
  232.302    0.252    0.373   52.057   15.624
  232.602    0.265    0.360   56.081   16.206
  232.902    0.234    0.334   62.231   16.551
  233.202    0.209    0.341   69.382   17.903
  233.502    0.157    0.378   72.162   20.197
  233.802    0.195    0.405   72.172   22.609
  234.102    0.246    0.406   69.254   25.896
  234.402    0.266    0.385   62.513   26.859
  234.702    0.244    0.370   61.405   26.006
  235.002    0.230    0.378   62.487   24.516
  235.302    0.201    0.390   67.138   23.558
  235.602    0.233    0.373   72.483   23.698
  235.902    0.250    0.372   74.564   24.533
  236.202    0.234    0.376   74.891   25.203
  236.502    0.233    0.373   72.656   26.898
  236.802    0.255    0.372   68.734   26.697
  237.102    0.241    0.375   62.809   26.653
  237.402    0.273    0.406   66.210   28.555
  237.702    0.248    0.407   66.603   32.583
  238.002    0.261    0.407   63.055   38.187
  238.302    0.285    0.389   58.693   39.304
  238.602    0.297    0.381   55.332   36.772
  238.902    0.279    0.356   56.538   34.466
  239.202    0.272    0.391   63.004   32.494
  239.502    0.243    0.404   68.152   32.621
  239.802    0.233    0.395   66.732   33.901
  240.102    0.233    0.368   65.437   37.090
  240.402    0.227    0.370   64.331   53.523
  240.702    0.212    0.396   60.848   71.698
  241.002    0.284    0.407   57.860   75.504
  241.302    0.288    0.403   55.878   75.233
  241.602    0.297    0.363   68.976   61.578
  241.902    0.290    0.373   82.759   45.205
  242.202    0.294    0.395   84.843   40.708
  242.502    0.276    0.384   82.672   41.978
  242.802    0.278    0.386   79.749   54.749
  243.102    0.260    0.382   89.654   75.325
  243.402    0.291    0.387   97.813   97.121
  243.702    0.304    0.406  103.337  109.349
  244.002    0.315    0.429  103.978  111.479
  244.302    0.326    0.411   89.856   96.626
  244.602    0.311    0.375   81.053   76.417
  244.902    0.309    0.378   87.390   62.431
  245.202    0.312    0.389  103.929   53.905
  245.502    0.306    0.379  128.351   45.840
  245.802    0.309    0.374  173.422   35.777
  246.102    0.300    0.376  192.026   34.636
  246.402    0.296    0.367  212.945   30.601
  246.702    0.278    0.366  228.484   28.628
  247.002    0.266    0.374  100.914   26.682
  247.302    0.264    0.391   92.800   26.083
  247.602    0.257    0.407   88.627   26.896
  247.902    0.258    0.395   85.827   28.761
  248.202    0.267    0.385   83.721   31.229
  248.502    0.273    0.404   82.679   30.646
