~VERSION INFORMATION
 VERS.                 2.0:   CWLS LOG ASCII STANDARD -VERSION 2.0
 WRAP.                  NO:   ONE LINE PER DEPTH STEP
~WELL INFORMATION BLOCK
#MNEM.UNIT           DATA                    DESCRIPTION OF MNEMONIC
#---------    -------------------            -------------------------------
# Generated from Intellog Unique Number	nealta/WELL/2324
WELL.         TEXEX STEEPBANK                : Well_name    - WELL
LOC .         AA/12-36-093-07W4/0            : Location     - LOCATION
UWI .         AA/12-36-093-07W400            : Uwi          - UNIQUE WELL ID
ENTR.         MIKE                           : Entered      - ENTERED BY
SRVC.         WESTERN ATLAS                  : Scn          - SERVICE COMPANY
STRT.M        152.4                          : top_depth    - START DEPTH
STOP.M        256.15                         : bot_depth    - STOP DEPTH
STEP.M        0.25                           : increment    - STEP LENGTH
 NULL. -999.2500:NULL Value
~CURVE INFORMATION BLOCK
#MNEM UNIT       ERCB CURVE CODE    CURVE DESCRIPTION
#-----------   ------------------   ----------------------------------
DEPT.M        00 001 00 00         : DEPTH        - DEPTH
GR  .API      00 310 00 00         : GR           - GAMMA RAY
ILD .OHMM     00 120 00 00         : RESD         - DEEP RESISTIVITY (DIL)
~PARAMETER INFORMATION
#MNEM.UNIT           DATA             DESCRIPTION OF MNEMONIC
#---------         -----------     ------------------------------
GL  .M        535.351              : gl           - GROUND LEVEL ELEVATION
EREF.M        536.753              : kb           - ELEVATION OF DEPTH REFERENCE
DATM.M        536.753              : datum        - DATUM ELEVATION
TDD .M        256.337              : tdd          - TOTAL DEPTH DRILLER
RUN .         ONE                  : Run          - RUN NUMBER
ENG .         BILL                 : Engineer     - RECORDING ENGINEER
WIT .         JIM                  : Witness      - WITNESSED BY
MUD .         GEL                  : Mud_type     - MUD TYPE
MATR.         SANDSTONE            : Logunit      - NEUTRON MATRIX
TMAX.C        60                   : BHT          - MAXIMUM RECORDED TEMPERATURE
BHTD.M        45                   : BHTDEP       - MAXIMUM RECORDED TEMPERATURE
RMT .C        25                   : MDTP         - TEMPERATURE OF MUD
MUDD.KG/M     1100                 : MWT          - MUD DENSITY
NEUT.         1                    : NEUTRON      - NEUTRON TYPE
RESI.         0                    : RESIST       - RESISTIVITY TYPE
RM  .OHMM     0.25                 : RM           - RESISTIVITY OF MUD
RMC .OHMM     0.25                 : RMC          - RESISTIVITY OF MUD CAKE
RMF .OHMM     0.25                 : RMF          - RESISTIVITY OF MUD FILTRATE
SUFT.C        4                    : SUFT         - SURFACE TEMPERATURE
~A  DEPTH       GR     RESD
  152.400   84.259    8.614
  152.650   83.055    9.432
  152.900   81.850   10.326
  153.150   80.647   10.905
  153.400   80.641   10.915
  153.650   81.230   10.539
  153.900   83.011    9.992
  154.150   84.200    9.142
  154.400   82.997    9.315
  154.650   81.792   10.016
  154.900   81.784   10.967
  155.150   81.775   10.973
  155.400   82.365   11.385
  155.650   84.148   11.393
  155.900   85.932   11.402
  156.150   84.129   11.207
  156.400   84.121   11.016
  156.650   84.711   10.828
  156.900   88.287   10.644
  157.150   91.866   10.276
  157.400   94.246    9.235
  157.650   96.031    8.758
  157.900   96.023    8.013
  158.150   96.015    7.462
  158.400   95.407    7.076
  158.650   94.802    7.083
  158.900   94.196    7.217
  159.150   94.184    7.222
  159.400   94.775    6.489
  159.650   98.950    6.154
  159.900  104.321    5.531
  160.150  106.699    5.150
  160.400  106.691    4.713
  160.650  106.085    4.310
  160.900  106.077    3.873
  161.150  106.069    3.481
  161.400  106.658    3.300
  161.650  106.051    2.967
  161.900  104.250    3.077
  162.150   99.459    3.308
  162.400   97.063    3.494
  162.650   92.870    3.895
  162.900   89.871    4.113
  163.150   89.865    4.585
  163.400   91.050    5.297
  163.650   92.236    6.120
  163.900   93.423    7.328
  164.150   94.012    8.623
  164.400   94.604    8.784
  164.650   95.787    8.791
  164.900   93.988    9.119
  165.150   89.197    9.805
  165.400   87.396   10.933
  165.650   90.374   11.139
  165.900   93.354   11.146
  166.150   92.151   11.154
  166.400   90.945   10.771
  166.650   89.742   10.213
  166.900   88.539    9.511
  167.150   87.338    9.023
  167.400   87.925    8.869
  167.650   91.501    8.562
  167.900   93.285    8.265
  168.150   95.668    8.124
  168.400   97.453    7.987
  168.650   99.235    7.711
  168.900  101.617    7.580
  169.150  102.205    7.318
  169.400  102.794    6.941
  169.650  100.996    6.822
  169.900   99.792    6.827
  170.150  100.975    6.832
  170.400  101.567    6.838
  170.650  100.364    6.722
  170.900   98.559    6.608
  171.150   95.563    6.378
  171.400   96.750    5.836
  171.650   97.937    5.435
  171.900   97.929    5.062
  172.150   97.321    4.887
  172.400   97.911    4.718
  172.650   99.096    4.809
  172.900   99.088    4.812
  173.150   98.482    4.991
  173.400   96.681    5.086
  173.650   97.868    5.090
  173.900   99.054    5.093
  174.150   97.253    4.917
  174.400   94.255    4.834
  174.650   96.637    5.106
  174.900   99.619    5.111
  175.150  104.987    5.207
  175.400  108.565    5.211
  175.650  104.369    5.309
  175.900  104.365    5.313
  176.150  108.540    5.414
  176.400  106.140    5.717
  176.650  104.339    6.260
  176.900  102.538    6.612
  177.150  100.733    7.369
  177.400   98.335    7.924
  177.650   96.534    8.219
  177.900   94.733    8.375
  178.150   92.932    8.687
  178.400   94.117    8.851
  178.650   97.099    8.861
  178.900   92.308    8.868
  179.150   88.115    8.874
  179.400   90.498    8.879
  179.650   91.687    8.886
  179.900   89.286    8.894
  180.150   86.888    8.901
  180.400   85.087    8.441
  180.650   86.870    7.862
  180.900   87.459    6.694
  181.150   87.451    5.210
  181.400   85.650    4.129
  181.650   87.433    3.214
  181.900   89.218    2.737
  182.150   91.002    2.788
  182.400   91.592    2.945
  182.650   91.580    3.110
  182.900   90.974    3.529
  183.150   90.966    4.151
  183.400   91.553    4.712
  183.650   89.155    5.251
  183.900   85.564    5.448
  184.150   81.970    5.453
  184.400   83.155    5.759
  184.650   87.928    6.081
  184.900   91.505    6.658
  185.150   92.690    7.030
  185.400   92.680    6.913
  185.650   93.867    6.554
  185.900   94.459    6.215
  186.150   96.242    5.585
  186.400   95.636    5.110
  186.650   95.628    4.845
  186.900   96.217    4.677
  187.150   96.805    4.767
  187.400   96.199    4.770
  187.650   96.789    4.862
  187.900   98.571    4.864
  188.150   99.161    4.697
  188.400  102.736    4.375
  188.650  102.730    4.074
  188.900   99.135    3.933
  189.150   95.541    3.799
  189.400   93.738    3.940
  189.650   91.338    4.314
  189.900   89.539    4.721
  190.150   89.531    5.358
  190.400   90.718    5.974
  190.650   94.291    6.309
  190.900   91.297    6.543
  191.150   88.899    6.317
  191.400   85.901    6.323
  191.650   78.722    6.559
  191.900   79.909    6.804
  192.150   78.108    6.933
  192.400   75.110    7.191
  192.650   73.309    7.197
  192.900   72.106    7.334
  193.150   71.498    7.473
  193.400   71.490    7.753
  193.650   75.665    7.898
  193.900   78.047    8.193
  194.150   75.643    8.809
  194.400   75.041    9.304
  194.650   73.240   10.004
  194.900   72.633   11.769
  195.150   71.429   13.117
  195.400   70.226   15.429
  195.650   69.621   18.815
  195.900   70.206   20.235
  196.150   70.200   21.371
  196.400   70.789   22.164
  196.650   68.387   23.408
  196.900   65.990   24.282
  197.150   61.797   25.193
  197.400   61.192   26.134
  197.650   61.184   27.601
  197.900   62.371   28.631
  198.150   65.349   31.343
  198.400   62.948   33.702
  198.650   61.147   39.649
  198.900   57.556   45.816
  199.150   55.157   51.064
  199.400   52.755   53.920
  199.650   50.954   60.109
  199.900   49.155   65.815
  200.150   47.350   70.755
  200.400   47.940   74.726
  200.650   49.129   73.451
  200.900   51.511   73.507
  201.150   54.487   76.279
  201.400   55.672   77.705
  201.650   57.457   77.763
  201.900   58.646   77.821
  202.150   59.831   77.880
  202.400   62.813   73.866
  202.650   62.207   68.799
  202.900   60.402   64.080
  203.150   63.980   57.590
  203.400   66.364   53.640
  203.650   62.769   49.951
  203.900   63.954   48.226
  204.150   59.764   47.403
  204.400   51.988   48.298
  204.650   44.806   51.038
  204.900   39.418   52.933
  205.150   38.812   56.917
  205.400   39.999   60.111
  205.650   40.589   64.623
  205.900   41.178   74.673
  206.150   41.766   83.228
  206.400   42.953   91.112
  206.650   43.543   91.180
  206.900   47.118   88.031
  207.150   48.903   86.529
  207.400   51.285   86.627
  207.650   56.056   86.692
  207.900   59.038   88.328
  208.150   62.615   83.744
  208.400   67.386   76.612
  208.650   70.963   72.650
  208.900   67.967   71.424
  209.150   61.981   71.478
  209.400   61.971   72.841
  209.650   61.963   75.546
  209.900   60.164   76.972
  210.150   60.750   79.846
  210.400   60.144   82.826
  210.650   61.331   84.406
  210.900   61.923   82.966
  211.150   61.913   83.044
  211.400   63.098   81.628
  211.650   64.285   80.236
  211.900   63.679   77.464
  212.150   61.878   74.788
  212.400   59.480   72.205
  212.650   55.886   70.973
  212.900   54.679   69.776
  213.150   57.063   69.828
  213.400   60.041   69.880
  213.650   58.838   71.200
  213.900   57.037   73.844
  214.150   54.639   80.885
  214.400   45.665   83.889
  214.650   46.254   85.473
  214.900   47.441   88.664
  215.150   46.834   88.730
  215.400   44.435   85.649
  215.650   39.049   81.250
  215.900   37.843   79.879
  216.150   41.423   78.487
  216.400   46.791   77.163
  216.650   46.783   77.221
  216.900   45.580   77.264
  217.150   45.570   77.322
  217.400   45.562   77.409
  217.650   46.749   77.467
  217.900   47.338   78.930
  218.150   49.119   80.420
  218.400   50.906   80.480
  218.650   52.691   79.107
  218.900   55.073   77.758
  219.150   60.439   72.438
  219.400   64.016   67.457
  219.650   66.401   58.476
  219.900   68.183   50.691
  220.150   68.773   44.739
  220.400   67.570   38.790
  220.650   64.574   36.777
  220.900   55.600   35.506
  221.150   55.592   35.533
  221.400   53.193   34.312
  221.650   45.414   39.641
  221.900   45.404   41.873
  222.150   45.996   42.664
  222.400   45.986   43.469
  222.650   44.782   44.282
  222.900   42.978   46.776
  223.150   43.567   47.668
  223.400   44.157   49.447
  223.650   45.346   52.222
