~VERSION INFORMATION
 VERS.                 2.0:   CWLS LOG ASCII STANDARD -VERSION 2.0
 WRAP.                  NO:   ONE LINE PER DEPTH STEP
~WELL INFORMATION BLOCK
#MNEM.UNIT           DATA                    DESCRIPTION OF MNEMONIC
#---------    -------------------            -------------------------------
# Generated from Intellog Unique Number	CN_91_93/WELL/3639
WELL.         10-08-093-17W4                 : Well_name    - WELL
LOC .         AA/10-08-093-17W4/0            : Location     - LOCATION
UWI .         AA/10-08-093-17W400            : Uwi          - UNIQUE WELL ID
ENTR.         JOETTE                         : Entered      - ENTERED BY
SRVC.         SCHLUMBERGER                   : Scn          - SERVICE COMPANY
DATE.         03/20/92                       : Date         - LOG DATE
STRT.M        75                             : top_depth    - START DEPTH
STOP.M        255                            : bot_depth    - STOP DEPTH
STEP.M        0.25                           : increment    - STEP LENGTH
 NULL. -999.2500:NULL Value
~CURVE INFORMATION BLOCK
#MNEM UNIT       ERCB CURVE CODE    CURVE DESCRIPTION
#-----------   ------------------   ----------------------------------
DEPT.M        00 001 00 00         : DEPTH        - DEPTH
CALI.MM       00 280 01 00         : CAL          - CALIPER
GR  .API      00 310 00 00         : GR           - GAMMA RAY
NPHI.V/V      00 330 00 00         : PHIN         - NEUTRON POROSITY (SANDSTONE)
DPHI.V/V      00 890 00 00         : PHID         - DENSITY POROSITY (SANDSTONE)
ILD .OHMM     00 120 00 00         : RESD         - DEEP RESISTIVITY (DIL)
~PARAMETER INFORMATION
#MNEM.UNIT           DATA             DESCRIPTION OF MNEMONIC
#---------         -----------     ------------------------------
GL  .M        506.3                : gl           - GROUND LEVEL ELEVATION
EREF.M        509.95               : kb           - ELEVATION OF DEPTH REFERENCE
DATM.M        509.95               : datum        - DATUM ELEVATION
TDD .M        262                  : tdd          - TOTAL DEPTH DRILLER
RUN .         ONE                  : Run          - RUN NUMBER
ENG .         BILL                 : Engineer     - RECORDING ENGINEER
WIT .         JIM                  : Witness      - WITNESSED BY
MUD .         GEL                  : Mud_type     - MUD TYPE
MATR.         SANDSTONE            : Logunit      - NEUTRON MATRIX
TMAX.C        21                   : BHT          - MAXIMUM RECORDED TEMPERATURE
BHTD.M        262                  : BHTDEP       - MAXIMUM RECORDED TEMPERATURE
RMT .C        17.5                 : MDTP         - TEMPERATURE OF MUD
MUDD.KG/M     1130                 : MWT          - MUD DENSITY
NEUT.         1                    : NEUTRON      - NEUTRON TYPE
RESI.         0                    : RESIST       - RESISTIVITY TYPE
RM  .OHMM     9.4                  : RM           - RESISTIVITY OF MUD
RMC .OHMM     9.4                  : RMC          - RESISTIVITY OF MUD CAKE
RMF .OHMM     9.4                  : RMF          - RESISTIVITY OF MUD FILTRATE
SUFT.C        4                    : SUFT         - SURFACE TEMPERATURE
~A  DEPTH      CAL       GR     PHIN     PHID     RESD
   75.000  223.193  110.099    0.520    0.322    8.262
   75.250  223.166  104.132    0.521    0.320    7.926
   75.500  224.131  105.306    0.541    0.298    7.601
   75.750  224.104  108.856    0.578    0.286    7.138
   76.000  224.077  104.075    0.599    0.273    7.273
   76.250  223.058  105.844    0.510    0.229    7.717
   76.500  218.065  103.452    0.477    0.204    8.027
   76.750  206.142  101.650    0.452    0.245    8.015
   77.000  191.231  105.800    0.485    0.301    7.840
   77.250  204.098  109.354    0.482    0.297    7.666
   77.500  212.005  111.714    0.485    0.308    7.661
   77.750  220.898  112.293    0.500    0.296    7.497
   78.000  224.832  112.277    0.505    0.288    7.486
   78.250  226.795  110.471    0.509    0.268    7.628
   78.500  227.760  109.269    0.505    0.258    7.934
   78.750  226.734  107.471    0.494    0.270    7.608
   79.000  225.729  106.860    0.495    0.300    6.867
   79.250  223.718  109.819    0.514    0.312    6.319
   79.500  225.668  114.564    0.543    0.305    6.062
   79.750  227.631  115.143    0.543    0.303    5.932
   80.000  228.590  113.341    0.557    0.316    5.924
   80.250  229.554  110.341    0.573    0.295    6.159
   80.500  229.534  110.325    0.534    0.288    6.404
   80.750  229.507  110.313    0.515    0.284    6.656
   81.000  229.480  109.106    0.521    0.291    6.649
   81.250  228.454  106.115    0.528    0.298    6.001
   81.500  227.442  107.880    0.536    0.307    5.416
   81.750  224.426  110.839    0.526    0.300    5.298
   82.000  224.406  112.009    0.531    0.281    5.186
   82.250  225.364  114.377    0.571    0.278    5.179
   82.500  225.343  117.932    0.602    0.284    5.171
   82.750  224.311  113.754    0.607    0.271    5.265
   83.000  223.306  108.977    0.582    0.262    5.936
   83.250  219.311  105.390    0.536    0.259    6.562
   83.500  220.276  106.564    0.519    0.291    7.700
   83.750  224.216  110.110    0.538    0.299    7.692
   84.000  226.173  111.883    0.555    0.289    7.224
   84.250  227.138  114.247    0.573    0.286    6.655
   84.500  226.112  116.612    0.591    0.288    5.886
   84.750  225.086  118.381    0.558    0.268    5.530
   85.000  223.089  116.579    0.522    0.222    5.749
   85.250  220.080  112.992    0.511    0.203    5.976
   85.500  218.069  108.211    0.485    0.182    6.091
   85.750  215.066  105.814    0.482    0.202    6.207
   86.000  211.072  105.798    0.495    0.255    6.456
   86.250  208.069  107.571    0.520    0.308    6.845
   86.500  213.002  110.531    0.557    0.328    6.979
   86.750  211.976  113.490    0.585    0.328    6.830
   87.000  210.964  112.284    0.576    0.328    6.418
   87.250  212.920  111.077    0.586    0.330    5.791
   87.500  218.845  109.867    0.600    0.322    5.333
   87.750  219.803  104.494    0.585    0.284    5.114
   88.000  216.800   94.361    0.564    0.264    5.003
   88.250  213.797   79.467    0.524    0.264    5.202
   88.500  210.795   72.310    0.474    0.344    8.107
   88.750  207.792   66.938    0.453    0.360   11.420
   89.000  185.944   65.132    0.441    0.370   17.785
   89.250  178.968   65.116    0.458    0.375   20.885
   89.500  174.973   65.099    0.458    0.378   24.516
   89.750  173.961   63.298    0.449    0.377   27.075
   90.000  172.942   62.687    0.447    0.380   27.597
   90.250  171.923   63.856    0.443    0.376   28.120
   90.500  170.898   65.621    0.437    0.376   26.966
   90.750  171.862   67.399    0.428    0.375   25.333
   91.000  172.827   70.949    0.428    0.370   22.414
   91.250  173.799   73.908    0.434    0.355   18.271
   91.500  174.764   76.277    0.428    0.331   17.171
   91.750  180.688   78.641    0.415    0.231   16.809
   92.000  190.572   79.220    0.435    0.234   17.115
   92.250  186.578   76.819    0.451    0.277   17.451
   92.500  185.559   75.017    0.444    0.362   18.894
   92.750  186.524   72.621    0.430    0.368   20.456
   93.000  183.521   71.414    0.432    0.370   22.147
   93.250  175.553   69.613    0.450    0.362   24.450
   93.500  173.542   68.402    0.463    0.358   25.950
   93.750  172.523   67.791    0.459    0.369   26.982
   94.000  172.496   65.390    0.449    0.364   27.483
   94.250  172.462   65.382    0.440    0.366   27.463
   94.500  172.448   65.366    0.440    0.367   27.423
   94.750  170.431   66.532    0.439    0.362   26.825
   95.000  169.419   65.928    0.428    0.357   27.333
   95.250  167.401   64.722    0.406    0.338   27.861
   95.500  168.359   64.111    0.289    0.296   30.758
   95.750  171.308   63.495    0.163    0.165   34.005
   96.000  175.241   62.285    0.130    0.120   48.863
   96.250  173.231   60.491    0.192    0.165   52.902
   96.500  169.236   58.690    0.267    0.211   49.716
   96.750  168.231   57.479    0.382    0.304   41.384
   97.000  167.205   58.058    0.410    0.334   36.603
   97.250  168.170   60.422    0.422    0.367   31.691
   97.500  169.128   61.596    0.420    0.355   31.023
   97.750  169.114   61.580    0.410    0.363   30.369
   98.000  170.072   60.965    0.409    0.370   30.314
   98.250  170.039   60.953    0.414    0.368   30.259
   98.500  170.025   60.928    0.429    0.366   30.226
   98.750  170.983   60.916    0.433    0.363   30.171
   99.000  171.955   60.904    0.430    0.351   30.138
   99.250  171.921   60.884    0.433    0.353   30.094
   99.500  172.879   61.467    0.435    0.360   30.061
   99.750  172.859   62.041    0.436    0.365   30.006
  100.000  173.823   62.624    0.433    0.357   30.586
  100.250  173.790   63.794    0.421    0.343   30.530
  100.500  174.761   64.377    0.418    0.341   30.497
  100.750  177.696   64.361    0.432    0.351   31.075
  101.000  178.674   64.928    0.445    0.358   31.007
  101.250  180.631   66.102    0.449    0.368   30.962
  101.500  186.548   67.280    0.443    0.371   30.928
  101.750  188.512   67.862    0.448    0.364   30.254
  102.000  185.509   68.441    0.450    0.362   30.221
  102.250  180.523   68.425    0.438    0.360   30.177
  102.500  177.520   67.211    0.426    0.346   30.122
  102.750  176.495   66.607    0.411    0.327   30.704
  103.000  178.451   62.421    0.388    0.306   31.924
  103.250  179.423   60.620    0.305    0.280   41.462
  103.500  179.382   60.004    0.235    0.164   49.665
  103.750  178.363   59.996    0.240    0.121   51.639
  104.000  175.361   60.575    0.340    0.102   46.606
  104.250  170.381   62.340    0.387    0.189   41.206
  104.500  166.387   62.923    0.443    0.287   37.963
  104.750  166.360   64.089    0.464    0.329   35.664
  105.000  169.301   64.672    0.456    0.367   33.528
  105.250  171.265   66.441    0.456    0.377   32.141
  105.500  174.207   68.805    0.463    0.374   30.822
  105.750  175.178   69.384    0.476    0.372   30.777
  106.000  176.136   67.582    0.477    0.373   30.721
  106.250  176.109   66.971    0.446    0.375   30.677
  106.500  176.075   68.740    0.436    0.376   30.643
  106.750  176.055   73.485    0.430    0.367   30.599
  107.000  177.020   78.825    0.431    0.357   28.745
  107.250  183.942   84.164    0.439    0.347   25.434
  107.500  183.902   90.099    0.455    0.338   19.519
  107.750  183.875   96.629    0.472    0.330   12.242
  108.000  191.789  103.754    0.495    0.313   11.049
  108.250  212.591  110.879    0.507    0.298    9.194
  108.500  228.427  120.976    0.549    0.290    8.298
  108.750  232.374  123.344    0.544    0.276    7.336
  109.000  239.290  127.494    0.576    0.268    6.757
  109.250  245.214  132.238    0.593    0.264    6.098
  109.500  241.219  134.603    0.587    0.265    5.504
  109.750  237.225  135.777    0.590    0.273    5.174
  110.000  234.222  135.760    0.604    0.275    4.862
  110.250  232.205  134.550    0.607    0.264    4.566
  110.500  230.194  132.153    0.598    0.259    4.379
  110.750  230.160  130.352    0.591    0.269    4.285
  111.000  230.140  127.955    0.585    0.271    4.280
  111.250  230.120  127.939    0.559    0.256    4.274
