~VERSION INFORMATION
 VERS.                 2.0:   CWLS LOG ASCII STANDARD -VERSION 2.0
 WRAP.                  NO:   ONE LINE PER DEPTH STEP
~WELL INFORMATION BLOCK
#MNEM.UNIT           DATA                    DESCRIPTION OF MNEMONIC
#---------    -------------------            -------------------------------
# Generated from Intellog Unique Number	CC_88_90/WELL/1179
WELL.         10-11-090-07W4                 : Well_name    - WELL
LOC .         AA/10-11-090-07W4/0            : Location     - LOCATION
UWI .         AA/10-11-090-07W400            : Uwi          - UNIQUE WELL ID
ENTR.         DW                             : Entered      - ENTERED BY
SRVC.         SCHLUMBERGER                   : Scn          - SERVICE COMPANY
STRT.M        15                             : top_depth    - START DEPTH
STOP.M        194.75                         : bot_depth    - STOP DEPTH
STEP.M        0.25                           : increment    - STEP LENGTH
 NULL. -999.2500:NULL Value
~CURVE INFORMATION BLOCK
#MNEM UNIT       ERCB CURVE CODE    CURVE DESCRIPTION
#-----------   ------------------   ----------------------------------
DEPT.M        00 001 00 00         : DEPTH        - DEPTH
GR  .API      00 310 00 00         : GR           - GAMMA RAY
DPHI.V/V      00 890 00 00         : PHID         - DENSITY POROSITY (SANDSTONE)
NPHI.V/V      00 330 00 00         : PHIN         - NEUTRON POROSITY (SANDSTONE)
ILD .OHMM     00 120 00 00         : RESD         - DEEP RESISTIVITY (DIL)
~PARAMETER INFORMATION
#MNEM.UNIT           DATA             DESCRIPTION OF MNEMONIC
#---------         -----------     ------------------------------
GL  .M        460.1                : gl           - GROUND LEVEL ELEVATION
EREF.M        461.1                : kb           - ELEVATION OF DEPTH REFERENCE
DATM.M        461.1                : datum        - DATUM ELEVATION
TDD .M        200                  : tdd          - TOTAL DEPTH DRILLER
RUN .         ONE                  : Run          - RUN NUMBER
ENG .         BILL                 : Engineer     - RECORDING ENGINEER
WIT .         JIM                  : Witness      - WITNESSED BY
MUD .         GEL                  : Mud_type     - MUD TYPE
MATR.         SANDSTONE            : Logunit      - NEUTRON MATRIX
TMAX.C        10                   : BHT          - MAXIMUM RECORDED TEMPERATURE
BHTD.M        200                  : BHTDEP       - MAXIMUM RECORDED TEMPERATURE
MATR.         1                    : LOGUNIT      - NEUTRON MATRIX
RMT .C        25                   : MDTP         - TEMPERATURE OF MUD
NEUT.         1                    : NEUTRON      - NEUTRON TYPE
RESI.         0                    : RESIST       - RESISTIVITY TYPE
RMC .OHMM     0.25                 : RMC          - RESISTIVITY OF MUD CAKE
RMF .OHMM     0.25                 : RMF          - RESISTIVITY OF MUD FILTRATE
SUFT.C        4                    : SUFT         - SURFACE TEMPERATURE
~A  DEPTH       GR     PHID     PHIN     RESD
# ...
   58.500   39.625    0.338    0.350  101.520
   58.750   38.465    0.330    0.357   99.603
   59.000   38.236    0.314    0.360  100.625
   59.250   38.288    0.301    0.360  102.722
   59.500   39.831    0.293    0.359  104.328
   59.750   43.204    0.284    0.358  106.143
   60.000   45.605    0.273    0.357  107.860
   60.250   46.595    0.253    0.358  109.417
   60.500   48.092    0.245    0.361  113.538
   60.750   49.147    0.248    0.367  121.060
   61.000   52.405    0.253    0.369  130.213
   61.250   59.333    0.255    0.367  138.283
   61.500   64.079    0.260    0.371  136.915
   61.750   62.188    0.285    0.371  113.662
   62.000   59.607    0.332    0.372   87.093
   62.250   58.283    0.378    0.370   62.103
   62.500   57.173    0.404    0.387   44.438
   62.750   51.249    0.410    0.417   38.741
   63.000   40.749    0.414    0.420   38.044
   63.250   41.727    0.417    0.421   38.123
   63.500   44.911    0.409    0.420   39.422
   63.750   46.570    0.398    0.417   41.983
   64.000   48.115    0.395    0.412   45.584
   64.250   48.492    0.396    0.410   46.857
   64.500   46.116    0.397    0.413   43.222
   64.750   43.754    0.395    0.416   41.016
   65.000   44.141    0.381    0.420   37.850
   65.250   45.636    0.371    0.421   35.540
   65.500   47.401    0.369    0.420   34.017
   65.750   49.366    0.372    0.421   31.909
   66.000   50.236    0.382    0.425   32.288
   66.250   50.558    0.392    0.428   37.476
   66.500   53.006    0.382    0.429   38.619
   66.750   56.513    0.374    0.429   34.847
   67.000   54.117    0.378    0.429   31.174
   67.250   45.141    0.372    0.427   30.513
   67.500   41.270    0.351    0.425   31.060
   67.750   48.982    0.341    0.423   30.371
   68.000   53.137    0.340    0.411   32.544
   68.250   49.425    0.341    0.394   38.474
   68.500   43.012    0.341    0.393   44.126
   68.750   39.558    0.342    0.407   49.698
   69.000   39.756    0.348    0.411   54.965
   69.250   38.261    0.361    0.402   48.795
   69.500   36.626    0.369    0.391   46.916
   69.750   37.358    0.373    0.388   49.001
   70.000   40.380    0.378    0.393   49.826
   70.250   45.025    0.382    0.397   49.986
   70.500   49.504    0.385    0.402   57.169
   70.750   48.043    0.388    0.411   80.205
   71.000   41.020    0.382    0.424   90.450
   71.250   35.391    0.376    0.438   88.999
   71.500   34.510    0.381    0.449   88.688
   71.750   35.803    0.390    0.451   90.520
   72.000   36.151    0.395    0.444   90.365
   72.250   35.564    0.398    0.434   90.548
   72.500   35.678    0.354    0.430   88.279
   72.750   36.653    0.333    0.429   82.061
   73.000   34.317    0.351    0.427   70.789
   73.250   29.785    0.369    0.429   56.849
   73.500   29.680    0.383    0.440   47.438
   73.750   31.047    0.388    0.449   44.574
   74.000   34.266    0.413    0.451   37.616
   74.250   40.680    0.438    0.451   32.290
   74.500   47.645    0.444    0.454   31.147
   74.750   52.978    0.442    0.464   27.710
   75.000   59.365    0.419    0.478   20.385
   75.250   68.699    0.330    0.489   15.440
   75.500   76.385    0.301    0.491   13.010
   75.750   78.654    0.306    0.485   11.345
   76.000   80.479    0.305    0.475   10.020
   76.250   85.890    0.310    0.464    9.031
   76.500   92.181    0.314    0.458    8.209
   76.750   98.944    0.304    0.460    8.345
   77.000   98.890    0.303    0.463    8.664
   77.250   96.246    0.309    0.465    9.227
   77.500   92.726    0.315    0.469    9.908
   77.750   87.118    0.316    0.469   10.367
   78.000   82.572    0.309    0.464   10.495
   78.250   81.038    0.310    0.457    9.848
   78.500   83.541    0.316    0.455    8.976
   78.750   84.213    0.319    0.452    8.148
   79.000   87.089    0.314    0.448    7.204
   79.250   91.036    0.302    0.447    6.186
   79.500   86.689    0.291    0.453    5.550
   79.750   87.285    0.282    0.472    5.525
   80.000   95.900    0.281    0.483    5.677
   80.250  100.759    0.286    0.485    5.947
   80.500   98.069    0.291    0.484    6.341
   80.750   93.910    0.295    0.481    6.625
   81.000   92.051    0.298    0.477    6.597
   81.250   91.992    0.304    0.474    6.303
   81.500   92.071    0.308    0.469    5.519
   81.750   94.680    0.305    0.463    4.696
   82.000  102.577    0.291    0.460    4.136
   82.250  108.106    0.277    0.455    3.922
   82.500  102.419    0.278    0.451    4.131
   82.750   97.368    0.277    0.448    4.457
   83.000   95.460    0.274    0.449    5.045
   83.250   96.064    0.274    0.459    5.938
   83.500   96.671    0.275    0.467    6.591
   83.750   95.754    0.281    0.466    6.574
   84.000   94.688    0.293    0.456    6.212
   84.250   93.002    0.296    0.433    5.895
   84.500   86.903    0.297    0.422    5.262
   84.750   83.555    0.298    0.426    4.633
   85.000   89.093    0.300    0.438    4.196
   85.250   97.604    0.304    0.445    3.917
   85.500   98.810    0.308    0.439    3.952
   85.750   93.053    0.311    0.431    4.285
   86.000   84.125    0.314    0.424    4.797
   86.250   84.175    0.314    0.422    6.089
   86.500   86.792    0.313    0.425    7.060
   86.750   82.709    0.312    0.429    8.091
   87.000   77.984    0.311    0.434   11.402
   87.250   73.297    0.311    0.438   14.789
   87.500   74.416    0.311    0.447   16.837
   87.750   78.203    0.308    0.456   17.303
   88.000   80.143    0.305    0.453   17.169
   88.250   79.254    0.306    0.444   17.205
   88.500   76.483    0.310    0.443   17.204
   88.750   74.228    0.316    0.459   16.982
   89.000   73.315    0.320    0.467   15.214
   89.250   73.387    0.324    0.467   11.300
   89.500   74.454    0.326    0.464    5.854
   89.750   80.924    0.326    0.465    1.923
   90.000   91.832    0.323    0.476    1.721
   90.250   91.148    0.313    0.475    1.542
   90.500   90.206    0.306    0.472    1.722
   90.750   93.175    0.307    0.472    2.264
   91.000   95.043    0.309    0.478    2.713
   91.250   95.850    0.298    0.485    3.371
   91.500   99.682    0.272    0.484    4.420
   91.750  102.532    0.264    0.482    4.894
   92.000  106.541    0.261    0.460    6.087
   92.250   94.691    0.260    0.442    7.431
   92.500   83.959    0.263    0.431    7.623
   92.750   89.102    0.264    0.426    7.035
   93.000   91.961    0.260    0.436    6.914
   93.250   99.153    0.260    0.440    6.758
   93.500   98.470    0.263    0.445    6.525
   93.750   90.354    0.267    0.446    6.641
   94.000   83.476    0.271    0.441    7.147
   94.250   81.771    0.274    0.431    7.609
   94.500   82.359    0.276    0.416    7.753
   94.750   81.367    0.277    0.411    7.775
   95.000   80.016    0.277    0.412    7.548
   95.250   79.904    0.274    0.414    6.930
   95.500   82.284    0.272    0.416    6.327
   95.750   86.891    0.272    0.425    5.745
   96.000   91.464    0.275    0.442    4.875
   96.250   93.870    0.280    0.447    4.651
   96.500   92.918    0.285    0.445    4.815
   96.750   93.407    0.287    0.446    4.940
   97.000   96.128    0.287    0.450    5.301
   97.250   95.571    0.289    0.455    5.750
   97.500   90.602    0.292    0.457    5.715
   97.750   89.765    0.293    0.443    5.901
   98.000   90.626    0.292    0.437    5.836
   98.250   92.121    0.287    0.443    5.521
   98.500   93.107    0.285    0.444    5.170
   98.750   92.831    0.291    0.437    4.835
   99.000   92.838    0.297    0.437    4.489
   99.250   93.361    0.305    0.448    4.118
   99.500   93.497    0.311    0.460    4.202
   99.750   95.847    0.316    0.471    5.224
  100.000   99.812    0.319    0.479    6.228
  100.250  101.320    0.323    0.468    6.672
  100.500   97.593    0.322    0.438    7.189
  100.750   90.307    0.286    0.423    7.193
  101.000   89.599    0.276    0.415    7.331
  101.250   91.573    0.273    0.411    7.410
  101.500   90.081    0.263    0.407    7.450
  101.750   85.983    0.256    0.401    7.652
