~VERSION INFORMATION
 VERS.                 2.0:   CWLS LOG ASCII STANDARD -VERSION 2.0
 WRAP.                  NO:   ONE LINE PER DEPTH STEP
~WELL INFORMATION BLOCK
#MNEM.UNIT           DATA                    DESCRIPTION OF MNEMONIC
#---------    -------------------            -------------------------------
# Generated from Intellog Unique Number	CN_94_101/WELL/5023
WELL.         11-27-101-13W4                 : Well_name    - WELL
LOC .         AA/11-27-101-13W4/0            : Location     - LOCATION
UWI .         AA/11-27-101-13W400            : Uwi          - UNIQUE WELL ID
ENTR.         TIM                            : Entered      - ENTERED BY
SRVC.         SCHLUMBERGER                   : Scn          - SERVICE COMPANY
DATE.         08/13/92                       : Date         - LOG DATE
STRT.M        330                            : top_depth    - START DEPTH
STOP.M        550                            : bot_depth    - STOP DEPTH
STEP.M        0.25                           : increment    - STEP LENGTH
NULL. -999.2500:NULL Value
~CURVE INFORMATION BLOCK
#MNEM UNIT       ERCB CURVE CODE    CURVE DESCRIPTION
#-----------   ------------------   ----------------------------------
DEPT.M        00 001 00 00         : DEPTH        - DEPTH
ILD .OHMM     00 120 00 00         : RESD         - DEEP RESISTIVITY (DIL)
NPHI.V/V      00 330 00 00         : PHIN         - NEUTRON POROSITY (SANDSTONE)
DPHI.V/V      00 890 00 00         : PHID         - DENSITY POROSITY (SANDSTONE)
GR  .API      00 310 00 00         : GR           - GAMMA RAY
~PARAMETER INFORMATION
#MNEM.UNIT           DATA             DESCRIPTION OF MNEMONIC
#---------         -----------     ------------------------------
GL  .M        766.7                : gl           - GROUND LEVEL ELEVATION
EREF.M        770.1                : kb           - ELEVATION OF DEPTH REFERENCE
DATM.M        770.1                : datum        - DATUM ELEVATION
TDD .M        555                  : tdd          - TOTAL DEPTH DRILLER
RUN .         ONE                  : Run          - RUN NUMBER
ENG .         BILL                 : Engineer     - RECORDING ENGINEER
WIT .         JIM                  : Witness      - WITNESSED BY
MUD .         GEL                  : Mud_type     - MUD TYPE
MATR.         SANDSTONE            : Logunit      - NEUTRON MATRIX
TMAX.C        28.4                 : BHT          - MAXIMUM RECORDED TEMPERATURE
BHTD.M        555                  : BHTDEP       - MAXIMUM RECORDED TEMPERATURE
RMT .C        28.4                 : MDTP         - TEMPERATURE OF MUD
MUDD.KG/M     1090                 : MWT          - MUD DENSITY
NEUT.         1                    : NEUTRON      - NEUTRON TYPE
RESI.         0                    : RESIST       - RESISTIVITY TYPE
RM  .OHMM     10                   : RM           - RESISTIVITY OF MUD
RMC .OHMM     4.6                  : RMC          - RESISTIVITY OF MUD CAKE
RMF .OHMM     4.6                  : RMF          - RESISTIVITY OF MUD FILTRATE
SUFT.C        4                    : SUFT         - SURFACE TEMPERATURE
~A  DEPTH     RESD     PHIN     PHID       GR
  330.000    4.537    0.524    0.194  127.728
  330.250    4.347    0.556    0.190  127.754
  330.500    4.352    0.535    0.221  127.781
  330.750    4.358    0.528    0.229  127.808
  331.000    4.364    0.544    0.226  128.447
  331.250    4.372    0.550    0.229  129.714
  331.500    4.376    0.539    0.231  130.380
  331.750    4.387    0.568    0.231  131.007
  332.000    4.389    0.577    0.232  131.653
  332.250    4.198    0.565    0.237  132.306
  332.500    4.007    0.558    0.237  133.573
  332.750    4.013    0.561    0.229  134.839
  333.000    3.822    0.548    0.228  136.112
  333.250    3.828    0.551    0.229  136.746
  333.500    4.031    0.574    0.232  138.025
  333.750    4.039    0.585    0.236  138.045
  334.000    4.242    0.593    0.239  137.452
  334.250    4.248    0.595    0.240  136.852
  334.500    4.256    0.573    0.232  135.025
  334.750    4.259    0.552    0.235  135.045
  335.000    3.874    0.548    0.238  136.319
  335.250    3.878    0.552    0.243  136.958
  335.500    3.689    0.578    0.244  137.618
  335.750    3.692    0.590    0.245  137.638
  336.000    3.698    0.595    0.245  137.038
  336.250    3.706    0.586    0.246  135.838
  336.500    3.908    0.585    0.247  134.618
  336.750    4.115    0.576    0.247  134.018
  337.000    4.120    0.579    0.244  133.425
  337.250    4.123    0.557    0.245  132.832
  337.500    4.131    0.522    0.246  131.012
  337.750    3.940    0.506    0.246  131.025
  338.000    3.947    0.489    0.243  129.199
  338.250    3.952    0.509    0.241  127.979
  338.500    3.960    0.542    0.239  126.146
  338.750    3.769    0.545    0.238  123.693
  339.000    3.773    0.515    0.237  119.387
  339.250    3.781    0.480    0.238  116.307
  339.500    4.180    0.472    0.239  111.374
  339.750    4.779    0.478    0.242  105.822
  340.000    5.180    0.492    0.242  103.375
  340.250    5.381    0.508    0.242  108.355
  340.500    5.387    0.512    0.247  113.960
  340.750    5.196    0.512    0.254  118.953
  341.000    4.808    0.508    0.260  119.593
  341.250    4.420    0.489    0.263  121.486
  341.500    4.822    0.512    0.249  123.379
  341.750    5.025    0.534    0.243  123.399
  342.000    4.833    0.510    0.244  125.292
  342.250    4.250    0.504    0.246  125.931
  342.500    3.861    0.500    0.257  127.211
  342.750    3.670    0.514    0.262  127.851
  343.000    3.477    0.529    0.263  127.878
  343.250    3.090    0.549    0.261  126.658
  343.500    2.899    0.571    0.255  123.585
  343.750    3.101    0.578    0.240  120.512
  344.000    4.095    0.572    0.235  116.826
  344.250    4.888    0.541    0.238  114.366
  344.500    5.880    0.484    0.242  109.433
  344.750    6.675    0.515    0.252  109.460
  345.000    6.878    0.553    0.257  116.925
  345.250    6.886    0.576    0.259  121.911
  345.500    5.313    0.571    0.260  128.757
  345.750    4.333    0.522    0.263  127.550
  346.000    5.720    0.489    0.266  123.231
  346.250    7.108    0.486    0.270  116.438
  346.500    7.311    0.491    0.276  110.273
  346.750    6.135    0.502    0.285  112.779
  347.000    5.353    0.537    0.287  114.039
  347.250    4.375    0.581    0.285  115.305
  347.500    3.983    0.585    0.274  115.952
  347.750    3.398    0.584    0.261  117.231
  348.000    3.010    0.551    0.261  117.251
  348.250    3.410    0.515    0.261  117.891
  348.500    4.208    0.501    0.261  116.065
  348.750    4.410    0.550    0.258  112.992
  349.000    4.414    0.567    0.258  116.111
  349.250    4.225    0.545    0.265  119.244
  349.500    4.823    0.511    0.273  119.271
  349.750    5.422    0.502    0.283  119.917
  350.000    5.228    0.542    0.289  123.037
  350.250    4.644    0.560    0.294  125.543
  350.500    4.057    0.557    0.297  127.436
  350.750    3.471    0.527    0.292  125.603
  351.000    2.886    0.533    0.289  121.910
  351.250    2.695    0.558    0.283  118.830
  351.500    2.507    0.567    0.280  120.716
  351.750    2.510    0.573    0.278  123.849
  352.000    2.516    0.583    0.279  123.263
  352.250    2.524    0.578    0.279  122.656
  352.500    2.926    0.575    0.280  120.830
  352.750    3.325    0.573    0.276  118.996
  353.000    3.924    0.574    0.269  115.930
  353.250    4.126    0.578    0.256  114.090
  353.500    4.328    0.578    0.240  112.251
  353.750    4.728    0.549    0.221  110.417
  354.000    4.935    0.506    0.209  110.444
  354.250    4.740    0.499    0.219  109.231
  354.500    4.352    0.505    0.227  116.076
  354.750    4.161    0.514    0.235  124.168
  355.000    4.169    0.516    0.255  122.962
  355.250    3.978    0.525    0.260  121.129
  355.500    3.788    0.530    0.269  118.676
  355.750    3.791    0.551    0.269  116.223
  356.000    3.600    0.567    0.261  112.523
  356.250    4.001    0.579    0.231  109.450
  356.500    4.799    0.574    0.221  106.371
  356.750    4.999    0.486    0.213  105.164
  357.000    5.204    0.471    0.204  105.811
  357.250    5.013    0.504    0.207  108.317
  357.500    4.822    0.539    0.215  112.683
  357.750    4.434    0.572    0.224  118.908
  358.000    4.045    0.575    0.232  127.001
  358.250    3.657    0.577    0.238  130.120
  358.500    3.270    0.576    0.243  132.006
  358.750    3.276    0.578    0.243  133.279
  359.000    3.284    0.578    0.241  133.933
  359.250    3.484    0.575    0.240  133.946
  359.500    3.885    0.570    0.236  133.359
  359.750    4.287    0.545    0.236  132.146
  360.000    4.292    0.535    0.240  132.166
  360.250    4.498    0.506    0.242  131.586
  360.500    4.501    0.489    0.243  130.986
  360.750    4.704    0.494    0.245  130.393
  361.000    4.712    0.499    0.245  128.559
  361.250    4.915    0.499    0.251  127.346
  361.500    4.920    0.496    0.262  124.273
  361.750    5.519    0.490    0.271  121.827
  362.000    5.918    0.484    0.271  121.227
  362.250    6.319    0.475    0.264  117.541
  362.500    6.522    0.472    0.262  116.314
  362.750    6.528    0.470    0.263  113.241
  363.000    6.536    0.470    0.262  109.555
  363.250    5.950    0.473    0.257  108.335
  363.500    5.365    0.478    0.252  112.708
  363.750    4.781    0.482    0.245  119.547
  364.000    4.587    0.486    0.245  123.293
  364.250    4.199    0.502    0.246  124.573
  364.500    3.810    0.507    0.248  124.586
  364.750    3.422    0.514    0.250  126.479
  365.000    3.035    0.517    0.251  127.739
  365.250    2.844    0.526    0.254  129.632
  365.500    2.851    0.531    0.257  132.758
  365.750    3.055    0.536    0.261  134.657
  366.000    3.058    0.561    0.266  134.671
  366.250    3.262    0.566    0.270  134.704
  366.500    3.664    0.565    0.271  134.117
  366.750    3.668    0.560    0.271  133.511
  367.000    3.875    0.555    0.271  131.677
  367.250    4.077    0.546    0.271  129.224
  367.500    3.887    0.516    0.271  124.912
  367.750    3.499    0.491    0.267  122.465
  368.000    2.913    0.495    0.261  121.252
  368.250    2.918    0.497    0.251  120.652
  368.500    3.320    0.502    0.227  117.579
  368.750    3.522    0.490    0.221  113.266
  369.000    3.922    0.470    0.193  108.947
  369.250    4.520    0.460    0.189  105.254
  369.500    4.723    0.453    0.217  104.048
  369.750    4.731    0.479    0.246  106.547
  370.000    4.542    0.492    0.260  113.399
  370.250    4.349    0.504    0.266  117.772
  370.500    4.156    0.520    0.268  120.285
  370.750    3.770    0.533    0.265  120.931
  371.000    3.579    0.541    0.264  121.571
  371.250    3.388    0.536    0.264  121.604
  371.500    3.395    0.529    0.264  121.624
  371.750    3.400    0.530    0.267  121.651
  372.000    3.800    0.542    0.268  121.678
  372.250    4.004    0.542    0.268  121.698
  372.500    4.404    0.510    0.266  121.724
  372.750    4.412    0.506    0.262  121.757
  373.000    4.218    0.516    0.257  121.784
  373.250    4.028    0.525    0.254  121.811
