~VERSION INFORMATION
 VERS.                 2.0:   CWLS LOG ASCII STANDARD -VERSION 2.0
 WRAP.                  NO:   ONE LINE PER DEPTH STEP
~WELL INFORMATION BLOCK
#MNEM.UNIT           DATA                    DESCRIPTION OF MNEMONIC
#---------    -------------------            -------------------------------
# Generated from Intellog Unique Number	CN_94_101/WELL/5060
WELL.         16-21-098-13W4                 : Well_name    - WELL
LOC .         AA/16-21-098-13W4/0            : Location     - LOCATION
UWI .         AA/16-21-098-13W400            : Uwi          - UNIQUE WELL ID
ENTR.         JOETTE                         : Entered      - ENTERED BY
SRVC.         SCHLUMBERGER                   : Scn          - SERVICE COMPANY
DATE.         08/28/92                       : Date         - LOG DATE
STRT.M        350                            : top_depth    - START DEPTH
STOP.M        560                            : bot_depth    - STOP DEPTH
STEP.M        0.25                           : increment    - STEP LENGTH
 NULL. -999.2500:NULL Value
~CURVE INFORMATION BLOCK
#MNEM UNIT       ERCB CURVE CODE    CURVE DESCRIPTION
#-----------   ------------------   ----------------------------------
DEPT.M        00 001 00 00         : DEPTH        - DEPTH
DPHI.V/V      00 890 00 00         : PHID         - DENSITY POROSITY (SANDSTONE)
NPHI.V/V      00 330 00 00         : PHIN         - NEUTRON POROSITY (SANDSTONE)
GR  .API      00 310 00 00         : GR           - GAMMA RAY
ILD .OHMM     00 120 00 00         : RESD         - DEEP RESISTIVITY (DIL)
~PARAMETER INFORMATION
#MNEM.UNIT           DATA             DESCRIPTION OF MNEMONIC
#---------         -----------     ------------------------------
GL  .M        790.35               : gl           - GROUND LEVEL ELEVATION
EREF.M        793.6                : kb           - ELEVATION OF DEPTH REFERENCE
DATM.M        793.6                : datum        - DATUM ELEVATION
TDD .M        494                  : tdd          - TOTAL DEPTH DRILLER
RUN .         ONE                  : Run          - RUN NUMBER
ENG .         BILL                 : Engineer     - RECORDING ENGINEER
WIT .         JIM                  : Witness      - WITNESSED BY
MUD .         GEL                  : Mud_type     - MUD TYPE
MATR.         SANDSTONE            : Logunit      - NEUTRON MATRIX
TMAX.C        21                   : BHT          - MAXIMUM RECORDED TEMPERATURE
BHTD.M        494                  : BHTDEP       - MAXIMUM RECORDED TEMPERATURE
RMT .C        16                   : MDTP         - TEMPERATURE OF MUD
MUDD.KG/M     1090                 : MWT          - MUD DENSITY
NEUT.         1                    : NEUTRON      - NEUTRON TYPE
RESI.         0                    : RESIST       - RESISTIVITY TYPE
RM  .OHMM     4.6                  : RM           - RESISTIVITY OF MUD
RMC .OHMM     4.3                  : RMC          - RESISTIVITY OF MUD CAKE
RMF .OHMM     4                    : RMF          - RESISTIVITY OF MUD FILTRATE
SUFT.C        4                    : SUFT         - SURFACE TEMPERATURE
~A  DEPTH     PHID     PHIN       GR     RESD
  350.000    0.302    0.564  111.634    4.882
  350.250    0.309    0.561  109.235    4.792
  350.500    0.312    0.555  108.044    5.072
  350.750    0.307    0.548  107.466    5.268
  351.000    0.305    0.540  107.483    5.269
  351.250    0.305    0.534  106.292    5.172
  351.500    0.300    0.535  106.921    4.983
  351.750    0.287    0.541  108.764    4.712
  352.000    0.271    0.542  109.393    4.625
  352.250    0.265    0.539  112.443    4.895
  352.500    0.250    0.536  113.684    5.586
  352.750    0.253    0.542  112.493    6.023
  353.000    0.262    0.548  111.909    6.620
  353.250    0.264    0.553  107.073    6.746
  353.500    0.262    0.549  107.713    6.623
  353.750    0.261    0.547  109.545    6.262
  354.000    0.256    0.547  110.792    5.920
  354.250    0.251    0.542  112.027    5.391
  354.500    0.243    0.526  112.651    5.002
  354.750    0.210    0.480  113.280    4.641
  355.000    0.187    0.475  111.477    4.227
  355.250    0.184    0.466  105.433    4.149
  355.500    0.210    0.471  103.029    4.151
  355.750    0.235    0.497  100.625    4.231
  356.000    0.248    0.531  100.046    4.562
  356.250    0.265    0.535  101.883    5.507
  356.500    0.279    0.538  106.764    6.524
  356.750    0.275    0.539  107.995    8.490
  357.000    0.274    0.541  111.056    9.507
  357.250    0.281    0.547  111.685    8.821
  357.500    0.285    0.545  108.674    6.292
  357.750    0.282    0.531  105.658    5.948
  358.000    0.305    0.514  103.866    5.316
  358.250    0.316    0.523  102.675    4.840
  358.500    0.329    0.531  108.158    4.752
  358.750    0.339    0.541  113.033    5.222
  359.000    0.346    0.555  116.095    5.738
  359.250    0.341    0.561  116.718    6.425
  359.500    0.327    0.561  117.960    6.928
  359.750    0.302    0.561  119.190    7.196
  360.000    0.291    0.561  121.043    6.553
  360.250    0.294    0.562  121.661    6.081
  360.500    0.294    0.570  123.504    5.642
  360.750    0.300    0.567  118.673    5.137
  361.000    0.303    0.566  113.842    4.678
  361.250    0.302    0.557  109.624    4.260
  361.500    0.295    0.538  105.400    3.807
  361.750    0.291    0.533  103.597    3.532
  362.000    0.291    0.528  100.586    3.217
  362.250    0.287    0.522   98.789    3.158
  362.500    0.277    0.517   98.210    3.219
  362.750    0.265    0.510   97.019    3.343
  363.000    0.254    0.493   94.615    3.814
  363.250    0.255    0.471   92.812    4.434
  363.500    0.270    0.446   94.660    5.992
  363.750    0.294    0.440   96.503    6.837
  364.000    0.300    0.450   98.340    8.099
  364.250    0.312    0.452  100.182    9.962
  364.500    0.285    0.451   99.598   15.644
  364.750    0.263    0.437   96.587   32.568
  365.000    0.216    0.383   91.150   27.509
  365.250    0.211    0.318   83.893   24.128
  365.500    0.218    0.294   80.275   24.135
  365.750    0.244    0.301   79.691   24.145
  366.000    0.257    0.356   80.927   24.151
  366.250    0.285    0.403   84.589   25.083
  366.500    0.298    0.446   87.645   25.091
  366.750    0.301    0.471   92.521   25.097
  367.000    0.284    0.500   96.183   42.490
  367.250    0.267    0.507  105.311   64.265
  367.500    0.279    0.504  106.541   91.872
  367.750    0.290    0.496  107.782   17.583
  368.000    0.296    0.488  105.979   16.625
  368.250    0.298    0.483  104.182   20.449
  368.500    0.292    0.482  104.210   11.424
  368.750    0.264    0.479  103.626   11.427
  369.000    0.256    0.478  102.429   16.336
  369.250    0.241    0.480  105.485   23.355
  369.500    0.248    0.492  108.547   24.715
  369.750    0.256    0.504  107.962   25.672
  370.000    0.260    0.514  107.979   23.375
  370.250    0.265    0.524  108.007   15.177
  370.500    0.272    0.533  108.030   12.582
  370.750    0.273    0.538  108.665   11.456
  371.000    0.274    0.544  108.687    9.861
  371.250    0.279    0.545  108.698    9.149
  371.500    0.278    0.543  105.087    8.332
  371.750    0.278    0.534  102.683    7.732
  372.000    0.274    0.525  102.705    7.448
  372.250    0.274    0.518  105.160    7.450
  372.500    0.269    0.513  105.778    7.178
  372.750    0.258    0.511  104.587    7.180
  373.000    0.260    0.510  104.008    7.183
  373.250    0.266    0.510  104.025    7.184
  373.500    0.276    0.505  103.441    7.186
  373.750    0.285    0.495   99.824    7.606
  374.000    0.297    0.457   92.567    8.202
  374.250    0.309    0.449   87.129    9.012
  374.500    0.315    0.438   82.299   10.677
  374.750    0.309    0.427   78.075   16.455
  375.000    0.303    0.423   70.211   25.360
  375.250    0.302    0.424   67.200   47.164
  375.500    0.306    0.430   67.228   40.593
  375.750    0.307    0.433   65.436   25.387
  376.000    0.311    0.432   63.633   25.391
  376.250    0.307    0.445   64.869   24.462
  376.500    0.303    0.458   66.099   23.568
  376.750    0.305    0.469   69.166   22.707
  377.000    0.303    0.465   69.784   22.290
  377.250    0.295    0.439   69.812   22.298
  377.500    0.281    0.432   68.621   22.304
  377.750    0.270    0.409   67.430   22.311
  378.000    0.257    0.406   63.819   21.902
  378.250    0.302    0.405   62.016   19.944
  378.500    0.321    0.421   60.825   16.532
  378.750    0.336    0.429   63.280   15.341
  379.000    0.351    0.438   65.111   13.203
  379.250    0.349    0.455   68.773   13.714
  379.500    0.339    0.461   73.654   13.213
  379.750    0.327    0.455   74.278   12.258
  380.000    0.329    0.450   73.699   17.524
  380.250    0.324    0.445   73.115   14.527
  380.500    0.320    0.438   72.525   12.503
  380.750    0.316    0.430   68.908   18.558
  381.000    0.317    0.428   66.504   19.277
  381.250    0.315    0.433   65.920   17.227
  381.500    0.313    0.443   68.380   17.233
  381.750    0.313    0.451   70.217   17.236
  382.000    0.297    0.446   72.666   15.697
  382.250    0.286    0.440   73.295   16.926
  382.500    0.264    0.433   73.318   15.128
  382.750    0.262    0.426   72.734   15.418
  383.000    0.263    0.421   73.964   14.577
  383.250    0.289    0.435   75.200   14.045
  383.500    0.296    0.448   75.834   16.327
  383.750    0.307    0.455   78.283   20.464
  384.000    0.307    0.453   80.733   18.988
  384.250    0.304    0.446   81.356   12.800
  384.500    0.298    0.445   82.592   19.728
  384.750    0.287    0.479   85.041   21.276
  385.000    0.280    0.505   87.496   13.056
  385.250    0.277    0.520   89.332   12.115
  385.500    0.275    0.530   91.793   13.065
  385.750    0.267    0.526   94.848   13.569
  386.000    0.266    0.502   99.112   12.829
  386.250    0.270    0.499  103.381   13.578
  386.500    0.270    0.493  102.797   12.837
  386.750    0.270    0.475   99.791   11.048
  387.000    0.272    0.470   98.601    8.988
  387.250    0.282    0.465   99.842    7.450
  387.500    0.282    0.463  101.067    6.176
  387.750    0.281    0.469  101.696    5.731
  388.000    0.274    0.481  101.718    5.953
  388.250    0.272    0.495  104.173    6.419
  388.500    0.274    0.509  106.616    7.604
  388.750    0.278    0.510  109.066    8.514
  389.000    0.284    0.507  110.908    7.901
  389.250    0.290    0.517  112.149    7.470
  389.500    0.288    0.532  111.565    6.801
  389.750    0.293    0.547  114.621    6.311
  390.000    0.293    0.558  116.458    5.856
  390.250    0.287    0.558  117.087    5.537
  390.500    0.278    0.553  117.115    5.334
  390.750    0.278    0.553  116.525    5.043
  391.000    0.277    0.556  112.913    4.680
  391.250    0.262    0.558  109.903    4.594
  391.500    0.232    0.558  109.319    4.596
  391.750    0.236    0.558  111.161    4.597
  392.000    0.246    0.560  114.211    4.774
  392.250    0.254    0.563  117.873    4.866
  392.500    0.265    0.561  121.541    4.868
  392.750    0.274    0.559  125.204    4.603
  393.000    0.273    0.559  126.434    4.271
  393.250    0.279    0.555  128.288    3.889
