~VERSION INFORMATION
 VERS.                 2.0:   CWLS LOG ASCII STANDARD -VERSION 2.0
 WRAP.                  NO:   ONE LINE PER DEPTH STEP
~WELL INFORMATION BLOCK
#MNEM.UNIT           DATA                    DESCRIPTION OF MNEMONIC
#---------    -------------------            -------------------------------
# Generated from Intellog Unique Number	CW_82_90/WELL/1035
WELL.         14-17-082-21W4                 : Well_name    - WELL
LOC .         AA/14-17-082-21W4/0            : Location     - LOCATION
UWI .         AA/14-17-082-21W4/0            : Uwi          - UNIQUE WELL ID
ENTR.         JAYE                           : Entered      - ENTERED BY
SRVC.         SCHLUMBERGER                   : Scn          - SERVICE COMPANY
DATE.         1FEB 82                        : Date         - LOG DATE
STRT.M        220                            : top_depth    - START DEPTH
STOP.M        445                            : bot_depth    - STOP DEPTH
STEP.M        0.25                           : increment    - STEP LENGTH
 NULL. -999.2500:NULL Value
~CURVE INFORMATION BLOCK
#MNEM UNIT       ERCB CURVE CODE    CURVE DESCRIPTION
#-----------   ------------------   ----------------------------------
DEPT.M        00 001 00 00         : DEPTH        - DEPTH
CALI.MM       00 280 01 00         : CAL          - CALIPER
GR  .API      00 310 00 00         : GR           - GAMMA RAY
NPHI.V/V      00 330 00 00         : PHIN         - NEUTRON POROSITY (SANDSTONE)
DPHI.V/V      00 890 00 00         : PHID         - DENSITY POROSITY (SANDSTONE)
ILD .OHMM     00 120 00 00         : RESD         - DEEP RESISTIVITY (DIL)
~PARAMETER INFORMATION
#MNEM.UNIT           DATA             DESCRIPTION OF MNEMONIC
#---------         -----------     ------------------------------
GL  .M        619.5                : gl           - GROUND LEVEL ELEVATION
EREF.M        623.9                : kb           - ELEVATION OF DEPTH REFERENCE
DATM.M        619.5                : datum        - DATUM ELEVATION
TDD .M        453.5                : tdd          - TOTAL DEPTH DRILLER
RUN .         ONE                  : Run          - RUN NUMBER
ENG .         VANDENBRINK          : Engineer     - RECORDING ENGINEER
WIT .         WALKER               : Witness      - WITNESSED BY
BASE.         EDMONTON             : Branch       - HOME BASE OF LOGGING UNIT
MUD .         GEL CHEM             : Mud_type     - MUD TYPE
MATR.         SANDSTONE            : Logunit      - NEUTRON MATRIX
TMAX.C        22.2                 : BHT          - MAXIMUM RECORDED TEMPERATURE
BHTD.M        453.5                : BHTDEP       - MAXIMUM RECORDED TEMPERATURE
RMT .C        20.5                 : MDTP         - TEMPERATURE OF MUD
MUDD.KG/M     1070                 : MWT          - MUD DENSITY
NEUT.         1                    : NEUTRON      - NEUTRON TYPE
RESI.         0                    : RESIST       - RESISTIVITY TYPE
RM  .OHMM     4.89                 : RM           - RESISTIVITY OF MUD
RMC .OHMM     0.25                 : RMC          - RESISTIVITY OF MUD CAKE
RMF .OHMM     4.77                 : RMF          - RESISTIVITY OF MUD FILTRATE
SUFT.C        4                    : SUFT         - SURFACE TEMPERATURE
~A  DEPTH      CAL       GR     PHIN     PHID     RESD
# ...
  329.500  160.347   77.909    0.441    0.276    8.707
  329.750  160.534   76.388    0.447    0.259    9.797
  330.000  160.597   76.739    0.432    0.258    8.629
  330.250  160.979   77.414    0.415    0.261    8.477
  330.500  161.058   79.212    0.426    0.259    8.470
  330.750  161.343   80.260    0.443    0.252    8.527
  331.000  161.306   79.677    0.443    0.230    8.521
  331.250  160.954   79.910    0.453    0.227    8.628
  331.500  160.918   83.274    0.463    0.232    8.557
  331.750  161.201   84.758    0.449    0.241    8.486
  332.000  161.272   88.124    0.434    0.241    7.377
  332.250  161.867   85.850    0.441    0.249    6.784
  332.500  162.566   80.695    0.475    0.271    5.766
  332.750  162.850   74.850    0.488    0.266    5.213
  333.000  163.237   84.228    0.478    0.250    5.966
  333.250  163.417   93.107    0.455    0.248    6.687
  333.500  163.906   94.403    0.459    0.246    6.364
  333.750  163.873   96.828    0.466    0.242    6.042
  334.000  163.731  102.386    0.474    0.247    4.629
  334.250  163.487  105.813    0.531    0.259    3.574
  334.500  163.351  103.288    0.573    0.267    2.986
  334.750  162.992   93.747    0.568    0.288    2.486
  335.000  162.960   81.073    0.540    0.302    3.114
  335.250  162.821   76.479    0.475    0.289    4.577
  335.500  162.578   75.210    0.452    0.278    6.043
  335.750  162.438   71.556    0.467    0.275    6.940
  336.000  162.293   75.736    0.488    0.258    6.780
  336.250  162.293   80.978    0.465    0.236    7.700
  336.500  162.537   81.714    0.385    0.242    9.030
  336.750  162.511   81.758    0.423    0.271    9.370
  337.000  162.579   84.056    0.450    0.262    9.345
  337.250  162.734   83.474    0.462    0.259    9.059
  337.500  162.721   82.016    0.464    0.255    8.238
  337.750  163.318   85.379    0.478    0.254    7.450
  338.000  164.647   87.805    0.468    0.254    7.022
  338.250  167.459   88.097    0.472    0.250    6.925
  338.500  167.459   88.520    0.491    0.246    6.766
  338.750  170.756   88.314    0.509    0.241    5.936
  339.000  167.669   84.911    0.502    0.247    6.171
  339.250  166.355   84.893    0.490    0.241    6.686
  339.500  167.704   87.317    0.477    0.241    7.110
  339.750  170.616   89.931    0.461    0.237    7.265
  340.000  172.791   93.044    0.475    0.234    7.140
  340.250  172.761   94.906    0.486    0.234    7.053
  340.500  171.886   95.011    0.494    0.237    6.863
  340.750  170.800   92.049    0.479    0.231    6.781
  341.000  170.339   88.898    0.461    0.220    7.022
  341.250  171.883   86.812    0.454    0.213    7.017
  341.500  174.796   89.485    0.471    0.229    6.919
  341.750  177.182   92.101    0.474    0.249    6.811
  342.000  178.311   91.518    0.476    0.242    6.667
  342.250  178.803   94.505    0.492    0.237    6.574
  342.500  177.715   95.677    0.510    0.244    6.149
  342.750  175.564   94.532    0.494    0.252    5.731
  343.000  173.852   91.882    0.480    0.253    6.070
  343.250  171.607   89.985    0.465    0.252    6.590
  343.500  169.471   91.151    0.439    0.244    7.020
  343.750  167.113   92.639    0.423    0.236    7.311
  344.000  165.823   93.186    0.443    0.236    7.570
  344.250  164.310   86.590    0.471    0.255    7.522
  344.500  163.650   78.300    0.514    0.273    6.576
  344.750  162.875   70.890    0.471    0.245    5.525
  345.000  162.527   62.727    0.420    0.156    6.817
  345.250  162.161   57.884    0.266    0.075    9.632
  345.500  162.132   60.310    0.247    0.098   14.673
  345.750  162.205   67.367    0.309    0.164   18.276
  346.000  162.390   66.410    0.484    0.213   17.487
  346.250  162.770   56.808    0.430    0.244   18.147
  346.500  162.846   45.136    0.371    0.057   21.276
  346.750  163.229   43.546    0.275   -0.019   27.618
  347.000  163.408   43.784    0.134   -0.018   39.535
  347.250  163.477   55.230    0.171    0.015   51.225
  347.500  163.755   62.605    0.212    0.031   54.981
  347.750  163.755   70.669    0.279    0.049   40.803
  348.000  164.608   80.232    0.326    0.101   32.403
  348.250  164.805   80.212    0.420    0.183   23.117
  348.500  165.090   76.185    0.417    0.239   16.644
  348.750  165.373   77.922    0.422    0.231   11.697
  349.000  165.948   84.419    0.448    0.221   10.598
  349.250  165.939   84.591    0.460    0.232   10.690
  349.500  166.008   84.132    0.449    0.225   11.029
  349.750  165.859   84.990    0.414    0.218   11.230
  350.000  166.146   85.037    0.384    0.227   11.262
  350.250  165.798   86.144    0.396    0.229   11.275
  350.500  165.798   86.503    0.429    0.216   11.502
  350.750  163.182   85.733    0.424    0.200   11.558
  351.000  162.952   87.844    0.414    0.201   11.250
  351.250  162.708   91.335    0.416    0.197   11.112
  351.500  163.184   93.822    0.425    0.190   10.938
  351.750  164.224   93.678    0.422    0.183   10.790
  352.000  166.914   89.961    0.410    0.190   10.777
  352.250  167.312   86.122    0.421    0.194   10.611
  352.500  166.327   88.171    0.435    0.194   10.540
  352.750  165.763   88.527    0.435    0.194   10.356
  353.000  165.525   89.262    0.419    0.195   10.213
  353.250  165.385   92.251    0.423    0.198   10.147
  353.500  165.246   96.243    0.440    0.209   10.044
  353.750  165.419   97.164    0.444    0.218    9.903
  354.000  165.703   93.199    0.446    0.220    9.496
  354.250  166.089   90.737    0.468    0.211    9.224
  354.500  166.465   88.895    0.453    0.201    9.096
  354.750  166.848   88.880    0.435    0.205    8.985
  355.000  167.143   89.925    0.429    0.221    9.063
  355.250  167.414   90.725    0.427    0.227    9.124
  355.500  167.695   92.774    0.422    0.225    9.102
  355.750  167.874   94.382    0.418    0.223    8.891
  356.000  168.056   93.922    0.479    0.223    8.570
  356.250  168.443   88.082    0.485    0.236    8.549
  356.500  168.408   86.495    0.476    0.231    9.071
  356.750  167.529   87.602    0.460    0.225    9.700
  357.000  167.073   87.336    0.443    0.234    9.877
  357.250  167.351   87.570    0.432    0.237    9.906
  357.500  167.950   91.498    0.434    0.232    9.806
  357.750  169.078   96.489    0.443    0.225    9.578
  358.000  170.723   98.728    0.442    0.230    8.896
  358.250  172.682   98.773    0.446    0.234    8.574
  358.500  174.447   97.439    0.465    0.225    7.932
  358.750  181.148   96.355    0.490    0.210    7.462
  359.000  185.213   93.825    0.496    0.212    7.047
  359.250  183.185   92.182    0.498    0.212    6.717
  359.500  172.940   88.593    0.496    0.228    6.699
  359.750  167.851   81.245    0.478    0.224    7.163
  360.000  165.188   77.839    0.462    0.213    7.939
  360.250  162.730   82.459    0.454    0.207    8.830
  360.500  161.013   87.704    0.445    0.221    9.916
  360.750  160.137   87.308    0.427    0.214   11.827
  361.000  159.890   70.063    0.422    0.171   14.428
  361.250  159.750   55.509    0.398    0.121   17.206
  361.500  159.820   49.163    0.312    0.046   21.268
  361.750  159.782   53.029    0.177    0.001   25.949
  362.000  159.637   57.958    0.181    0.013   25.164
  362.250  159.607   64.957    0.220    0.055   23.274
  362.500  159.574   73.085    0.288    0.096   21.281
  362.750  159.743   79.143    0.346    0.145   18.158
  363.000  159.713   83.572    0.336    0.148   16.636
  363.250  159.685   83.490    0.361    0.182   14.460
  363.500  159.756   84.474    0.409    0.221   11.746
  363.750  160.450   88.842    0.431    0.228    9.723
  364.000  160.843   90.138    0.445    0.226    9.553
  364.250  161.334   88.680    0.458    0.228    9.654
  364.500  161.403   89.600    0.464    0.223    9.944
  364.750  161.055   92.588    0.466    0.222   10.008
  365.000  160.908   93.009    0.458    0.228   10.056
  365.250  160.983   92.114    0.450    0.223    9.992
  365.500  160.847   91.215    0.445    0.219    9.965
  365.750  160.805   91.261    0.438    0.227    9.903
