~VERSION INFORMATION
 VERS.                 2.0:   CWLS LOG ASCII STANDARD -VERSION 2.0
 WRAP.                  NO:   ONE LINE PER DEPTH STEP
~WELL INFORMATION BLOCK
#MNEM.UNIT           DATA                    DESCRIPTION OF MNEMONIC
#---------    -------------------            -------------------------------
# Generated from Intellog Unique Number	CC_80_83/WELL/2441
NULL.         -999.25                        : NULL_VALUE
WELL.         PEX PCEJ HANGST OV             : Well_name    - WELL
LOC .         15-23-081-11W4                 : Location     - LOCATION          
UWI .         AA/15-23-081-11W400            : Uwi          - UNIQUE WELL ID    
ENTR.         DW                             : Entered      - ENTERED BY        
SRVC.         DRESSER ATLAS                  : Scn          - SERVICE COMPANY   
DATE.         28 FEB 80                      : Date         - LOG DATE
STRT.M        260                            : top_depth    - START DEPTH       
STOP.M        489.791                        : bot_depth    - STOP DEPTH        
STEP.M        0.3                            : increment    - STEP LENGTH       
~CURVE INFORMATION BLOCK
#MNEM UNIT       ERCB CURVE CODE    CURVE DESCRIPTION
#-----------   ------------------   ----------------------------------
DEPT.M        00 001 00 00         : DEPTH        - DEPTH                       
DPHI.V/V      00 890 00 00         : PHID         - DENSITY POROSITY (LIMESTONE)
NPHI.V/V      00 330 00 00         : PHIN         - NEUTRON POROSITY (LIMESTONE)
GR  .API      00 310 00 00         : GR           - GAMMA RAY                   
ILD .OHMM     00 120 00 00         : RESD         - DEEP RESISTIVITY (DIL)      
~PARAMETER INFORMATION       
#MNEM.UNIT           DATA             DESCRIPTION OF MNEMONIC
#---------         -----------     ------------------------------
GL  .M        700.26               : gl           - GROUND LEVEL ELEVATION      
EREF.M        703.98               : kb           - ELEVATION OF DEPTH REFERENCE
DATM.M        703.98               : datum        - DATUM ELEVATION             
TDD .M        500                  : tdd          - TOTAL DEPTH DRILLER         
RUN .         ONE                  : Run          - RUN NUMBER                  
ENG .         BILL                 : Engineer     - RECORDING ENGINEER          
WIT .         JIM                  : Witness      - WITNESSED BY                
MUD .         GEL                  : Mud_type     - MUD TYPE                    
MATR.         LIMESTONE            : Logunit      - NEUTRON MATRIX              
TMAX.C        18                   : BHT          - MAXIMUM RECORDED TEMPERATURE
BHTD.M        500                  : BHTDEP       - MAXIMUM RECORDED TEMPERATURE
MATR.         1                    : LOGUNIT      - NEUTRON MATRIX              
RMT .C        25                   : MDTP         - TEMPERATURE OF MUD          
NEUT.         1                    : NEUTRON      - NEUTRON TYPE                
RESI.         0                    : RESIST       - RESISTIVITY TYPE            
RMC .OHMM     0.25                 : RMC          - RESISTIVITY OF MUD CAKE     
RMF .OHMM     0.25                 : RMF          - RESISTIVITY OF MUD FILTRATE 
SUFT.C        15                   : SUFT         - SURFACE TEMPERATURE         
~A  DEPTH     PHID     PHIN       GR     RESD
  260.000    0.199    0.414  101.563  225.496
  260.300    0.205    0.402  102.215  225.523
  260.600    0.207    0.393  102.227  228.289
  260.900    0.206    0.386   98.449  231.053
  261.200    0.200    0.384  107.954  233.814
  261.500    0.204    0.392  111.131  236.576
  261.800    0.206    0.419   95.337  236.598
  262.100    0.200    0.433  104.842  233.886
  262.400    0.196    0.433  108.650  228.444
  262.700    0.196    0.415  101.712  220.263
  263.000    0.193    0.411   95.404  217.540
  263.300    0.186    0.410   99.849  214.838
  263.600    0.141    0.406   91.642  214.855
  263.900    0.153    0.400   90.395  217.625
  264.200    0.202    0.393   99.898  220.378
  264.500    0.213    0.390  102.447  225.880
  264.800    0.230    0.384   99.300  231.383
  265.100    0.244    0.380   99.949  234.150
  265.400    0.238    0.407   94.272  231.436
  265.700    0.207    0.406   89.865  225.988
  266.000    0.202    0.401   94.938  223.277
  266.300    0.123    0.389   90.529  234.251
  266.600    0.144    0.338   83.587  250.696
  266.900    0.238    0.339   70.954  286.314
  267.200    0.272    0.345   62.754  352.041
  267.500    0.286    0.344   58.342  401.346
  267.800    0.275    0.355   63.416  417.801
  268.100    0.265    0.356   55.843  417.826
  268.400    0.255    0.334   62.183  406.903
  268.700    0.249    0.328   69.792  395.974
  269.000    0.249    0.334   76.761  387.784
  269.300    0.250    0.340   83.737  374.127
  269.600    0.255    0.335   84.385  382.370
  269.900    0.262    0.325   62.900  396.078
  270.200    0.292    0.315   52.166  407.053
  270.500    0.283    0.319   50.919  409.819
  270.800    0.264    0.325   64.845  396.150
  271.100    0.237    0.329   71.823  366.063
  271.400    0.236    0.331   85.749  346.927
  271.700    0.247    0.336   92.089  344.211
  272.000    0.259    0.346   80.091  360.665
  272.299    0.277    0.365   63.665  379.852
  272.599    0.301    0.378   64.315  396.303
  272.899    0.379    0.381   80.772  404.545
  273.199    0.309    0.388   97.864  393.622
  273.499    0.338    0.409  130.133  377.219
  273.799    0.201    0.409  140.902  363.556
  274.099    0.210    0.358  105.502  347.158
  274.399    0.236    0.325   83.384  338.974
  274.699    0.245    0.325   89.728  341.733
  274.999    0.245    0.332   86.581  355.454
  275.299    0.197    0.325   84.070  371.901
  275.599    0.234    0.313   80.288  393.823
  275.899    0.291    0.323   56.273  418.491
  276.199    0.295    0.318   48.070  437.685
  276.499    0.296    0.327   48.086  448.658
  276.799    0.295    0.329   53.794  451.421
  277.099    0.292    0.327   56.972  448.705
  277.399    0.292    0.326   63.312  443.252
  277.699    0.292    0.329   64.597  429.592
  277.999    0.290    0.329   65.243  424.139
  278.299    0.277    0.328   70.323  415.952
  278.599    0.285    0.342   71.601  410.509
  278.899    0.287    0.337   65.294  407.797
  279.199    0.287    0.330   66.574  405.082
  279.499    0.280    0.344   69.754  402.369
  279.799    0.252    0.335   74.196  396.915
  280.099    0.215    0.336   79.272  391.469
  280.399    0.183    0.333   78.656  386.015
  280.699    0.213    0.336   74.878  375.092
  280.999    0.226    0.343   76.793  369.650
  281.299    0.209    0.340   88.192  375.151
  281.599    0.232    0.345   90.739  383.388
  281.899    0.283    0.360   74.312  397.100
  282.199    0.292    0.355   66.739  410.813
  282.499    0.293    0.349   74.978  419.053
  282.799    0.289    0.337   88.275  430.032
  283.099    0.290    0.342   88.926  432.785
  283.399    0.288    0.347   81.351  432.817
  283.699    0.284    0.341   68.719  430.108
  283.999    0.278    0.345   63.044  427.387
  284.299    0.275    0.348   72.549  424.675
  284.599    0.275    0.347   73.828  421.964
  284.899    0.270    0.337   75.110  421.988
  285.199    0.273    0.343   77.659  422.015
  285.499    0.280    0.335   74.510  424.781
  285.799    0.283    0.325   84.645  422.072
  286.099    0.282    0.337   73.915  422.089
  286.399    0.276    0.346   72.667  419.378
  286.699    0.266    0.347   76.473  419.405
  286.999    0.261    0.354   87.876  416.697
  287.299    0.267    0.368   87.890  413.991
  287.599    0.263    0.350   86.645  411.268
  287.899    0.240    0.362   80.966  405.823
  288.199    0.236    0.364   87.945  397.644
  288.499    0.223    0.345   92.388  394.920
  288.799    0.215    0.359   98.092  386.736
  289.099    0.212    0.350  110.124  378.546
  289.399    0.218    0.318  116.464  373.094
  289.699    0.240    0.307  103.200  370.386
  289.999    0.259    0.330   81.720  364.933
  290.299    0.228    0.346   82.997  356.741
  290.599    0.128    0.364   81.749  334.865
  290.899    0.157    0.387   97.581  310.255
  291.199    0.149    0.395  120.990  293.858
  291.499    0.151    0.396  121.641  285.668
  291.799    0.164    0.383  110.907  280.219
  292.099    0.179    0.391  117.246  272.030
  292.399    0.160    0.427  124.220  263.836
  292.699    0.170    0.439  130.563  250.178
  292.999    0.188    0.434  133.106  239.248
  293.299    0.197    0.409  123.638  225.592
  293.599    0.211    0.408  121.755  217.397
  293.899    0.223    0.408  117.977  217.423
  294.199    0.233    0.397  123.056  236.619
  294.499    0.243    0.376  124.969  261.277
  294.799    0.253    0.346  115.497  305.106
  295.099    0.258    0.342   90.218  357.150
  295.399    0.246    0.342   94.029  387.293
  295.699    0.242    0.343   96.575  392.794
  295.999    0.247    0.352   99.123  390.080
  296.299    0.258    0.330   97.242  387.372
  296.599    0.270    0.325   90.933  387.393
  296.898    0.274    0.321   85.891  381.944
  297.198    0.270    0.330   80.216  373.759
  297.498    0.240    0.354   80.232  351.880
  297.798    0.161    0.367  102.383  324.532
  298.098    0.146    0.380  117.577  313.603
  298.398    0.152    0.360  108.739  308.151
  298.698    0.194    0.334  118.876  316.399
  298.998    0.219    0.350  118.893  327.373
  299.298    0.228    0.353  100.569  349.298
  299.598    0.233    0.355  102.484  368.484
  299.898    0.241    0.356  108.822  384.940
  300.198    0.247    0.344   94.297  390.436
  300.498    0.264    0.334   86.721  390.472
  300.798    0.251    0.339   75.987  385.025
  301.098    0.236    0.338   81.064  382.301
  301.398    0.221    0.330   77.917  376.861
  301.698    0.219    0.314   82.993  379.614
  301.998    0.221    0.313   76.687  382.384
  302.298    0.225    0.318   72.275  385.143
  302.598    0.225    0.308   67.233  385.168
  302.898    0.222    0.315   72.310  379.722
  303.198    0.215    0.329   75.488  374.274
  303.498    0.205    0.333   84.357  366.087
  303.798    0.195    0.319  100.184  360.633
  304.098    0.200    0.315   85.656  352.441
  304.398    0.194    0.323   91.364  341.512
  304.698    0.190    0.348  103.397  327.860
  304.998    0.186    0.334  107.843  322.410
  305.298    0.179    0.338  109.753  319.689
  305.598    0.175    0.352  108.506  311.502
  305.898    0.179    0.358  100.936  297.839
  306.198    0.181    0.368  105.379  286.911
  306.498    0.197    0.377  112.350  284.202
  306.798    0.208    0.383  119.956  292.438
  307.098    0.211    0.368  111.751  303.416
  307.398    0.201    0.359   97.222  330.825
  307.698    0.192    0.356   91.547  347.268
  307.998    0.191    0.349   96.621  371.936
  308.298    0.190    0.339   83.359  377.443
  308.598    0.190    0.344   85.273  380.210
  308.898    0.197    0.388   80.862  380.225
  309.198    0.209    0.376   78.980  374.773
  309.498    0.201    0.378   93.543  369.322
  309.798    0.194    0.365   86.602  358.407
  310.098    0.207    0.361   79.032  352.959
  310.398    0.217    0.358   88.534  350.244
  310.698    0.220    0.364   96.139  347.534
  310.998    0.224    0.356   94.891  336.600
  311.298    0.238    0.364   94.275  325.678
  311.598    0.251    0.382   89.870  322.973
  311.898    0.256    0.380   91.153  322.987
