~VERSION INFORMATION
 VERS.                 2.0:   CWLS LOG ASCII STANDARD -VERSION 2.0
 WRAP.                  NO:   ONE LINE PER DEPTH STEP
~WELL INFORMATION BLOCK
#MNEM.UNIT           DATA                    DESCRIPTION OF MNEMONIC
#---------    -------------------            -------------------------------
# Generated from Intellog Unique Number	CS_77_79/WELL/935
WELL.         PEX PCEJ THORNBURY OV          : Well_name    - WELL
LOC .         AA/10-08-079-13W4/0            : Location     - LOCATION
UWI .         AA/10-08-079-13W4/0            : Uwi          - UNIQUE WELL ID
ENTR.         JHS                            : Entered      - ENTERED BY
SRVC.         SCHLUMBERGER                   : Scn          - SERVICE COMPANY
STRT.M        260                            : top_depth    - START DEPTH
STOP.M        515                            : bot_depth    - STOP DEPTH
STEP.M        0.25                           : increment    - STEP LENGTH
 NULL. -999.2500:NULL Value
~CURVE INFORMATION BLOCK
#MNEM UNIT       ERCB CURVE CODE    CURVE DESCRIPTION
#-----------   ------------------   ----------------------------------
DEPT.M        00 001 00 00         : DEPTH        - DEPTH
DPHI.V/V      00 890 00 00         : PHID         - DENSITY POROSITY (LIMESTONE)
NPHI.V/V      00 330 00 00         : PHIN         - NEUTRON POROSITY (LIMESTONE)
GR  .API      00 310 00 00         : GR           - GAMMA RAY
ILD .OHMM     00 120 00 00         : RESD         - DEEP RESISTIVITY (DIL)
RHOB.KG/M3    00 350 00 00         : DENS         - BULK DENSITY
~PARAMETER INFORMATION
#MNEM.UNIT           DATA             DESCRIPTION OF MNEMONIC
#---------         -----------     ------------------------------
GL  .M        685.55               : gl           - GROUND LEVEL ELEVATION
EREF.M        688.75               : kb           - ELEVATION OF DEPTH REFERENCE
DATM.M        688.75               : datum        - DATUM ELEVATION
TDD .M        522                  : tdd          - TOTAL DEPTH DRILLER
RUN .         ONE                  : Run          - RUN NUMBER
ENG .         BILL                 : Engineer     - RECORDING ENGINEER
WIT .         JIM                  : Witness      - WITNESSED BY
MUD .         GEL                  : Mud_type     - MUD TYPE
MATR.         LIMESTONE            : Logunit      - NEUTRON MATRIX
TMAX.C        26                   : BHT          - MAXIMUM RECORDED TEMPERATURE
BHTD.M        522                  : BHTDEP       - MAXIMUM RECORDED TEMPERATURE
MATR.         1                    : LOGUNIT      - NEUTRON MATRIX
RMT .C        25                   : MDTP         - TEMPERATURE OF MUD
NEUT.         1                    : NEUTRON      - NEUTRON TYPE
RESI.         0                    : RESIST       - RESISTIVITY TYPE
RMC .OHMM     0.25                 : RMC          - RESISTIVITY OF MUD CAKE
RMF .OHMM     0.25                 : RMF          - RESISTIVITY OF MUD FILTRATE
SUFT.C        15                   : SUFT         - SURFACE TEMPERATURE
~A  DEPTH     PHID     PHIN       GR     RESD     DENS
# ...
  479.000    0.230    0.365   90.341   12.359 2315.880
  479.250    0.291    0.384   89.075   14.099 2212.350
  479.500    0.255    0.360   80.359   15.491 2273.430
  479.750    0.247    0.341   74.756   17.019 2288.070
  480.000    0.246    0.333   62.949   18.698 2290.080
  480.250    0.225    0.339   59.197   18.344 2325.830
  480.500    0.210    0.321   59.160   18.686 2351.050
  480.750    0.266    0.340   60.375   19.038 2255.950
  481.000    0.272    0.357   59.707   20.523 2245.240
  481.250    0.240    0.363   54.725   22.126 2300.030
  481.500    0.227    0.350   50.975   23.856 2321.000
  481.750    0.246    0.340   54.663   27.217 2289.230
  482.000    0.218    0.337   52.144   31.051 2337.650
  482.250    0.250    0.351   49.634   34.767 2282.660
  482.500    0.292    0.364   44.647   41.191 2210.770
  482.750    0.288    0.361   37.795   49.729 2216.970
  483.000    0.288    0.354   33.430   56.733 2216.870
  483.250    0.281    0.343   37.726   58.903 2229.370
  483.500    0.286    0.333   47.612   57.781 2220.830
  483.750    0.295    0.334   53.779   53.571 2205.900
  484.000    0.294    0.341   60.555   42.698 2207.890
  484.250    0.278    0.348   64.857   34.035 2235.250
  484.500    0.280    0.333   65.456   28.175 2230.900
  484.750    0.283    0.332   69.138   23.323 2226.560
  485.000    0.284    0.343   65.998   18.945 2224.330
  485.250    0.263    0.343   67.832   15.981 2260.100
  485.500    0.218    0.325   77.093   13.737 2338.050
  485.750    0.210    0.313   83.878   13.224 2350.630
  486.000    0.194    0.307   87.560   14.529 2377.940
  486.250    0.130    0.314   86.906   15.962 2487.560
  486.500    0.113    0.303   83.160   18.210 2517.000
  486.750    0.164    0.310   76.925   19.632 2430.340
  487.000    0.212    0.333   73.800   20.003 2347.900
  487.250    0.251    0.345   63.232   19.622 2280.250
  487.500    0.291    0.355   42.129   16.552 2212.570
  487.750    0.291    0.354   49.532   14.500 2212.390
  488.000    0.292    0.355   61.269   11.778 2210.230
  488.250    0.310    0.357   67.436   10.715 2180.540
  488.500    0.286    0.352   72.357   10.511 2220.530
  488.750    0.251    0.341   72.327   10.508 2281.620
  489.000    0.246    0.333   64.860   11.543 2289.910
  489.250    0.270    0.337   51.192   11.761 2247.620
  489.500    0.205    0.312   39.998   12.680 2359.370
  489.750    0.172    0.292   36.249   13.413 2416.240
  490.000    0.251    0.310   55.428   13.666 2281.020
  490.250    0.272    0.326   62.832   12.909 2245.010
  490.500    0.255    0.319   67.757   12.665 2274.450
  490.750    0.237    0.333   64.004   11.521 2303.880
  491.000    0.250    0.356   61.486   10.481 2282.660
  491.250    0.228    0.368   71.997    9.716 2320.530
  491.500    0.214    0.369   73.822    9.006 2343.620
  491.750    0.251    0.359   75.647    8.836 2280.180
  492.000    0.323    0.377   86.767    8.668 2157.650
  492.250    0.342    0.398   96.031    8.831 2125.860
  492.500    0.275    0.366  100.332    9.167 2239.720
  492.750    0.221    0.348   92.868    9.340 2332.460
  493.000    0.246    0.365   95.314    9.696 2290.130
  493.250    0.232    0.364   88.456    9.878 2313.220
  493.500    0.201    0.347   85.948   10.063 2365.880
  493.750    0.211    0.352   93.974   10.448 2348.870
  494.000    0.196    0.374  106.954   11.053 2374.070
  494.250    0.217    0.389  114.979   11.916 2338.080
  494.500    0.255    0.395  103.786   12.847 2274.630
  494.750    0.219    0.363   92.596   13.088 2335.740
  495.000    0.229    0.337   88.231   12.840 2318.720
  495.250    0.219    0.325   81.994   12.130 2335.450
  495.500    0.207    0.313   81.969   12.126 2356.450
  495.750    0.196    0.349   98.044   12.588 2375.350
  496.000    0.208    0.339  103.592   12.118 2354.100
  496.250    0.225    0.345  106.652   11.235 2324.430
  496.500    0.237    0.381  100.425   10.414 2305.340
  496.750    0.269    0.390  102.250   10.217 2250.340
  497.000    0.244    0.360   79.290   10.213 2292.430
  497.250    0.254    0.341   94.129   10.406 2275.420
  497.500    0.225    0.381  124.462   10.802 2325.960
  497.750    0.205    0.425  113.268   11.428 2359.620
  498.000    0.189    0.389  104.562   11.643 2386.930
  498.250    0.190    0.380  100.195   12.317 2384.700
  498.500    0.204    0.363  109.450   12.549 2361.360
  498.750    0.171    0.345  110.041   12.784 2418.220
  499.000    0.218    0.329   84.602   12.540 2337.890
  499.250    0.184    0.330   84.569   12.304 2394.760
  499.500    0.171    0.318   91.353   12.533 2417.850
  499.750    0.223    0.296   83.885   13.012 2329.090
  500.000    0.212    0.288   83.228   13.509 2347.970
  500.250    0.185    0.280   85.677   13.505 2394.250
  500.500    0.185    0.283   72.001   13.248 2394.160
  500.750    0.192    0.298   58.959   12.998 2381.370
  501.000    0.229    0.303   49.015   12.050 2317.940
  501.250    0.238    0.279   38.444   11.382 2303.030
  501.500    0.170    0.282   70.639   10.752 2419.020
  501.750    0.191    0.341   76.798   10.549 2383.010
  502.000    0.255    0.325   66.225   10.154 2273.120
  502.250    0.206    0.312   64.953   10.543 2357.440
  502.500    0.225    0.298   61.201   10.342 2325.650
  502.750    0.215    0.287   54.977    9.956 2342.410
  503.000    0.194    0.269   47.511    9.767 2378.190
  503.250    0.203    0.258   59.253    9.582 2363.250
  503.500    0.221    0.355   74.093    9.947 2331.510
  503.750    0.266    0.344   76.529   10.135 2255.400
  504.000    0.150    0.347   60.388    9.756 2453.690
  504.250    0.071    0.346   48.585    9.217 2588.660
  504.500    0.156    0.312   53.504    8.384 2442.900
  504.750    0.232    0.375   50.995    7.484 2314.020
  505.000    0.295    0.345   32.990    7.206 2206.250
  505.250    0.286    0.316   18.085    6.807 2220.890
  505.500    0.287    0.296   13.089    6.552 2218.670
  505.750    0.303    0.296    9.345    6.676 2191.110
  506.000    0.292    0.327    8.072    7.909 2210.000
  506.250    0.301    0.318    6.796   11.976 2195.100
  506.500    0.317    0.318   12.953   16.502 2167.540
  506.750    0.323    0.320   16.646   21.086 2156.840
  507.000    0.306    0.309   15.984   32.536 2186.290
  507.250    0.068    0.156   14.092   46.557 2593.510
  507.500    0.087    0.132   14.688   71.842 2561.750
  507.750    0.073    0.123   16.503   80.425 2584.840
  508.000    0.063    0.126   15.852   78.906 2601.620
  508.250    0.062    0.135   14.582   74.541    0.000
  508.500    0.059    0.126   15.176   70.418    0.000
  508.750    0.062    0.117   13.906   69.081    0.000
  509.000    0.078    0.111    8.909   65.260    0.000
  509.250    0.058    0.109   11.977   58.255    0.000
  509.500    0.039    0.113   17.517   51.031    0.000
  509.750    0.043    0.128   18.099   44.703    0.000
  510.000    0.036    0.144   17.454   38.425    0.000
  510.250    0.060    0.142   18.660   33.030    0.000
  510.500    0.060    0.144   19.244   30.622    0.000
  510.750    0.049    0.156   18.587   27.335    0.000
  511.000    0.057    0.167   18.563   26.313    0.000
  511.250    0.048    0.183   21.003   26.305    0.000
  511.500    0.085    0.194   27.788   28.902    0.000
  511.750    0.074    0.179   35.194   33.603    0.000
  512.000    0.073    0.157   40.119   41.344    0.000
  512.250    0.051    0.144   19.005   47.171    0.000
  512.500    0.121    0.167   17.122   55.883    0.000
  512.750    0.144    0.204   15.842   56.935    0.000
  513.000    0.170    0.223   16.425   54.810    0.000
  513.250    0.167    0.234   16.402   52.759    0.000
  513.500    0.162    0.229   15.121   53.755    0.000
  513.750    0.164    0.233   13.861   55.802    0.000
  514.000    0.140    0.223   11.968   60.163    0.000
  514.250    0.133    0.212   11.317   66.097    0.000
  514.500    0.144    0.200   11.273   71.260    0.000
  514.750    0.165    0.191   11.248   75.394    0.000
  515.000    0.126    0.183   11.210   79.763    0.000
