~VERSION INFORMATION
 VERS.                 2.0:   CWLS LOG ASCII STANDARD -VERSION 2.0
 WRAP.                  NO:   ONE LINE PER DEPTH STEP
~WELL INFORMATION BLOCK
#MNEM.UNIT           DATA                    DESCRIPTION OF MNEMONIC
#---------    -------------------            -------------------------------
# Generated from Intellog Unique Number	CW_79_81/WELL/2479
WELL.         GULF HOOLE OV                  : Well_name    - WELL
LOC .         AA/11-01-080-23W4/0            : Location     - LOCATION
UWI .         AA/11-01-080-23W4/0            : Uwi          - UNIQUE WELL ID
ENTR.         MAX                            : Entered      - ENTERED BY
SRVC.         SCHLUMBERGER                   : Scn          - SERVICE COMPANY
STRT.M        215                            : top_depth    - START DEPTH
STOP.M        485                            : bot_depth    - STOP DEPTH
STEP.M        0.25                           : increment    - STEP LENGTH
 NULL. -999.2500:NULL Value
~CURVE INFORMATION BLOCK
#MNEM UNIT       ERCB CURVE CODE    CURVE DESCRIPTION
#-----------   ------------------   ----------------------------------
DEPT.M        00 001 00 00         : DEPTH        - DEPTH
ILD .OHMM     00 120 00 00         : RESD         - DEEP RESISTIVITY (DIL)
NPHI.V/V      00 330 00 00         : PHIN         - NEUTRON POROSITY (SANDSTONE)
DPHI.V/V      00 890 00 00         : PHID         - DENSITY POROSITY (SANDSTONE)
GR  .API      00 310 00 00         : GR           - GAMMA RAY
CALI.MM       00 280 01 00         : CAL          - CALIPER
~PARAMETER INFORMATION
#MNEM.UNIT           DATA             DESCRIPTION OF MNEMONIC
#---------         -----------     ------------------------------
GL  .M        583.2                : gl           - GROUND LEVEL ELEVATION
EREF.M        586.7                : kb           - ELEVATION OF DEPTH REFERENCE
DATM.M        583.2                : datum        - DATUM ELEVATION
TDD .M        490                  : tdd          - TOTAL DEPTH DRILLER
RUN .         ONE                  : Run          - RUN NUMBER
ENG .         BILL                 : Engineer     - RECORDING ENGINEER
WIT .         JIM                  : Witness      - WITNESSED BY
MUD .         GEL                  : Mud_type     - MUD TYPE
MATR.         SANDSTONE            : Logunit      - NEUTRON MATRIX
TMAX.C        29                   : BHT          - MAXIMUM RECORDED TEMPERATURE
BHTD.M        490                  : BHTDEP       - MAXIMUM RECORDED TEMPERATURE
MATR.         1                    : LOGUNIT      - NEUTRON MATRIX
RMT .C        17                   : MDTP         - TEMPERATURE OF MUD
NEUT.         1                    : NEUTRON      - NEUTRON TYPE
RESI.         0                    : RESIST       - RESISTIVITY TYPE
RMC .OHMM     8.12                 : RMC          - RESISTIVITY OF MUD CAKE
RMF .OHMM     7.56                 : RMF          - RESISTIVITY OF MUD FILTRATE
SUFT.C        15                   : SUFT         - SURFACE TEMPERATURE
~A  DEPTH     RESD     PHIN     PHID       GR      CAL
  215.000    6.525    0.566    0.331   80.025  266.314
  215.250    7.264    0.533    0.317   79.073  267.206
  215.500    7.937    0.509    0.309   77.481  267.431
  215.750    8.770    0.467    0.302   76.329  266.499
  216.000    9.925    0.425    0.296   76.072  264.575
  216.250   11.951    0.442    0.291   76.554  262.585
  216.500   13.234    0.446    0.288   77.589  262.238
  216.750   13.640    0.434    0.286   76.909  262.301
  217.000   13.906    0.426    0.286   76.232  262.953
  217.250   14.177    0.421    0.287   76.508  264.008
  217.500   14.455    0.420    0.291   77.674  265.461
  217.750   14.483    0.430    0.303   78.415  268.670
  218.000   14.057    0.457    0.334   77.215  274.519
  218.250   12.861    0.479    0.356   75.108  284.098
  218.500   10.968    0.507    0.370   74.966  288.027
  218.750    9.306    0.514    0.377   75.958  286.699
  219.000    8.137    0.503    0.380   76.593  281.703
  219.250    7.426    0.503    0.381   74.833  274.515
  219.500    7.263    0.498    0.365   75.364  267.972
  219.750    7.377    0.494    0.351   76.599  264.850
  220.000    7.908    0.497    0.339   76.933  263.823
  220.250    8.649    0.506    0.339   76.490  264.283
  220.500    9.494    0.514    0.348   73.725  266.324
  220.750   10.970    0.489    0.344   63.159  270.845
  221.000   13.681    0.421    0.319   51.798  271.330
  221.250   16.744    0.372    0.314   41.126  265.432
  221.500   21.169    0.366    0.320   36.342  264.897
  221.750   28.065    0.363    0.322   35.782  268.730
  222.000   36.615    0.343    0.311   36.773  272.167
  222.250   37.197    0.291    0.268   35.335  266.023
  222.500   38.695    0.254    0.230   33.887  262.777
  222.750   42.884    0.228    0.207   35.349  261.663
  223.000   49.068    0.216    0.184   36.816  261.125
  223.250   56.560    0.216    0.171   37.803  260.983
  223.500   63.658    0.228    0.179   37.657  261.145
  223.750   67.210    0.258    0.219   35.462  261.946
  224.000   65.232    0.278    0.236   35.005  263.657
  224.250   58.797    0.289    0.249   36.233  274.433
  224.500   53.022    0.321    0.276   36.746  279.260
  224.750   48.034    0.364    0.301   36.308  281.504
  225.000   43.954    0.392    0.313   35.573  282.357
  225.250   40.507    0.360    0.302   36.242  280.189
  225.500   38.722    0.330    0.295   37.021  276.937
  225.750   38.747    0.327    0.293   36.828  274.231
  226.000   39.855    0.334    0.297   35.732  273.889
  226.250   40.642    0.357    0.304   34.814  275.532
  226.500   40.525    0.386    0.311   34.554  277.977
  226.750   39.786    0.393    0.311   34.936  279.500
  227.000   38.909    0.383    0.298   35.467  280.792
  227.250   38.657    0.345    0.292   35.984  294.733
  227.500   40.124    0.286    0.281   36.499  304.218
  227.750   44.644    0.259    0.263   37.248  300.910
  228.000   46.490    0.275    0.248   43.292  288.476
  228.250   28.719    0.321    0.269   66.598  282.020
  228.500   15.812    0.444    0.291   77.046  279.194
  228.750   11.116    0.466    0.292   77.333  276.883
  229.000    9.340    0.500    0.283   75.997  275.163
  229.250    8.315    0.505    0.271   73.769  274.229
  229.500    7.554    0.479    0.262   71.605  273.985
  229.750    6.900    0.468    0.260   71.340  274.310
  230.000    6.545    0.530    0.284   74.605  275.621
  230.250    6.171    0.563    0.295   72.264  276.074
  230.500    5.987    0.542    0.290   70.276  275.351
  230.750    5.992    0.496    0.274   69.955  275.021
  231.000    6.142    0.464    0.264   71.719  275.573
  231.250    6.295    0.508    0.299   75.445  276.437
  231.500    6.110    0.566    0.339   77.215  276.509
  231.750    5.980    0.588    0.340   78.680  276.565
  232.000    5.755    0.585    0.338   80.859  276.627
  232.250    5.616    0.572    0.338   81.966  277.086
  232.500    5.548    0.566    0.341   81.407  277.742
  232.750    5.296    0.573    0.337   79.195  276.987
  233.000    4.873    0.522    0.324   76.257  272.928
  233.250    4.841    0.478    0.311   75.818  277.743
  233.500    5.215    0.487    0.303   77.878  280.481
  233.750    5.886    0.514    0.307   77.676  278.359
  234.000    6.606    0.531    0.320   73.427  271.179
  234.250    6.832    0.517    0.330   65.340  260.592
  234.500    7.219    0.498    0.338   60.423  256.940
  234.750    8.530    0.490    0.347   58.795  255.813
  235.000   10.255    0.481    0.353   56.629  254.681
  235.250   12.869    0.478    0.357   54.289  253.753
  235.500   16.745    0.480    0.357   52.546  253.227
  235.750   20.964    0.469    0.350   52.535  253.224
  236.000   24.335    0.461    0.331   52.331  252.863
  236.250   30.835    0.460    0.314   50.461  254.122
  236.500   35.282    0.458    0.306   49.309  255.961
  236.750   36.281    0.448    0.315   49.346  259.987
  237.000   35.456    0.433    0.337   50.157  269.274
  237.250   36.128    0.429    0.349   50.389  287.888
  237.500   36.723    0.461    0.349   50.173  285.475
  237.750   37.302    0.468    0.352   50.928  264.118
  238.000   38.510    0.473    0.358   52.570  255.555
  238.250   40.275    0.476    0.361   52.727  253.037
  238.500   42.822    0.477    0.358   51.160  252.503
  238.750   46.960    0.474    0.353   49.676  252.506
  239.000   47.363    0.475    0.348   49.224  252.146
  239.250   52.114    0.468    0.349   48.540  251.812
  239.500   56.781    0.467    0.349   47.684  251.473
  239.750   59.912    0.462    0.354   46.771  251.335
  240.000   62.789    0.454    0.365   46.217  251.398
  240.250   72.265    0.464    0.382   46.936  251.393
  240.500   76.949    0.484    0.381   47.963  251.059
  240.750   73.105    0.477    0.381   48.710  251.109
  241.000   67.496    0.503    0.386   49.107  250.871
  241.250   58.867    0.526    0.389   49.148  250.534
  241.500   50.069    0.527    0.386   48.950  250.198
  241.750   44.110    0.498    0.375   48.703  249.717
  242.000   44.837    0.464    0.359   48.491  248.949
  242.250   50.053    0.452    0.354   46.625  248.616
  242.500   63.013    0.450    0.348   45.833  248.287
  242.750   79.885    0.447    0.345   45.869  247.950
  243.000   90.091    0.443    0.345   46.556  247.507
  243.250   84.696    0.448    0.343   48.091  246.793
  243.500   72.837    0.457    0.346   49.614  246.871
  243.750   60.354    0.454    0.351   49.410  246.538
  244.000   54.112    0.446    0.352   47.781  246.204
  244.250   50.723    0.440    0.352   46.038  245.864
  244.500   48.370    0.440    0.352   45.068  245.623
  244.750   45.082    0.446    0.351   45.444  245.709
  245.000   42.445    0.450    0.346   45.983  245.761
  245.250   40.321    0.451    0.343   46.489  246.623
  245.500   38.097    0.450    0.350   47.006  247.179
  245.750   36.352    0.438    0.351   47.520  247.629
  246.000   35.062    0.418    0.344   48.087  248.080
  246.250   33.730    0.410    0.338   48.897  248.557
  246.500   33.235    0.423    0.354   49.188  248.616
  246.750   33.267    0.429    0.362   49.705  249.478
  247.000   33.107    0.422    0.365   50.749  250.331
  247.250   33.007    0.419    0.367   51.138  251.581
  247.500   33.033    0.426    0.371   50.341  253.431
  247.750   33.121    0.445    0.375   48.387  256.226
  248.000   33.402    0.448    0.374   47.927  257.931
  248.250   34.173    0.441    0.372   47.730  259.177
  248.500   34.372    0.446    0.373   47.888  261.032
  248.750   34.525    0.441    0.375   48.043  263.871
  249.000   34.700    0.424    0.375   47.840  268.385
  249.250   34.425    0.421    0.369   46.735  277.419
  249.500   34.190    0.456    0.355   45.783  286.585
  249.750   34.220    0.457    0.358   46.531  294.175
  250.000   34.442    0.453    0.364   46.565  297.310
  250.250   34.605    0.442    0.370   46.719  298.163
  250.500   34.570    0.431    0.372   47.173  299.212
  250.750   34.227    0.440    0.369   47.308  303.833
  251.000   33.733    0.449    0.366   46.604  306.796
  251.250   32.776    0.452    0.363   45.218  307.652
