~VERSION INFORMATION
 VERS.                 2.0:   CWLS LOG ASCII STANDARD -VERSION 2.0
 WRAP.                  NO:   ONE LINE PER DEPTH STEP
~WELL INFORMATION BLOCK
#MNEM.UNIT           DATA                    DESCRIPTION OF MNEMONIC
#---------    -------------------            -------------------------------
# Generated from Intellog Unique Number	CN_91_93/WELL/3678
WELL.         10-02-093-08W4                 : Well_name    - WELL
LOC .         AA/10-02-093-08W4/0            : Location     - LOCATION
UWI .         AA/10-02-093-08W400            : Uwi          - UNIQUE WELL ID
ENTR.         JOETTE                         : Entered      - ENTERED BY
SRVC.         SCHLUMBERGER                   : Scn          - SERVICE COMPANY
DATE.         03/22/92                       : Date         - LOG DATE
STRT.M        75                             : top_depth    - START DEPTH
STOP.M        205                            : bot_depth    - STOP DEPTH
STEP.M        0.25                           : increment    - STEP LENGTH
 NULL. -999.2500:NULL Value
~CURVE INFORMATION BLOCK
#MNEM UNIT       ERCB CURVE CODE    CURVE DESCRIPTION
#-----------   ------------------   ----------------------------------
DEPT.M        00 001 00 00         : DEPTH        - DEPTH
CALI.MM       00 280 01 00         : CAL          - CALIPER
GR  .API      00 310 00 00         : GR           - GAMMA RAY
ILD .OHMM     00 120 00 00         : RESD         - DEEP RESISTIVITY (DIL)
NPHI.V/V      00 330 00 00         : PHIN         - NEUTRON POROSITY (SANDSTONE)
DPHI.V/V      00 890 00 00         : PHID         - DENSITY POROSITY (SANDSTONE)
~PARAMETER INFORMATION
#MNEM.UNIT           DATA             DESCRIPTION OF MNEMONIC
#---------         -----------     ------------------------------
GL  .M        454.8                : gl           - GROUND LEVEL ELEVATION
EREF.M        454.8                : kb           - ELEVATION OF DEPTH REFERENCE
DATM.M        454.8                : datum        - DATUM ELEVATION
TDD .M        205.4                : tdd          - TOTAL DEPTH DRILLER
RUN .         ONE                  : Run          - RUN NUMBER
ENG .         BILL                 : Engineer     - RECORDING ENGINEER
WIT .         JIM                  : Witness      - WITNESSED BY
MUD .         GEL                  : Mud_type     - MUD TYPE
MATR.         SANDSTONE            : Logunit      - NEUTRON MATRIX
TMAX.C        16                   : BHT          - MAXIMUM RECORDED TEMPERATURE
BHTD.M        205.4                : BHTDEP       - MAXIMUM RECORDED TEMPERATURE
RMT .C        14                   : MDTP         - TEMPERATURE OF MUD
MUDD.KG/M     9583.33              : MWT          - MUD DENSITY
NEUT.         1                    : NEUTRON      - NEUTRON TYPE
RESI.         0                    : RESIST       - RESISTIVITY TYPE
RM  .OHMM     4.8                  : RM           - RESISTIVITY OF MUD
RMC .OHMM     4.8                  : RMC          - RESISTIVITY OF MUD CAKE
RMF .OHMM     4.8                  : RMF          - RESISTIVITY OF MUD FILTRATE
SUFT.C        4                    : SUFT         - SURFACE TEMPERATURE
~A  DEPTH      CAL       GR     RESD     PHIN     PHID
# ...
  184.500  173.508  127.256   78.422    0.396    0.226
  184.750  173.546  138.935   54.811    0.385    0.235
  185.000  173.594  158.593   40.564    0.359    0.263
  185.250  173.622  145.734   32.722    0.330    0.271
  185.500  173.651  132.255   30.038    0.308    0.295
  185.750  173.698  112.648   31.823    0.315    0.300
  186.000  173.727  102.855   36.225    0.329    0.303
  186.250  173.765   95.517   38.381    0.340    0.306
  186.500  173.803   91.251   38.401    0.336    0.310
  186.750  173.841   90.047   37.326    0.339    0.311
  187.000  173.879   97.425   35.259    0.346    0.312
  187.250  173.926  106.650   34.775    0.352    0.312
  187.500  173.974  104.832   34.793    0.377    0.316
  187.750  173.993  102.401   36.864    0.368    0.312
  188.000  173.008  104.265   38.493    0.359    0.313
  188.250  173.046  106.133   39.630    0.380    0.317
  188.500  173.084  106.162   39.082    0.388    0.317
  188.750  172.119  105.560   36.917    0.393    0.318
  189.000  171.125  101.908   33.890    0.396    0.322
  189.250  171.153  100.090   32.945    0.373    0.324
  189.500  171.191  101.340   34.902    0.399    0.323
  189.750  171.239   98.295   38.056    0.404    0.324
  190.000  171.277   94.638   43.951    0.415    0.324
  190.250  171.324   96.501   48.610    0.363    0.320
  190.500  171.362   95.921   54.557    0.379    0.323
  190.750  170.378   97.165   52.280    0.387    0.329
  191.000  170.416  100.863   50.828    0.379    0.335
  191.250  170.454  110.701   50.114    0.365    0.340
  191.500  170.492  117.472   50.859    0.369    0.331
  191.750  170.530  117.495   48.737    0.372    0.315
  192.000  170.558  116.904   44.740    0.370    0.303
  192.250  171.619  102.215   47.412    0.339    0.294
  192.500  171.657  103.454   48.103    0.331    0.283
  192.750  171.704  108.390   50.245    0.325    0.273
  193.000  172.774  106.572   49.555    0.336    0.268
  193.250  172.812  103.528   48.163    0.340    0.276
  193.500  172.831  102.937   43.578    0.335    0.288
  193.750  173.892  105.408   42.975    0.340    0.299
  194.000  173.930  109.725   44.894    0.342    0.306
  194.250  173.968  110.986   46.215    0.340    0.299
  194.500  174.006  110.384   46.240    0.321    0.285
  194.750  174.044  107.345   44.305    0.307    0.230
  195.000  174.091  104.909   40.672    0.300    0.194
  195.250  174.129  131.315   38.966    0.497    0.179
  195.500  174.167  163.856   35.261    0.573    0.166
  195.750  174.196  161.425   31.446    0.599    0.147
  196.000  174.234  165.123   17.219    0.635    0.115
  196.250  174.272  168.838    6.586    0.641    0.074
  196.500  174.319  165.169    7.715    0.635    0.008
  196.750  174.348  157.217    9.301    0.636    0.020
  197.000  174.405  148.657   10.291    0.646    0.031
  197.250  174.443  148.061   10.592    0.586    0.044
  197.500  174.481  137.655   11.224    0.415    0.056
  197.750  174.528  130.935   11.893    0.332    0.056
  198.000  174.547  138.927   13.154    0.286    0.030
  198.250  174.585  149.998   22.059    0.298    0.021
  198.500  174.623  147.567   22.713    0.299    0.011
  198.750  173.648  146.976   23.049    0.293    0.015
  199.000  173.686  150.680   23.392    0.282    0.022
  199.250  172.702  153.770   24.085    0.273    0.026
  199.500  172.740  153.179   24.799    0.277    0.025
  199.750  172.778  153.821   24.805    0.281    0.020
  200.000  172.816  155.684   25.176    0.286    0.016
  200.250  172.854  156.928   25.187    0.284    0.021
  200.500  172.882  157.564   24.838    0.281    0.023
  200.750  172.920  155.133   23.802    0.281    0.032
  201.000  172.968  149.635   22.808    0.285    0.037
  201.250  172.996  147.818   23.482    0.287    0.042
  201.500  173.063  147.840   25.239    0.291    0.038
  201.750  173.072  146.023   25.982    0.291    0.027
  202.000  173.110  145.438   25.993    0.297    0.033
  202.250  172.135  144.234   26.004    0.303    0.049
  202.500  171.160  147.324   25.281    0.312    0.061
  202.750  170.157  151.027   24.574    0.317    0.066
  203.000  168.169  155.339   23.218    0.329    0.044
  203.250  168.188  152.908   23.223    0.327    0.057
  203.500  166.191  140.662   23.909    0.173    0.098
  203.750  164.194  119.827   30.530    0.149    0.103
  204.000  163.190  109.421   42.485    0.138    0.102
  204.250  162.206  105.150  124.681    0.143    0.102
  204.500  163.266  114.375  143.979    0.139    0.103
  204.750  165.377  113.176  154.769    0.130    0.106
  205.000  166.419  113.199  157.072    0.137    0.104
