~VERSION INFORMATION
 VERS.                 2.0:   CWLS LOG ASCII STANDARD -VERSION 2.0
 WRAP.                  NO:   ONE LINE PER DEPTH STEP
~WELL INFORMATION BLOCK
#MNEM.UNIT           DATA                    DESCRIPTION OF MNEMONIC
#---------    -------------------            -------------------------------
# Generated from Intellog Unique Number	CS_77_79/WELL/935
WELL.         PEX PCEJ THORNBURY OV          : Well_name    - WELL
LOC .         AA/10-08-079-13W4/0            : Location     - LOCATION
UWI .         AA/10-08-079-13W4/0            : Uwi          - UNIQUE WELL ID
ENTR.         JHS                            : Entered      - ENTERED BY
SRVC.         SCHLUMBERGER                   : Scn          - SERVICE COMPANY
STRT.M        260                            : top_depth    - START DEPTH
STOP.M        515                            : bot_depth    - STOP DEPTH
STEP.M        0.25                           : increment    - STEP LENGTH
 NULL. -999.2500:NULL Value
~CURVE INFORMATION BLOCK
#MNEM UNIT       ERCB CURVE CODE    CURVE DESCRIPTION
#-----------   ------------------   ----------------------------------
DEPT.M        00 001 00 00         : DEPTH        - DEPTH
DPHI.V/V      00 890 00 00         : PHID         - DENSITY POROSITY (LIMESTONE)
NPHI.V/V      00 330 00 00         : PHIN         - NEUTRON POROSITY (LIMESTONE)
GR  .API      00 310 00 00         : GR           - GAMMA RAY
ILD .OHMM     00 120 00 00         : RESD         - DEEP RESISTIVITY (DIL)
RHOB.KG/M3    00 350 00 00         : DENS         - BULK DENSITY
~PARAMETER INFORMATION
#MNEM.UNIT           DATA             DESCRIPTION OF MNEMONIC
#---------         -----------     ------------------------------
GL  .M        685.55               : gl           - GROUND LEVEL ELEVATION
EREF.M        688.75               : kb           - ELEVATION OF DEPTH REFERENCE
DATM.M        688.75               : datum        - DATUM ELEVATION
TDD .M        522                  : tdd          - TOTAL DEPTH DRILLER
RUN .         ONE                  : Run          - RUN NUMBER
ENG .         BILL                 : Engineer     - RECORDING ENGINEER
WIT .         JIM                  : Witness      - WITNESSED BY
MUD .         GEL                  : Mud_type     - MUD TYPE
MATR.         LIMESTONE            : Logunit      - NEUTRON MATRIX
TMAX.C        26                   : BHT          - MAXIMUM RECORDED TEMPERATURE
BHTD.M        522                  : BHTDEP       - MAXIMUM RECORDED TEMPERATURE
MATR.         1                    : LOGUNIT      - NEUTRON MATRIX
RMT .C        25                   : MDTP         - TEMPERATURE OF MUD
NEUT.         1                    : NEUTRON      - NEUTRON TYPE
RESI.         0                    : RESIST       - RESISTIVITY TYPE
RMC .OHMM     0.25                 : RMC          - RESISTIVITY OF MUD CAKE
RMF .OHMM     0.25                 : RMF          - RESISTIVITY OF MUD FILTRATE
SUFT.C        15                   : SUFT         - SURFACE TEMPERATURE
~A  DEPTH     PHID     PHIN       GR     RESD     DENS
# ...
  296.500    0.232    0.418   88.296    8.947    0.000
  296.750    0.199    0.429  101.948    7.991    0.000
  297.000    0.167    0.407   94.524    7.411    0.000
  297.250    0.174    0.402   98.880    6.873    0.000
  297.500    0.216    0.418  100.753    6.495    0.000
  297.750    0.195    0.411   98.288    6.255    0.000
  298.000    0.204    0.412   98.302    6.023    0.000
  298.250    0.240    0.419   95.837    6.023    0.000
  298.500    0.298    0.441  102.672    6.137    0.000
  298.750    0.228    0.441  105.163    6.493    0.000
  299.000    0.202    0.426  102.082    7.133    0.000
  299.250    0.178    0.417   95.896    7.406    0.000
  299.500    0.160    0.413   88.473    7.132    0.000
  299.750    0.165    0.423  102.124    6.614    0.000
  300.000    0.224    0.444  111.437    5.689    0.000
  300.250    0.290    0.468  101.536    4.802    0.000
  300.500    0.325    0.498   92.250    4.371    0.000
  300.750    0.381    0.489   93.506    4.053    0.000
  301.000    0.400    0.474  100.957    4.209    0.000
  301.250    0.381    0.463  104.070    4.985    0.000
  301.500    0.321    0.446  109.044    6.131    0.000
  301.750    0.287    0.427   97.282    8.603    0.000
  302.000    0.276    0.410  101.638   11.409    0.000
  302.250    0.278    0.389   98.551   13.514    0.000
  302.500    0.281    0.383   88.028   14.031    0.000
  302.750    0.255    0.400   96.101   14.030    0.000
  303.000    0.240    0.384   94.878   13.511    0.000
  303.250    0.237    0.375   89.313   13.011    0.000
  303.500    0.246    0.393   91.186   12.066    0.000
  303.750    0.256    0.407   89.965   11.191    0.000
  304.000    0.262    0.396   89.356    9.097    0.000
  304.250    0.272    0.385   80.694    8.279    0.000
  304.500    0.290    0.407   86.906    7.824    0.000
  304.750    0.307    0.411   95.601    7.824    0.000
  305.000    0.283    0.392  100.573    8.758    0.000
  305.250    0.290    0.412  111.124   10.374    0.000
  305.500    0.306    0.403  112.380   11.614    0.000
  305.750    0.320    0.403  106.195   12.521    0.000
  306.000    0.252    0.416  100.629   13.000    0.000
  306.250    0.221    0.403  101.265   12.999    0.000
  306.500    0.212    0.405   97.560   12.998    0.000
  306.750    0.225    0.397  100.056   12.998    0.000
  307.000    0.246    0.402   98.209   12.516    0.000
  307.250    0.264    0.391   95.126   11.828    0.000
  307.500    0.271    0.379   85.844   11.827    0.000
  307.750    0.287    0.364   74.081   11.827    0.000
  308.000    0.306    0.369   81.535   12.279    0.000
  308.250    0.334    0.404   94.566   13.239    0.000
  308.500    0.254    0.376  103.259   13.745    0.000
  308.750    0.251    0.365  105.750   13.745    0.000
  309.000    0.255    0.357   98.327   12.989    0.000
  309.250    0.248    0.384   85.945   12.046    0.000
  309.500    0.260    0.405   91.538   12.045    0.000
  309.750    0.287    0.408   78.537   12.273    0.000
  310.000    0.301    0.402   66.775   12.743    0.000
  310.250    0.292    0.411   67.410   13.738    0.000
  310.500    0.267    0.415   72.386   15.093    0.000
  310.750    0.267    0.420   68.059   15.671    0.000
  311.000    0.288    0.408   69.313   16.270    0.000
  311.250    0.297    0.411   69.951   16.578    0.000
  311.500    0.291    0.394   66.868   16.577    0.000
  311.750    0.292    0.399   69.359   16.267    0.000
  312.000    0.295    0.409   68.756   16.265    0.000
  312.250    0.288    0.404   66.287   15.664    0.000
  312.500    0.274    0.385   70.644   14.526    0.000
  312.750    0.305    0.391   68.179   13.728    0.000
  313.000    0.301    0.414   72.531   12.731    0.000
  313.250    0.305    0.411   71.930   12.730    0.000
  313.500    0.316    0.401   70.698   12.730    0.000
  313.750    0.293    0.402   75.053   13.468    0.000
  314.000    0.255    0.401   80.645   14.520    0.000
  314.250    0.232    0.418   77.564   15.076    0.000
  314.500    0.213    0.428   72.000   15.075    0.000
  314.750    0.217    0.401   68.916   15.074    0.000
  315.000    0.231    0.405   74.506   15.948    0.000
  315.250    0.252    0.421   83.199   15.650    0.000
  315.500    0.272    0.433   87.553   13.977    0.000
  315.750    0.288    0.429   81.367   12.963    0.000
  316.000    0.246    0.412   72.085   12.022    0.000
  316.250    0.244    0.402   67.762   10.941    0.000
  316.500    0.269    0.425   72.734    9.590    0.000
  316.750    0.301    0.416   78.329    8.894    0.000
  317.000    0.339    0.416   85.160    8.893    0.000
  317.250    0.287    0.408   87.037    9.409    0.000
  317.500    0.300    0.407   82.091    9.587    0.000
  317.750    0.321    0.424   83.347   10.336    0.000
  318.000    0.285    0.407   80.263   11.355    0.000
  318.250    0.282    0.396   75.320   12.014    0.000
  318.500    0.300    0.391   70.377   12.952    0.000
  318.750    0.285    0.399   71.629   13.703    0.000
  319.000    0.265    0.392   75.980   14.228    0.000
  319.250    0.276    0.388   76.614   14.498    0.000
  319.500    0.295    0.388   71.051   14.226    0.000
  319.750    0.312    0.396   69.208   13.699    0.000
  320.000    0.320    0.408   73.563   13.443    0.000
  320.250    0.296    0.404   71.718   13.698    0.000
  320.500    0.289    0.426   68.013   13.956    0.000
  320.750    0.298    0.405   61.827   14.491    0.000
  321.000    0.314    0.394   45.106   15.046    0.000
  321.250    0.305    0.384   46.363   15.918    0.000
  321.500    0.287    0.395   50.717   16.842    0.000
  321.750    0.282    0.422   52.590   18.503    0.000
  322.000    0.289    0.403   46.405   20.326    0.000
  322.250    0.281    0.404   45.804   20.712    0.000
  322.500    0.304    0.431   46.434   21.505    0.000
  322.750    0.321    0.433   39.632   22.752    0.000
  323.000    0.340    0.446   36.548   24.529    0.000
  323.250    0.402    0.468   40.900   24.994    0.000
  323.500    0.406    0.460   45.879   25.950    0.000
  323.750    0.358    0.434   45.889   27.456    0.000
  324.000    0.322    0.421   41.566   32.522    0.000
  324.250    0.312    0.410   42.820   40.000    0.000
  324.500    0.317    0.423   44.078   46.497    0.000
  324.750    0.331    0.436   42.850   56.123    0.000
  325.000    0.339    0.426   42.862   66.475    0.000
  325.250    0.365    0.436   46.600   69.022    0.000
  325.500    0.348    0.417   46.614   73.026    0.000
  325.750    0.341    0.432   44.767   71.659    0.000
  326.000    0.338    0.440   45.404   69.005    0.000
  326.250    0.331    0.432   46.036   67.715    0.000
  326.500    0.323    0.422   42.951   62.798    0.000
  326.750    0.315    0.421   41.729   60.474    0.000
  327.000    0.334    0.413   41.746   58.235    0.000
  327.250    0.345    0.401   46.096   54.008    0.000
  327.500    0.338    0.393   48.590   47.337    0.000
  327.750    0.324    0.388   42.410   43.083    0.000
  328.000    0.338    0.378   39.941   37.762    0.000
  328.250    0.325    0.371   48.017   33.099    0.000
  328.500    0.317    0.383   51.746   27.939    0.000
  328.750    0.334    0.369   46.803   25.911    0.000
  329.000    0.349    0.369   40.617   24.486    0.000
  329.250    0.338    0.377   41.871   23.580    0.000
  329.500    0.336    0.375   44.991   23.138    0.000
  329.750    0.340    0.370   45.001   22.705    0.000
  330.000    0.327    0.350   45.637   21.457    0.000
  330.250    0.335    0.335   41.312   20.278    0.000
  330.500    0.344    0.325   43.184   21.862    0.000
  330.750    0.320    0.296   41.341   24.938    0.000
  331.000    0.217    0.268   37.636   24.015    0.000
  331.250    0.144    0.249   32.073   22.272    0.000
  331.500    0.100    0.283   37.666   20.270    0.000
  331.750    0.208    0.387   40.782   18.104    0.000
  332.000    0.324    0.401   44.514   15.282    0.000
  332.250    0.327    0.411   41.431   14.172    0.000
  332.500    0.340    0.411   38.966   14.171    0.000
  332.750    0.348    0.411   43.321   14.440    0.000
