~VERSION INFORMATION
 VERS.                 2.0:   CWLS LOG ASCII STANDARD -VERSION 2.0
 WRAP.                  NO:   ONE LINE PER DEPTH STEP
~WELL INFORMATION BLOCK
#MNEM.UNIT           DATA                    DESCRIPTION OF MNEMONIC
#---------    -------------------            -------------------------------
# Generated from Intellog Unique Number	utf_inj/WELL/589
WELL.         AO-33                          : Well_name    - WELL              
LOC .         AA/12-18-093-12W4/0            : Location     - LOCATION          
UWI .         AA/12-18-093-12W400            : Uwi          - UNIQUE WELL ID    
ENTR.         JHS                            : Entered      - ENTERED BY        
SRVC.         SCHLUMBERGER                   : Scn          - SERVICE COMPANY   
STRT.M        2                              : top_depth    - START DEPTH       
STOP.M        158                            : bot_depth    - STOP DEPTH        
STEP.M        0.25                           : increment    - STEP LENGTH       
NULL.         -999.250                       : null         - NULL VALUE       
~CURVE INFORMATION BLOCK
#MNEM UNIT       ERCB CURVE CODE    CURVE DESCRIPTION
#-----------   ------------------   ----------------------------------
DEPT.M        00 001 00 00         : DEPTH        - DEPTH                       
GR  .API      00 310 00 00         : GR           - GAMMA RAY                   
DPHI.V/V      00 890 00 00         : PHID         - DENSITY POROSITY (SANDSTONE)
NPHI.V/V      00 330 00 00         : PHIN         - NEUTRON POROSITY (SANDSTONE)
ILD .OHMM     00 120 00 00         : RESD         - DEEP RESISTIVITY (DIL)      
SP  .MV       00 010 00 00         : SP           - SPONTANEOUS POTENTIAL       
CALI.MM       00 280 01 00         : CAL          - CALIPER                     
~PARAMETER INFORMATION       
#MNEM.UNIT           DATA             DESCRIPTION OF MNEMONIC
#---------         -----------     ------------------------------
GL  .M        423.5                : gl           - GROUND LEVEL ELEVATION      
EREF.M        423.5                : kb           - ELEVATION OF DEPTH REFERENCE
DATM.M        423.5                : datum        - DATUM ELEVATION             
TDD .M        162                  : tdd          - TOTAL DEPTH DRILLER         
RUN .         ONE                  : Run          - RUN NUMBER                  
ENG .         BILL                 : Engineer     - RECORDING ENGINEER          
WIT .         JIM                  : Witness      - WITNESSED BY                
MUD .         GEL                  : Mud_type     - MUD TYPE                    
MATR.         SANDSTONE            : Logunit      - NEUTRON MATRIX              
TMAX.C        6.5                  : BHT          - MAXIMUM RECORDED TEMPERATURE
BHTD.M        151.49               : BHTDEP       - MAXIMUM RECORDED TEMPERATURE
MATR.         1                    : LOGUNIT      - NEUTRON MATRIX              
RMT .C        25                   : MDTP         - TEMPERATURE OF MUD          
NEUT.         1                    : NEUTRON      - NEUTRON TYPE                
RESI.         0                    : RESIST       - RESISTIVITY TYPE            
RMC .OHMM     0.25                 : RMC          - RESISTIVITY OF MUD CAKE     
RMF .OHMM     0.25                 : RMF          - RESISTIVITY OF MUD FILTRATE 
SUFT.C        15                   : SUFT         - SURFACE TEMPERATURE         
~A  DEPTH       GR     PHID     PHIN     RESD       SP      CAL
    2.000   87.955    0.060    0.000    0.000    0.000    0.000
    2.250   97.283    0.052    0.000    0.000    0.000    0.000
    2.500   95.962    0.053    0.000    0.000    0.000    0.000
    2.750   89.577    0.063    0.000    0.000    0.000    0.000
    3.000   81.959    0.049    0.000    0.000    0.000    0.000
    3.250   79.362    0.043    0.000    0.000    0.000    0.000
    3.500   89.945    0.051    0.000    0.000    0.000    0.000
    3.750   84.815    0.045    0.000    0.000    0.000    0.000
    4.000   90.399    0.040    0.632    0.000    0.000    0.000
    4.250   72.716    0.074    0.570    0.000    0.000    0.000
    4.500   56.917    0.079    0.502    0.000    0.000    0.000
    4.750   64.990    0.066    0.507    0.000    0.000    0.000
    5.000   84.403    0.115    0.527    0.000    0.000    0.000
    5.250   93.103    0.141    0.662    0.000    0.000    0.000
    5.500   57.198    0.088    0.721    0.000    0.000    0.000
    5.750   50.834    0.067    0.664    0.000    0.000    0.000
    6.000   60.790    0.061    0.563    0.000    0.000    0.000
    6.250   60.703    0.053    0.596    0.000    0.000    0.000
    6.500   52.457    0.038    0.525    0.000    0.000    0.000
    6.750   65.550    0.037    0.473    0.000    0.000    0.000
    7.000   51.006    0.045    0.494    0.000    0.000    0.000
    7.250   56.568    0.057    0.605    0.000    0.000    0.000
    7.500   57.737    0.054    0.587    0.000    0.000    0.000
    7.750   63.320    0.046    0.669    0.000    0.000    0.000
    8.000   77.063    0.041    0.632    0.000    0.000    0.000
    8.250   66.912    0.033    0.599    0.000    0.000    0.000
    8.500   77.495    0.024    0.595    0.000    0.000    0.000
    8.750   61.090    0.016    0.549    0.000    0.000    0.000
    9.000   62.886    0.013    0.530    0.000    0.000    0.000
    9.250   74.724    0.006    0.599    0.000    0.000    0.000
    9.500   84.701    0.003    0.679    0.000    0.000    0.000
    9.750   89.635    0.002    0.599    0.000    0.000    0.000
   10.000   73.836    0.000    0.539    0.000    0.000    0.000
   10.250   75.005    0.001    0.568    0.000    0.000    0.000
   10.500   88.120    0.001    0.560    0.000    0.000    0.000
   10.750   77.341    0.001    0.515    0.000    0.000    0.000
   11.000   69.723    0.004    0.484    0.000    0.000    0.000
   11.250   61.455    0.024    0.470    0.000    0.000    0.000
   11.500   80.847    0.045    0.612    0.000    0.000    0.000
   11.750   93.940    0.089    0.568    0.000    0.000    0.000
   12.000   88.205    0.197    0.527    0.000    0.000    0.000
   12.250   83.097    0.278    0.568    0.000    0.000    0.000
   12.500   83.638    0.348    0.544    0.000    0.000    0.000
   12.750  101.774    0.344    0.526    0.000    0.000    0.000
   13.000  107.336    0.350    0.562    0.000    0.000    0.000
   13.250  104.738    0.355    0.631    0.000    0.000    0.000
   13.500  109.673    0.352    0.630    0.000    0.000    0.000
   13.750   98.916    0.349    0.675    0.000    0.000    0.000
   14.000  105.106    0.349    0.695    0.000    0.000    0.000
   14.250  108.785    0.350    0.655    0.000    0.000    0.000
   14.500   95.496    0.351    0.625    0.000    0.000    0.000
   14.750   97.919    0.356    0.595    0.000    0.000    0.000
   15.000  112.290    0.361    0.611   12.788    0.000    0.000
   15.250  104.044    0.357    0.660   13.502    0.000    0.000
   15.500  100.797    0.363    0.620   12.490    0.000    0.000
   15.750   86.253    0.362    0.654   10.707    0.000    0.000
   16.000   88.071    0.343    0.620   10.093    0.000    0.000
   16.250   93.611    0.343    0.684    9.509    0.000    0.000
   16.500   94.801    0.324    0.699    8.969    0.000    0.000
   16.750   95.970    0.322    0.630    9.655    0.000    0.000
   17.000   90.862    0.342    0.587   11.410    0.000  167.094
   17.250  102.700    0.361    0.665   10.756    0.000  167.585
   17.500   98.220    0.329    0.659   11.150    0.000  165.037
   17.750   98.761    0.245    0.685   12.938    0.000  163.126
   18.000   87.961    0.243    0.612   12.429    0.000  164.809
   18.250   90.384    0.263    0.575   12.628    0.000  165.266
   18.500   84.671    0.323    0.616   11.688    0.000  162.735
   18.750   79.541    0.337    0.653   11.443    0.000  160.792
   19.000   81.987    0.329    0.650   12.081    0.000  160.678
   19.250  102.611    0.308    0.676   11.605    0.000  156.938
   19.500   97.504    0.284    0.730    9.580    0.000  160.433
   19.750  106.853    0.266    0.732   10.108    0.000  163.341
   20.000  106.744    0.284    0.692    9.351    0.000  163.194
   20.250  100.987    0.304    0.666    9.872    0.000  158.833
   20.500   99.667    0.297    0.664   10.830    0.000  162.361
   20.750  104.623    0.291    0.653   11.881    0.000  167.686
   21.000  100.748    0.286    0.689   10.577    0.000  167.539
   21.250  105.055    0.286    0.714    9.971    0.000  163.163
   21.500  108.128    0.293    0.610   10.932    0.000  166.086
   21.750  107.414    0.305    0.581   11.326    0.000  165.956
   22.000  115.486    0.316    0.586   10.281    0.000  165.858
   22.250  103.453    0.318    0.566   10.446    0.000  158.476
   22.500   84.515    0.310    0.514   11.035    0.000  157.137
   22.750   91.332    0.307    0.501   12.099    0.000  153.969
   23.000   95.639    0.291    0.503   11.845    0.000  152.662
   23.250   94.297    0.301    0.578   10.957    0.000  152.532
   23.500  107.412    0.345    0.626   11.788    0.000  153.610
   23.750  118.644    0.340    0.465   12.213    0.000  152.271
   24.000  103.472    0.321    0.462   13.140    0.000  149.740
   24.250  114.683    0.315    0.568   13.351    0.000  148.401
   24.500   86.959    0.320    0.720   12.357    0.000  149.495
   24.750   98.169    0.336    0.697   11.008    0.000  154.820
   25.000  118.838    0.344    0.692   12.062    0.000  150.443
   25.250  109.942    0.338    0.717   11.158    0.000  153.955
   25.500   90.983    0.342    0.748   10.929    0.000  147.798
   25.750   92.173    0.308    0.729   13.929    0.000  149.464
   26.000   97.735    0.298    0.638   12.885    0.000  148.729
   26.250   97.021    0.308    0.602   12.378    0.000  152.862
   26.500   99.445    0.323    0.646   12.117    0.000  152.127
   26.750  108.794    0.323    0.653   10.999    0.000  155.622
   27.000  106.175    0.330    0.678    9.804    0.000  152.470
   27.250  112.386    0.340    0.733    9.058    0.000  152.961
   27.500  119.203    0.348    0.680   10.517    0.000  152.847
   27.750  114.723    0.348    0.696   11.981    0.000  157.567
   28.000  101.434    0.337    0.730   13.387    0.000  155.607
   28.250  100.092    0.322    0.700   13.105    0.000  152.472
   28.500   94.335    0.306    0.615   12.116    0.000  149.320
   28.750  107.450    0.315    0.563   11.214    0.000  146.772
   29.000  124.331    0.334    0.558   10.168    0.000  153.926
   29.250  111.670    0.344    0.575    9.954    0.000  150.758
   29.500  112.838    0.343    0.678   10.716    0.000  147.606
   29.750  108.986    0.327    0.676   11.973    0.000  146.871
   30.000  105.761    0.304    0.631   11.069    0.000  146.153
   30.250  111.322    0.298    0.603   10.239    0.000  147.247
   30.500   94.896    0.314    0.680    9.294    0.000  147.737
   30.750  118.053    0.323    0.728    8.442    0.000  149.404
   31.000  114.200    0.323    0.633    8.259    0.000  151.707
   31.250  129.198    0.318    0.586    9.589    0.000  149.763
   31.500  110.888    0.310    0.588   13.188    0.000  150.874
   31.750   80.004    0.317    0.574   12.432    0.000  147.722
   32.000  105.672    0.296    0.567   11.719    0.000  150.613
   32.250  104.958    0.290    0.592   13.857    0.000  152.312
   32.500   94.829    0.283    0.568   16.385    0.000  156.396
   32.750   94.742    0.246    0.568   15.166    0.000  151.463
   33.000   97.166    0.289    0.596   12.278    0.000  150.108
