~VERSION INFORMATION
 VERS.                 2.0:   CWLS LOG ASCII STANDARD -VERSION 2.0
 WRAP.                  NO:   ONE LINE PER DEPTH STEP
~WELL INFORMATION BLOCK
#MNEM.UNIT           DATA                    DESCRIPTION OF MNEMONIC
#---------    -------------------            -------------------------------
# Generated from Intellog Unique Number	CS_77_79/WELL/949
WELL.         PEX PCEJ THORNBURY OV          : Well_name    - WELL
LOC .         AA/10-11-079-12W4/0            : Location     - LOCATION
UWI .         AA/10-11-079-12W4/0            : Uwi          - UNIQUE WELL ID
ENTR.         JHS                            : Entered      - ENTERED BY
SRVC.         SCHLUMBERGER                   : Scn          - SERVICE COMPANY
STRT.M        250                            : top_depth    - START DEPTH
STOP.M        465                            : bot_depth    - STOP DEPTH
STEP.M        0.25                           : increment    - STEP LENGTH
 NULL. -999.2500:NULL Value
~CURVE INFORMATION BLOCK
#MNEM UNIT       ERCB CURVE CODE    CURVE DESCRIPTION
#-----------   ------------------   ----------------------------------
DEPT.M        00 001 00 00         : DEPTH        - DEPTH
DPHI.V/V      00 890 00 00         : PHID         - DENSITY POROSITY (LIMESTONE)
NPHI.V/V      00 330 00 00         : PHIN         - NEUTRON POROSITY (LIMESTONE)
GR  .API      00 310 00 00         : GR           - GAMMA RAY
ILD .OHMM     00 120 00 00         : RESD         - DEEP RESISTIVITY (DIL)
RHOB.KG/M3    00 350 00 00         : DENS         - BULK DENSITY
~PARAMETER INFORMATION
#MNEM.UNIT           DATA             DESCRIPTION OF MNEMONIC
#---------         -----------     ------------------------------
GL  .M        640                  : gl           - GROUND LEVEL ELEVATION
EREF.M        643.5                : kb           - ELEVATION OF DEPTH REFERENCE
DATM.M        643.5                : datum        - DATUM ELEVATION
TDD .M        474                  : tdd          - TOTAL DEPTH DRILLER
RUN .         ONE                  : Run          - RUN NUMBER
ENG .         BILL                 : Engineer     - RECORDING ENGINEER
WIT .         JIM                  : Witness      - WITNESSED BY
MUD .         GEL                  : Mud_type     - MUD TYPE
MATR.         LIMESTONE            : Logunit      - NEUTRON MATRIX
TMAX.C        26                   : BHT          - MAXIMUM RECORDED TEMPERATURE
BHTD.M        474                  : BHTDEP       - MAXIMUM RECORDED TEMPERATURE
MATR.         1                    : LOGUNIT      - NEUTRON MATRIX
RMT .C        25                   : MDTP         - TEMPERATURE OF MUD
NEUT.         1                    : NEUTRON      - NEUTRON TYPE
RESI.         0                    : RESIST       - RESISTIVITY TYPE
RMC .OHMM     0.25                 : RMC          - RESISTIVITY OF MUD CAKE
RMF .OHMM     0.25                 : RMF          - RESISTIVITY OF MUD FILTRATE
SUFT.C        15                   : SUFT         - SURFACE TEMPERATURE
~A  DEPTH     PHID     PHIN       GR     RESD     DENS
# ...
  396.000    0.269    0.453   69.064    7.911    0.000
  396.250    0.259    0.457   67.843    7.474    0.000
  396.500    0.254    0.444   64.747    7.196    0.000
  396.750    0.257    0.436   64.764    6.798    0.000
  397.000    0.270    0.435   67.268    6.670    0.000
  397.250    0.277    0.414   67.911    6.544    0.000
  397.500    0.284    0.417   63.574    6.421    0.000
  397.750    0.284    0.424   62.345    6.543    0.000
  398.000    0.280    0.414   66.099    6.542    0.000
  398.250    0.274    0.415   64.249    6.667    0.000
  398.500    0.269    0.414   65.510    6.794    0.000
  398.750    0.266    0.428   71.133    6.793    0.000
  399.000    0.272    0.434   69.286    6.793    0.000
  399.250    0.286    0.423   66.810    6.792    0.000
  399.500    0.286    0.415   71.812    6.791    0.000
  399.750    0.281    0.416   70.581    6.664    0.000
  400.000    0.270    0.413   72.467    6.663    0.000
  400.250    0.257    0.401   73.730    6.537    0.000
  400.500    0.251    0.395   68.145    6.414    0.000
  400.750    0.251    0.399   67.544    6.414    0.000
  401.000    0.260    0.406   68.803    6.413    0.000
  401.250    0.268    0.404   73.179    6.413    0.000
  401.500    0.268    0.401   70.709    6.534    0.000
  401.750    0.261    0.415   69.479    6.534    0.000
  402.000    0.255    0.425   71.988    6.658    0.000
  402.250    0.256    0.429   69.515    6.657    0.000
  402.500    0.262    0.420   72.025    6.784    0.000
  402.750    0.262    0.431   71.426    6.783    0.000
  403.000    0.253    0.453   74.555    6.783    0.000
  403.250    0.254    0.428   72.701    6.782    0.000
  403.500    0.263    0.440   70.851    6.782    0.000
  403.750    0.262    0.427   71.494    7.043    0.000
  404.000    0.257    0.433   70.265    6.910    0.000
  404.250    0.258    0.438   72.158    6.910    0.000
  404.500    0.253    0.424   70.927    6.909    0.000
  404.750    0.246    0.424   70.948    6.779    0.000
  405.000    0.237    0.422   71.583    6.526    0.000
  405.250    0.232    0.415   76.579    6.166    0.000
  405.500    0.232    0.404   78.465    6.050    0.000
  405.750    0.236    0.392   76.615    6.049    0.000
  406.000    0.238    0.378   78.500    6.049    0.000
  406.250    0.261    0.404   81.010    6.164    0.000
  406.500    0.298    0.404   81.649    6.281    0.000
  406.750    0.325    0.410   80.424    6.647    0.000
  407.000    0.322    0.408   85.423    6.903 2160.070
  407.250    0.228    0.404   89.176    6.773 2320.240
  407.500    0.239    0.416   88.567    6.399 2301.360
  407.750    0.255    0.432   80.495    5.931 2274.030
  408.000    0.266    0.441   77.399    5.820 2255.150
  408.250    0.268    0.415   72.441    5.819 2250.980
  408.500    0.262    0.409   72.458    5.930 2261.580
  408.750    0.246    0.401   73.097    6.158 2289.050
  409.000    0.236    0.406   71.873    6.395 2305.950
  409.250    0.233    0.412   68.785    6.517 2312.330
  409.500    0.241    0.406   66.935    7.029 2297.660
  409.750    0.247    0.411   65.082    7.581 2287.200
  410.000    0.232    0.409   70.699    8.023 2312.520
  410.250    0.187    0.400   80.676    8.491 2390.540
  410.500    0.168    0.391   85.051    8.331 2422.210
  410.750    0.155    0.385   86.935    8.021 2445.430
  411.000    0.121    0.372   80.729    7.722 2502.370
  411.250    0.089    0.312   68.922    7.434 2557.210
  411.500    0.083    0.302   68.321    7.158 2567.810
  411.750    0.174    0.433   75.805    6.891 2411.980
  412.000    0.162    0.448   82.669    6.762 2433.120
  412.250    0.158    0.428   85.176    6.761 2439.490
  412.500    0.200    0.422   85.820    6.760 2367.940
  412.750    0.217    0.427   88.328    6.889 2338.500
  413.000    0.232    0.434   88.344    7.020 2313.290
  413.250    0.232    0.444   87.737    7.153 2313.350
  413.500    0.206    0.445   90.867    7.571 2357.660
  413.750    0.194    0.465   90.264    7.715 2378.780
  414.000    0.200    0.455   87.169    7.861 2368.310
  414.250    0.224    0.460   88.440    7.713 2326.250
  414.500    0.235    0.452   89.694    7.568 2307.340
  414.750    0.218    0.435   94.070    7.286 2336.910
  415.000    0.205    0.416   90.976    7.149 2360.150
  415.250    0.213    0.410   96.594    7.148 2345.460
  415.500    0.330    0.464   91.012    7.148 2145.390
  415.750    0.398    0.466   92.275    7.013 2029.590
  416.000    0.408    0.480   88.558    6.501 2012.810
  416.250    0.408    0.458   85.465    6.142 2012.860
  416.500    0.409    0.453   90.467    5.694 2010.830
  416.750    0.417    0.474   83.636    5.379 1996.140
  417.000    0.430    0.486   78.673    4.893 1975.140
  417.250    0.448    0.516   75.583    4.367 1943.600
  417.500    0.467    0.512   73.730    3.825 1912.060
  417.750    0.435    0.497   73.134    3.226 1966.910
  418.000    0.423    0.489   73.767    2.720 1985.920
  418.250    0.390    0.460   74.407    2.383 2042.870
  418.500    0.363    0.517   77.539    2.251 2089.280
  418.750    0.393    0.544   75.688    2.167 2038.780
  419.000    0.510    0.545   74.465    2.208 1838.710
  419.250    0.533    0.561   71.368    2.293 1798.760
  419.500    0.509    0.548   70.763    2.427 1838.840
  419.750    0.487    0.538   70.166    2.668 1876.840
  420.000    0.472    0.525   70.180    3.163 1902.170
  420.250    0.385    0.513   72.687    3.969 2051.810
  420.500    0.375    0.512   76.438    4.531 2068.740
  420.750    0.368    0.490   80.200    5.271 2081.420
  421.000    0.359    0.469   72.739    5.904 2096.230
  421.250    0.369    0.473   80.855    6.368 2079.450
  421.500    0.387    0.465   82.113    6.489 2047.910
  421.750    0.403    0.457   80.261    6.367 2020.590
  422.000    0.413    0.455   83.397    5.902 2003.800
  422.250    0.394    0.475   78.432    5.268 2035.460
  422.500    0.348    0.466   81.564    4.792 2115.570
  422.750    0.335    0.461   85.316    4.613 2136.710
  423.000    0.373    0.481   81.596    5.367 2071.460
  423.250    0.400    0.468   75.393    5.789 2025.180
  423.500    0.379    0.462   81.642    6.863 2061.060
  423.750    0.404    0.455   82.895    7.402 2019.000
  424.000    0.285    0.430   84.162    7.543 2223.390
  424.250    0.190    0.402   77.333    6.861 2385.670
  424.500    0.159    0.379   78.599    5.467 2438.400
  424.750    0.236    0.367   77.992    4.698 2305.740
  425.000    0.263    0.447   78.636    4.194 2259.470
  425.250    0.299    0.481   84.254    3.962 2198.430
  425.500    0.359    0.507   86.137    3.814 2095.270
  425.750    0.331    0.529   85.535    3.672 2143.800
  426.000    0.329    0.517   88.039    3.672 2148.070
  426.250    0.337    0.499   88.680    3.742 2133.380
  426.500    0.346    0.492   89.941    3.960 2118.700
  426.750    0.347    0.507   93.075    4.353 2116.660
  427.000    0.320    0.489   89.355    4.607 2163.070
  427.250    0.296    0.481   86.887    4.875 2203.160
  427.500    0.305    0.500   89.393    4.968 2188.490
  427.750    0.318    0.497   88.786    4.874 2165.380
  428.000    0.325    0.474   82.580    4.874 2154.890
  428.250    0.325    0.456   91.936    4.874 2154.970
  428.500    0.331    0.445   95.689    4.966 2144.490
  428.750    0.307    0.435   98.195    5.256 2184.580
  429.000    0.289    0.449   95.104    5.669 2216.240
  429.250    0.303    0.472   88.273    6.114 2191.030
  429.500    0.312    0.459   88.290    6.470 2176.350
  429.750    0.282    0.435   87.690    6.979 2226.970
  430.000    0.254    0.412   91.439    7.671 2275.490
  430.250    0.258    0.415   93.324    8.273 2269.230
  430.500    0.300    0.422   90.854    8.923 2197.670
  430.750    0.325    0.417   94.607    9.808 2153.500
  431.000    0.335    0.398  100.223   10.578 2136.700
  431.250    0.366    0.397   79.082   11.409 2084.100
  431.500    0.373    0.405   77.857   12.075 2071.520
  431.750    0.264    0.386   84.104   12.539 2259.070
  432.000    0.234    0.361   85.361   12.538 2309.700
  432.250    0.262    0.355   84.760   12.302 2261.310
