~VERSION INFORMATION
 VERS.                 2.0:   CWLS LOG ASCII STANDARD -VERSION 2.0
 WRAP.                  NO:   ONE LINE PER DEPTH STEP
~WELL INFORMATION BLOCK
#MNEM.UNIT           DATA                    DESCRIPTION OF MNEMONIC
#---------    -------------------            -------------------------------
# Generated from Intellog Unique Number	CN_94_101/WELL/5041
WELL.         MOBIL OIL OF CANADA LTD.       : Well_name    - WELL
LOC .         AA/15-15-097-13W4/0            : Location     - LOCATION
UWI .         AA/15-15-097-13W400            : Uwi          - UNIQUE WELL ID
ENTR.         JOETTE                         : Entered      - ENTERED BY
SRVC.         SCHLUMBERGER                   : Scn          - SERVICE COMPANY
DATE.         08/17/92                       : Date         - LOG DATE
STRT.M        45.72                          : top_depth    - START DEPTH
STOP.M        283.47                         : bot_depth    - STOP DEPTH
STEP.M        0.25                           : increment    - STEP LENGTH
 NULL. -999.2500:NULL Value
~CURVE INFORMATION BLOCK
#MNEM UNIT       ERCB CURVE CODE    CURVE DESCRIPTION
#-----------   ------------------   ----------------------------------
DEPT.M        00 001 00 00         : DEPTH        - DEPTH
ILD .OHMM     00 120 00 00         : RESD         - DEEP RESISTIVITY (DIL)
GR  .API      00 310 00 00         : GR           - GAMMA RAY
NPHI.V/V      00 330 00 00         : PHIN         - NEUTRON POROSITY (SANDSTONE)
~PARAMETER INFORMATION
#MNEM.UNIT           DATA             DESCRIPTION OF MNEMONIC
#---------         -----------     ------------------------------
GL  .M        484.632              : gl           - GROUND LEVEL ELEVATION
EREF.M        484.632              : kb           - ELEVATION OF DEPTH REFERENCE
DATM.M        484.632              : datum        - DATUM ELEVATION
TDD .M        281.026              : tdd          - TOTAL DEPTH DRILLER
RUN .         ONE                  : Run          - RUN NUMBER
ENG .         BILL                 : Engineer     - RECORDING ENGINEER
WIT .         JIM                  : Witness      - WITNESSED BY
MUD .         GEL                  : Mud_type     - MUD TYPE
MATR.         SANDSTONE            : Logunit      - NEUTRON MATRIX
TMAX.C        12.2222              : BHT          - MAXIMUM RECORDED TEMPERATURE
BHTD.M        281.026              : BHTDEP       - MAXIMUM RECORDED TEMPERATURE
RMT .C        12.2222              : MDTP         - TEMPERATURE OF MUD
MUDD.KG/M     0                    : MWT          - MUD DENSITY
NEUT.         1                    : NEUTRON      - NEUTRON TYPE
RESI.         0                    : RESIST       - RESISTIVITY TYPE
RM  .OHMM     5.2                  : RM           - RESISTIVITY OF MUD
RMC .OHMM     5.2                  : RMC          - RESISTIVITY OF MUD CAKE
RMF .OHMM     5.2                  : RMF          - RESISTIVITY OF MUD FILTRATE
SUFT.C        4                    : SUFT         - SURFACE TEMPERATURE
~A  DEPTH     RESD       GR     PHIN
# ...
  208.470   10.942   93.271    0.465
  208.720   13.876   95.526    0.465
  208.970   22.986   99.563    0.467
  209.220   16.115  100.932    0.472
  209.470    6.711   98.768    0.479
  209.720    5.661   95.698    0.477
  209.970    5.684   93.966    0.479
  210.220    5.367   95.346    0.484
  210.470    5.383   98.476    0.477
  210.720    5.066  103.841    0.536
  210.970    5.097  107.435    0.536
  211.220    5.135  105.704    0.533
  211.470    5.514   94.219    0.538
  211.720    7.359   82.734    0.537
  211.970   12.478   81.002    0.514
  212.220   13.960   80.177    0.480
  212.470   14.362   78.446    0.451
  212.720   14.748   80.258    0.437
  212.970   15.149   82.945    0.438
  213.220   16.631   92.297    0.451
  213.470   21.743   89.237    0.443
  213.720   16.330   75.980    0.436
  213.970    9.096   64.948    0.431
  214.220    6.224   62.774    0.431
  214.470    5.536   62.824    0.436
  214.720    5.583   61.093    0.478
  214.970    5.606   59.372    0.485
  215.220    6.000   61.164    0.484
  215.470    6.393   71.401    0.486
  215.720    6.779   81.648    0.494
  215.970    8.625   91.885    0.488
  216.220   12.292   91.019    0.472
  216.470   15.226   88.845    0.471
  216.720   16.708   85.805    0.473
  216.970   13.110   85.836    0.473
  217.220   10.964   90.748    0.466
  217.470    8.817   94.331    0.458
  217.720    8.130   93.929    0.466
  217.970    8.153   90.869    0.489
  218.220    7.837   86.923    0.495
  218.470    7.860   82.987    0.496
  218.720    7.914   79.917    0.504
  218.970    7.929   76.858    0.479
  219.220    8.315   80.008    0.482
  219.470    8.724   91.574    0.484
  219.720    9.111   91.171    0.485
  219.970   10.956   88.121    0.487
  220.220   12.075   86.833    0.486
  220.470   11.018   88.645    0.480
  220.720    9.242   91.796    0.462
  220.970    9.635   92.702    0.463
  221.220   11.126   94.544    0.470
  221.470   14.052   94.121    0.478
  221.720   75.070   91.061    0.479
  221.970   47.514   88.887    0.471
  222.220   39.199   87.156    0.437
  222.470   17.804   87.649    0.427
  222.720   14.932   91.223    0.389
  222.970   18.599   93.487    0.374
  223.220   21.533   89.099    0.379
  223.470   21.934   75.842    0.398
  223.720   19.780   70.568    0.414
  223.970   16.908   66.179    0.417
  224.220   15.487   62.687    0.423
  224.470   17.333   61.841    0.426
  224.720   19.549   61.871    0.427
  224.970   18.854   63.240    0.427
  225.220   20.336   65.052    0.427
  225.470   24.003   63.794    0.433
  225.720   22.583   63.814    0.434
  225.970   22.976   65.183    0.429
  226.220   23.007   67.891    0.425
  226.470   21.587   69.693    0.430
  226.720   18.722   72.421    0.425
  226.970   17.301   72.441    0.420
  227.220   18.058   72.492    0.412
  227.470   16.630   72.079    0.405
  227.720   15.942   70.801    0.413
  227.970   16.691   70.398    0.420
  228.220   18.189   69.986    0.418
  228.470   17.479   70.036    0.414
  228.720   15.332   70.076    0.418
  228.970   15.371   70.117    0.413
  229.220   16.128   70.167    0.408
  229.470   17.973   70.640    0.409
  229.720   19.100   72.009    0.422
  229.970   16.946   74.717    0.433
  230.220   12.259   75.653    0.428
  230.470   11.935   75.241    0.420
  230.720   15.595   73.952    0.409
  230.970   15.996   73.117    0.405
  231.220   15.664   72.704    0.404
  231.470   16.421   72.322    0.405
  231.720   17.532   73.238    0.407
  231.970   16.837   76.379    0.435
  232.220   17.231   77.325    0.448
  232.470   15.810   76.459    0.457
  232.720   13.664   75.181    0.463
  232.970   17.331   74.768    0.456
  233.220   21.717   73.490    0.451
  233.470   22.474   73.993    0.443
  233.720   19.246   74.457    0.436
  233.970   25.454   75.826    0.437
  234.220   22.211   78.090    0.437
  234.470   16.791   77.698    0.432
  234.720   22.273   77.285    0.425
  234.970   26.666   75.564    0.424
  235.220   23.786   74.276    0.422
  235.470   19.462   73.873    0.417
  235.720   15.864   73.481    0.410
  235.970   12.637   73.501    0.419
  236.220   10.845   73.541    0.434
  236.470   10.876   73.582    0.445
  236.720   38.502   72.746    0.445
  236.970   30.186   72.787    0.440
  237.220   15.694   75.484    0.439
  237.470   12.822   78.625    0.445
  237.720   13.586   82.661    0.450
  237.970   17.601   80.497    0.452
  238.220   33.969   77.870    0.440
  238.470   17.308   75.263    0.421
  238.720   13.339   73.532    0.419
  238.970   12.659   73.572    0.425
  239.220   14.134   76.260    0.435
  239.470   24.689   79.874    0.440
  239.720   16.736   75.908    0.454
  239.970   17.137   71.519    0.453
  240.220   21.523   72.898    0.445
  240.470   29.908   76.482    0.441
  240.720   42.277   80.055    0.432
  240.970   56.468   84.535    0.425
  241.220   17.292   81.928    0.421
  241.470   19.878   79.743    0.429
  241.720   19.538   80.237    0.425
  241.970   18.844   82.482    0.422
  242.220   21.052   80.750    0.424
  242.470   21.083   67.514    0.421
  242.720   21.847   64.897    0.402
  242.970   26.950   63.619    0.402
  243.220   43.689   64.535    0.409
  243.470   18.303   66.779    0.418
  243.720   20.874   68.601    0.427
  243.970   25.630   67.313    0.429
  244.220   24.943   65.159    0.419
  244.470   33.691   65.179    0.416
  244.720   41.334   65.230    0.413
  244.970   23.213   67.505    0.411
  245.220   23.970   68.411    0.410
  245.470   18.557   68.894    0.409
  245.720   18.588   66.730    0.410
  245.970   15.361   64.999    0.412
  246.220   17.932   64.143    0.417
  246.470   19.785   63.751    0.421
  246.720   17.268   65.120    0.426
  246.970   15.129   66.036    0.428
  247.220   16.611   67.858    0.430
  247.470   17.723   74.109    0.433
  247.720   28.648   74.582    0.433
  247.970   31.219   75.951    0.432
  248.220   25.807   77.330    0.430
  248.470   30.555   77.330    0.422
  248.720   27.683   71.230    0.413
  248.970   25.174   75.689    0.412
  249.220   97.457   75.730    0.412
  249.470   46.661   74.884    0.410
  249.720   56.860   73.153    0.403
  249.970   64.874   71.422    0.399
  250.220   38.407   69.238    0.399
  250.470   54.420   66.621    0.401
  250.720   71.144   63.138    0.402
  250.970   60.280   62.272    0.404
  251.220   57.045   60.118    0.404
  251.470   68.696   59.273    0.406
  251.720   69.090   60.199    0.408
  251.970   49.154   60.229    0.408
  252.220   21.606   59.384    0.405
  252.470   28.895   58.991    0.402
  252.720   30.377   61.236    0.401
  252.970   27.868   63.954    0.404
  253.220   19.545   64.870    0.413
  253.470   17.035   66.692    0.422
  253.720   22.162   68.071    0.433
  253.970   21.096   67.216    0.446
  254.220   31.296   64.609    0.442
  254.470   37.858   65.968    0.432
  254.720   37.889   68.665    0.407
  254.970   47.000   69.149    0.400
  255.220   51.393   69.199    0.397
  255.470   48.513   68.344    0.399
  255.720   52.181   66.179    0.389
  255.970   32.963   63.995    0.377
  256.220   24.648   59.607    0.375
  256.470   21.050   58.771    0.373
  256.720   14.549   59.718    0.368
  256.970   19.297   59.718    0.359
  257.220   20.417   60.231    0.350
  257.470   18.996   61.147    0.342
  257.720   16.487   60.745    0.341
  257.970   13.614   58.127    0.350
  258.220   14.742   56.396    0.356
  258.470    5.330   56.467    0.365
  258.720   13.352   56.487    0.424
  258.970   24.285   57.866    0.423
  259.220   17.768   59.245    0.417
  259.470   15.622   61.047    0.416
  259.720   14.572   65.084    0.423
  259.970   15.691   66.000    0.430
  260.220   15.730   64.721    0.436
  260.470   13.938   64.762    0.443
  260.720   12.155   66.564    0.437
  260.970    9.645   72.382    0.426
  261.220    8.588   78.612    0.412
  261.470   10.796   87.078    0.391
  261.720   13.367   89.333    0.399
  261.970   12.309   85.387    0.423
  262.220   13.073   83.213    0.441
  262.470   16.370   78.834    0.434
