~VERSION INFORMATION
 VERS.                 2.0:   CWLS LOG ASCII STANDARD -VERSION 2.0
 WRAP.                  NO:   ONE LINE PER DEPTH STEP
~WELL INFORMATION BLOCK
#MNEM.UNIT           DATA                    DESCRIPTION OF MNEMONIC
#---------    -------------------            -------------------------------
# Generated from Intellog Unique Number	CN_91_93/WELL/1061
WELL.         PETRO-CANADA                   : Well_name    - WELL
LOC .         AA/10-26-091-16W4/0            : Location     - LOCATION
UWI .         AA/10-26-091-16W400            : Uwi          - UNIQUE WELL ID
ENTR.         JOETTE                         : Entered      - ENTERED BY
SRVC.         SCHLUMBERGER                   : Scn          - SERVICE COMPANY
DATE.         02/11/92                       : Date         - LOG DATE
STRT.F        250                            : top_depth    - START DEPTH
STOP.F        739.665                        : bot_depth    - STOP DEPTH
STEP.F        0.82                           : increment    - STEP LENGTH
 NULL. -999.2500:NULL Value
~CURVE INFORMATION BLOCK
#MNEM UNIT       ERCB CURVE CODE    CURVE DESCRIPTION
#-----------   ------------------   ----------------------------------
DEPT.F        00 001 00 00         : DEPTH        - DEPTH
GR  .API      00 310 00 00         : GR           - GAMMA RAY
CALI.MM       00 280 01 00         : CAL          - CALIPER
NPHI.V/V      00 330 00 00         : PHIN         - NEUTRON POROSITY (SANDSTONE)
DPHI.V/V      00 890 00 00         : PHID         - DENSITY POROSITY (SANDSTONE)
ILD .OHMM     00 120 00 00         : RESD         - DEEP RESISTIVITY (DIL)
~PARAMETER INFORMATION
#MNEM.UNIT           DATA             DESCRIPTION OF MNEMONIC
#---------         -----------     ------------------------------
GL  .F        1592.8               : gl           - GROUND LEVEL ELEVATION
EREF.F        1604.2               : kb           - ELEVATION OF DEPTH REFERENCE
DATM.F        1604.2               : datum        - DATUM ELEVATION
TDD .F        780                  : tdd          - TOTAL DEPTH DRILLER
RUN .         ONE                  : Run          - RUN NUMBER
ENG .         BILL                 : Engineer     - RECORDING ENGINEER
WIT .         JIM                  : Witness      - WITNESSED BY
MUD .         GEL                  : Mud_type     - MUD TYPE
MATR.         SANDSTONE            : Logunit      - NEUTRON MATRIX
TMAX.F        64                   : BHT          - MAXIMUM RECORDED TEMPERATURE
BHTD.F        780                  : BHTDEP       - MAXIMUM RECORDED TEMPERATURE
RMT .F        60                   : MDTP         - TEMPERATURE OF MUD
MUDD.LB/G     9.7                  : MWT          - MUD DENSITY
NEUT.         1                    : NEUTRON      - NEUTRON TYPE
RESI.         0                    : RESIST       - RESISTIVITY TYPE
RM  .OHMM     3.49                 : RM           - RESISTIVITY OF MUD
RMC .OHMM     3.49                 : RMC          - RESISTIVITY OF MUD CAKE
RMF .OHMM     3.49                 : RMF          - RESISTIVITY OF MUD FILTRATE
SUFT.F        39.2                 : SUFT         - SURFACE TEMPERATURE
~A  DEPTH       GR      CAL     PHIN     PHID     RESD
# ...
  369.751   84.075  194.833    0.540    0.309    5.391
  370.571   84.727  196.550    0.523    0.305    5.512
  371.391   85.081  199.614    0.519    0.287    5.726
  372.211   83.056  201.709    0.515    0.271    5.896
  373.031   83.716  201.829    0.508    0.265    5.960
  373.852   90.063  200.455    0.506    0.266    5.645
  374.672   88.932  199.540    0.541    0.266    5.396
  375.492   87.794  199.672    0.564    0.271    5.396
  376.312   88.761  199.765    0.550    0.267    5.309
  377.133   92.704  197.371    0.511    0.263    5.028
  377.953   97.252  184.060    0.503    0.187    5.082
  378.773   95.832  180.684    0.525    0.195    5.966
  379.593   94.992  179.809    0.544    0.236    5.703
  380.413   95.047  179.809    0.553    0.225    4.781
  381.234   95.417  179.994    0.555    0.202    4.569
  382.054  104.136  180.126    0.527    0.165    4.326
  382.874  105.990  180.206    0.542    0.176    3.838
  383.694  102.778  179.827    0.557    0.217    3.634
  384.514  102.253  179.946    0.577    0.226    3.634
  385.335  101.704  180.523    0.566    0.226    3.449
  386.155   95.799  180.629    0.580    0.217    3.355
  386.975   83.917  178.261    0.603    0.214    3.297
  387.795   60.686  172.883    0.608    0.176    3.303
  388.615   54.789  170.004    0.549    0.125    4.255
  389.436   65.298  170.621    0.385    0.057    5.587
  390.256   78.202  172.703    0.370    0.052    7.832
  391.076   92.001  174.838    0.407    0.056    7.278
  391.896   84.903  174.917    0.471    0.102    5.879
  392.717   73.319  173.544    0.523    0.226    5.998
  393.537   70.108  171.647    0.460    0.250    7.177
  394.357   67.776  170.772    0.431    0.268    7.390
  395.177   62.460  170.367    0.395    0.227   10.166
  395.997   63.733  169.989    0.391    0.204   11.389
  396.818   63.796  169.584    0.409    0.205   11.949
  397.638   62.360  168.708    0.424    0.262   12.196
  398.458   60.334  167.833    0.428    0.298   12.100
  399.278   62.487  167.833    0.426    0.308   12.000
  400.098   63.147  168.058    0.436    0.304   12.000
  400.919   62.323  168.150    0.451    0.268   11.925
  401.739   59.999  168.820    0.446    0.248   11.942
  402.559   57.683  168.859    0.430    0.262   12.414
  403.379   55.932  168.978    0.426    0.277   13.521
  404.199   52.423  168.076    0.408    0.272   18.427
  405.020   49.808  167.201    0.338    0.202   30.850
  405.840   48.670  167.201    0.190    0.094   38.654
  406.660   54.702  166.955    0.251    0.004   38.357
  407.480   60.436  166.994    0.276    0.032   29.847
  408.301   71.251  169.090    0.348    0.118   19.816
  409.121   79.977  172.691    0.391    0.158   14.045
  409.941   85.429  180.258    0.422    0.191   11.454
  410.761   85.783  189.330    0.428    0.235    9.342
  411.581   84.653  189.933    0.427    0.214    9.179
  412.402   85.321  188.547    0.428    0.214    9.280
  413.222   85.973  185.681    0.437    0.207    9.741
  414.042   85.149  184.779    0.442    0.206   10.124
  414.862   89.399  185.409    0.425    0.190   10.524
  415.682   90.059  187.478    0.423    0.166   10.736
  416.503   87.131  192.571    0.433    0.203   10.263
  417.323   85.412  194.680    0.430    0.234   10.180
  418.143   85.177  193.778    0.438    0.230   11.298
  418.963   80.151  188.923    0.447    0.231   12.082
  419.783   74.842  181.541    0.430    0.228   12.095
  420.604   76.398  172.694    0.423    0.224   11.778
  421.424   75.574  168.821    0.423    0.198   11.364
  422.244   73.847  167.958    0.447    0.238   10.761
  423.064   73.612  167.958    0.452    0.263   10.381
  423.885   72.176  168.144    0.448    0.270   10.013
  424.705   73.150  169.755    0.433    0.257    9.842
  425.525   76.198  169.755    0.427    0.216    9.858
  426.345   75.367  170.557    0.431    0.244    9.858
  427.165   72.736  170.583    0.444    0.246    9.888
  427.986   79.970  170.689    0.455    0.245   10.572
  428.806   83.913  170.874    0.458    0.260   10.783
  429.626   85.767  170.901    0.443    0.259   10.783
  430.446   85.533  170.901    0.438    0.241   11.020
  431.266   82.620  171.179    0.438    0.221   11.034
  432.087   76.707  171.218    0.436    0.238   10.845
  432.907   74.391  171.311    0.433    0.240   10.660
  433.727   73.857  170.933    0.437    0.243   10.284
  434.547   73.324  171.052    0.449    0.252   10.016
  435.367   72.484  170.660    0.447    0.260    9.937
  436.188   70.466  171.277    0.439    0.276   10.043
  437.008   73.805  171.867    0.426    0.274   10.941
  437.828   78.950  172.968    0.435    0.253   11.694
  438.648   81.110  176.058    0.408    0.217   11.389
  439.469   85.046  181.648    0.388    0.154   10.885
  440.289   87.811  187.226    0.411    0.134   10.213
  441.109   88.770  191.821    0.427    0.170    9.671
  441.929   88.825  190.906    0.450    0.189    9.326
  442.749   86.203  186.548    0.467    0.235    9.081
  443.570   82.379  190.633    0.447    0.223    9.181
  444.390   78.563  192.742    0.440    0.219    9.908
  445.210   78.328  188.856    0.439    0.208   10.493
  446.030   74.520  181.487    0.399    0.171   10.708
  446.850   77.269  173.635    0.366    0.126   10.045
  447.671   78.526  170.770    0.409    0.205   10.060
  448.491   76.210  172.354    0.420    0.227   12.725
  449.311   72.088  174.974    0.383    0.235   13.985
  450.131   70.957  178.064    0.364    0.171   13.492
  450.951   71.924  190.094    0.368    0.118   12.307
  451.772   76.158  197.687    0.373    0.123   10.418
  452.592   88.465  209.233    0.385    0.152    7.883
  453.412   90.924  213.345    0.535    0.219    3.810
  454.232   92.488  214.432    0.590    0.287    3.286
  455.052   94.334  212.038    0.588    0.317    3.025
  455.873   93.510  196.214    0.545    0.281    3.357
  456.693   92.082  187.864    0.499    0.267    5.264
  457.513   93.347  186.504    0.462    0.227    6.659
  458.333   95.790  186.086    0.439    0.207    7.743
  459.154   94.652  186.272    0.451    0.202    8.757
  459.974   93.522  186.809    0.478    0.220    8.769
  460.794   92.698  187.923    0.488    0.231    8.700
  461.614   91.567  188.108    0.477    0.227    8.793
  462.434   86.848  187.650    0.459    0.230    9.577
  463.255   80.943  186.237    0.415    0.188   10.730
  464.075   82.805  182.377    0.373    0.128   11.797
  464.895   83.756  177.980    0.385    0.120   11.814
  465.715   82.924  171.149    0.417    0.173   11.614
  466.535   87.778  167.747    0.428    0.209   11.614
  467.356   86.947  164.371    0.435    0.237   11.334
  468.176   83.719  162.500    0.441    0.255   11.028
  468.996   84.097  162.686    0.429    0.258   10.842
  469.816   81.467  162.712    0.432    0.266   10.842
  470.636   81.523  162.712    0.439    0.271   10.875
  471.457   81.594  162.977    0.454    0.267   10.987
  472.277   77.778  163.056    0.461    0.261   11.107
  473.097   76.341  163.056    0.446    0.264   11.439
  473.917   74.606  163.268    0.447    0.260   11.781
  474.738   69.895  162.353    0.449    0.236   12.478
  475.558   66.683  162.353    0.419    0.224   13.721
  476.378   63.755  162.080    0.405    0.238   15.511
  477.198   60.528  160.694    0.371    0.183   19.805
  478.018   57.607  160.813    0.305    0.124   22.603
  478.839   59.767  160.919    0.303    0.113   27.034
  479.659   60.153  161.011    0.363    0.143   27.331
  480.479   59.604  160.633    0.374    0.233   26.117
  481.299   59.361  160.228    0.355    0.208   24.730
  482.119   61.215  157.376    0.361    0.193   23.862
  482.940   60.697  154.956    0.370    0.219   23.450
  483.760   59.551  154.564    0.355    0.228   23.479
  484.580   57.235  157.170    0.317    0.181   24.876
  485.400   54.605  157.170    0.291    0.133   30.592
  486.220   54.967  160.366    0.238    0.078   30.592
  487.041   55.934  166.938    0.234    0.062   41.408
  487.861   57.780  168.642    0.259    0.051   41.811
  488.681   62.045  169.179    0.286    0.071   38.138
