~VERSION INFORMATION
 VERS.                 2.0:   CWLS LOG ASCII STANDARD -VERSION 2.0
 WRAP.                  NO:   ONE LINE PER DEPTH STEP
~WELL INFORMATION BLOCK
#MNEM.UNIT           DATA                    DESCRIPTION OF MNEMONIC
#---------    -------------------            -------------------------------
# Generated from Intellog Unique Number	CX_WELLS/WELL/1172
WELL.         10-11-089-14W4                 : Well_name    - WELL
LOC .         AA/10-11-089-14W4/0            : Location     - LOCATION
UWI .         AA/10-11-089-14W400            : Uwi          - UNIQUE WELL ID
ENTR.         DW                             : Entered      - ENTERED BY
SRVC.         SCHLUMBERGER                   : Scn          - SERVICE COMPANY
STRT.M        70                             : top_depth    - START DEPTH
STOP.M        225                            : bot_depth    - STOP DEPTH
STEP.M        0.25                           : increment    - STEP LENGTH
 NULL. -999.2500:NULL Value
~CURVE INFORMATION BLOCK
#MNEM UNIT       ERCB CURVE CODE    CURVE DESCRIPTION
#-----------   ------------------   ----------------------------------
DEPT.M        00 001 00 00         : DEPTH        - DEPTH
GR  .API      00 310 00 00         : GR           - GAMMA RAY
NPHI.V/V      00 330 00 00         : PHIN         - NEUTRON POROSITY (SANDSTONE)
DPHI.V/V      00 890 00 00         : PHID         - DENSITY POROSITY (SANDSTONE)
ILD .OHMM     00 120 00 00         : RESD         - DEEP RESISTIVITY (DIL)
~PARAMETER INFORMATION
#MNEM.UNIT           DATA             DESCRIPTION OF MNEMONIC
#---------         -----------     ------------------------------
GL  .M        501.1                : gl           - GROUND LEVEL ELEVATION
EREF.M        504.1                : kb           - ELEVATION OF DEPTH REFERENCE
DATM.M        504.1                : datum        - DATUM ELEVATION
TDD .M        228                  : tdd          - TOTAL DEPTH DRILLER
RUN .         ONE                  : Run          - RUN NUMBER
ENG .         BILL                 : Engineer     - RECORDING ENGINEER
WIT .         JIM                  : Witness      - WITNESSED BY
MUD .         GEL                  : Mud_type     - MUD TYPE
MATR.         SANDSTONE            : Logunit      - NEUTRON MATRIX
TMAX.C        25                   : BHT          - MAXIMUM RECORDED TEMPERATURE
BHTD.M        230                  : BHTDEP       - MAXIMUM RECORDED TEMPERATURE
MATR.         1                    : LOGUNIT      - NEUTRON MATRIX
RMT .C        25                   : MDTP         - TEMPERATURE OF MUD
NEUT.         1                    : NEUTRON      - NEUTRON TYPE
RESI.         0                    : RESIST       - RESISTIVITY TYPE
RMC .OHMM     0.25                 : RMC          - RESISTIVITY OF MUD CAKE
RMF .OHMM     0.25                 : RMF          - RESISTIVITY OF MUD FILTRATE
SUFT.C        15                   : SUFT         - SURFACE TEMPERATURE
~A  DEPTH       GR     PHIN     PHID     RESD
# ...
  113.500   79.102    0.496    0.336   10.888
  113.750   79.747    0.499    0.337   10.898
  114.000   81.003    0.502    0.338   10.917
  114.250   82.856    0.502    0.338   10.927
  114.500   83.489    0.494    0.336   10.937
  114.750   84.135    0.487    0.334   10.949
  115.000   84.171    0.480    0.333   10.767
  115.250   84.219    0.481    0.332   10.776
  115.500   85.474    0.489    0.331   10.795
  115.750   86.119    0.505    0.328   10.802
  116.000   83.777    0.520    0.326   10.818
  116.250   82.629    0.535    0.322   10.830
  116.500   85.068    0.538    0.319   10.843
  116.750   88.128    0.530    0.318   10.653
  117.000   89.347    0.519    0.318   10.472
  117.250   90.591    0.513    0.318   10.098
  117.500   92.431    0.519    0.317    9.212
  117.750   94.882    0.528    0.314    8.097
  118.000   93.746    0.542    0.313    6.857
  118.250   93.794    0.552    0.313    6.140
  118.500   95.038    0.546    0.310    5.199
  118.750   98.074    0.536    0.311    4.832
  119.000  102.305    0.535    0.312    5.213
  119.250  105.939    0.532    0.314    5.621
  119.500  109.573    0.529    0.306    6.294
  119.750  117.402    0.544    0.283    6.540
  120.000  118.036    0.585    0.268    6.309
  120.250  118.682    0.590    0.270    5.649
  120.500  119.339    0.597    0.277    4.441
  120.750  119.387    0.615    0.278    3.903
  121.000  119.435    0.611    0.272    3.628
  121.250  119.495    0.595    0.255    3.770
  121.500  120.140    0.592    0.243    4.067
  121.750  120.774    0.595    0.231    4.225
  122.000  122.017    0.594    0.219    4.310
  122.250  123.272    0.598    0.221    4.159
  122.500  123.930    0.598    0.232    4.010
  122.750  122.759    0.585    0.238    4.091
  123.000  118.623    0.587    0.247    4.933
  123.250  112.097    0.586    0.247    5.731
  123.500  103.180    0.569    0.251    6.536
  123.750   96.056    0.522    0.252    7.594
  124.000   88.335    0.502    0.248    8.663
  124.250   84.796    0.482    0.254    9.703
  124.500   85.454    0.473    0.271   10.080
  124.750   88.490    0.475    0.283   10.278
  125.000   93.319    0.482    0.287   10.891
  125.250   93.953    0.493    0.272   10.894
  125.500   95.806    0.506    0.264   11.111
  125.750   97.049    0.507    0.271   11.128
  126.000   98.292    0.476    0.280   11.141
  126.250   97.755    0.462    0.282   11.154
  126.500   97.193    0.461    0.280   11.167
  126.750   96.070    0.460    0.275   10.974
  127.000   96.105    0.456    0.265   10.794
  127.250   96.141    0.460    0.260   10.804
  127.500   97.409    0.470    0.250   10.614
  127.750   98.628    0.481    0.237   10.630
  128.000  100.505    0.497    0.226   10.443
  128.250  100.529    0.506    0.231   10.452
  128.500  100.003    0.531    0.237   10.272
  128.750  100.027    0.536    0.238   10.287
  129.000  100.087    0.512    0.226   10.302
  129.250  100.732    0.499    0.214   10.121
  129.500  101.976    0.491    0.209   10.136
  129.750  102.609    0.480    0.218    9.961
  130.000  104.450    0.477    0.229    9.789
  130.250  107.498    0.487    0.236    9.620
  130.500  110.534    0.496    0.241    9.454
  130.750  112.375    0.502    0.247    9.117
  131.000  113.021    0.481    0.248    8.797
  131.250  113.069    0.482    0.249    8.485
  131.500  110.726    0.488    0.254    8.034
  131.750  108.383    0.492    0.256    7.896
  132.000  107.236    0.495    0.256    8.518
  132.250  106.089    0.494    0.247    9.187
  132.500  101.355    0.489    0.240    9.728
  132.750   98.415    0.479    0.230   10.109
  133.000   97.280    0.477    0.221   10.115
  133.250   97.316    0.480    0.206   10.127
  133.500   98.583    0.485    0.193    8.904
  133.750  100.436    0.490    0.184    7.973
  134.000  102.265    0.498    0.202    7.273
  134.250  101.117    0.509    0.224    7.416
  134.500   97.567    0.521    0.222    8.460
  134.750   89.846    0.534    0.212    8.629
  135.000   89.894    0.528    0.189    8.025
  135.250   91.734    0.500    0.199    7.738
  135.500   99.552    0.530    0.233    7.325
  135.750  103.210    0.561    0.239    6.808
  136.000  102.074    0.579    0.234    6.569
  136.250   99.110    0.579    0.216    7.222
  136.500   94.974    0.497    0.201    7.362
  136.750   93.229    0.451    0.207    7.791
  137.000   93.289    0.464    0.222    8.405
  137.250   93.337    0.478    0.243    8.901
  137.500   94.592    0.480    0.241    9.079
  137.750   95.226    0.481    0.227    8.755
  138.000   96.457    0.484    0.219    8.137
  138.250   98.920    0.490    0.216    7.154
  138.500   99.541    0.508    0.223    6.524
  138.750  101.406    0.525    0.244    5.525
  139.000  102.649    0.541    0.253    3.814
  139.250  104.502    0.555    0.274    3.414
  139.500  105.722    0.580    0.294    3.419
  139.750  107.574    0.591    0.301    3.687
  140.000  108.220    0.598    0.297    4.283
  140.250  108.866    0.595    0.289    5.165
  140.500  107.718    0.569    0.252    6.838
  140.750  105.387    0.540    0.213    7.656
  141.000  104.240    0.492    0.182    7.956
  141.250  106.069    0.476    0.171    8.420
  141.500  110.312    0.474    0.175    8.591
  141.750  110.958    0.501    0.205    8.440
  142.000  110.994    0.506    0.220    8.294
  142.250  109.847    0.513    0.220    8.153
  142.500  106.918    0.506    0.213    8.319
  142.750  105.161    0.492    0.210    8.482
  143.000  102.221    0.474    0.200    9.323
  143.250  102.293    0.460    0.210    9.870
  143.500  104.707    0.450    0.223   10.451
  143.750  105.365    0.446    0.232   10.657
  144.000  103.632    0.450    0.233   10.867
  144.250  103.070    0.451    0.239   11.084
  144.500  101.349    0.453    0.249   11.100
  144.750  100.775    0.455    0.256   11.113
  145.000   99.640    0.459    0.264   10.921
  145.250   98.505    0.464    0.265   10.733
  145.500   97.931    0.472    0.262   10.165
  145.750   96.784    0.474    0.236    9.625
  146.000   93.867    0.477    0.241    9.113
  146.250   92.110    0.469    0.267    9.124
  146.500   89.767    0.454    0.272    9.478
  146.750   89.206    0.444    0.259    9.849
  147.000   94.035    0.432    0.245   10.430
  147.250  100.669    0.424    0.233   10.841
  147.500  103.132    0.427    0.220   11.265
  147.750  103.156    0.433    0.212   11.487
  148.000  102.606    0.440    0.208   11.940
  148.250   99.677    0.446    0.203   12.175
  148.500   97.335    0.458    0.203   12.193
  148.750   97.371    0.461    0.206   12.204
  149.000   97.419    0.455    0.212   12.225
  149.250   95.674    0.436    0.242   12.232
  149.500   95.136    0.420    0.258   12.254
  149.750   94.574    0.420    0.252   12.499
  150.000   93.451    0.420    0.240   12.749
  150.250   93.487    0.415    0.212   13.003
  150.500   94.132    0.410    0.206   13.259
  150.750   92.399    0.404    0.198   13.528
  151.000   91.252    0.395    0.191   13.794
  151.250   91.897    0.376    0.179   14.070
  151.500   93.750    0.372    0.172   13.827
  151.750   94.970    0.401    0.167   12.858
  152.000   95.615    0.420    0.188   12.632
  152.250   93.882    0.431    0.206   11.961
  152.500   91.539    0.442    0.203   11.975
  152.750   88.599    0.446    0.190   12.214
  153.000   88.049    0.397    0.159   12.462
  153.250   90.488    0.377    0.143   12.476
  153.500   94.719    0.399    0.149   11.813
  153.750  100.146    0.428    0.179   11.392
  154.000  101.987    0.453    0.202   10.395
  154.250  101.449    0.480    0.228   10.024
  154.500  101.497    0.494    0.222    9.494
  154.750  103.948    0.511    0.219    9.333
  155.000  104.581    0.519    0.216    9.341
  155.250  105.837    0.510    0.212    9.525
  155.500  107.080    0.489    0.209    9.536
  155.750  106.518    0.474    0.205    9.556
  156.000  105.980    0.475    0.201    9.565
  156.250  104.833    0.482    0.192    9.399
  156.500  104.271    0.491    0.178    8.902
  156.750  103.734    0.498    0.185    8.585
