~VERSION INFORMATION
 VERS.                 2.0:   CWLS LOG ASCII STANDARD -VERSION 2.0
 WRAP.                  NO:   ONE LINE PER DEPTH STEP
~WELL INFORMATION BLOCK
#MNEM.UNIT           DATA                    DESCRIPTION OF MNEMONIC
#---------    -------------------            -------------------------------
# Generated from Intellog Unique Number	CN_94_101/WELL/1073
WELL.         11-14-096-14W4                 : Well_name    - WELL
LOC .         AA/11-14-096-14W4/0            : Location     - LOCATION
UWI .         AA/11-14-096-14W400            : Uwi          - UNIQUE WELL ID
ENTR.         JOETTE                         : Entered      - ENTERED BY
SRVC.         SCHLUMBERGER                   : Scn          - SERVICE COMPANY
DATE.         05/03/92                       : Date         - LOG DATE
STRT.M        60.5                           : top_depth    - START DEPTH
STOP.M        295                            : bot_depth    - STOP DEPTH
STEP.M        0.25                           : increment    - STEP LENGTH
 NULL. -999.2500:NULL Value
~CURVE INFORMATION BLOCK
#MNEM UNIT       ERCB CURVE CODE    CURVE DESCRIPTION
#-----------   ------------------   ----------------------------------
DEPT.M        00 001 00 00         : DEPTH        - DEPTH
ILD .OHMM     00 120 00 00         : RESD         - DEEP RESISTIVITY (DIL)
DPHI.V/V      00 890 00 00         : PHID         - DENSITY POROSITY (SANDSTONE)
NPHI.V/V      00 330 00 00         : PHIN         - NEUTRON POROSITY (SANDSTONE)
GR  .API      00 310 00 00         : GR           - GAMMA RAY
CALI.MM       00 280 01 00         : CAL          - CALIPER
~PARAMETER INFORMATION
#MNEM.UNIT           DATA             DESCRIPTION OF MNEMONIC
#---------         -----------     ------------------------------
GL  .M        530.78               : gl           - GROUND LEVEL ELEVATION
EREF.M        533.78               : kb           - ELEVATION OF DEPTH REFERENCE
DATM.M        533.78               : datum        - DATUM ELEVATION
TDD .M        296                  : tdd          - TOTAL DEPTH DRILLER
RUN .         ONE                  : Run          - RUN NUMBER
ENG .         BILL                 : Engineer     - RECORDING ENGINEER
WIT .         JIM                  : Witness      - WITNESSED BY
MUD .         GEL                  : Mud_type     - MUD TYPE
MATR.         SANDSTONE            : Logunit      - NEUTRON MATRIX
TMAX.C        25                   : BHT          - MAXIMUM RECORDED TEMPERATURE
BHTD.M        296                  : BHTDEP       - MAXIMUM RECORDED TEMPERATURE
RMT .C        10                   : MDTP         - TEMPERATURE OF MUD
MUDD.KG/M     1115                 : MWT          - MUD DENSITY
NEUT.         1                    : NEUTRON      - NEUTRON TYPE
RESI.         0                    : RESIST       - RESISTIVITY TYPE
RM  .OHMM     0.62                 : RM           - RESISTIVITY OF MUD
RMC .OHMM     0.62                 : RMC          - RESISTIVITY OF MUD CAKE
RMF .OHMM     0.62                 : RMF          - RESISTIVITY OF MUD FILTRATE
SUFT.C        4                    : SUFT         - SURFACE TEMPERATURE
~A  DEPTH     RESD     PHID     PHIN       GR      CAL
# ...
  170.000    7.945    0.321    0.463   73.392  178.776
  170.250    6.984    0.302    0.462   75.215  181.800
  170.500    6.370    0.295    0.458   76.451  185.817
  170.750    5.705    0.290    0.473   77.073  189.849
  171.000    5.300    0.281    0.517   78.896  191.908
  171.250    4.747    0.285    0.532   83.103  191.937
  171.500    4.578    0.297    0.533   87.311  193.002
  171.750    4.665    0.288    0.524   88.546  197.019
  172.000    4.845    0.278    0.518   87.985  203.038
  172.250    4.938    0.269    0.503   87.414  208.093
  172.500    5.035    0.274    0.523   86.853  209.129
  172.750    5.037    0.273    0.515   86.895  210.180
  173.000    4.770    0.253    0.493   87.517  211.231
  173.250    4.432    0.243    0.500   88.148  212.268
  173.500    4.042    0.225    0.504   88.787  212.340
  173.750    3.619    0.177    0.505   89.401  212.411
  174.000    3.556    0.196    0.549   91.224  212.440
  174.250    3.557    0.269    0.577   94.835  212.512
  174.500    3.560    0.265    0.588   97.859  213.577
  174.750    3.497    0.273    0.577   97.885  213.606
  175.000    3.311    0.282    0.563   97.936  213.663
  175.250    3.252    0.279    0.551   97.962  214.714
  175.500    3.194    0.277    0.557   98.005  215.765
  175.750    3.138    0.278    0.556   98.040  217.824
  176.000    3.139    0.287    0.550   98.057  217.867
  176.250    3.322    0.292    0.555   96.899  218.918
  176.500    3.449    0.294    0.570   93.365  218.976
  176.750    3.648    0.286    0.566   91.015  218.039
  177.000    3.859    0.280    0.552   90.436  214.151
  177.250    4.237    0.286    0.543   89.278  211.213
  177.500    4.567    0.288    0.516   88.120  210.248
  177.750    4.830    0.264    0.519   86.962  204.373
  178.000    5.015    0.269    0.523   82.823  202.428
  178.250    5.112    0.280    0.532   79.289  199.491
  178.500    5.023    0.276    0.500   79.315  195.588
  178.750    4.666    0.262    0.499   80.542  190.677
  179.000    4.101    0.253    0.502   80.585  186.746
  179.250    4.259    0.235    0.481   72.264  182.829
  179.500    4.852    0.209    0.414   69.318  178.912
  179.750    5.630    0.222    0.450   71.737  178.955
  180.000    7.170    0.284    0.482   74.148  179.026
  180.250    6.539    0.266    0.495   76.567  181.071
  180.500    5.538    0.275    0.526   80.178  183.101
  180.750    4.521    0.278    0.533   83.194  185.146
  181.000    4.360    0.284    0.545   81.439  184.224
  181.250    4.613    0.301    0.551   77.905  183.273
  181.500    4.789    0.304    0.537   77.931  182.337
  181.750    4.881    0.304    0.511   77.983  181.444
  182.000    4.885    0.308    0.506   78.596  182.481
  182.250    4.798    0.292    0.517   79.832  182.509
  182.500    4.715    0.282    0.517   81.058  184.554
  182.750    4.630    0.283    0.500   83.486  188.600
  183.000    4.548    0.287    0.495   84.100  192.632
  183.250    4.469    0.264    0.508   84.134  195.670
  183.500    4.471    0.267    0.518   84.168  198.708
  183.750    4.392    0.284    0.521   83.010  200.753
  184.000    4.395    0.289    0.521   83.650  200.810
  184.250    4.398    0.279    0.514   85.464  196.893
  184.500    4.401    0.272    0.507   84.306  195.957
  184.750    4.571    0.272    0.516   84.937  196.994
  185.000    4.572    0.274    0.542   85.576  201.026
  185.250    4.661    0.284    0.544   84.418  204.064
  185.500    4.664    0.285    0.527   83.848  205.143
  185.750    4.754    0.279    0.510   82.690  206.166
  186.000    4.847    0.293    0.480   80.936  206.237
  186.250    4.850    0.298    0.490   81.558  205.287
  186.500    4.855    0.293    0.529   85.178  204.365
  186.750    4.857    0.286    0.524   85.808  203.400
  187.000    4.861    0.274    0.522   88.227  202.464
  187.250    4.863    0.260    0.532   90.647  201.542
  187.500    4.275    0.250    0.551   93.057  200.606
  187.750    3.828    0.247    0.575   96.072  198.676
  188.000    3.762    0.245    0.569   99.692  196.732
  188.250    3.763    0.240    0.551  100.910  193.837
  188.500    3.765    0.233    0.539   97.973  192.872
  188.750    3.839    0.221    0.549   96.806  190.971
  189.000    3.912    0.199    0.550   96.244  190.020
  189.250    4.064    0.156    0.534   96.875  189.070
  189.500    3.991    0.172    0.526  100.495  187.154
  189.750    3.848    0.238    0.551  102.906  187.183
  190.000    3.710    0.236    0.565  104.737  186.290
  190.250    3.323    0.247    0.548  105.955  186.304
  190.500    3.030    0.267    0.546  107.787  185.368
  190.750    2.922    0.260    0.542  107.225  185.439
  191.000    2.925    0.258    0.543  104.875  184.489
  191.250    2.926    0.253    0.547   97.150  184.546
  191.500    3.095    0.224    0.554   88.234  183.610
  191.750    3.398    0.201    0.563   81.114  183.667
  192.000    3.871    0.164    0.493   76.975  184.733
  192.250    4.493    0.102    0.383   81.183  184.790
  192.500    4.665    0.136    0.418   89.564  185.855
  192.750    4.668    0.208    0.455   99.137  186.906
  193.000    4.759    0.247    0.539   96.199  188.922
  193.250    5.128    0.243    0.499   93.840  192.969
  193.500    5.734    0.239    0.465   92.682  195.013
  193.750    6.412    0.236    0.436   90.928  197.043
  194.000    7.172    0.233    0.444   89.779  199.088
  194.250    7.730    0.232    0.441   88.630  200.153
  194.500    8.024    0.234    0.424   88.051  200.211
  194.750    8.490    0.224    0.428   88.085  200.254
  195.000    8.494    0.229    0.423   89.312  200.311
  195.250    8.345    0.242    0.417   89.346  200.354
  195.500    8.196    0.244    0.412   87.592  200.440
  195.750    8.053    0.239    0.417   87.031  201.463
  196.000    7.764    0.258    0.432   87.653  204.515
  196.250    7.217    0.267    0.449   88.879  208.547
  196.500    6.958    0.286    0.466   89.510  216.539
  196.750    6.964    0.289    0.475   88.352  224.545
  197.000    6.966    0.275    0.486   86.002  214.681
  197.250    6.972    0.301    0.493   83.651  217.705
  197.500    7.106    0.313    0.495   83.686  217.777
  197.750    7.112    0.308    0.513   84.317  215.832
  198.000    7.118    0.302    0.488   84.359  214.896
  198.250    6.991    0.323    0.460   82.001  192.100
  198.500    6.866    0.300    0.419   77.871  182.236
  198.750    6.745    0.300    0.423   76.695  181.271
  199.000    6.505    0.300    0.426   75.537  180.349
  199.250    6.272    0.287    0.421   79.157  180.406
  199.500    6.160    0.264    0.416   83.365  181.472
  199.750    6.166    0.266    0.416   85.180  183.488
  200.000    6.284    0.264    0.421   84.022  186.526
  200.250    6.774    0.265    0.438   83.460  187.577
  200.500    6.903    0.258    0.447   85.291  186.641
  200.750    7.168    0.239    0.445   84.730  184.711
  201.000    7.444    0.220    0.444   82.371  182.795
  201.250    7.730    0.198    0.439   80.020  182.838
  201.500    7.738    0.203    0.432   82.457  181.902
  201.750    7.598    0.217    0.424   83.666  181.988
  202.000    7.195    0.236    0.425   85.489  182.031
  202.250    6.809    0.248    0.422   86.725  183.082
  202.500    6.098    0.236    0.437   86.751  185.127
  202.750    5.771    0.248    0.447   86.785  188.165
  203.000    5.994    0.262    0.454   87.415  188.222
  203.250    6.340    0.272    0.438   88.046  186.293
  203.500    6.834    0.254    0.429   85.696  184.334
  203.750    6.965    0.262    0.428   83.354  181.425
  204.000    7.100    0.254    0.436   83.371  181.482
  204.250    7.106    0.269    0.472   83.406  181.540
  204.500    6.852    0.276    0.492   84.633  183.584
  204.750    6.728    0.267    0.516   86.464  186.623
  205.000    6.487    0.273    0.536   89.471  194.615
  205.250    6.142    0.283    0.543   90.102  206.595
  205.500    5.921    0.292    0.523   89.548  205.673
  205.750    5.927    0.283    0.502   87.198  202.750
  206.000    6.041    0.278    0.507   86.040  198.819
  206.250    6.389    0.289    0.467   84.286  204.838
