~VERSION INFORMATION
 VERS.                 2.0:   CWLS LOG ASCII STANDARD -VERSION 2.0
 WRAP.                  NO:   ONE LINE PER DEPTH STEP
~WELL INFORMATION BLOCK
#MNEM.UNIT           DATA                    DESCRIPTION OF MNEMONIC
#---------    -------------------            -------------------------------
# Generated from Intellog Unique Number	CN_94_101/WELL/1068
WELL.         10-17-094-06W4                 : Well_name    - WELL
LOC .         AA/10-17-094-06W4/0            : Location     - LOCATION
UWI .         AA/10-17-094-06W400            : Uwi          - UNIQUE WELL ID
ENTR.         JOETTE                         : Entered      - ENTERED BY
SRVC.         SCHLUMBERGER                   : Scn          - SERVICE COMPANY
DATE.         04/10/92                       : Date         - LOG DATE
STRT.M        80                             : top_depth    - START DEPTH
STOP.M        285                            : bot_depth    - STOP DEPTH
STEP.M        0.25                           : increment    - STEP LENGTH
 NULL. -999.2500:NULL Value
~CURVE INFORMATION BLOCK
#MNEM UNIT       ERCB CURVE CODE    CURVE DESCRIPTION
#-----------   ------------------   ----------------------------------
DEPT.M        00 001 00 00         : DEPTH        - DEPTH
ILD .OHMM     00 120 00 00         : RESD         - DEEP RESISTIVITY (DIL)
DPHI.V/V      00 890 00 00         : PHID         - DENSITY POROSITY (SANDSTONE)
NPHI.V/V      00 330 00 00         : PHIN         - NEUTRON POROSITY (SANDSTONE)
GR  .API      00 310 00 00         : GR           - GAMMA RAY
CALI.MM       00 280 01 00         : CAL          - CALIPER
~PARAMETER INFORMATION
#MNEM.UNIT           DATA             DESCRIPTION OF MNEMONIC
#---------         -----------     ------------------------------
GL  .M        564.2                : gl           - GROUND LEVEL ELEVATION
EREF.M        566.9                : kb           - ELEVATION OF DEPTH REFERENCE
DATM.M        566.9                : datum        - DATUM ELEVATION
TDD .M        287                  : tdd          - TOTAL DEPTH DRILLER
RUN .         ONE                  : Run          - RUN NUMBER
ENG .         BILL                 : Engineer     - RECORDING ENGINEER
WIT .         JIM                  : Witness      - WITNESSED BY
MUD .         GEL                  : Mud_type     - MUD TYPE
MATR.         SANDSTONE            : Logunit      - NEUTRON MATRIX
TMAX.C        18                   : BHT          - MAXIMUM RECORDED TEMPERATURE
BHTD.M        287                  : BHTDEP       - MAXIMUM RECORDED TEMPERATURE
RMT .C        5                    : MDTP         - TEMPERATURE OF MUD
MUDD.KG/M     1                    : MWT          - MUD DENSITY
NEUT.         1                    : NEUTRON      - NEUTRON TYPE
RESI.         0                    : RESIST       - RESISTIVITY TYPE
RM  .OHMM     11.4                 : RM           - RESISTIVITY OF MUD
RMC .OHMM     11.4                 : RMC          - RESISTIVITY OF MUD CAKE
RMF .OHMM     11.4                 : RMF          - RESISTIVITY OF MUD FILTRATE
SUFT.C        4                    : SUFT         - SURFACE TEMPERATURE
~A  DEPTH     RESD     PHID     PHIN       GR      CAL
# ...
  226.000    4.218    0.271    0.522   98.155  178.548
  226.250    4.810    0.250    0.502   96.928  178.538
  226.500    5.184    0.233    0.493   96.921  178.531
  226.750    5.281    0.235    0.445   96.302  178.517
  227.000    5.379    0.230    0.461   95.688  178.512
  227.250    5.376    0.226    0.473   94.460  177.479
  227.500    5.271    0.212    0.459   92.008  175.435
  227.750    5.470    0.211    0.425   88.334  172.366
  228.000    5.896    0.216    0.403   85.883  170.317
  228.250    6.476    0.229    0.403   87.100  169.288
  228.500    6.724    0.240    0.425   87.706  169.284
  228.750    7.246    0.246    0.442   84.031  169.272
  229.000    7.381    0.250    0.425   80.969  169.265
  229.250    8.105    0.236    0.410   78.518  169.253
  229.500    8.413    0.210    0.402   76.066  168.225
  229.750    9.070    0.188    0.402   77.283  168.218
  230.000   10.344    0.182    0.397   79.724  168.206
  230.250   11.364    0.175    0.381   81.553  167.180
  230.500   13.981    0.120    0.347   81.547  166.152
  230.750   16.879    0.057    0.318   80.930  165.124
  231.000   20.766    0.254    0.337   83.370  165.110
  231.250   24.601    0.243    0.346   85.807  166.121
  231.500   25.055    0.238    0.340   85.193  168.148
  231.750   21.934    0.242    0.345   84.576  172.212
  232.000   19.199    0.234    0.348   83.959  174.242
  232.250   18.136    0.218    0.330   87.620  178.309
  232.500   16.488    0.201    0.329   91.282  182.375
  232.750   15.279    0.203    0.345   94.332  182.366
  233.000   14.431    0.191    0.359   95.551  182.359
  233.250   13.625    0.191    0.384   99.212  183.366
  233.500   13.114    0.189    0.403  102.264  183.357
  233.750   12.148    0.199    0.417  104.091  183.347
  234.000   11.693    0.186    0.412  105.920  183.340
  234.250   11.469    0.180    0.407  107.137  182.312
  234.500   10.828    0.185    0.396  108.353  181.281
  234.750   10.823    0.178    0.391  107.738  180.253
  235.000   10.823    0.178    0.391  105.897  179.225
  235.250   12.567    0.171    0.397  105.282  178.196
  235.500   12.563    0.174    0.407  103.442  176.149
  235.750   12.557    0.179    0.415  102.824  174.097
  236.000   12.313    0.180    0.417  102.817  173.074
  236.250   12.075    0.180    0.417  102.811  172.045
  236.500   12.068    0.193    0.412  102.807  174.074
  236.750   12.061    0.197    0.411  102.800  178.138
  237.000   11.828    0.189    0.402  104.017  182.202
  237.250   11.823    0.187    0.396  105.845  183.216
  237.500   11.593    0.182    0.396  107.063  185.242
  237.750   11.586    0.175    0.399  107.058  186.252
  238.000   12.023    0.180    0.404  105.219  186.242
  238.250   12.249    0.201    0.391  101.543  182.157
  238.500   13.970    0.202    0.389   98.481  178.075
  238.750   15.348    0.206    0.381   94.807  173.987
  239.000   17.841    0.216    0.365   92.969  170.921
  239.250   20.737    0.234    0.348   89.295  168.876
  239.500   21.937    0.236    0.329   86.843  167.848
  239.750   22.764    0.223    0.335   86.837  166.820
  240.000   23.188    0.220    0.347   88.666  165.784
  240.250   23.613    0.225    0.357   90.494  165.780
  240.500   23.595    0.225    0.351   90.490  166.787
  240.750   23.584    0.214    0.359   89.872  166.775
  241.000   23.567    0.217    0.372   87.421  167.789
  241.250   23.108    0.227    0.383   83.745  167.778
  241.500   22.665    0.224    0.389   83.741  167.768
  241.750   22.655    0.225    0.391   86.792  167.761
  242.000   22.218    0.229    0.389   88.621  168.769
  242.250   22.628    0.226    0.380   89.838  168.762
  242.500   23.046    0.216    0.368   89.832  168.750
  242.750   23.046    0.220    0.359   88.603  168.741
  243.000   27.793    0.231    0.361   87.987  168.731
  243.250   25.284    0.226    0.369   86.147  167.701
  243.500   25.747    0.211    0.363   86.142  166.677
  243.750   26.218    0.199    0.359   86.747  166.665
  244.000   26.210    0.247    0.350   86.130  166.658
  244.250   25.696    0.247    0.340   84.902  165.628
  244.500   25.689    0.239    0.341   84.896  166.637
  244.750   25.189    0.227    0.333   86.725  166.625
  245.000   24.699    0.233    0.320   87.942  167.635
  245.250   24.229    0.222    0.328   88.545  167.628
  245.500   23.317    0.201    0.341   88.539  168.635
  245.750   21.600    0.210    0.353   90.368  169.645
  246.000   20.400    0.230    0.372   92.809  170.654
  246.250   18.898    0.225    0.381   94.637  170.647
  246.500   18.192    0.219    0.369   92.185  170.638
  246.750   17.841    0.208    0.354   89.735  170.629
  247.000   18.167    0.198    0.360   88.506  169.598
  247.250   18.503    0.215    0.372   88.500  168.567
  247.500   19.570    0.223    0.383   87.272  168.560
  247.750   20.699    0.207    0.381   84.822  168.553
  248.000   21.486    0.199    0.371   80.537  168.544
  248.250   23.601    0.208    0.363   74.418  168.535
  248.500   26.419    0.227    0.366   65.853  168.520
  248.750   29.019    0.232    0.366   58.511  168.513
  249.000   33.734    0.227    0.353   50.557  168.504
  249.250   57.223    0.242    0.330   41.992  171.552
  249.500   74.507    0.275    0.330   36.484  174.599
  249.750  100.747    0.289    0.323   32.199  175.608
  250.000  138.827    0.288    0.329   31.582  176.613
  250.250  158.364    0.280    0.331   35.245  176.606
  250.500  128.567    0.270    0.331   41.353  176.597
  250.750   83.201    0.245    0.331   47.459  176.590
  251.000   48.989    0.193    0.324   52.957  174.543
  251.250   28.301    0.126    0.371   59.676  171.477
  251.500   20.513    0.191    0.400   70.064  169.429
  251.750   14.869    0.182    0.403   89.621  170.437
  252.000   12.536    0.188    0.410  103.677  172.465
  252.250   10.569    0.200    0.427  106.728  173.477
  252.500    9.791    0.203    0.439  109.167  175.503
  252.750    9.603    0.200    0.458  110.996  176.513
  253.000    9.596    0.195    0.454  111.602  177.520
  253.250    9.592    0.186    0.452  110.374  177.511
  253.500    9.769    0.197    0.455  109.146  177.504
  253.750    9.946    0.204    0.462  109.140  177.494
  254.000    9.943    0.200    0.463  109.744  177.482
  254.250   10.320    0.195    0.457  109.127  177.471
  254.500   10.511    0.196    0.443  107.899  177.464
  254.750   10.703    0.201    0.432  107.892  177.452
  255.000   10.697    0.197    0.431  107.275  176.428
  255.250   10.690    0.199    0.431  104.825  176.417
  255.500   10.684    0.201    0.430  106.042  176.407
  255.750   10.879    0.192    0.423  107.871  176.396
  256.000   11.084    0.174    0.417  105.418  176.389
  256.250   11.945    0.181    0.409  104.801  176.382
  256.500   12.634    0.184    0.403  104.186  177.387
  256.750   13.114    0.191    0.401  106.013  177.382
  257.000   13.607    0.187    0.398  107.230  177.372
  257.250   13.601    0.198    0.394  107.226  177.361
  257.500   13.341    0.191    0.408  106.609  177.351
  257.750   12.838    0.193    0.421  102.324  177.340
  258.000   12.123    0.194    0.432   98.650  177.333
  258.250   11.445    0.195    0.442  100.478  177.319
  258.500   11.012    0.199    0.441  104.138  176.293
  258.750   11.009    0.202    0.451  104.744  175.267
  259.000   11.210    0.199    0.448  104.738  174.234
  259.250   11.205    0.195    0.451  104.731  172.187
  259.500   11.411    0.224    0.450  104.727  171.161
  259.750   11.623    0.218    0.444  104.110  170.135
  260.000   12.060    0.214    0.454  102.882  169.106
  260.250   12.286    0.213    0.465   99.819  169.097
  260.500   12.993    0.208    0.468   96.146  168.066
  260.750   13.744    0.218    0.445   93.083  168.055
  261.000   15.383    0.219    0.426   89.409  168.048
  261.250   16.583    0.211    0.412   86.349  168.041
  261.500   18.914    0.202    0.411   83.286  170.064
  261.750   20.775    0.191    0.405   82.056  172.093
  262.000   21.974    0.191    0.401   82.051  172.086
  262.250   23.685    0.193    0.396   80.211  171.058
