~VERSION INFORMATION
 VERS.                 2.0:   CWLS LOG ASCII STANDARD -VERSION 2.0
 WRAP.                  NO:   ONE LINE PER DEPTH STEP
~WELL INFORMATION BLOCK
#MNEM.UNIT           DATA                    DESCRIPTION OF MNEMONIC
#---------    -------------------            -------------------------------
# Generated from Intellog Unique Number	utf_inj/WELL/589
WELL.         AO-33                          : Well_name    - WELL              
LOC .         AA/12-18-093-12W4/0            : Location     - LOCATION          
UWI .         AA/12-18-093-12W400            : Uwi          - UNIQUE WELL ID    
ENTR.         JHS                            : Entered      - ENTERED BY        
SRVC.         SCHLUMBERGER                   : Scn          - SERVICE COMPANY   
STRT.M        2                              : top_depth    - START DEPTH       
STOP.M        158                            : bot_depth    - STOP DEPTH        
STEP.M        0.25                           : increment    - STEP LENGTH       
NULL.         -999.250                       : null         - NULL VALUE       
~CURVE INFORMATION BLOCK
#MNEM UNIT       ERCB CURVE CODE    CURVE DESCRIPTION
#-----------   ------------------   ----------------------------------
DEPT.M        00 001 00 00         : DEPTH        - DEPTH                       
GR  .API      00 310 00 00         : GR           - GAMMA RAY                   
DPHI.V/V      00 890 00 00         : PHID         - DENSITY POROSITY (SANDSTONE)
NPHI.V/V      00 330 00 00         : PHIN         - NEUTRON POROSITY (SANDSTONE)
ILD .OHMM     00 120 00 00         : RESD         - DEEP RESISTIVITY (DIL)      
SP  .MV       00 010 00 00         : SP           - SPONTANEOUS POTENTIAL       
CALI.MM       00 280 01 00         : CAL          - CALIPER                     
~PARAMETER INFORMATION       
#MNEM.UNIT           DATA             DESCRIPTION OF MNEMONIC
#---------         -----------     ------------------------------
GL  .M        423.5                : gl           - GROUND LEVEL ELEVATION      
EREF.M        423.5                : kb           - ELEVATION OF DEPTH REFERENCE
DATM.M        423.5                : datum        - DATUM ELEVATION             
TDD .M        162                  : tdd          - TOTAL DEPTH DRILLER         
RUN .         ONE                  : Run          - RUN NUMBER                  
ENG .         BILL                 : Engineer     - RECORDING ENGINEER          
WIT .         JIM                  : Witness      - WITNESSED BY                
MUD .         GEL                  : Mud_type     - MUD TYPE                    
MATR.         SANDSTONE            : Logunit      - NEUTRON MATRIX              
TMAX.C        6.5                  : BHT          - MAXIMUM RECORDED TEMPERATURE
BHTD.M        151.49               : BHTDEP       - MAXIMUM RECORDED TEMPERATURE
MATR.         1                    : LOGUNIT      - NEUTRON MATRIX              
RMT .C        25                   : MDTP         - TEMPERATURE OF MUD          
NEUT.         1                    : NEUTRON      - NEUTRON TYPE                
RESI.         0                    : RESIST       - RESISTIVITY TYPE            
RMC .OHMM     0.25                 : RMC          - RESISTIVITY OF MUD CAKE     
RMF .OHMM     0.25                 : RMF          - RESISTIVITY OF MUD FILTRATE 
SUFT.C        15                   : SUFT         - SURFACE TEMPERATURE         
~A  DEPTH       GR     PHID     PHIN     RESD       SP      CAL
# ...
   64.500   96.745    0.286    0.661   11.181    0.000  148.441
   64.750  110.487    0.268    0.697   10.946    0.000  150.107
   65.000  104.752    0.247    0.741   13.958    0.000  150.597
   65.250   98.995    0.282    0.761   19.947    0.000  158.339
   65.500   93.887    0.270    0.725   17.768    0.000  155.808
   65.750   90.013    0.175    0.570   14.667    0.000  153.865
   66.000   91.203    0.126    0.530   14.358    0.000  150.108
   66.250  101.158    0.154    0.572   14.597    0.000  160.268
   66.500  106.114    0.274    0.651   14.840    0.000  146.842
   66.750  104.772    0.278    0.661   13.211    0.000  148.509
   67.000   92.738    0.293    0.552   11.120    0.000  145.373
   67.250  106.481    0.312    0.537   10.100    0.000  146.467
   67.500  125.851    0.342    0.604    8.991    0.000  158.440
   67.750  115.722    0.352    0.699    8.970    0.000  154.667
   68.000  111.242    0.321    0.600    8.949    0.000  163.030
   68.250  113.665    0.324    0.543    8.927    0.000  158.653
   68.500  132.429    0.326    0.563    9.249    0.000  141.014
   68.750  109.704    0.320    0.620   10.525    0.000  151.777
   69.000  110.245    0.309    0.684   10.904    0.000  154.668
   69.250  102.627    0.280    0.612   12.667    0.000  153.934
   69.500   97.519    0.246    0.629   13.880    0.000  151.386
   69.750  125.697    0.249    0.642   12.839    0.000  159.732
   70.000  127.493    0.280    0.636   12.809    0.000  148.740
   70.250  119.875    0.267    0.561   13.789    0.000  151.632
   70.500  109.724    0.253    0.564   18.609    0.000  152.710
   70.750  107.127    0.243    0.538   16.882    0.000  144.740
   71.000  120.220    0.240    0.525   15.334    0.000  147.027
   71.250  125.804    0.247    0.581   14.731    0.000  151.747
   71.500  126.972    0.247    0.607   14.151    0.000  161.285
   71.750  116.194    0.247    0.634   14.386    0.000  142.421
   72.000  112.969    0.248    0.634   16.693    0.000  154.982
   72.250  108.489    0.248    0.574   15.432    0.000  150.033
   72.500  109.030    0.246    0.515   14.548    0.000  149.315
   72.750   97.602    0.242    0.483   13.967    0.000  158.265
   73.000  103.186    0.258    0.480   14.200    0.000  156.322
   73.250  100.588    0.258    0.534   15.587    0.000  156.191
   73.500   94.831    0.210    0.540   28.473    0.000  160.307
   73.750   92.234    0.140    0.475   21.780    0.000  151.112
   74.000  113.508    0.197    0.458   18.343    0.000  152.779
   74.250  109.656    0.241    0.502   15.725    0.000  154.494
   74.500  110.196    0.275    0.549   18.256    0.000  164.653
   74.750   93.142    0.274    0.551   17.872    0.000  161.501
   75.000   98.098    0.261    0.538   17.486    0.000  174.682
   75.250  108.681    0.273    0.525   19.898    0.000  160.652
   75.500  102.945    0.286    0.553   19.502    0.000  150.249
   75.750   97.816    0.273    0.467   19.456    0.000  148.910
   76.000   92.080    0.203    0.409   23.891    0.000  144.549
   76.250   94.504    0.173    0.415   22.522    0.000  148.665
   76.500  108.247    0.214    0.433   17.228    0.000  161.846
   76.750  115.064    0.232    0.483   17.859    0.000  162.303
   77.000  104.935    0.256    0.509   20.335    0.000  161.601
   77.250   92.901    0.268    0.516   20.286    0.000  157.845
   77.500  104.739    0.258    0.516   17.722    0.000  147.441
   77.750   97.121    0.271    0.492   19.078    0.000  147.915
   78.000   85.715    0.275    0.467   33.558    0.000  152.636
   78.250  103.224    0.199    0.374   25.220    0.000  159.773
   78.500  104.371    0.179    0.355   18.241    0.000  136.059
   78.750  100.518    0.181    0.417   15.066    0.000  133.511
   79.000  100.453    0.237    0.471   13.420    0.000  134.605
   79.250  119.195    0.261    0.507   13.388    0.000  136.272
   79.500  110.321    0.269    0.547   20.621    0.000  137.382
   79.750   97.682    0.274    0.513   24.383    0.000  137.252
   80.000   88.787    0.249    0.469   21.314    0.000  137.726
   80.250   79.891    0.237    0.472   19.704    0.000  137.596
   80.500   86.708    0.273    0.551   19.301    0.000  138.086
   80.750   92.270    0.285    0.579   18.542    0.000  139.768
   81.000  102.247    0.285    0.507   15.315    0.000  140.242
   81.250   94.001    0.271    0.489   15.278    0.000  140.749
   81.500   86.383    0.217    0.468   28.440    0.000  137.597
   81.750   81.253    0.144    0.363   57.061    0.000  134.429
   82.000   75.518    0.065    0.286   68.799    0.000  133.710
   82.250   85.473    0.078    0.299   39.669    0.000  135.981
   82.500   90.429    0.077    0.348   36.696    0.000  135.899
   82.750   95.341    0.064    0.296   50.467    0.000  135.752
   83.000   87.723    0.049    0.287   20.327    0.000  134.413
   83.250   96.423    0.171    0.388   15.558    0.000  132.503
   83.500   95.730    0.256    0.467   17.058    0.000  134.169
   83.750  100.665    0.282    0.506   14.349    0.000  138.906
   84.000  112.524    0.281    0.544   14.324    0.000  134.529
   84.250   99.236    0.265    0.518   26.664    0.000  135.640
   84.500   89.085    0.241    0.477   42.675    0.000  135.509
   84.750   83.350    0.195    0.435   25.554    0.000  134.758
   85.000   83.241    0.145    0.394   23.196    0.000  135.248
   85.250   89.452    0.194    0.429   14.980    0.000  134.530
   85.500  135.226    0.243    0.602   13.343    0.000  133.812
   85.750  128.863    0.264    0.636   12.343    0.000  133.681
   86.000  117.435    0.268    0.633   11.636    0.000  136.572
   86.250  119.902    0.268    0.645   11.822    0.000  138.875
   86.500  121.071    0.273    0.655   12.026    0.000  133.894
   86.750  131.654    0.252    0.587   11.539    0.000  136.214
   87.000  129.684    0.252    0.593   10.668    0.000  135.463
   87.250  139.639    0.259    0.571   10.655    0.000  137.162
   87.500  136.414    0.277    0.584   10.431    0.000  143.091
   87.750  126.285    0.274    0.599   11.223    0.000  139.318
   88.000  119.900    0.271    0.594   13.781    0.000  138.012
   88.250  109.144    0.247    0.612   14.019    0.000  142.095
   88.500  116.589    0.257    0.633   12.246    0.000  139.564
   88.750  109.576    0.250    0.593   12.217    0.000  141.867
   89.000  106.979    0.268    0.536   16.498    0.000  138.715
   89.250  103.754    0.155    0.502   22.251    0.000  143.435
   89.500  113.731    0.192    0.548   18.389    0.000  137.866
   89.750  119.293    0.243    0.564   13.804    0.000  141.378
   90.000  140.567    0.282    0.565   13.012    0.000  137.622
   90.250  144.874    0.281    0.578   12.501    0.000  136.266
   90.500  136.000    0.260    0.622   12.709    0.000  137.377
   90.750  126.477    0.260    0.658   14.470    0.000  138.439
   91.000  120.114    0.271    0.529   17.447    0.000  138.341
   91.250  122.538    0.226    0.517   16.139    0.000  135.777
   91.500  136.237    0.217    0.545   13.584    0.000  133.850
   91.750  129.896    0.269    0.628   12.805    0.000  136.758
   92.000  122.277    0.275    0.721   12.767    0.000  136.007
   92.250  117.775    0.276    0.723   12.265    0.000  135.288
   92.500  145.975    0.266    0.589   11.782    0.000  136.367
   92.750  139.590    0.263    0.609   11.325    0.000  136.857
   93.000  126.323    0.274    0.648   10.268    0.000  139.144
   93.250  134.396    0.286    0.689   10.052    0.000  137.805
   93.500  132.426    0.289    0.623   10.028    0.000  138.915
   93.750  128.573    0.286    0.580    9.634    0.000  138.752
   94.000  143.550    0.304    0.574    9.082    0.000  138.655
   94.250  134.676    0.316    0.499    9.060    0.000  137.299
   94.500  135.217    0.319    0.475    9.940    0.000  135.389
   94.750  121.301    0.268    0.443   17.817    0.000  134.670
   95.000  121.841    0.263    0.448   26.441    0.000  133.331
   95.250  132.424    0.283    0.539   12.863    0.000  132.596
   95.500  127.944    0.273    0.570   11.020    0.000  133.087
