~Version : LASO    vs 4.00
VERS.                2.00:   CWLS Log ASCII Standard -VERSION 2.0
WRAP.                  NO:
~Well Information Block
#MNEM.UNIT       Data                        Description of Mnemonic
#----.----      -------------------------- : -----------------------------
STRT.M            15.0000:
STOP.M           206.4000:
STEP.M             0.2000:
NULL.           -999.2500:
COMP.  MOBIL OIL OF CANADA     :COMPANY
WELL.  MOBIL CLARKE OV 13-4    :WELL
FLD.                           :FIELD
LOC.   13-04-090-07W4          :LOCATION
CTRY.  CANADA                  :COUNTRY
PROV.  ALBERTA                 :PROVINCE
SRVC.  SCHLUMBERGER            :SERVICE COMPANY
DATE.  06-MAR-81               :LOG DATE
UWI.   AA/13-04-090-07W400     :UNIQUE WELL ID
~Parameter Information Block
#MNEM.UNIT       Data                        Description of Mnemonic
#----.----      -------------------------- : -----------------------------
RUN .                   1                 : Run Number
GL  .M           458.6000                 : Ground Level Elevation
DREF.                  KB                 : Depth Reference
EREF.M           458.6000                 : Elevation of Depth Reference
TDL .M           206.5000                 : Total Depth Logger
TDD .M           207.0000                 : Total Depth Driller
CSGL.M             0.0000                 : Casing Bottom Logger
CSGD.M             8.0000                 : Casing Bottom Driller
CSGS.MM          219.0000                 : Casing Size
CSGW.KG/M          0.0000                 : Casing Weight
BS  .MM          159.0000                 : Bit Size
DFD .            999.0000                 : Mud Weight (Density)
~Curve Information Block
#MNEM.UNIT        API CODE    Curve Description
#---------    ------------    ------------------------------
DEPT.M                    :   DEPTH
CALI.MM       42 280  1  1:   2 DENSITY CALIPER
DPHI.V/V                  :   DPHI
GR  .GAPI     42 310  1  1:   3 GAMMA RAY
LLD .Ohmm                 :   LLD
NPHI.V/V      42 890  3  1:   4 NEUTRON POROSITY (SANDSTONE)
RHOB.K/M3     42 350  1  1:   5 BULK DENSITY
~A  Depth           CALI        DPHI          GR         LLD        NPHI        RHOB
15.0000         197.5750   -999.2500     60.7200   -999.2500      0.3212   2352.0000
15.2000         193.2750   -999.2500     62.1300   -999.2500      0.3380   2363.0000
15.4000         193.2750   -999.2500     60.2250   -999.2500      0.3460   2358.0000
15.6000         193.2750   -999.2500     58.7250   -999.2500      0.3406   2349.0000
15.8000         193.2750   -999.2500     58.1250   -999.2500      0.3260   2367.0000
16.0000         193.2750   -999.2500     59.0250   -999.2500      0.3272   2342.0000
16.2000         192.2000   -999.2500     61.5300   -999.2500      0.3230   2342.0000
16.4000         193.2750   -999.2500     63.5250   -999.2500      0.3232   2364.0000
16.6000         191.1250   -999.2500     65.7300   -999.2500      0.3382   2325.0000
16.8000         191.1250   -999.2500     66.8250   -999.2500      0.3456   2313.0000
17.0000         192.2000   -999.2500     67.0200   -999.2500      0.3450   2321.0000
17.2000         196.5000   -999.2500     67.9200   -999.2500      0.3448   2315.0000
17.4000         197.5750   -999.2500     68.5200   -999.2500      0.3526   2315.0000
17.6000         197.5750   -999.2500     69.9300   -999.2500      0.3582   2306.0000
17.8000         197.5750   -999.2500     70.8300   -999.2500      0.3570   2322.0000
18.0000         197.5750   -999.2500     70.2300   -999.2500      0.3536   2340.0000
18.2000         199.7250   -999.2500     70.4250   -999.2500      0.3588   2358.0000
18.4000         200.8000   -999.2500     70.2300   -999.2500      0.3688   2331.0000
18.6000         206.1750   -999.2500     69.5250   -999.2500      0.3638   2338.0000
18.8000         200.8000   -999.2500     68.3250   -999.2500      0.3628   2349.0000
19.0000         200.8000   -999.2500     67.0200   -999.2500      0.3526   2360.0000
19.2000         195.4250   -999.2500     66.5250   -999.2500      0.3566   2348.0000
19.4000         196.5000   -999.2500     66.7200   -999.2500      0.3644   2345.0000
19.6000         196.5000   -999.2500     66.8250   -999.2500      0.3678   2378.0000
19.8000         199.7250   -999.2500     66.3300   -999.2500      0.3552   2338.0000
20.0000         198.6500   -999.2500     65.1300   -999.2500      0.3456   2329.8999
20.2000         197.5750   -999.2500     64.7250   -999.2500      0.3452   2366.0000
20.4000         201.8750   -999.2500     64.3200   -999.2500      0.3630   2375.8999
20.6000         204.0250   -999.2500     63.4200   -999.2500      0.3716   2374.0000
20.8000         201.8750   -999.2500     63.9300   -999.2500      0.3612   2375.8999
21.0000         199.7250   -999.2500     64.9200   -999.2500      0.3108   2420.0000
21.2000         204.0250   -999.2500     65.3250   -999.2500      0.3150   2405.0000
21.4000         205.1000   -999.2500     65.6250   -999.2500      0.3242   2420.0000
21.6000         200.8000   -999.2500     65.6250   -999.2500      0.3248   2426.0000
21.8000         208.3250   -999.2500     64.2300   -999.2500      0.3284   2412.0000
22.0000         200.8000   -999.2500     62.9250   -999.2500      0.3342   2413.0000
22.2000         206.1750   -999.2500     61.2300   -999.2500      0.3390   2414.0000
22.4000         209.4000   -999.2500     60.9300   -999.2500      0.3342   2420.0000
22.6000         210.4750   -999.2500     61.7250   -999.2500      0.3322   2426.0000
22.8000         204.0250   -999.2500     62.9250   -999.2500      0.3230   2443.0000
23.0000         204.0250   -999.2500     62.1300   -999.2500      0.3176   2396.0000
23.2000         210.4750   -999.2500     62.7300   -999.2500      0.3188   2377.0000
23.4000         209.4000   -999.2500     62.9250   -999.2500      0.3156   2373.0000
23.6000         207.2500   -999.2500     61.0200   -999.2500      0.3150   2392.0000
23.8000         211.5500   -999.2500     60.9300   -999.2500      0.3134   2385.0000
24.0000         199.7250   -999.2500     62.2200   -999.2500      0.3128   2395.0000
24.2000         204.0250   -999.2500     65.8200   -999.2500      0.3104   2392.0000
24.4000         209.4000   -999.2500     66.6300   -999.2500      0.3140   2404.0000
24.6000         208.3250   -999.2500     63.9300   -999.2500      0.3162   2401.0000
24.8000         181.4500   -999.2500     59.5200   -999.2500      0.3158   2397.8999
25.0000         187.9000   -999.2500     58.0200   -999.2500      0.3100   2394.0000
25.2000         191.1250   -999.2500     57.7200   -999.2500      0.3100   2361.0000
25.4000         186.8250   -999.2500     58.2150   -999.2500      0.3084   2428.0000
25.6000         185.7500   -999.2500     59.2200   -999.2500      0.2994   2421.0000
25.8000         187.9000   -999.2500     58.1250   -999.2500      0.2906   2420.0000
26.0000         186.8250   -999.2500     57.7200   -999.2500      0.2824   2466.0000
26.2000         183.6000   -999.2500     58.0200   -999.2500      0.2808   2493.0000
26.4000         187.9000   -999.2500     58.2150   -999.2500      0.2820   2462.0000
26.6000         188.9750   -999.2500     58.8150   -999.2500      0.2822   2480.0000
26.8000         188.9750   -999.2500     59.1150   -999.2500      0.2722   2529.0000
27.0000         193.2750   -999.2500     57.0150   -999.2500      0.2716   2530.0000
27.2000         188.9750   -999.2500     55.2150   -999.2500      0.2808   2460.0000
27.4000         185.7500   -999.2500     57.4200   -999.2500      0.2776   2501.8999
27.6000         185.7500   -999.2500     59.0250   -999.2500      0.2664   2495.0000
27.8000         183.6000   -999.2500     61.9200   -999.2500      0.2654   2436.0000
28.0000         184.6750   -999.2500     63.2250   -999.2500      0.2756   2445.0000
28.2000         187.9000   -999.2500     62.8200   -999.2500      0.2826   2422.0000
28.4000         188.9750   -999.2500     63.7200   -999.2500      0.2918   2447.0000
28.6000         183.6000   -999.2500     62.7300   -999.2500      0.2962   2417.0000
28.8000         184.6750   -999.2500     63.7200   -999.2500      0.2928   2408.0000
29.0000         184.6750   -999.2500     63.3300   -999.2500      0.2928   2403.0000
29.2000         185.7500   -999.2500     61.1250   -999.2500      0.2916   2434.0000
29.4000         188.9750   -999.2500     57.9150   -999.2500      0.2874   2433.0000
29.6000         190.0500   -999.2500     56.0250   -999.2500      0.2800   2487.0000
29.8000         191.1250   -999.2500     53.4150   -999.2500      0.2696   2523.0000
30.0000         188.9750   -999.2500     53.8200   -999.2500      0.2720   2489.0000
30.2000         188.9750      0.1747     55.6200    485.0101      0.2798   2501.0000
30.4000         192.2000      0.1725     56.5200    488.6440      0.2834   2497.0000
30.6000         196.5000      0.1706     58.5150    489.1112      0.2890   2429.0000
30.8000         193.2750      0.1675     58.7250    489.3065      0.2836   2444.0000
31.0000         187.9000      0.1637     59.2200    489.3239      0.2764   2434.0000
31.2000         191.1250      0.1622     55.8150    489.3276      0.2844   2393.0000
31.4000         192.2000      0.2001     52.9200    489.3313      0.2868   2420.0000
31.6000         191.1250      0.1983     51.0150    489.3349      0.2804   2419.0000
31.8000         183.6000      0.1947     52.7250    489.3385      0.2748   2379.0000
32.0000         186.8250      0.1988     54.7200    489.3421      0.2886   2343.0000
32.2000         193.2750      0.2015     56.7150    489.3457      0.3042   2305.0000
32.4000         192.2000      0.1942     56.7150    489.3493      0.3042   2358.0000
32.6000         193.2750      0.1857     55.4250    489.3529      0.2854   2426.0000
32.8000         190.0500      0.1788     54.5250    489.3564      0.2870   2405.0000
33.0000         188.9750      0.1970     56.1150    489.3600      0.2894   2371.0000
33.2000         194.3500      0.2065     61.2300    489.3636      0.2960   2367.0000
33.4000         187.9000      0.2030     63.4200    487.7905      0.2946   2414.0000
33.6000         184.6750      0.1957     66.3300    487.4220      0.2928   2439.0000
33.8000         195.4250      0.1858     73.9350    487.3512      0.3112   2358.0000
