~VERSION INFORMATION
 VERS.                 2.0:   CWLS LOG ASCII STANDARD -VERSION 2.0
 WRAP.                  NO:   ONE LINE PER DEPTH STEP
~WELL INFORMATION BLOCK
#MNEM.UNIT           DATA                    DESCRIPTION OF MNEMONIC
#---------    -------------------            -------------------------------
# Generated from Intellog Unique Number	CC_80_83/WELL/2370
COMP.         PETRO CANADA                   : COMPANY
WELL.         PEX PCEJ CHARD OV              : Well_name    - WELL
LOC .         10-26-080-07W4                 : Location     - LOCATION
UWI .         AA/10-26-080-07W400            : Uwi          - UNIQUE WELL ID
ENTR.         DW                             : Entered      - ENTERED BY
SRVC.         SCHLUMBERGER                   : Scn          - SERVICE COMPANY
STRT.M        145                            : top_depth    - START DEPTH
STOP.M        394.895                        : bot_depth    - STOP DEPTH
STEP.M        0.3                            : increment    - STEP LENGTH
 NULL. -999.2500:NULL Value
~CURVE INFORMATION BLOCK
#MNEM UNIT       ERCB CURVE CODE    CURVE DESCRIPTION
#-----------   ------------------   ----------------------------------
DEPT.M        00 001 00 00         : DEPTH        - DEPTH
DPHI.V/V      00 890 00 00         : PHID         - DENSITY POROSITY (LIMESTONE)
NPHI.V/V      00 330 00 00         : PHIN         - NEUTRON POROSITY (LIMESTONE)
GR  .API      00 310 00 00         : GR           - GAMMA RAY
ILD .OHMM     00 120 00 00         : RESD         - DEEP RESISTIVITY (DIL)
~PARAMETER INFORMATION
#MNEM.UNIT           DATA             DESCRIPTION OF MNEMONIC
#---------         -----------     ------------------------------
GL  .M        581.1                : gl           - GROUND LEVEL ELEVATION
EREF.M        584.75               : kb           - ELEVATION OF DEPTH REFERENCE
DATM.M        584.75               : datum        - DATUM ELEVATION
TDD .M        400                  : tdd          - TOTAL DEPTH DRILLER
RUN .         ONE                  : Run          - RUN NUMBER
ENG .         BILL                 : Engineer     - RECORDING ENGINEER
WIT .         JIM                  : Witness      - WITNESSED BY
MUD .         GEL                  : Mud_type     - MUD TYPE
MATR.         LIMESTONE            : Logunit      - NEUTRON MATRIX
TMAX.C        16                   : BHT          - MAXIMUM RECORDED TEMPERATURE
BHTD.M        400                  : BHTDEP       - MAXIMUM RECORDED TEMPERATURE
MATR.         1                    : LOGUNIT      - NEUTRON MATRIX
RMT .C        25                   : MDTP         - TEMPERATURE OF MUD
NEUT.         1                    : NEUTRON      - NEUTRON TYPE
RESI.         0                    : RESIST       - RESISTIVITY TYPE
RMC .OHMM     0.25                 : RMC          - RESISTIVITY OF MUD CAKE
RMF .OHMM     0.25                 : RMF          - RESISTIVITY OF MUD FILTRATE
SUFT.C        4                    : SUFT         - SURFACE TEMPERATURE
~A  DEPTH     PHID     PHIN       GR     RESD
# ...
  197.201    0.304    0.381   77.201   21.605
  197.501    0.295    0.389   79.064   22.403
  197.801    0.300    0.380   79.050   23.239
  198.101    0.312    0.381   76.540   23.642
  198.401    0.317    0.380   65.903   22.303
  198.701    0.308    0.370   65.890   20.648
  199.001    0.300    0.379   72.753   19.117
  199.301    0.284    0.405   79.615   18.372
  199.601    0.283    0.407   82.725   17.999
  199.901    0.294    0.395   86.465   16.986
  200.201    0.281    0.379   90.828   16.027
  200.501    0.268    0.393   97.062   14.562
  200.801    0.265    0.406  103.928   14.000
  201.101    0.267    0.394  110.166   13.205
  201.401    0.274    0.394  115.153   12.225
  201.701    0.272    0.419  115.766   11.107
  202.001    0.272    0.448  111.377    8.671
  202.301    0.272    0.480  111.991    7.585
  202.601    0.243    0.475  123.229    6.890
  202.901    0.240    0.466  130.091    6.625
  203.201    0.243    0.464  139.453    7.268
  203.501    0.248    0.477  141.942    8.445
  203.801    0.260    0.478  139.429   10.383
  204.101    0.281    0.457  129.415   12.066
  204.401    0.281    0.416  116.278   15.116
  204.701    0.269    0.395  102.517   15.095
  205.001    0.253    0.411  110.629   13.452
  205.301    0.238    0.434  113.740   12.224
  205.601    0.229    0.439  114.352   10.895
  205.901    0.228    0.445  119.340    9.709
  206.201    0.227    0.452  126.829    9.163
  206.501    0.231    0.471  137.441    8.643
  206.801    0.242    0.465  136.179    8.469
  207.101    0.252    0.456  123.040    8.616
  207.401    0.252    0.458  127.403    9.277
  207.701    0.269    0.479  131.767   10.382
  208.001    0.274    0.466  126.753   11.835
  208.301    0.284    0.434  120.492   13.492
  208.601    0.286    0.413  121.104   14.256
  208.901    0.280    0.416  124.841   14.507
  209.201    0.276    0.409  121.078   14.488
  209.501    0.248    0.398  114.191   14.194
  209.801    0.242    0.372  110.429   13.899
  210.101    0.249    0.339  103.541   13.889
  210.401    0.260    0.348  107.902   14.133
  210.701    0.267    0.396  112.267   13.587
  211.001    0.259    0.417  117.879   13.062
  211.301    0.248    0.437  120.992   11.863
  211.601    0.231    0.426  109.103   11.406
  211.901    0.242    0.419   94.716   10.761
  212.201    0.160    0.418   99.703   10.348
  212.501    0.219    0.412  101.565    9.581
  212.801    0.250    0.415  105.303    8.539
  213.101    0.273    0.463  120.915    7.470
  213.401    0.289    0.460  120.903    6.532
  213.701    0.283    0.444  119.017    6.775
  214.001    0.287    0.443  105.254    8.021
  214.301    0.311    0.449   93.993   11.049
  214.601    0.314    0.431   78.355   17.701
  214.901    0.310    0.411   68.966   23.041
  215.201    0.315    0.380   62.077   27.275
  215.501    0.318    0.374   61.442   27.750
  215.801    0.319    0.393   67.678   26.674
  216.101    0.324    0.367   69.542   25.652
  216.401    0.326    0.357   69.528   24.669
  216.701    0.330    0.372   69.516   24.627
  217.001    0.332    0.378   70.129   25.065
  217.301    0.332    0.396   73.868   25.991
  217.601    0.332    0.382   73.853   26.441
  217.901    0.328    0.383   65.717   25.912
  218.201    0.325    0.383   71.954   25.878
  218.501    0.329    0.373   67.566   25.352
  218.801    0.330    0.368   70.676   25.319
  219.101    0.331    0.362   70.665   25.759
  219.401    0.333    0.382   68.780   25.246
  219.701    0.331    0.379   72.515   24.271
  220.001    0.329    0.382   70.630   23.332
  220.301    0.329    0.372   66.867   22.854
  220.601    0.328    0.370   74.354   22.828
  220.901    0.323    0.383   73.716   23.224
  221.201    0.320    0.403   71.205   23.637
  221.501    0.324    0.394   73.692   24.051
  221.801    0.317    0.393   74.305   24.015
  222.101    0.314    0.405   74.918   23.538
  222.401    0.317    0.428   77.403   22.207
  222.701    0.321    0.419   79.892   20.550
  223.001    0.328    0.408   85.505   19.391
  223.301    0.328    0.413   86.743   18.645
  223.601    0.332    0.406   77.353   18.267
  223.901    0.335    0.412   80.467   18.242
  224.201    0.337    0.398   79.203   18.208
  224.501    0.335    0.402   76.690   18.532
  224.801    0.329    0.401   75.428   18.509
  225.101    0.328    0.397   73.542   18.479
  225.401    0.329    0.411   72.905   18.806
  225.701    0.334    0.405   72.264   19.499
  226.001    0.341    0.387   74.128   20.606
  226.301    0.339    0.376   74.117   22.197
  226.601    0.323    0.358   69.727   26.282
  226.901    0.297    0.339   70.967   39.793
  227.201    0.225    0.309   72.204   61.394
  227.501    0.050    0.152   66.568   60.145
  227.801    0.068    0.152   52.806   52.614
  228.101    0.113    0.184   50.291   38.816
  228.401    0.283    0.222   56.529   28.094
  228.701    0.309    0.347   62.768   23.216
  229.001    0.314    0.415   74.004   21.093
  229.301    0.315    0.409   76.493   19.896
  229.601    0.317    0.432   77.726   20.247
  229.901    0.314    0.415   77.090   20.218
  230.201    0.304    0.410   76.453   18.020
  230.501    0.300    0.426   74.564   14.615
  230.801    0.300    0.437   73.931   10.577
  231.101    0.212    0.425   78.291    9.792
  231.401    0.240    0.427   82.656    9.591
  231.701    0.295    0.449   87.642   10.334
  232.001    0.310    0.458   85.753   14.235
  232.301    0.326    0.416   81.368   20.748
  232.601    0.326    0.401   76.352   22.769
  232.901    0.331    0.395   74.467   23.179
  233.201    0.336    0.401   73.206   22.279
  233.501    0.339    0.401   73.193   21.016
  233.801    0.337    0.390   78.803   20.209
  234.101    0.336    0.397   79.415   19.428
  234.401    0.335    0.414   78.156   19.405
  234.701    0.336    0.407   71.267   20.896
  235.001    0.338    0.414   71.878   23.825
  235.301    0.338    0.419   73.118   26.150
  235.601    0.331    0.413   72.481   25.135
  235.901    0.330    0.409   77.469   23.276
  236.201    0.330    0.410   79.331   21.140
  236.501    0.332    0.412   68.693   19.203
  236.801    0.335    0.409   64.305   18.461
  237.101    0.336    0.436   63.042   18.784
  237.401    0.333    0.415   65.530   20.233
  237.701    0.328    0.423   72.393   21.797
  238.001    0.328    0.414   72.380   24.382
  238.301    0.329    0.428   67.369   25.765
  238.601    0.332    0.422   64.229   24.774
  238.901    0.329    0.406   66.092   24.731
  239.201    0.328    0.423   70.452   25.652
  239.501    0.329    0.438   72.317   24.199
  239.801    0.332    0.452   69.180   19.999
  240.101    0.331    0.450   72.294    9.193
  240.401    0.328    0.455   74.781    5.720
  240.701    0.322    0.462   78.517    3.362
  241.001    0.311    0.477   83.504    2.675
  241.301    0.292    0.487   94.744    2.385
  241.601    0.300    0.531  105.356    1.897
  241.901    0.305    0.538  107.219    1.968
  242.201    0.306    0.548  110.957    2.374
  242.501    0.311    0.551  117.817    2.811
  242.801    0.348    0.564  110.928    3.589
  243.101    0.376    0.566  110.919    4.170
  243.401    0.376    0.543  110.905    5.031
  243.701    0.351    0.521  110.267    6.186
  244.001    0.300    0.497  105.256    6.534
  244.301    0.300    0.479   92.119    6.406
  244.601    0.290    0.500   97.731    5.929
  244.901    0.278    0.491  102.718    5.592
  245.201    0.236    0.486  107.707    5.480
  245.501    0.234    0.471  122.694    5.685
  245.801    0.250    0.442  125.180    6.007
  246.101    0.261    0.441  127.043    5.886
  246.401    0.270    0.454  125.155    5.765
  246.701    0.281    0.505  133.893    5.439
  247.001    0.293    0.536  123.881    5.232
  247.301    0.291    0.549  126.993    4.842
  247.601    0.292    0.547  127.606    4.481
  247.901    0.295    0.530  120.719    4.309
  248.201    0.294    0.511  120.081    4.143
  248.501    0.299    0.532  123.819    3.835
  248.801    0.309    0.531  128.807    3.618
  249.101    0.312    0.552  132.542    3.479
