~VERSION INFORMATION
 VERS.                 2.0:   CWLS LOG ASCII STANDARD -VERSION 2.0
 WRAP.                  NO:   ONE LINE PER DEPTH STEP
~WELL INFORMATION BLOCK
#MNEM.UNIT           DATA                    DESCRIPTION OF MNEMONIC
#---------    -------------------            -------------------------------
# Generated from Intellog Unique Number	CN_94_101/WELL/2490
WELL.         14-23-094-09W4                 : Well_name    - WELL
LOC .         AA/14-23-094-09W4/0            : Location     - LOCATION
UWI .         AA/14-23-094-09W400            : Uwi          - UNIQUE WELL ID
ENTR.         JOETTE                         : Entered      - ENTERED BY
SRVC.         SCHLUMBERGER                   : Scn          - SERVICE COMPANY
DATE.         05/17/92                       : Date         - LOG DATE
STRT.M        12                             : top_depth    - START DEPTH
STOP.M        130                            : bot_depth    - STOP DEPTH
STEP.M        0.25                           : increment    - STEP LENGTH
 NULL. -999.2500:NULL Value
~CURVE INFORMATION BLOCK
#MNEM UNIT       ERCB CURVE CODE    CURVE DESCRIPTION
#-----------   ------------------   ----------------------------------
DEPT.M        00 001 00 00         : DEPTH        - DEPTH
CALI.MM       00 280 01 00         : CAL          - CALIPER
GR  .API      00 310 00 00         : GR           - GAMMA RAY
ILD .OHMM     00 120 00 00         : RESD         - DEEP RESISTIVITY (DIL)
RHOB.KG/M3    00 350 00 00         : DENS         - BULK DENSITY
NPHI.V/V      00 330 00 00         : PHIN         - NEUTRON POROSITY (SANDSTONE)
~PARAMETER INFORMATION
#MNEM.UNIT           DATA             DESCRIPTION OF MNEMONIC
#---------         -----------     ------------------------------
GL  .M        334.3                : gl           - GROUND LEVEL ELEVATION
EREF.M        334.3                : kb           - ELEVATION OF DEPTH REFERENCE
DATM.M        334.3                : datum        - DATUM ELEVATION
TDD .M        132                  : tdd          - TOTAL DEPTH DRILLER
RUN .         ONE                  : Run          - RUN NUMBER
ENG .         BILL                 : Engineer     - RECORDING ENGINEER
WIT .         JIM                  : Witness      - WITNESSED BY
MUD .         GEL                  : Mud_type     - MUD TYPE
MATR.         SANDSTONE            : Logunit      - NEUTRON MATRIX
TMAX.C        7                    : BHT          - MAXIMUM RECORDED TEMPERATURE
BHTD.M        132                  : BHTDEP       - MAXIMUM RECORDED TEMPERATURE
RMT .C        7                    : MDTP         - TEMPERATURE OF MUD
MUDD.KG/M     1100                 : MWT          - MUD DENSITY
NEUT.         1                    : NEUTRON      - NEUTRON TYPE
RESI.         0                    : RESIST       - RESISTIVITY TYPE
RM  .OHMM     11.9                 : RM           - RESISTIVITY OF MUD
RMC .OHMM     13.8                 : RMC          - RESISTIVITY OF MUD CAKE
RMF .OHMM     12.3                 : RMF          - RESISTIVITY OF MUD FILTRATE
SUFT.C        4                    : SUFT         - SURFACE TEMPERATURE
~A  DEPTH      CAL       GR     RESD     DENS     PHIN
# ...
   48.500  145.578  108.885   15.761 2231.000    0.454
   48.750  146.732  105.187   13.568 2259.090    0.442
   49.000  146.247  118.437   11.460 2277.170    0.452
   49.250  149.445  125.623   15.096 2303.260    0.438
   49.500  152.642  109.815   17.145 2265.270    0.441
   49.750  153.390  108.536   13.211 2239.290    0.478
   50.000  148.444  110.262   12.473 2219.330    0.463
   50.250  144.326   96.268   15.826 2197.360    0.483
   50.500  141.814   94.402   21.620 2177.390    0.435
   50.750  146.633   85.262   17.937 2209.480    0.473
   51.000  149.815   73.082   19.998 2249.600    0.406
   51.250  140.814   65.151   32.880 2213.610    0.460
   51.500  139.534   91.704   22.251 2177.620    0.531
   51.750  144.338   99.494   18.804 2143.630    0.536
   52.000  149.952   44.349   18.085 2143.700    0.423
   52.250  157.205   54.558   55.751 2135.740    0.484
   52.500  156.331   51.482   56.674 2151.820    0.451
   52.750  141.215   58.668   39.796 2179.910    0.424
   53.000  141.963   67.668   43.557 2212.000    0.399
   53.250  141.511   85.151   31.753 2208.050    0.426
   53.500  143.881   94.773   18.187 2192.090    0.491
   53.750  145.846   81.988   22.250 2180.150    0.469
   54.000  142.522   67.993   33.978 2192.200    0.438
   54.250  142.459   65.505   26.655 2226.300    0.414
   54.500  144.440   96.912   24.706 2262.420    0.436
   54.750  146.810  101.075   17.681 2240.440    0.466
   55.000  143.908   92.522   20.080 2212.450    0.454
   55.250  143.424   71.272   34.258 2166.450    0.461
   55.500  142.971   69.388   25.900 2154.510    0.461
   55.750  142.503   74.138   27.829 2154.560    0.463
   56.000  142.424   81.946   32.195 2178.650    0.488
   56.250  141.955   84.295   25.270 2136.650    0.415
   56.500  141.892   87.871   26.655 2144.720    0.452
   56.750  142.235   58.138   42.236 2178.830    0.443
   57.000  142.577   70.783   31.932 2186.880    0.397
   57.250  143.715   85.830   31.283 2212.970    0.402
   57.500  145.290   95.452   28.995 2221.050    0.444
   57.750  148.456  109.911   21.531 2235.100    0.458
   58.000  149.641  102.568   19.581 2251.180    0.480
   58.250  147.129  121.865   21.443 2257.240    0.428
   58.500  145.038  119.981   18.794 2275.330    0.445
   58.750  151.870  119.306   15.592 2241.340    0.479
   59.000  151.807  114.399   15.552 2213.360    0.484
   59.250  150.090  101.614   15.817 2207.420    0.475
   59.500  149.247   94.893   19.702 2213.480    0.493
   59.750  147.968   91.178   25.478 2231.560    0.481
   60.000  140.184   74.765   24.042 2211.590    0.413
   60.250  142.554   75.904   29.414 2199.640    0.424
   60.500  143.286   66.160   32.194 2207.710    0.432
   60.750  140.400   71.532   26.709 2197.740    0.404
   61.000  139.526   79.323   38.568 2195.800    0.429
   61.250  139.868   87.131   22.934 2207.880    0.439
   61.500  139.384   83.433   31.931 2183.900    0.420
   61.750  139.305   71.857   28.000 2169.940    0.426
   62.000  139.242   63.305   38.965 2180.000    0.418
   62.250  139.601   75.950   47.623 2158.030    0.484
   62.500  139.506   64.392   51.196 2164.100    0.457
   62.750  139.475   61.282   61.489 2164.170    0.382
   63.000  140.223   67.276   61.363 2150.190    0.394
   63.250  140.550   52.072  108.572 2124.220    0.394
   63.500  140.081   39.287  116.659 2128.280    0.415
   63.750  139.191   53.729  132.558 2174.390    0.366
   64.000  137.927   56.700   51.512 2202.490    0.389
   64.250  137.053   71.764   22.375 2166.490    0.405
   64.500  137.396   97.711   23.170 2188.590    0.396
   64.750  138.939   66.769   33.474 2218.680    0.378
   65.000  140.109   82.438   35.967 2226.740    0.358
   65.250  140.435   85.391   30.947 2200.770    0.362
   65.500  140.372   84.699   28.144 2212.840    0.404
   65.750  139.919   82.816   35.056 2236.920    0.392
   66.000  139.435   77.321   31.330 2230.990    0.376
   66.250  139.372   71.792   36.940 2215.010    0.406
   66.500  139.715   72.327   53.341 2205.050    0.427
   66.750  139.262   69.838   59.440 2211.120    0.398
   67.000  138.793   65.519   74.077 2203.160    0.425
   67.250  135.860   66.053  107.021 2159.170    0.392
   67.500  135.391   65.379  117.136 2119.170    0.379
   67.750  135.734   65.309   90.257 2109.230    0.389
   68.000  136.077   57.379  130.330 2109.290    0.399
   68.250  135.608   50.053  234.899 2117.340    0.448
   68.500  134.344   48.169  206.088 2139.420    0.394
   68.750  133.860   44.437  167.846 2169.530    0.364
   69.000  135.840   46.820   94.426 2195.610    0.345
   69.250  136.978   54.611   68.765 2243.730    0.328
   69.500  138.132   59.378   45.730 2273.820    0.479
   69.750  140.923   70.797   23.894 2287.910    0.510
   70.000  142.483   87.070   23.384 2305.980    0.448
   70.250  142.809   91.838   25.152 2298.020    0.466
   70.500  141.919   91.163   39.104 2286.070    0.462
   70.750  141.482   91.698   23.241 2278.100    0.437
   71.000  140.998   89.192   23.638 2286.180    0.423
   71.250  140.530  104.273   24.017 2296.260    0.418
   71.500  140.451  102.390   22.260 2288.300    0.447
   71.750  140.372   90.814   21.028 2278.340    0.455
   72.000  140.341  105.273   19.853 2264.390    0.455
   72.250  141.089  113.668   21.332 2280.460    0.461
   72.500  142.632   94.837   25.607 2266.490    0.452
   72.750  142.959   88.116   32.508 2232.510    0.488
   73.000  142.927   83.813   38.309 2210.540    0.416
   73.250  142.459   92.813   38.231 2198.580    0.425
   73.500  141.585   73.377   59.469 2188.630    0.441
   73.750  140.711   80.563   84.300 2186.680    0.465
   74.000  140.242   86.557   52.984 2174.720    0.458
   74.250  140.585   69.522   90.394 2156.760    0.453
   74.500  140.506   73.098   95.348 2188.850    0.411
   74.750  139.616   70.005   46.248 2204.920    0.417
   75.000  138.742   69.917   48.758 2186.970    0.441
   75.250  139.069   75.912   53.393 2211.040    0.417
   75.500  139.443   77.656   56.349 2221.110    0.422
   75.750  140.175   72.109   45.030 2205.150    0.477
   76.000  140.533   70.243   42.536 2181.180    0.451
   76.250  141.266   61.103   48.309 2173.240    0.513
   76.500  141.592   44.690   64.789 2137.240    0.434
   76.750  141.545   31.905  119.010 2083.230    0.405
   77.000  141.903   22.765  116.592 2071.270    0.448
   77.250  142.246   14.818  191.696 2083.340    0.404
   77.500  142.589   22.626 1357.690 2097.410    0.382
   77.750  142.526   31.021  749.821 2117.490    0.382
   78.000  141.214   39.434  302.502 2183.640    0.366
   78.250  139.545   82.329   45.798 2207.720    0.365
   78.500  139.076   93.748   40.888 2231.810    0.470
   78.750  139.824   80.341   40.057 2241.890    0.450
   79.000  141.352   75.451   38.525 2235.930    0.470
   79.250  141.710   60.852   48.012 2173.910    0.417
   79.500  142.474   49.898   50.644 2206.000    0.483
   79.750  143.207   60.108   34.910 2258.120    0.517
   80.000  142.738   70.939   32.944 2288.230    0.407
   80.250  142.270   89.026   36.076 2242.210    0.461
   80.500  141.817   90.166   45.774 2220.240    0.511
   80.750  141.348   82.823   59.193 2208.300    0.456
   81.000  141.254   76.706   36.523 2202.360    0.384
   81.250  141.206   69.363   52.765 2206.420    0.438
   81.500  141.128   75.357   34.395 2210.470    0.432
   81.750  141.080   68.619   49.691 2240.560    0.464
   82.000  141.017   75.218   27.969 2238.610    0.469
   82.250  140.923   76.340   36.150 2252.690    0.374
   82.500  140.891   75.648   44.181 2250.740    0.439
   82.750  140.828   81.055   34.043 2268.820    0.463
   83.000  141.139   88.845   43.217 2278.880    0.438
   83.250  141.498   80.897   35.854 2274.950    0.461
   83.500  142.651   88.101   29.730 2224.930    0.440
   83.750  143.399   80.758   36.373 2186.940    0.438
   84.000  142.510   51.647   35.634 2191.000    0.402
   84.250  141.635   53.391   58.558 2205.080    0.380
   84.500  142.789   62.391   54.275 2213.160    0.379
   84.750  143.943   70.804   37.433 2197.180    0.466
