~VERSION INFORMATION
 VERS.                 2.0:   CWLS LOG ASCII STANDARD -VERSION 2.0
 WRAP.                  NO:   ONE LINE PER DEPTH STEP
~WELL INFORMATION BLOCK
#MNEM.UNIT           DATA                    DESCRIPTION OF MNEMONIC
#---------    -------------------            -------------------------------
# Generated from Intellog Unique Number	CN_94_101/WELL/5048
WELL.         15-19-098-12W4                 : Well_name    - WELL
LOC .         AA/15-19-098-12W4/0            : Location     - LOCATION
UWI .         AA/15-19-098-12W400            : Uwi          - UNIQUE WELL ID
ENTR.         T                              : Entered      - ENTERED BY
SRVC.         SCHLUMBERGER                   : Scn          - SERVICE COMPANY
DATE.         08/14/92                       : Date         - LOG DATE
STRT.M        195                            : top_depth    - START DEPTH
STOP.M        470                            : bot_depth    - STOP DEPTH
STEP.M        0.25                           : increment    - STEP LENGTH
 NULL. -999.2500:NULL Value
~CURVE INFORMATION BLOCK
#MNEM UNIT       ERCB CURVE CODE    CURVE DESCRIPTION
#-----------   ------------------   ----------------------------------
DEPT.M        00 001 00 00         : DEPTH        - DEPTH
GR  .API      00 310 00 00         : GR           - GAMMA RAY
NPHI.V/V      00 330 00 00         : PHIN         - NEUTRON POROSITY (SANDSTONE)
DPHI.V/V      00 890 00 00         : PHID         - DENSITY POROSITY (SANDSTONE)
ILD .OHMM     00 120 00 00         : RESD         - DEEP RESISTIVITY (DIL)
~PARAMETER INFORMATION
#MNEM.UNIT           DATA             DESCRIPTION OF MNEMONIC
#---------         -----------     ------------------------------
GL  .M        718.4                : gl           - GROUND LEVEL ELEVATION
EREF.M        721.67               : kb           - ELEVATION OF DEPTH REFERENCE
DATM.M        721.67               : datum        - DATUM ELEVATION
TDD .M        479                  : tdd          - TOTAL DEPTH DRILLER
RUN .         ONE                  : Run          - RUN NUMBER
ENG .         BILL                 : Engineer     - RECORDING ENGINEER
WIT .         JIM                  : Witness      - WITNESSED BY
MUD .         GEL                  : Mud_type     - MUD TYPE
MATR.         SANDSTONE            : Logunit      - NEUTRON MATRIX
TMAX.C        21                   : BHT          - MAXIMUM RECORDED TEMPERATURE
BHTD.M        479                  : BHTDEP       - MAXIMUM RECORDED TEMPERATURE
RMT .C        21                   : MDTP         - TEMPERATURE OF MUD
MUDD.KG/M     1090                 : MWT          - MUD DENSITY
NEUT.         1                    : NEUTRON      - NEUTRON TYPE
RESI.         0                    : RESIST       - RESISTIVITY TYPE
RM  .OHMM     5.7                  : RM           - RESISTIVITY OF MUD
RMC .OHMM     5.7                  : RMC          - RESISTIVITY OF MUD CAKE
RMF .OHMM     5.7                  : RMF          - RESISTIVITY OF MUD FILTRATE
SUFT.C        4                    : SUFT         - SURFACE TEMPERATURE
~A  DEPTH       GR     PHIN     PHID     RESD
# ...
  412.500  124.005    0.508    0.237    4.551
  412.750  124.010    0.510    0.231    4.395
  413.000  123.545    0.510    0.227    4.322
  413.250  120.711    0.506    0.220    4.252
  413.500  119.767    0.499    0.223    4.182
  413.750  118.827    0.496    0.229    4.186
  414.000  119.311    0.496    0.236    4.193
  414.250  120.272    0.495    0.246    4.123
  414.500  120.279    0.493    0.254    4.131
  414.750  120.763    0.490    0.241    4.061
  415.000  123.621    0.486    0.240    4.071
  415.250  122.684    0.486    0.244    4.075
  415.500  122.214    0.491    0.250    4.081
  415.750  119.379    0.497    0.257    4.015
  416.000  117.487    0.521    0.266    3.879
  416.250  116.550    0.529    0.283    3.882
  416.500  116.085    0.541    0.298    3.961
  416.750  115.145    0.550    0.304    4.114
  417.000  112.784    0.557    0.297    4.195
  417.250  110.893    0.550    0.290    4.359
  417.500  107.580    0.546    0.283    4.287
  417.750  103.319    0.537    0.275    3.512
  418.000   97.159    0.521    0.267    2.355
  418.250   92.898    0.506    0.258    1.895
  418.500   89.113    0.477    0.246    1.796
  418.750   86.748    0.468    0.229    2.007
  419.000   83.910    0.453    0.214    2.327
  419.250   80.123    0.449    0.204    2.600
  419.500   76.336    0.452    0.210    2.904
  419.750   71.600    0.458    0.233    3.186
  420.000   74.931    0.469    0.237    3.693
  420.250   90.600    0.493    0.231    4.440
  420.500  103.421    0.497    0.224    4.961
  420.750  114.821    0.502    0.218    5.647
  421.000  115.308    0.512    0.222    6.081
  421.250  115.317    0.518    0.224    6.795
  421.500  117.222    0.526    0.232    6.808
  421.750  117.708    0.533    0.241    6.109
  422.000  118.190    0.537    0.246    5.288
  422.250  117.727    0.533    0.250    4.494
  422.500  115.363    0.524    0.245    3.962
  422.750  113.472    0.514    0.233    3.624
  423.000  105.889    0.501    0.213    3.498
  423.250   98.780    0.491    0.206    3.504
  423.500   97.368    0.479    0.235    3.508
  423.750   96.903    0.478    0.255    3.579
  424.000   96.912    0.481    0.265    3.720
  424.250   97.394    0.484    0.275    3.791
  424.500   96.929    0.490    0.284    4.014
  424.750   92.667    0.495    0.293    4.169
  425.000   85.559    0.497    0.295    4.177
  425.250   72.281    0.480    0.279    4.180
  425.500   51.886    0.424    0.266    4.111
  425.750   41.458    0.386    0.259    3.970
  426.000   37.668    0.312    0.259    3.904
  426.250   34.830    0.291    0.259    3.910
  426.500   33.416    0.288    0.257    4.062
  426.750   32.951    0.283    0.253    4.458
  427.000   31.539    0.278    0.249    4.979
  427.250   28.701    0.271    0.249   21.861
  427.500   27.759    0.266    0.250   50.677
  427.750   27.770    0.271    0.250  109.215
  428.000   28.729    0.296    0.249  192.590
  428.250   31.583    0.304    0.248  262.989
  428.500   36.814    0.327    0.249  366.011
  428.750   41.571    0.350    0.250  401.414
  429.000   45.849    0.353    0.254  509.585
  429.250   51.078    0.363    0.256  748.802
  429.500   53.935    0.373    0.260  883.713
  429.750   54.419    0.382    0.264 1042.930
  430.000   52.532    0.392    0.272 1064.160
  430.250   50.645    0.400    0.279 1008.660
  430.500   50.176    0.404    0.282  841.801
  430.750   50.185    0.405    0.288  384.723
  431.000   50.194    0.405    0.293  192.687
  431.250   50.203    0.405    0.298   98.245
  431.500   50.690    0.406    0.303   67.064
  431.750   51.650    0.406    0.304   79.177
  432.000   52.609    0.408    0.305   91.824
  432.250   54.042    0.410    0.305   91.930
  432.500   55.000    0.410    0.306   92.070
  432.750   55.961    0.412    0.307   90.510
  433.000   56.440    0.413    0.307   87.402
  433.250   55.500    0.414    0.307   81.440
  433.500   55.037    0.419    0.307   78.614
  433.750   55.044    0.423    0.307   78.734
  434.000   56.956    0.430    0.306   78.824
  434.250   57.910    0.432    0.303   79.005
  434.500   60.294    0.438    0.301   72.175
  434.750   62.202    0.439    0.297   58.078
  435.000   64.111    0.443    0.291   47.595
  435.250   64.597    0.446    0.285   41.955
  435.500   64.602    0.445    0.280   40.514
  435.750   62.243    0.443    0.277   38.416
  436.000   61.299    0.439    0.278   34.487
  436.250   60.361    0.434    0.280   27.751
  436.500   60.371    0.430    0.284   25.828
  436.750   61.329    0.423    0.286   22.777
  437.000   63.711    0.420    0.288   23.659
  437.250   66.091    0.421    0.288   25.488
  437.500   68.473    0.422    0.289   29.003
  437.750   71.329    0.422    0.287   33.610
  438.000   74.188    0.420    0.286   38.963
  438.250   77.519    0.417    0.284   41.992
  438.500   79.901    0.418    0.281   42.814
  438.750   81.808    0.422    0.278   39.863
  439.000   84.193    0.422    0.273   36.431
  439.250   85.626    0.418    0.268   25.345
  439.500   87.058    0.414    0.262   20.387
  439.750   87.540    0.406    0.248   19.687
  440.000   88.973    0.399    0.196   30.544
  440.250   89.459    0.392    0.185   50.072
  440.500   90.892    0.387    0.171   63.565
  440.750   92.802    0.386    0.161   68.506
  441.000   93.755    0.386    0.160   43.474
  441.250   95.665    0.386    0.168   27.599
  441.500   95.672    0.387    0.186   22.200
  441.750   96.158    0.388    0.196   18.193
  442.000   96.644    0.388    0.198   17.575
  442.250   97.130    0.388    0.200   18.599
  442.500   97.135    0.387    0.204   18.970
  442.750   97.144    0.384    0.203   18.325
  443.000   97.154    0.384    0.200   17.056
  443.250   97.165    0.381    0.199   16.160
  443.500   94.325    0.385    0.197   15.335
  443.750   91.490    0.382    0.195   15.358
  444.000   89.124    0.376    0.192   15.659
  444.250   85.814    0.367    0.187   15.683
  444.500   84.397    0.347    0.177   15.707
  444.750   79.661    0.322    0.169   15.168
  445.000   75.876    0.295    0.151   14.916
  445.250   74.934    0.278    0.144   14.945
  445.500   76.844    0.289    0.147   15.524
  445.750   78.749    0.351    0.160   16.724
  446.000   81.131    0.374    0.177   17.685
  446.250   89.207    0.383    0.190   18.708
  446.500   96.339    0.383    0.197   18.736
  446.750   98.245    0.387    0.200   22.942
  447.000  100.626    0.393    0.191   38.993
  447.250  103.008    0.401    0.185   73.991
  447.500  105.865    0.411    0.176   67.620
  447.750  109.196    0.419    0.176   45.359
  448.000  111.106    0.428    0.178   37.841
  448.250  110.640    0.437    0.180   30.439
  448.500  106.377    0.437    0.183   22.770
  448.750  101.166    0.434    0.185   17.992
  449.000   97.856    0.433    0.189   14.489
  449.250   96.442    0.429    0.194   13.980
  449.500   94.553    0.427    0.198   13.511
  449.750   92.664    0.420    0.201   12.806
  450.000   91.247    0.417    0.207   13.057
  450.250   88.884    0.412    0.209   13.828
  450.500   86.998    0.407    0.214   14.088
  450.750   86.998    0.401    0.219   14.375
  451.000   85.118    0.394    0.223   14.662
  451.250   82.280    0.389    0.231   15.224
  451.500   78.496    0.386    0.237   15.247
  451.750   76.132    0.386    0.240   18.332
  452.000   75.195    0.384    0.246   19.757
  452.250   75.199    0.384    0.250   20.515
  452.500   75.683    0.384    0.252   24.211
  452.750   79.014    0.384    0.251   23.809
  453.000   81.873    0.384    0.246   21.776
  453.250   83.780    0.386    0.242   23.027
  453.500   86.160    0.387    0.239   31.456
  453.750   88.067    0.390    0.234   34.525
  454.000   90.449    0.393    0.227   35.863
  454.250   94.730    0.395    0.215   40.056
  454.500   95.216    0.397    0.204   39.407
  454.750   93.329    0.396    0.200   36.014
  455.000   92.389    0.396    0.194   31.185
  455.250   91.924    0.393    0.192   30.114
  455.500   91.933    0.389    0.195   29.615
  455.750   93.369    0.388    0.196   28.092
