~VERSION INFORMATION
 VERS.                 2.0:   CWLS LOG ASCII STANDARD -VERSION 2.0
 WRAP.                  NO:   ONE LINE PER DEPTH STEP
~WELL INFORMATION BLOCK
#MNEM.UNIT           DATA                    DESCRIPTION OF MNEMONIC
#---------    -------------------            -------------------------------
# Generated from Intellog Unique Number	CC_88_90/WELL/1169
WELL.         10-08-090-16W4                 : Well_name    - WELL
LOC .         AA/10-08-090-16W4/0            : Location     - LOCATION
UWI .         AA/10-08-090-16W400            : Uwi          - UNIQUE WELL ID
ENTR.         DW                             : Entered      - ENTERED BY
SRVC.         SCHLUMBERGER                   : Scn          - SERVICE COMPANY
STRT.M        75.000                         : top_depth    - START DEPTH
STOP.M        176.000                        : bot_depth    - STOP DEPTH
STEP.M        0.25                           : increment    - STEP LENGTH
 NULL. -999.2500:NULL Value
~CURVE INFORMATION BLOCK
#MNEM UNIT       ERCB CURVE CODE    CURVE DESCRIPTION
#-----------   ------------------   ----------------------------------
DEPT.M        00 001 00 00         : DEPTH        - DEPTH
GR  .API      00 310 00 00         : GR           - GAMMA RAY
ILD .OHMM     00 120 00 00         : RESD         - DEEP RESISTIVITY (DIL)
NPHI.V/V      00 330 00 00         : PHIN         - NEUTRON POROSITY (SANDSTONE)
DPHI.V/V      00 890 00 00         : PHID         - DENSITY POROSITY (SANDSTONE)
~PARAMETER INFORMATION
#MNEM.UNIT           DATA             DESCRIPTION OF MNEMONIC
#---------         -----------     ------------------------------
GL  .M        480                  : gl           - GROUND LEVEL ELEVATION
EREF.M        483.93               : kb           - ELEVATION OF DEPTH REFERENCE
DATM.M        483.93               : datum        - DATUM ELEVATION
TDD .M        239                  : tdd          - TOTAL DEPTH DRILLER
RUN .         ONE                  : Run          - RUN NUMBER
ENG .         BILL                 : Engineer     - RECORDING ENGINEER
WIT .         JIM                  : Witness      - WITNESSED BY
MUD .         GEL                  : Mud_type     - MUD TYPE
MATR.         SANDSTONE            : Logunit      - NEUTRON MATRIX
TMAX.C        25                   : BHT          - MAXIMUM RECORDED TEMPERATURE
BHTD.M        239                  : BHTDEP       - MAXIMUM RECORDED TEMPERATURE
MATR.         1                    : LOGUNIT      - NEUTRON MATRIX
RMT .C        25                   : MDTP         - TEMPERATURE OF MUD
NEUT.         1                    : NEUTRON      - NEUTRON TYPE
RESI.         0                    : RESIST       - RESISTIVITY TYPE
RMC .OHMM     0.25                 : RMC          - RESISTIVITY OF MUD CAKE
RMF .OHMM     0.25                 : RMF          - RESISTIVITY OF MUD FILTRATE
SUFT.C        15                   : SUFT         - SURFACE TEMPERATURE
~A  DEPTH       GR     RESD     PHIN     PHID
   75.000   85.425    6.031    0.514    0.212
   75.250   84.199    5.761    0.513    0.208
   75.500   87.275    5.418    0.540    0.216
   75.750   96.496    5.080    0.537    0.223
   76.000  112.478    4.768    0.525    0.238
   76.250  106.336    4.478    0.546    0.252
   76.500  105.725    4.200    0.579    0.237
   76.750  119.863    3.879    0.596    0.238
   77.000  127.241    3.618    0.607    0.245
   77.250  113.723    3.437    0.603    0.262
   77.500  111.268    3.276    0.598    0.284
   77.750  124.792    3.132    0.601    0.293
   78.000  121.108    3.038    0.599    0.283
   78.250  110.048    2.940    0.601    0.278
   78.500  109.437    2.876    0.611    0.297
   78.750  105.138    2.869    0.616    0.311
   79.000  102.683    2.849    0.617    0.322
   79.250  103.916    2.805    0.627    0.331
   79.500  112.523    2.809    0.635    0.313
   79.750  105.765    2.809    0.625    0.322
   80.000   93.477    2.805    0.627    0.331
   80.250  100.855    2.809    0.639    0.328
   80.500   95.942    2.793    0.645    0.319
   80.750  108.237    2.824    0.641    0.309
   81.000  115.614    2.965    0.637    0.300
   81.250  119.920    3.011    0.636    0.295
   81.500  127.297    3.097    0.631    0.279
   81.750  112.551    3.170    0.630    0.256
   82.000  104.565    3.213    0.620    0.235
   82.250  107.641    3.259    0.593    0.242
   82.500  118.706    3.252    0.580    0.292
   82.750  121.168    3.194    0.603    0.309
   83.000  121.171    3.196    0.619    0.297
   83.250  109.497    3.132    0.623    0.292
   83.500   90.449    3.047    0.626    0.298
   83.750   89.838    3.081    0.624    0.301
   84.000   93.528    3.182    0.613    0.299
   84.250   94.760    3.284    0.604    0.290
   84.500  108.899    3.403    0.586    0.275
   84.750  120.578    3.716    0.562    0.281
   85.000  126.727    4.175    0.574    0.291
   85.250  125.501    4.934    0.607    0.289
   85.500  106.453    6.156    0.579    0.292
   85.750   84.331    6.867    0.520    0.262
   86.000   97.856    6.616    0.494    0.222
   86.250   89.255    6.104    0.468    0.181
   86.500   91.102    5.846    0.440    0.196
   86.750   99.094    5.811    0.450    0.266
   87.000   99.712    6.140    0.492    0.291
   87.250  102.173    7.185    0.514    0.262
   87.500   96.030    8.230    0.519    0.229
   87.750  102.794    9.217    0.539    0.233
   88.000  124.307    9.759    0.496    0.226
   88.250  135.987    9.587    0.421    0.198
   88.500  129.230    9.285    0.462    0.225
   88.750  116.941    9.044    0.495    0.281
   89.000  102.195    8.225    0.538    0.281
   89.250  112.646    7.325    0.551    0.270
   89.500  114.493    6.497    0.522    0.275
   89.750  118.183    5.798    0.494    0.286
   90.000  121.874    5.883    0.492    0.311
   90.250  118.189    6.744    0.509    0.313
   90.500  115.734    7.881    0.530    0.296
   90.750  118.196    8.668    0.525    0.290
   91.000  120.043    9.446    0.498    0.293
   91.250  108.984   10.270    0.485    0.293
   91.500  100.998   10.549    0.500    0.299
   91.750  102.229   10.906    0.514    0.303
   92.000  113.295   10.952    0.519    0.298
   92.250  102.850   11.021    0.512    0.302
   92.500  101.625   11.207    0.473    0.315
   92.750  104.701   11.414    0.440    0.318
   93.000  110.849   11.787    0.472    0.311
   93.250  112.082   11.997    0.482    0.328
   93.500  105.325   11.897    0.446    0.318
   93.750  109.630   11.510    0.427    0.263
   94.000  109.633   10.780    0.464    0.258
   94.250  107.792    9.986    0.496    0.318
   94.500  108.410    9.549    0.467    0.326
   94.750   99.809    9.198    0.451    0.306
   95.000   99.812    9.401    0.449    0.297
   95.250   97.972    9.629    0.444    0.310
   95.500   83.225    9.834    0.464    0.309
   95.750   88.145    9.804    0.498    0.295
   96.000   94.909    8.999    0.489    0.311
   96.250   89.380    8.283    0.472    0.312
   96.500   91.842    6.492    0.454    0.295
   96.750  101.678    4.912    0.456    0.278
   97.000  102.296    4.264    0.489    0.280
   97.250   93.081    3.800    0.530    0.291
   97.500  105.375    3.293    0.553    0.288
   97.750  120.742    3.218    0.573    0.279
   98.000  120.131    3.268    0.599    0.269
   98.250  117.061    3.376    0.616    0.243
   98.500  120.137    4.081    0.625    0.235
   98.750  109.079    5.152    0.624    0.266
   99.000   99.249    5.686    0.595    0.290
   99.250   94.949    6.100    0.557    0.304
   99.500   98.640    5.975    0.539    0.279
   99.750   99.258    5.469    0.504    0.257
  100.000  100.490    5.000    0.482    0.244
  100.250   98.650    4.614    0.500    0.239
  100.500   91.892    4.436    0.510    0.273
  100.750   96.197    5.221    0.516    0.297
  101.000  108.492    6.484    0.500    0.295
  101.250   94.975    7.674    0.484    0.288
  101.500   95.593    9.445    0.477    0.298
  101.750  102.356   11.497    0.465    0.316
  102.000   92.526   12.287    0.447    0.318
  102.250  101.747   12.503    0.433    0.305
  102.500  100.522   12.522    0.432    0.265
  102.750   89.463   12.499    0.434    0.283
  103.000   88.852   12.500    0.436    0.303
  103.250   94.386   11.741    0.448    0.274
  103.500   98.691    9.955    0.453    0.259
  103.750   95.621    9.025    0.416    0.217
  104.000   88.864    6.735    0.401    0.241
  104.250   91.325    5.340    0.439    0.282
  104.500  118.369    5.562    0.481    0.279
  104.750  104.852    6.105    0.499    0.266
  105.000   93.178    6.932    0.528    0.286
  105.250   90.723    7.529    0.550    0.306
  105.500   89.498    7.814    0.506    0.336
  105.750  112.239    7.424    0.493    0.342
  106.000  123.919    6.583    0.503    0.333
  106.250  113.475    5.983    0.483    0.329
  106.500  114.708    5.832    0.477    0.306
  106.750  114.710    5.739    0.493    0.281
  107.000  104.266    5.650    0.516    0.274
  107.250   98.738    5.541    0.527    0.269
  107.500   97.512    5.516    0.544    0.259
  107.750  109.806    5.629    0.550    0.252
  108.000  120.258    5.708    0.518    0.258
  108.250  110.427    5.634    0.533    0.280
  108.500  107.357    5.406    0.559    0.273
  108.750  109.819    5.121    0.588    0.281
  109.000  108.593    5.207    0.598    0.292
  109.250  108.597    6.026    0.586    0.281
  109.500  116.589    7.146    0.594    0.276
  109.750  112.290    7.560    0.604    0.263
  110.000   93.241    7.397    0.616    0.254
  110.250   87.099    7.096    0.557    0.224
  110.500   82.800    6.657    0.515    0.197
  110.750   80.960    5.805    0.538    0.208
  111.000   72.974    4.702    0.517    0.227
  111.250   64.987    4.044    0.528    0.235
  111.500   74.823    3.737    0.524    0.246
  111.750   83.430    3.618    0.513    0.241
  112.000   88.350    3.600    0.547    0.240
  112.250   96.957    3.596    0.601    0.259
  112.500  116.012    3.598    0.604    0.269
  112.750  106.797    3.708    0.599    0.267
  113.000  117.862    3.832    0.599    0.251
  113.250  127.084    3.946    0.583    0.261
  113.500  120.327    4.088    0.562    0.257
  113.750  116.642    4.312    0.562    0.219
  114.000  120.948    4.504    0.568    0.215
  114.250  124.024    4.516    0.534    0.232
  114.500  128.329    5.386    0.547    0.257
  114.750  116.655    7.503    0.584    0.249
  115.000  110.512   10.466    0.595    0.240
  115.250   95.766   12.777    0.578    0.271
  115.500   90.239   13.461    0.500    0.243
  115.750   97.002   14.190    0.319    0.056
  116.000  102.536   13.830    0.285    0.105
  116.250  110.528   12.898    0.354    0.217
  116.500  106.844   12.228    0.412    0.272
  116.750  111.764   11.262    0.436    0.328
  117.000  106.850    9.734    0.435    0.334
  117.250  108.697    9.378    0.429    0.318
  117.500  105.627    9.240    0.423    0.283
  117.750   93.954    9.236    0.426    0.254
  118.000   93.957    9.906    0.437    0.245
  118.250  104.408   10.801    0.450    0.247
