~VERSION INFORMATION
 VERS.                 2.0:   CWLS LOG ASCII STANDARD -VERSION 2.0
 WRAP.                  NO:   ONE LINE PER DEPTH STEP
~WELL INFORMATION BLOCK
#MNEM.UNIT           DATA                    DESCRIPTION OF MNEMONIC
#---------    -------------------            -------------------------------
# Generated from Intellog Unique Number	CN_94_101/WELL/5032
WELL.         13-10-099-10W4                 : Well_name    - WELL
LOC .         AA/13-10-099-10W4/0            : Location     - LOCATION
UWI .         AA/13-10-099-10W400            : Uwi          - UNIQUE WELL ID
ENTR.         T                              : Entered      - ENTERED BY
SRVC.         SCHLUMBERGER                   : Scn          - SERVICE COMPANY
DATE.         08/17/92                       : Date         - LOG DATE
STRT.M        12.192                         : top_depth    - START DEPTH
STOP.M        108.442                        : bot_depth    - STOP DEPTH
STEP.M        0.25                           : increment    - STEP LENGTH
 NULL. -999.2500:NULL Value
~CURVE INFORMATION BLOCK
#MNEM UNIT       ERCB CURVE CODE    CURVE DESCRIPTION
#-----------   ------------------   ----------------------------------
DEPT.M        00 001 00 00         : DEPTH        - DEPTH
GR  .API      00 310 00 00         : GR           - GAMMA RAY
NPHI.V/V      00 330 00 00         : PHIN         - NEUTRON POROSITY (SANDSTONE)
ILD .OHMM     00 120 00 00         : RESD         - DEEP RESISTIVITY (DIL)
~PARAMETER INFORMATION
#MNEM.UNIT           DATA             DESCRIPTION OF MNEMONIC
#---------         -----------     ------------------------------
GL  .M        283.251              : gl           - GROUND LEVEL ELEVATION
EREF.M        283.251              : kb           - ELEVATION OF DEPTH REFERENCE
DATM.M        283.251              : datum        - DATUM ELEVATION
TDD .M        108.814              : tdd          - TOTAL DEPTH DRILLER
RUN .         ONE                  : Run          - RUN NUMBER
ENG .         BILL                 : Engineer     - RECORDING ENGINEER
WIT .         JIM                  : Witness      - WITNESSED BY
MUD .         GEL                  : Mud_type     - MUD TYPE
MATR.         SANDSTONE            : Logunit      - NEUTRON MATRIX
TMAX.C        20                   : BHT          - MAXIMUM RECORDED TEMPERATURE
BHTD.M        49.3776              : BHTDEP       - MAXIMUM RECORDED TEMPERATURE
RMT .C        20                   : MDTP         - TEMPERATURE OF MUD
MUDD.KG/M     1030                 : MWT          - MUD DENSITY
NEUT.         1                    : NEUTRON      - NEUTRON TYPE
RESI.         0                    : RESIST       - RESISTIVITY TYPE
RM  .OHMM     12                   : RM           - RESISTIVITY OF MUD
RMC .OHMM     8.4                  : RMC          - RESISTIVITY OF MUD CAKE
RMF .OHMM     11.4                 : RMF          - RESISTIVITY OF MUD FILTRATE
SUFT.C        4                    : SUFT         - SURFACE TEMPERATURE
~A  DEPTH       GR     PHIN     RESD
# ...
   66.442   48.295    0.288  143.974
   66.692   44.770    0.295   83.807
   66.942   43.881    0.323   76.364
   67.192   44.741    0.328   74.582
   67.442   46.492    0.316   67.844
   67.692   53.503    0.302   58.278
   67.942   64.908    0.310   39.153
   68.192   80.704    0.320   40.555
   68.442   92.109    0.315   39.484
   68.692   90.341    0.299   37.702
   68.942   85.938    0.298   34.151
   69.192   80.654    0.306   20.690
   69.442   92.938    0.380   15.724
   69.692  115.759    0.485   15.004
   69.942  170.196    0.549   19.944
   70.192  167.547    0.538   21.697
   70.442  164.026    0.527   20.272
   70.692  167.524    0.528   17.422
   70.942  175.413    0.531   17.059
   71.192  174.529    0.537   15.985
   71.442  172.755    0.550   15.264
   71.692  176.256    0.560   14.187
   71.942  178.001    0.563   15.235
   72.192  177.111    0.565   14.158
   72.442  176.221    0.567   13.794
   72.692  171.821    0.570   13.424
   72.942  166.532    0.569   13.412
   73.192  165.648    0.559   13.042
   73.442  165.636    0.556   13.032
   73.692  164.746    0.557   12.662
   73.942  165.613    0.560   12.652
   74.192  170.867    0.564   12.636
   74.442  172.612    0.570   12.984
   74.692  167.328    0.579   12.968
   74.942  162.928    0.589   12.952
   75.192  157.644    0.601   12.939
   75.442  155.879    0.604   12.575
   75.692  154.111    0.594   12.916
   75.942  154.097    0.573   15.377
   76.192  147.059    0.523   18.552
   76.442  135.631    0.465   23.492
   76.692  125.081    0.411   29.848
   76.942  113.652    0.376   30.543
   77.192   97.830    0.370   30.526
   77.442   91.665    0.365   29.803
   77.692   90.781    0.357   29.443
   77.942   88.132    0.347   29.073
   78.192   86.366    0.335   29.407
   78.442   81.958    0.328   29.398
   78.692   80.184    0.314   29.388
   78.942   80.181    0.304   29.369
   79.192   80.169    0.303   29.005
   79.442   79.279    0.307   28.285
   79.692   77.511    0.312   27.567
   79.942   69.587    0.315   26.847
   80.192   67.825    0.317   26.123
   80.442   62.544    0.321   25.757
   80.692   58.138    0.328   24.682
   80.942   60.764    0.337   23.962
   81.192   60.752    0.352   22.884
   81.442   53.712    0.336   21.456
   81.692   47.553    0.327   20.028
   81.942   44.904    0.310   20.723
   82.192   73.876    0.289   23.891
   82.442   94.941    0.318   16.451
   82.692   97.564    0.350   17.146
   82.942   90.527    0.339   20.671
   83.192   80.849    0.336   22.074
   83.442   74.693    0.349   22.769
   83.692   71.165    0.360   22.753
   83.942   71.153    0.371   22.035
   84.192   72.898    0.369   20.951
   84.442   78.159    0.353   20.945
   84.692   96.587    0.353   20.572
   84.942   98.331    0.358   20.562
   85.192   93.928    0.355   20.549
   85.442   89.526    0.355   20.540
   85.692  108.835    0.356   20.527
   85.942  128.144    0.356   20.157
   86.192  131.645    0.353   20.147
   86.442  101.768    0.351   19.774
   86.692   85.073    0.357   19.765
   86.942   72.767    0.362   19.395
   87.192   63.973    0.356   19.031
   87.442   60.449    0.350   19.015
   87.692   56.921    0.329   19.002
   87.942   58.666    0.320   18.993
   88.192   62.167    0.309   18.269
   88.442   68.300    0.295   17.191
   88.692   73.557    0.298   16.825
   88.942   77.058    0.305   16.812
   89.192   69.143    0.301   16.799
   89.442   59.471    0.295   17.140
   89.692   50.677    0.284   17.130
   89.942   56.813    0.265   16.761
   90.192   68.218    0.272   16.394
   90.442   79.623    0.280   16.027
   90.692   86.634    0.295   15.661
   90.942   80.475    0.303   15.648
   91.192   67.290    0.307   14.924
   91.442   59.375    0.298   14.554
   91.692   56.725    0.289   14.194
   91.942   54.957    0.289   13.120
   92.192   54.067    0.288   12.396
   92.442   49.662    0.285   11.672
   92.692   51.404    0.280   12.367
   92.942   55.786    0.275   13.766
   93.192   61.046    0.269   14.113
   93.442   62.791    0.262   14.454
   93.692   60.142    0.257   13.026
   93.942   57.495    0.253   11.595
   94.192   56.605    0.256   11.585
   94.442   61.863    0.271   11.572
   94.692   67.118    0.284   13.322
   94.942   70.622    0.274   12.605
   95.192   70.604    0.256   10.466
   95.442   62.692    0.248    9.749
   95.692   59.164    0.240   10.086
   95.942   59.155    0.229   11.135
   96.192   59.141    0.224   11.830
   96.442   60.007    0.243   12.171
   96.692   58.239    0.272   11.100
   96.942   54.715    0.280    9.668
   97.192   53.825    0.268    9.302
   97.442   64.352    0.257    8.932
   97.692   78.391    0.268    8.922
   97.942   82.765    0.277    8.909
   98.192   82.759    0.276    8.896
   98.442   80.985    0.273    8.527
   98.692   77.463    0.272    8.160
   98.942   72.180    0.278    8.498
   99.192   70.414    0.278    9.189
   99.442   72.159    0.283    9.537
   99.692   79.173    0.293    9.517
   99.942   88.819    0.322    9.157
  100.192   85.294    0.308    8.080
  100.442   63.327    0.269    7.359
  100.692   65.066    0.241    7.349
  100.942   69.448    0.260    8.044
  101.192   69.437    0.270    9.090
  101.442   61.521    0.280    9.431
  101.692   60.631    0.295    9.418
  101.942   59.742    0.295    9.051
  102.192   58.852    0.290    7.973
  102.442   54.446    0.288    7.607
  102.692   51.803    0.284    7.597
  102.942   53.544    0.293    7.938
  103.192   55.289    0.297    7.922
  103.442   55.275    0.295    7.549
  103.692   53.504    0.294    7.539
  103.942   52.617    0.290    7.530
  104.192   52.605    0.276    7.510
  104.442   55.228    0.262    7.858
  104.692   56.972    0.263    7.845
  104.942   58.714    0.267    7.832
  105.192   58.700    0.266    7.819
  105.442   57.816    0.268    7.446
  105.692   56.926    0.275    7.436
  105.942   57.786    0.283    7.424
  106.192   58.653    0.291    7.408
  106.442   59.522    0.286    7.395
  106.692   55.120    0.277    7.382
  106.942   44.569    0.259    7.369
  107.192   15.574    0.256    7.356
  107.442    9.415    0.305    7.697
  107.692    9.403    0.392    7.681
  107.942    9.392    0.433    7.668
  108.192    9.380    0.432    8.009
  108.442    9.368    0.427    8.353
