~Version : LASO    vs 4.00
VERS.                2.00:   CWLS Log ASCII Standard -VERSION 2.0
WRAP.                  NO:
~Well Information Block
#MNEM.UNIT       Data                        Description of Mnemonic
#----.----      -------------------------- : -----------------------------
STRT.M            21.0000:
STOP.M           215.4000:
STEP.M             0.2000:
NULL.           -999.2500:
COMP.  MOBIL OIL CANADA                 :COMPANY
WELL.  MOBIL CLARKE OV PROG. 2-81       :WELL
FLD.                                    :FIELD
LOC.   13-28-089-07W4                   :LOCATION
CTRY.  CANADA                           :COUNTRY
PROV.  ALBERTA                          :PROVINCE
SRVC.  SCHLUMBERGER                     :SERVICE COMPANY
DATE.  31-JAN-81                        :LOG DATE
UWI.   AA/13-28-089-07W400              :UNIQUE WELL ID
~Parameter Information Block
#MNEM.UNIT       Data                        Description of Mnemonic
#----.----      -------------------------- : -----------------------------
RUN .                   1                 : Run Number
GL  .M           458.5000                 : Ground Level Elevation
DREF.                  GD                 : Depth Reference
EREF.M           458.5000                 : Elevation of Depth Reference
TDL .M           216.0000                 : Total Depth Logger
TDD .M           216.0000                 : Total Depth Driller
CSGL.M            22.0000                 : Casing Bottom Logger
CSGD.M            22.0000                 : Casing Bottom Driller
CSGS.MM          219.0000                 : Casing Size
CSGW.KG/M          0.0000                 : Casing Weight
BHT .DEGC         12.0000                 : Bottom Hole Temperature
BS  .MM          171.0000                 : Bit Size
DFD .           9999.0000                 : Mud Weight (Density)
DFV .             45.0000                 : Mud Viscosity
DFPH.             11.0000                 : Mud pH
RM  .OHMM          5.7400                 : Mud Resistivity
RMT .DEGC         12.0000                 : Mud Resistivity Temperature
~Curve Information Block
#MNEM.UNIT        API CODE    Curve Description
#---------    ------------    -------------------------------------------
DEPT.M                    :   DEPTH
CALI.MM       42 280  1  1:   3 DENSITY CALIPER
DPHI.V/V                  :   DPHI
DT  .US/M     60 520  0  1:   2 SONIC INTERVAL TRANSIT TIME (COMPENSATED)
GR  .GAPI     42 310  1  1:   4 GAMMA RAY
ILD .OHMM      5 120 46  1:   7 DEEP INDUCTION
ILM .OHMM      5 120 44  1:   8 MEDIUM INDUCTION
NPHI.V/V      42 890  3  1:   5 NEUTRON POROSITY (SANDSTONE)
RHOB.K/M3     42 350  1  1:   6 BULK DENSITY
SFLU.OHMM      5 220  1  1:   9 FOCUSSED RESISTIVITY
SP  .MV        5  10  1  1:   10 SPONTANEOUS POTENTIAL
~A  Depth           CALI        DPHI          DT          GR         ILD         ILM        NPHI        RHOB        SFLU          SP
# ...
143.0000        196.2250      0.2264    506.3200    100.0350      4.5272      4.1251      0.5198   2318.8000      4.1786    -70.1550
143.2000        196.0250      0.2164    501.1600     98.5350      4.8734      4.3998      0.5119   2328.8999      3.8074    -69.9150
143.4000        195.4250      0.2012    497.6000     92.1150      5.8591      5.5902      0.4922   2345.1001      4.6241    -70.9050
143.6000        195.4000      0.1952    491.4000     88.3950      6.5438      6.4778      0.4763   2351.8999      6.1522    -73.6500
143.8000        196.1500      0.2016    480.1200     84.7950      7.5133      7.4995      0.4586   2346.6001      8.6582    -76.8750
144.0000        193.7250      0.2041    476.9200     79.0350     10.4672     10.6422      0.4172   2309.1001     13.4843    -81.3600
144.2000        191.0750      0.2005    485.8800     77.5200     12.0179     12.7947      0.3998   2295.5000     15.9159    -81.1050
144.4000        186.9500      0.2039    500.5200     76.5150     13.0566     14.5556      0.3917   2289.3000     23.2397    -80.3550
144.6000        182.8750      0.2086    477.3600     78.0300     13.0566     14.0291      0.3888   2467.5000     29.8284    -79.8600
144.8000        183.6000      0.2003    447.0800     80.4150     12.2414     12.7947      0.3873   2393.8000     18.4599    -81.3600
145.0000        184.3000      0.1875    436.4400     83.4750     11.1643     11.4559      0.3957   2351.6001     13.4843    -81.6000
145.2000        184.6250      0.1736    461.5600     91.5900      8.4690      8.6105      0.4252   2285.8000     11.2158    -80.6100
145.4000        184.5250      0.1915    478.2000     96.0450      7.5133      7.4307      0.4369   2283.5000      9.9410    -79.1100
145.6000        184.4500      0.2098    474.3600    100.3050      6.6655      6.4778      0.4501   2302.3999      7.3355    -77.1300
145.8000        184.3750      0.2245    472.0000    104.4750      5.5441      5.1455      0.4850   2317.2000      5.5594    -72.9000
146.0000        185.5000      0.2355    475.4400    103.8150      5.1979      4.7800      0.5011   2298.1001      4.8869    -71.1600
146.2000        187.2250      0.2407    479.2800    102.1200      5.0099      4.5230      0.5143   2281.3000      4.3354    -70.6650
146.4000        191.0250      0.2278    479.9200    100.1400      4.8734      4.4816      0.5308   2268.5000      3.5697    -70.9050
146.6000        199.0250      0.2122    498.6400     99.4950      4.8734      4.6928      0.5601   2247.8999      4.1786    -72.6450
146.8000        197.1000      0.2074    502.0000    102.2250      5.0099      4.8243      0.5638   2243.5000      5.3092    -73.1400
147.0000        192.6750      0.2181    500.7200    105.1350      5.1979      5.0053      0.5624   2244.1001      6.0399    -73.3950
147.2000        195.3500      0.2340    486.2800    107.0400      5.8591      5.5390      0.5272   2346.2000      5.7681    -72.9000
147.4000        200.7000      0.2443    478.4000    105.4800      6.1352      5.8537      0.5074   2350.3000      6.3890    -72.6450
147.6000        201.8250      0.2288    472.6400    103.4100      6.4838      6.1296      0.4990   2352.8000      7.4719    -72.4050
147.8000        201.4250      0.2106    455.4000     99.3150      7.3762      6.7209      0.4753   2381.8999      8.1928    -72.1500
148.0000        201.9250      0.1967    447.7200     97.2750      7.8674      7.2349      0.4677   2393.3000      8.0432    -72.4050
148.2000        203.3250      0.1796    444.1200     94.9950      8.4690      7.8529      0.4652   2353.3000      8.3451    -72.9000
148.4000        203.9500      0.1879    439.0000     89.9250      9.9044      9.0998      0.4559   2311.6001     10.6128    -74.3850
148.6000        201.3500      0.1860    437.0800     87.5250     11.0619     10.1632      0.4468   2309.5000     10.4191    -74.6400
148.8000        197.2750      0.1895    434.3200     85.9650     12.4690     11.6689      0.4378   2326.1001     10.1258    -75.8850
149.0000        188.4000      0.1963    439.0000     82.8600     14.3163     15.8136      0.4145   2303.8000     16.9758    -82.0950
149.2000        184.9250      0.2067    448.8000     81.1050     14.7174     16.4070      0.4043   2304.1001     30.6641    -85.5900
149.4000        184.5250      0.2178    460.7200     79.8750     14.9910     15.6686      0.3979   2295.3000     40.4231    -86.8350
149.6000        184.1000      0.2258    472.2400     80.1750     15.2697     14.6903      0.3934   2289.1001     25.9555    -86.8350
149.8000        183.3750      0.2366    460.3200     82.9800     14.1850     13.6468      0.3883   2285.1001     13.7350    -86.8350
150.0000        183.0500      0.2048    444.9600     83.4600     13.0566     12.7947      0.3953   2301.0000     15.3402    -86.3250
150.2000        182.7000      0.1887    427.0800     83.1000     12.2414     11.8858      0.3998   2351.3999     16.8202    -85.3350
150.4000        182.1000      0.1822    421.7600     83.0700     12.0179     10.8400      0.3934   2401.2000     14.3824    -82.6050
150.6000        181.8250      0.1853    422.1600     82.6650     12.7008     11.0415      0.3842   2402.2000     12.5265    -82.0950
150.8000        182.0000      0.1824    420.0400     79.9350     13.9261     11.9958      0.3806   2396.5000     11.4243    -82.3500
151.0000        183.3250      0.1842    422.4000     72.5250     17.8579     17.4997      0.3847   2345.8000     12.8775    -89.3100
151.2000        181.1000      0.1890    420.0400     65.9550     20.8848     22.8576      0.3836   2302.2000     20.0553    -94.0500
151.4000        178.6750      0.1892    426.6400     57.7950     25.8125     30.3829      0.3740   2274.5000     44.7332    -97.2750
151.6000        174.2500      0.2050    472.0000     46.5300     46.1137     59.5155      0.3238   2257.3999    190.4715    -98.5200
151.8000        172.7000      0.2269    499.0800     45.6600     58.5909     86.0260      0.3088   2259.7000    244.4724    -97.5300
152.0000        172.2000      0.2534    515.0400     45.6900     67.2713    105.3489      0.3177   2268.0000    296.6401    -96.0300
152.2000        173.9750      0.2686    472.4400     48.6300     58.0537     81.4010      0.3599   2256.7000    144.4874    -91.3050
152.4000        174.7250      0.2590    457.1200     52.3950     49.6398     64.0663      0.3766   2251.8999     97.1471    -90.0600
152.6000        175.3500      0.2578    427.2800     56.1450     41.2886     49.5028      0.3843   2246.5000     74.9946    -89.8200
152.8000        175.9500      0.2523    335.2400     59.9100     35.6312     38.6038      0.3904   2245.7000     50.9366    -89.0700
153.0000        175.1750      0.2491    418.1200     64.6200     27.7863     27.9917      0.3988   2266.1001     32.7062    -91.5600
153.2000        174.7250      0.2430    433.0400     65.4900     25.8125     23.7154      0.4020   2270.7000     30.9478    -93.5400
153.4000        174.0000      0.2388    443.6800     66.5100     25.1090     21.6287      0.4018   2268.8000     27.9402    -92.8050
153.6000        172.5750      0.2339    454.3200     70.0950     23.9789     23.7154      0.3950   2259.2000     21.5889    -86.3250
153.8000        172.9750      0.2337    447.3200     71.0700     23.5413     24.8330      0.4121   2265.2000     25.2482    -84.0900
154.0000        174.0250      0.2284    438.1600     70.9200     23.3254     24.3798      0.4231   2344.3999     37.8992    -83.5950
154.2000        178.4750      0.2242    426.2000     69.4050     23.5413     24.1563      0.4250   2329.2000     32.1092    -83.8500
154.4000        180.2000      0.2258    418.5600     70.2300     23.3254     23.4979      0.4195   2328.8000     28.2247    -84.0900
154.6000        181.8000      0.2189    416.8400     72.0150     22.2756     22.0308      0.4137   2319.1001     27.6841    -85.3350
154.8000        181.0250      0.2123    419.4000     75.1050     19.7620     19.3656      0.4006   2303.3999     21.7886    -88.5750
155.0000        180.8000      0.2141    424.0800     75.7650     18.1899     18.3244      0.3952   2310.8000     19.8715    -87.8250
