~VERSION INFORMATION
 VERS.                 2.0:   CWLS LOG ASCII STANDARD -VERSION 2.0
 WRAP.                  NO:   ONE LINE PER DEPTH STEP
~WELL INFORMATION BLOCK
#MNEM.UNIT           DATA                    DESCRIPTION OF MNEMONIC
#---------    -------------------            -------------------------------
# Generated from Intellog Unique Number	CC_80_83/WELL/2416
NULL.         -999.25                        : NULL_VALUE
WELL.         PEX PCEJ HANGST OV             : Well_name    - WELL              
LOC .         11-29-082-08W4                 : Location     - LOCATION          
UWI .         AA/11-29-082-08W4/0            : Uwi          - UNIQUE WELL ID    
ENTR.         RJA                            : Entered      - ENTERED BY        
SRVC.         DRESSER ATLAS                  : Scn          - SERVICE COMPANY   
DATE.         24 FEB 80                      : Date         - LOG DATE
STRT.M        250                            : top_depth    - START DEPTH       
STOP.M        510.09                         : bot_depth    - STOP DEPTH        
STEP.M        0.3                            : increment    - STEP LENGTH       
~CURVE INFORMATION BLOCK
#MNEM UNIT       ERCB CURVE CODE    CURVE DESCRIPTION
#-----------   ------------------   ----------------------------------
DEPT.M        00 001 00 00         : DEPTH        - DEPTH                       
DPHI.V/V      00 890 00 00         : PHID         - DENSITY POROSITY (LIMESTONE)
NPHI.V/V      00 330 00 00         : PHIN         - NEUTRON POROSITY (LIMESTONE)
GR  .API      00 310 00 00         : GR           - GAMMA RAY                   
ILD .OHMM     00 120 00 00         : RESD         - DEEP RESISTIVITY (DIL)      
~PARAMETER INFORMATION       
#MNEM.UNIT           DATA             DESCRIPTION OF MNEMONIC
#---------         -----------     ------------------------------
GL  .M        735.57               : gl           - GROUND LEVEL ELEVATION      
EREF.M        739.17               : kb           - ELEVATION OF DEPTH REFERENCE
DATM.M        739.17               : datum        - DATUM ELEVATION             
TDD .M        518                  : tdd          - TOTAL DEPTH DRILLER         
RUN .         ONE                  : Run          - RUN NUMBER                  
ENG .         BILL                 : Engineer     - RECORDING ENGINEER          
WIT .         JIM                  : Witness      - WITNESSED BY                
MUD .         GEL                  : Mud_type     - MUD TYPE                    
MATR.         LIMESTONE            : Logunit      - NEUTRON MATRIX              
TMAX.C        15                   : BHT          - MAXIMUM RECORDED TEMPERATURE
BHTD.M        5182                 : BHTDEP       - MAXIMUM RECORDED TEMPERATURE
MATR.         1                    : LOGUNIT      - NEUTRON MATRIX              
RMT .C        25                   : MDTP         - TEMPERATURE OF MUD          
NEUT.         1                    : NEUTRON      - NEUTRON TYPE                
RESI.         0                    : RESIST       - RESISTIVITY TYPE            
RMC .OHMM     0.25                 : RMC          - RESISTIVITY OF MUD CAKE     
RMF .OHMM     0.25                 : RMF          - RESISTIVITY OF MUD FILTRATE 
SUFT.C        15                   : SUFT         - SURFACE TEMPERATURE         
~A  DEPTH     PHID     PHIN       GR     RESD
# ...
  354.396    0.307    0.353   45.860   17.563
  354.696    0.312    0.334   46.094   17.381
  354.996    0.308    0.345   45.516   17.167
  355.296    0.300    0.342   41.759   16.795
  355.596    0.302    0.343   46.538   16.558
  355.896    0.307    0.357   52.191   16.293
  356.196    0.307    0.361   46.444   16.187
  356.496    0.306    0.281   40.693   16.580
  356.796    0.307    0.239   36.190   17.681
  357.096    0.298    0.192   38.976   21.066
  357.396    0.247    0.115   45.752   27.151
  357.696    0.000    0.078   34.206   35.062
  357.996    0.000    0.075   32.757   46.772
  358.296    0.001    0.083   32.178   51.524
  358.596    0.041    0.155   30.293   27.793
  358.896    0.248    0.270   31.834   22.324
  359.196    0.289    0.356   41.289   19.139
  359.496    0.301    0.356   45.760   17.018
  359.796    0.305    0.343   56.461   16.839
  360.096    0.297    0.337   54.886   17.151
  360.396    0.291    0.353   50.693   17.633
  360.696    0.291    0.353   54.105   17.653
  360.996    0.290    0.363   56.828   16.028
  361.296    0.294    0.347   58.742   12.133
  361.596    0.306    0.362   65.454    8.978
  361.896    0.293    0.402   74.914    5.655
  362.196    0.255    0.418   83.373    4.885
  362.496    0.222    0.410   81.487    4.318
  362.796    0.220    0.428   81.843    4.324
  363.096    0.229    0.437   88.183    5.082
  363.396    0.234    0.425   95.207    5.545
  363.696    0.234    0.398   88.274    5.891
  363.996    0.219    0.390   85.826    5.818
  364.296    0.215    0.423   84.998    5.416
  364.596    0.222    0.423   96.572    4.679
  364.896    0.233    0.463   87.020    3.590
  365.196    0.231    0.420   92.300    2.596
  365.496    0.228    0.448   93.531    2.290
  365.796    0.231    0.442   95.446    2.368
  366.096    0.216    0.449   95.616    2.795
  366.396    0.221    0.409   94.103    4.396
  366.696    0.234    0.398   84.801    6.163
  366.996    0.247    0.367   74.189    5.781
  367.296    0.244    0.399   82.148    3.879
  367.596    0.226    0.425   93.286    3.250
  367.896    0.224    0.440  102.119    3.060
  368.195    0.234    0.448   95.747    3.176
  368.495    0.247    0.436  102.771    3.477
  368.795    0.255    0.447  108.551    3.510
  369.095    0.265    0.455   89.277    3.480
  369.395    0.263    0.474   93.745    3.385
  369.695    0.244    0.470   91.734    3.231
  369.995    0.237    0.473   96.203    3.048
  370.295    0.234    0.461  101.237    2.948
  370.595    0.226    0.440   94.552    2.928
  370.895    0.222    0.428   99.019    2.943
  371.195    0.226    0.418  100.186    3.008
  371.495    0.226    0.445   86.523    3.029
  371.795    0.231    0.451   84.823    3.061
  372.095    0.260    0.459   92.034    3.372
  372.395    0.269    0.465   95.010    3.808
  372.695    0.259    0.443   96.426    4.376
  372.995    0.255    0.418   89.679    4.622
  373.295    0.257    0.408   84.552    4.618
  373.595    0.245    0.413   83.037    4.357
  373.895    0.246    0.405   78.410    4.048
  374.195    0.277    0.399   72.036    4.014
  374.495    0.292    0.429   81.242    4.594
  374.795    0.309    0.424   72.497    6.222
  375.095    0.282    0.394   68.930    8.493
  375.395    0.282    0.360   63.741   11.526
  375.695    0.289    0.338   61.233   14.942
  375.995    0.298    0.329   49.870   16.210
  376.295    0.302    0.323   47.862   16.013
  376.595    0.300    0.321   51.771   15.107
  376.895    0.301    0.334   48.510   14.806
  377.195    0.294    0.348   46.252   14.482
  377.495    0.287    0.354   52.717   14.254
  377.795    0.288    0.342   44.660   13.892
  378.095    0.292    0.328   55.486   13.748
  378.395    0.294    0.332   50.981   13.948
  378.695    0.294    0.331   47.601   14.255
  378.995    0.296    0.332   53.066   14.351
  379.295    0.297    0.351   53.236   14.346
  379.595    0.277    0.330   50.727   14.194
  379.895    0.271    0.344   48.155   14.318
  380.195    0.292    0.345   50.006   14.308
  380.495    0.304    0.323   48.434   14.378
  380.795    0.298    0.334   50.472   14.476
  381.095    0.297    0.335   51.761   14.438
  381.395    0.297    0.342   53.243   14.287
  381.695    0.293    0.348   49.550   14.085
  381.995    0.296    0.325   50.218   13.829
  382.295    0.302    0.330   46.897   13.638
  382.595    0.307    0.327   44.327   13.520
  382.895    0.308    0.321   49.295   13.772
  383.195    0.308    0.300   51.522   15.642
  383.495    0.307    0.274   48.389   19.252
  383.795    0.291    0.240   47.934   23.476
  384.095    0.056    0.118   48.727   27.495
  384.395    0.080    0.129   49.582   26.847
  384.695    0.097    0.194   48.009   22.320
  384.995    0.149    0.224   40.761   18.558
  385.295    0.204    0.270   44.984   16.126
  385.595    0.281    0.359   52.257   14.309
  385.895    0.298    0.348   55.544   13.117
  386.195    0.296    0.331   56.087   12.806
  386.495    0.295    0.333   50.835   12.772
  386.795    0.298    0.342   57.362   12.957
  387.095    0.306    0.354   58.842   13.222
  387.395    0.304    0.360   52.963   13.596
  387.695    0.309    0.348   49.020   13.684
  387.995    0.309    0.354   49.256   13.646
  388.295    0.312    0.360   55.844   13.402
  388.595    0.312    0.341   50.465   13.035
  388.895    0.311    0.340   49.203   12.932
  389.195    0.306    0.324   56.479   12.530
  389.495    0.299    0.335   63.753   12.282
  389.795    0.299    0.320   53.507   12.388
  390.095    0.297    0.325   50.819   12.810
  390.395    0.292    0.332   52.422   13.122
  390.695    0.278    0.328   55.459   12.986
  390.995    0.224    0.273   45.906   12.729
  391.295    0.266    0.330   49.504   12.912
  391.595    0.304    0.338   50.171   13.182
  391.895    0.295    0.324   53.583   13.764
  392.195    0.296    0.330   56.247   14.393
  392.495    0.272    0.331   56.790   13.812
  392.794    0.226    0.286   55.090   13.232
  393.094    0.297    0.351   54.200   12.725
  393.394    0.308    0.347   54.992   12.502
  393.694    0.307    0.340   51.300   12.322
  393.994    0.304    0.356   56.580   12.381
  394.294    0.301    0.347   55.193   12.533
  394.594    0.299    0.340   59.538   12.648
  394.894    0.299    0.351   56.590   12.803
  395.194    0.298    0.347   55.765   12.945
  395.494    0.299    0.340   63.475   13.107
  395.794    0.303    0.326   60.152   13.119
  396.094    0.305    0.338   57.083   13.140
  396.394    0.296    0.334   55.261   12.975
  396.694    0.288    0.331   56.116   12.765
  396.994    0.287    0.346   52.047   12.712
  397.294    0.291    0.338   53.214   12.677
  397.594    0.296    0.343   58.495   12.936
  397.894    0.301    0.341   49.503   13.377
  398.194    0.302    0.323   47.804   13.492
  398.494    0.297    0.333   53.706   13.273
  398.794    0.291    0.323   54.438   12.837
  399.094    0.295    0.313   55.542   12.512
  399.394    0.328    0.336   54.218   12.381
  399.694    0.341    0.352   54.948   12.377
  399.994    0.308    0.332   53.248   12.581
  400.294    0.296    0.356   53.420   12.592
  400.594    0.299    0.361   56.580   12.486
  400.894    0.296    0.355   56.562   12.311
  401.194    0.298    0.372   54.927   12.021
  401.494    0.304    0.358   55.593   11.918
  401.794    0.303    0.351   53.332   12.045
  402.094    0.287    0.345   58.116   12.575
  402.394    0.289    0.366   62.584   12.876
  402.694    0.258    0.361   61.503   12.824
  402.994    0.263    0.391   59.000   12.451
  403.294    0.281    0.356   63.593   10.492
  403.594    0.283    0.358   68.624    7.485
  403.894    0.301    0.419   69.044    5.454
  404.194    0.316    0.455   81.803    4.120
  404.494    0.372    0.442   89.763    3.684
  404.794    0.365    0.397   91.243    3.943
  405.094    0.269    0.359   82.997    4.780
  405.394    0.276    0.415   76.312    5.760
  405.694    0.327    0.426   81.033    6.333
  405.994    0.324    0.407   81.452    6.627
  406.294    0.309    0.415   94.024    6.385
