~VERSION INFORMATION
 VERS.                 2.0:   CWLS LOG ASCII STANDARD -VERSION 2.0
 WRAP.                  NO:   ONE LINE PER DEPTH STEP
~WELL INFORMATION BLOCK
#MNEM.UNIT           DATA                    DESCRIPTION OF MNEMONIC
#---------    -------------------            -------------------------------
# Generated from Intellog Unique Number	CC_88_90/WELL/3139
WELL.         CAN KEWANEE                    : Well_name    - WELL
LOC .         AA/10-29-088-14W4/0            : Location     - LOCATION
UWI .         AA/10-29-088-14W400            : Uwi          - UNIQUE WELL ID
ENTR.         T                              : Entered      - ENTERED BY
SRVC.         SCHLUMBERGER                   : Scn          - SERVICE COMPANY
STRT.F        200                            : top_depth    - START DEPTH
STOP.F        739.698                        : bot_depth    - STOP DEPTH
STEP.F        0.82                           : increment    - STEP LENGTH
 NULL. -999.2500:NULL Value
~CURVE INFORMATION BLOCK
#MNEM UNIT       ERCB CURVE CODE    CURVE DESCRIPTION
#-----------   ------------------   ----------------------------------
DEPT.F        00 001 00 00         : DEPTH        - DEPTH
GR  .API      00 310 00 00         : GR           - GAMMA RAY
NPHI.V/V      00 330 00 00         : PHIN         - NEUTRON POROSITY (SANDSTONE)
ILD .OHMM     00 120 00 00         : RESD         - DEEP RESISTIVITY (DIL)
~PARAMETER INFORMATION
#MNEM.UNIT           DATA             DESCRIPTION OF MNEMONIC
#---------         -----------     ------------------------------
GL  .F        1700.8               : gl           - GROUND LEVEL ELEVATION
EREF.F        1700.8               : kb           - ELEVATION OF DEPTH REFERENCE
DATM.F        1700.8               : datum        - DATUM ELEVATION
TDD .F        745                  : tdd          - TOTAL DEPTH DRILLER
RUN .         ONE                  : Run          - RUN NUMBER
ENG .         BILL                 : Engineer     - RECORDING ENGINEER
WIT .         JIM                  : Witness      - WITNESSED BY
MUD .         GEL                  : Mud_type     - MUD TYPE
MATR.         SANDSTONE            : Logunit      - NEUTRON MATRIX
TMAX.F        56                   : BHT          - MAXIMUM RECORDED TEMPERATURE
BHTD.F        745                  : BHTDEP       - MAXIMUM RECORDED TEMPERATURE
MATR.         1                    : LOGUNIT      - NEUTRON MATRIX
RMT .F        56                   : MDTP         - TEMPERATURE OF MUD
NEUT.         1                    : NEUTRON      - NEUTRON TYPE
RESI.         0                    : RESIST       - RESISTIVITY TYPE
RMC .OHMM     7.7                  : RMC          - RESISTIVITY OF MUD CAKE
RMF .OHMM     7.7                  : RMF          - RESISTIVITY OF MUD FILTRATE
SUFT.F        40                   : SUFT         - SURFACE TEMPERATURE
~A  DEPTH       GR     PHIN     RESD
  200.000   59.683    0.497   28.023
  200.820   59.683    0.447   28.399
  201.640   61.769    0.432   28.624
  202.461   63.432    0.432   29.149
  203.281   62.646    0.426   29.748
  204.101   61.844    0.421   30.646
  204.921   59.834    0.408   31.915
  205.741   58.216    0.395   34.004
  206.562   56.205    0.390   34.901
  207.382   55.827    0.397   35.203
  208.202   56.659    0.402   35.203
  209.022   57.913    0.402   35.282
  209.843   59.576    0.404   35.285
  210.663   61.239    0.403   34.842
  211.483   61.239    0.401   34.695
  212.303   63.325    0.404   31.195
  213.123   64.186    0.409   30.899
  213.944   64.186    0.409   30.455
  214.764   64.216    0.410   30.455
  215.584   65.063    0.410   30.237
  216.404   66.741    0.410   30.389
  217.224   67.164    0.404   30.389
  218.045   67.164    0.403   30.692
  218.865   68.842    0.405   30.844
  219.685   69.280    0.403   30.922
  220.505   69.280    0.401   31.073
  221.325   68.917    0.396   31.225
  222.146   68.539    0.398   31.225
  222.966   68.539    0.401   31.006
  223.786   67.768    0.409   30.637
  224.606   67.768    0.415   30.194
  225.427   66.180    0.421   29.599
  226.247   64.986    0.422   29.154
  227.067   64.986    0.419   28.561
  227.887   64.623    0.410   28.118
  228.707   67.918    0.400   27.898
  229.528   71.214    0.395   27.898
  230.348   72.060    0.403   27.976
  231.168   70.049    0.423   28.128
  231.988   69.248    0.441   28.355
  232.808   69.248    0.415   28.954
  233.629   67.252    0.396   29.105
  234.449   65.650    0.388   29.555
  235.269   64.848    0.389   30.228
  236.089   62.429    0.393   31.126
  236.909   61.628    0.398   31.799
  237.730   60.449    0.403   32.920
  238.550   60.449    0.412   33.668
  239.370   59.663    0.390   34.715
  240.190   58.876    0.382   34.718
  241.010   58.876    0.388   34.422
  241.831   59.738    0.395   33.604
  242.651   62.217    0.400   31.670
  243.471   63.880    0.401   31.076
  244.291   64.726    0.401   30.260
  245.112   65.164    0.404   29.964
  245.932   65.996    0.417   29.220
  246.752   69.699    0.428   29.224
  247.572   73.811    0.445   29.674
  248.392   82.428    0.474   30.869
  249.213   86.540    0.484   33.256
  250.033   88.203    0.489   37.656
  250.853   88.218    0.487   38.404
  251.673   87.431    0.487   39.599
  252.493   85.012    0.491   40.273
  253.314   82.578    0.489   41.096
  254.134   80.553    0.480   41.993
  254.954   75.276    0.469   42.667
  255.774   74.475    0.454   42.968
  256.594   73.689    0.444   42.821
  257.415   74.127    0.447   42.675
  258.235   74.959    0.450   42.602
  259.055   76.621    0.466   42.308
  259.875   83.999    0.472   42.013
  260.696   92.207    0.480   41.867
  261.516   93.870    0.486   41.645
  262.336   93.885    0.481   41.498
  263.156   93.507    0.478   41.352
  263.976   93.129    0.481   41.356
  264.797   92.751    0.486   41.506
  265.617   91.965    0.501   41.957
  266.437   91.571    0.513   42.630
  267.257   90.770    0.509   42.932
  268.077   89.984    0.502   43.233
  268.898   89.198    0.500   43.532
  269.718   87.988    0.490   43.536
  270.538   87.202    0.488   43.390
  271.358   86.824    0.478   43.243
  272.178   86.824    0.476   43.097
  272.999   86.446    0.481   42.803
  273.819   86.476    0.484   42.655
  274.639   84.873    0.491   42.435
  275.459   84.072    0.493   42.288
  276.280   81.653    0.494   41.695
  277.100   79.627    0.494   41.548
  277.920   77.616    0.491   41.030
  278.740   76.830    0.488   40.586
  279.560   76.029    0.483   40.290
  280.381   74.411    0.481   40.442
  281.201   71.992    0.478   40.892
  282.021   70.375    0.473   41.043
  282.841   67.956    0.465   41.568
  283.661   64.705    0.457   42.018
  284.482   58.598    0.443   42.617
  285.302   54.955    0.421   42.768
  286.122   52.112    0.413   43.218
  286.942   52.142    0.404   43.445
  287.762   53.805    0.392   42.927
  288.583   56.693    0.377   42.556
  289.403   57.524    0.397   40.919
  290.223   58.779    0.413   39.356
  291.043   62.089    0.417   37.423
  291.864   61.288    0.412   37.573
  292.684   60.486    0.395   37.279
  293.504   58.068    0.388   37.131
  294.324   58.098    0.386   36.688
  295.144   58.521    0.383   35.944
  295.965   58.551    0.381   35.353
  296.785   57.341    0.379   35.353
  297.605   56.162    0.377   35.208
  298.425   56.993    0.368   33.945
  299.245   59.473    0.370   32.904
  300.066   59.896    0.376   32.384
  300.886   61.559    0.384   30.897
  301.706   63.221    0.392   30.303
  302.526   65.292    0.397   29.411
  303.346   66.955    0.402   27.775
  304.167   67.787    0.404   27.479
  304.987   66.184    0.413   26.365
  305.807   63.750    0.418   25.845
  306.627   56.433    0.428   24.954
  307.448   54.407    0.437   24.733
  308.268   56.070    0.427   23.766
  309.088   56.070    0.401   22.354
  309.908   58.156    0.385   22.505
  310.728   56.553    0.388   22.582
  311.549   55.359    0.409   22.586
  312.369   56.190    0.423   22.663
  313.189   57.853    0.423   22.741
  314.009   57.853    0.410   22.819
  314.829   58.715    0.397   22.819
  315.650   57.943    0.387   22.822
  316.470   57.943    0.378   22.822
  317.290   57.565    0.378   22.529
  318.110   57.595    0.375   22.086
  318.930   56.809    0.380   21.717
  319.751   56.431    0.386   21.645
  320.571   56.038    0.391   21.723
  321.391   55.660    0.402   21.723
  322.211   54.858    0.408   21.652
  323.031   54.072    0.409   21.652
  323.852   53.286    0.405   21.359
  324.672   52.485    0.396   21.288
  325.492   52.107    0.386   21.068
  326.312   52.938    0.376   20.997
  327.133   55.417    0.367   21.000
  327.953   57.896    0.369   21.002
  328.773   59.559    0.379   20.930
  329.593   59.181    0.392   20.859
  330.413   58.380    0.394   21.308
  331.234   55.961    0.389   21.607
  332.054   54.751    0.373   22.058
  332.874   51.516    0.366   22.284
  333.694   49.898    0.266   22.288
  334.514   47.888    0.256   22.291
  335.335   46.270    0.148   22.369
  336.155   43.035    0.090   22.369
  336.975   42.233   -0.010   22.298
  337.795   41.447   -0.014   22.152
  338.615   44.334   -0.009   22.152
  339.436   51.303    0.059   22.008
  340.256   56.232    0.088   22.011
  341.076   56.670    0.161   22.164
  341.896   55.067    0.301   22.314
  342.717   53.450    0.345   22.392
  343.537   51.031    0.293   22.619
  344.357   51.046    0.236   22.769
  345.177   53.933    0.218   25.828
  345.997   57.229    0.339   25.832
  346.818   61.355    0.362   25.461
  347.638   61.355    0.389   24.496
  348.458   61.386    0.397   23.902
  349.278   61.007    0.420   23.086
  350.098   60.629    0.433   23.087
  350.919   59.828    0.401   23.090
  351.739   58.634    0.390   23.094
  352.559   57.847    0.393   23.246
  353.379   57.877    0.395   23.397
  354.199   57.893    0.399   23.698
  355.020   58.331    0.403   23.923
  355.840   58.361    0.417   24.448
  356.660   58.799    0.423   24.973
  357.480   58.799    0.435   25.423
  358.301   59.646    0.433   25.423
  359.121   61.323    0.414   25.726
  359.941   60.945    0.408   25.729
  360.761   60.552    0.396   25.434
  361.581   60.582    0.384   25.287
  362.402   61.837    0.378   24.769
  363.222   62.668    0.380   24.175
  364.042   63.500    0.393   23.433
  364.862   64.754    0.399   23.286
  365.682   64.784    0.425   22.842
  366.503   64.814    0.449   22.695
  367.323   64.845    0.447   22.402
  368.143   64.860    0.427   22.404
  368.963   64.482    0.424   22.703
  369.783   64.103    0.418   23.005
  370.604   63.725    0.423   22.859
  371.424   63.725    0.430   22.712
  372.244   63.347    0.442   22.417
  373.064   62.561    0.453   22.122
  373.885   62.183    0.458   22.274
  374.705   62.621    0.450   22.427
  375.525   62.651    0.433   22.503
  376.345   62.651    0.422   22.877
  377.165   63.498    0.418   23.327
