~VERSION INFORMATION
 VERS.                 2.0:   CWLS LOG ASCII STANDARD -VERSION 2.0
 WRAP.                  NO:   ONE LINE PER DEPTH STEP
~WELL INFORMATION BLOCK
#MNEM.UNIT           DATA                    DESCRIPTION OF MNEMONIC
#---------    -------------------            -------------------------------
# Generated from Intellog Unique Number	CC_80_83/WELL/2336
NULL.         -999.25                        : NULL_VALUE
WELL.         ARCO ACI MCMURRAY OV           : Well_name    - WELL
LOC .         10-08-081-10W4                 : Location     - LOCATION          
UWI .         AA/10-08-081-10W400            : Uwi          - UNIQUE WELL ID    
ENTR.         JHS                            : Entered      - ENTERED BY        
SRVC.         DRESSER ATLAS                  : Scn          - SERVICE COMPANY   
DATE.         10 FEB 76                      : Date         - LOG DATE
STRT.M        243.84                         : top_depth    - START DEPTH       
STOP.M        502.928                        : bot_depth    - STOP DEPTH        
STEP.M        0.305                          : increment    - STEP LENGTH       
~CURVE INFORMATION BLOCK
#MNEM UNIT       ERCB CURVE CODE    CURVE DESCRIPTION
#-----------   ------------------   ----------------------------------
DEPT.M        00 001 00 00         : DEPTH        - DEPTH                       
NPHI.V/V      00 330 00 00         : PHIN         - NEUTRON POROSITY (LIMESTONE)
GR  .API      00 310 00 00         : GR           - GAMMA RAY                   
ILD .OHMM     00 120 00 00         : RESD         - DEEP RESISTIVITY (DIL)      
~PARAMETER INFORMATION       
#MNEM.UNIT           DATA             DESCRIPTION OF MNEMONIC
#---------         -----------     ------------------------------
GL  .M        705.307              : gl           - GROUND LEVEL ELEVATION      
EREF.M        708.355              : kb           - ELEVATION OF DEPTH REFERENCE
DATM.M        708.355              : datum        - DATUM ELEVATION             
TDD .M        502.92               : tdd          - TOTAL DEPTH DRILLER         
RUN .         ONE                  : Run          - RUN NUMBER                  
ENG .         BILL                 : Engineer     - RECORDING ENGINEER          
WIT .         JIM                  : Witness      - WITNESSED BY                
MUD .         GEL                  : Mud_type     - MUD TYPE                    
MATR.         LIMESTONE            : Logunit      - NEUTRON MATRIX              
TMAX.C        23.3333              : BHT          - MAXIMUM RECORDED TEMPERATURE
BHTD.M        502.92               : BHTDEP       - MAXIMUM RECORDED TEMPERATURE
MATR.         1                    : LOGUNIT      - NEUTRON MATRIX              
RMT .C        25                   : MDTP         - TEMPERATURE OF MUD          
NEUT.         1                    : NEUTRON      - NEUTRON TYPE                
RESI.         0                    : RESIST       - RESISTIVITY TYPE            
RMC .OHMM     0.25                 : RMC          - RESISTIVITY OF MUD CAKE     
RMF .OHMM     0.25                 : RMF          - RESISTIVITY OF MUD FILTRATE 
SUFT.C        15                   : SUFT         - SURFACE TEMPERATURE         
~A  DEPTH     PHIN       GR     RESD
# ...
  376.127    0.479   98.013    4.520
  376.432    0.472   98.564    4.438
  376.736    0.469   99.123    4.357
  377.041    0.465   99.084    4.200
  377.346    0.465   94.874    4.279
  377.651    0.471   93.643    4.359
  377.956    0.475   91.220    4.607
  378.260    0.472   86.415    5.052
  378.565    0.470   86.377    5.748
  378.870    0.468   85.732    6.540
  379.175    0.439   84.501    7.041
  379.480    0.409   79.703    7.306
  379.784    0.397   75.497    7.307
  380.089    0.394   78.426    7.044
  380.394    0.390   76.601    6.425
  380.699    0.392   77.153    5.345
  381.004    0.402   79.487    4.613
  381.309    0.411   79.450    4.131
  381.613    0.411   80.000    3.909
  381.918    0.406   80.562    3.910
  382.223    0.396   78.735    4.209
  382.528    0.396   78.691    5.155
  382.833    0.395   81.623    6.314
  383.137    0.389   79.203    7.453
  383.442    0.391   76.182    7.734
  383.747    0.397   77.333    7.879
  384.052    0.397   77.891    7.880
  384.357    0.395   77.845    7.881
  384.661    0.393   78.401    7.738
  384.966    0.390   80.144    7.882
  385.271    0.395   84.860    8.030
  385.576    0.402   85.416    7.884
  385.881    0.403   84.775    7.060
  386.185    0.398   83.546    6.322
  386.490    0.405   82.908    5.874
  386.795    0.435   84.064    5.662
  387.100    0.460   85.808    5.458
  387.405    0.476   85.171    5.459
  387.710    0.480   84.531    5.664
  388.014    0.478   87.464    5.987
  388.319    0.480   90.402    5.988
  388.624    0.493   88.574    5.772
  388.929    0.492   88.534    5.564
  389.234    0.478   89.088    4.802
  389.538    0.467   87.853    4.629
  389.843    0.474   87.809    4.629
  390.148    0.480   92.528    4.893
  390.453    0.479   94.264    5.567
  390.758    0.472   93.038    6.945
  391.062    0.449   90.023    8.049
  391.367    0.408   84.032    8.990
  391.672    0.353   73.277    9.859
  391.977    0.340   68.477    9.860
  392.282    0.315   67.240    9.331
  392.586    0.241   69.579    8.204
  392.891    0.265   85.613    7.622
  393.196    0.461   89.143    7.347
  393.501    0.468   88.505    7.214
  393.806    0.463   89.655    7.349
  394.111    0.451   89.609    7.216
  394.415    0.443   87.186    6.955
  394.720    0.446   84.768    6.462
  395.025    0.450   85.912    6.115
  395.330    0.460   88.254    5.087
  395.635    0.473   88.212    4.155
  395.939    0.484   88.171    3.520
  396.244    0.497   91.104    2.875
  396.549    0.517   95.228    2.721
  396.854    0.529   99.358    2.772
  397.159    0.532   95.742    3.458
  397.463    0.530   95.702    4.314
  397.768    0.525   94.465    4.908
  398.073    0.516   88.472    5.382
  398.378    0.500   90.812    6.012
  398.683    0.496   94.343    6.354
  398.987    0.487   91.921    6.716
  399.292    0.467   93.665    6.969
  399.597    0.446   91.839    7.366
  399.902    0.435   91.798    7.786
  400.207    0.419   94.731    8.078
  400.512    0.399   91.120    8.697
  400.816    0.387   92.263    9.537
  401.121    0.365   91.633   10.459
  401.426    0.313   88.612   11.900
  401.731    0.297   87.381   11.901
  402.036    0.279   86.741   10.855
  402.340    0.297   92.654    9.369
  402.645    0.401   92.019    7.794
  402.950    0.423   89.000    6.979
  403.255    0.460   86.579    6.484
  403.560    0.471   91.891    6.367
  403.864    0.473   88.871    6.367
  404.169    0.472   88.828    6.368
  404.474    0.464   88.789    6.731
  404.779    0.460   85.773    7.381
  405.084    0.449   81.563    8.713
  405.388    0.377   77.353    9.733
  405.693    0.226   76.718    9.915
  405.998    0.237   85.605    9.557
  406.303    0.367   86.755    8.717
  406.608    0.388   82.548    7.951
  406.913    0.384   81.315    7.665
  407.217    0.386   79.483    7.666
  407.522    0.395   78.260    7.667
  407.827    0.401   84.167    7.810
  408.132    0.398   84.719    8.104
  408.437    0.401   86.467    8.105
  408.741    0.416   90.590    7.813
  409.046    0.422   94.117    7.394
  409.351    0.414   91.695    7.395
  409.656    0.393   87.492    7.396
  409.961    0.372   86.257    7.534
  410.265    0.360   87.404    7.818
  410.570    0.362   86.769    8.112
  410.875    0.375   84.340    8.574
  411.180    0.373   82.522    8.575
  411.485    0.366   82.463    8.420
  411.789    0.366   83.622    8.267
  412.094    0.369   87.157    8.422
  412.399    0.367   85.920    9.236
  412.704    0.356   82.314    9.943
  413.009    0.339   73.940    9.944
  413.314    0.319   71.510    9.586
  413.618    0.274   75.638    8.584
  413.923    0.293   81.548    7.686
  414.228    0.384   84.477    7.409
  414.533    0.392   83.846    7.012
  414.838    0.398   81.426    6.759
  415.142    0.414   79.598    6.636
  415.447    0.430   77.770    6.397
  415.752    0.448   81.894    5.835
  416.057    0.467   83.038    5.225
  416.362    0.481   83.599    4.855
  416.666    0.497   85.340    4.855
  416.971    0.493   84.703    4.946
  417.276    0.477   85.260    5.424
  417.581    0.424   82.831    6.171
  417.886    0.378   81.605    7.021
  418.190    0.368   77.992    7.700
  418.495    0.366   75.572    8.138
  418.800    0.360   74.323    8.445
  419.105    0.340   74.889    8.140
  419.410    0.352   77.826    7.847
  419.715    0.404   80.163    7.848
  420.019    0.465   78.341    8.294
  420.324    0.450   77.701    8.930
  420.629    0.348   77.662    9.097
  420.934    0.212   82.380    8.769
  421.239    0.243   83.524    8.147
  421.543    0.459   87.057    7.431
  421.848    0.465   86.421    7.164
  422.153    0.465   85.192    7.164
  422.458    0.459   83.352    7.298
  422.763    0.451   83.319    7.435
  423.067    0.449   85.662    7.574
  423.372    0.445   94.547    7.437
  423.677    0.442   95.100    7.302
  423.982    0.444   92.085    7.169
  424.287    0.435   88.464    7.578
  424.591    0.431   88.426    7.719
  424.896    0.438   96.715    7.441
  425.201    0.456   97.274    7.173
  425.506    0.476   93.657    6.543
  425.811    0.496   89.441    5.544
  426.116    0.497   90.602    4.612
  426.420    0.501   90.559    3.499
  426.725    0.524   81.604    2.132
  427.030    0.519   78.034    2.096
  427.335    0.502   76.265    2.301
  427.640    0.467   78.686    2.822
  427.944    0.443   84.115    4.164
  428.249    0.429   82.943    5.202
  428.554    0.419   76.972    6.266
  428.859    0.418   76.402    6.753
  429.164    0.424   75.232    7.145
  429.468    0.429   74.666    6.769
  429.773    0.416   75.895    5.954
  430.078    0.423   78.919    4.864
  430.383    0.489   81.345    4.124
  430.688    0.482   84.977    3.906
  430.992    0.476   85.607    3.840
  431.297    0.477   86.230    3.989
  431.602    0.474   86.858    4.143
  431.907    0.466   86.895    4.224
  432.212    0.464   88.116    4.076
  432.517    0.471   87.550    3.934
  432.821    0.469   87.580    4.012
  433.126    0.473   89.407    4.089
  433.431    0.477   91.835    4.248
  433.736    0.461   91.860    4.580
  434.041    0.441   91.892    4.847
  434.345    0.429   91.318    5.035
  434.650    0.426   90.145    5.038
  434.955    0.428   91.976    5.043
  435.260    0.431   96.202    5.050
  435.565    0.435   95.637    4.964
  435.869    0.437   93.863    4.968
  436.174    0.439   94.489    5.066
  436.479    0.440   94.519    5.167
  436.784    0.440   90.949    5.368
  437.089    0.438   82.578    5.678
  437.393    0.418   73.007    6.967
  437.698    0.355   66.442    7.937
  438.003    0.347   67.670    8.094
  438.308    0.361   70.098    7.810
  438.613    0.383   71.925    7.965
  438.918    0.379   71.954    8.119
  439.222    0.372   74.380    9.080
  439.527    0.363   75.616   10.346
  439.832    0.367   76.838   11.152
  440.137    0.373   81.669   11.372
  440.442    0.367   85.897   11.175
  440.746    0.348   93.126   10.391
  441.051    0.337   96.153    9.313
  441.356    0.349   99.178    8.193
  441.661    0.363  104.006    8.055
  441.966    0.358  105.239    8.210
