~VERSION INFORMATION
 VERS.                 2.0:   CWLS LOG ASCII STANDARD -VERSION 2.0
 WRAP.                  NO:   ONE LINE PER DEPTH STEP
~WELL INFORMATION BLOCK
#MNEM.UNIT           DATA                    DESCRIPTION OF MNEMONIC
#---------    -------------------            -------------------------------
# Generated from Intellog Unique Number	CN_94_101/WELL/1073
WELL.         11-14-096-14W4                 : Well_name    - WELL
LOC .         AA/11-14-096-14W4/0            : Location     - LOCATION
UWI .         AA/11-14-096-14W400            : Uwi          - UNIQUE WELL ID
ENTR.         JOETTE                         : Entered      - ENTERED BY
SRVC.         SCHLUMBERGER                   : Scn          - SERVICE COMPANY
DATE.         05/03/92                       : Date         - LOG DATE
STRT.M        60.5                           : top_depth    - START DEPTH
STOP.M        295                            : bot_depth    - STOP DEPTH
STEP.M        0.25                           : increment    - STEP LENGTH
 NULL. -999.2500:NULL Value
~CURVE INFORMATION BLOCK
#MNEM UNIT       ERCB CURVE CODE    CURVE DESCRIPTION
#-----------   ------------------   ----------------------------------
DEPT.M        00 001 00 00         : DEPTH        - DEPTH
ILD .OHMM     00 120 00 00         : RESD         - DEEP RESISTIVITY (DIL)
DPHI.V/V      00 890 00 00         : PHID         - DENSITY POROSITY (SANDSTONE)
NPHI.V/V      00 330 00 00         : PHIN         - NEUTRON POROSITY (SANDSTONE)
GR  .API      00 310 00 00         : GR           - GAMMA RAY
CALI.MM       00 280 01 00         : CAL          - CALIPER
~PARAMETER INFORMATION
#MNEM.UNIT           DATA             DESCRIPTION OF MNEMONIC
#---------         -----------     ------------------------------
GL  .M        530.78               : gl           - GROUND LEVEL ELEVATION
EREF.M        533.78               : kb           - ELEVATION OF DEPTH REFERENCE
DATM.M        533.78               : datum        - DATUM ELEVATION
TDD .M        296                  : tdd          - TOTAL DEPTH DRILLER
RUN .         ONE                  : Run          - RUN NUMBER
ENG .         BILL                 : Engineer     - RECORDING ENGINEER
WIT .         JIM                  : Witness      - WITNESSED BY
MUD .         GEL                  : Mud_type     - MUD TYPE
MATR.         SANDSTONE            : Logunit      - NEUTRON MATRIX
TMAX.C        25                   : BHT          - MAXIMUM RECORDED TEMPERATURE
BHTD.M        296                  : BHTDEP       - MAXIMUM RECORDED TEMPERATURE
RMT .C        10                   : MDTP         - TEMPERATURE OF MUD
MUDD.KG/M     1115                 : MWT          - MUD DENSITY
NEUT.         1                    : NEUTRON      - NEUTRON TYPE
RESI.         0                    : RESIST       - RESISTIVITY TYPE
RM  .OHMM     0.62                 : RM           - RESISTIVITY OF MUD
RMC .OHMM     0.62                 : RMC          - RESISTIVITY OF MUD CAKE
RMF .OHMM     0.62                 : RMF          - RESISTIVITY OF MUD FILTRATE
SUFT.C        4                    : SUFT         - SURFACE TEMPERATURE
~A  DEPTH     RESD     PHID     PHIN       GR      CAL
# ...
  243.000    4.437    0.217    0.519   92.847  221.135
  243.250    4.524    0.196    0.509   92.890  221.179
  243.500    4.204    0.197    0.489   92.915  220.242
  243.750    3.834    0.223    0.497   94.142  219.320
  244.000    3.072    0.223    0.506   90.004  218.355
  244.250    2.554    0.234    0.491   87.057  217.434
  244.500    2.164    0.271    0.490   81.735  217.477
  244.750    1.937    0.303    0.542   76.395  216.540
  245.000    1.903    0.331    0.578   74.036  215.618
  245.250    1.976    0.365    0.607   71.686  215.662
  245.500    2.015    0.357    0.623   69.336  215.733
  245.750    2.016    0.350    0.623   67.582  214.811
  246.000    1.944    0.356    0.616   65.231  214.854
  246.250    1.875    0.367    0.609   67.650  213.904
  246.500    1.910    0.346    0.596   70.070  212.968
  246.750    2.258    0.336    0.578   69.508  210.073
  247.000    3.336    0.324    0.536   66.561  209.122
  247.250    3.662    0.306    0.477   64.807  208.172
  247.500    4.095    0.300    0.459   72.592  207.235
  247.750    4.578    0.309    0.513   76.799  208.286
  248.000    5.412    0.314    0.537   71.468  212.304
  248.250    8.766    0.309    0.562   64.340  212.361
  248.500   10.363    0.301    0.502   56.028  203.476
  248.750    9.453    0.298    0.419   45.340  192.604
  249.000    7.574    0.275    0.401   47.751  185.706
  249.250    6.415    0.230    0.401   54.343  182.797
  249.500    5.639    0.231    0.421   66.897  183.848
  249.750    5.643    0.269    0.464   75.278  184.870
  250.000    5.754    0.266    0.446   77.697  194.878
  250.250    5.757    0.269    0.411   78.328  192.948
  250.500    5.655    0.169    0.376   78.371  188.023
  250.750    5.452    0.215    0.404   83.166  191.076
  251.000    5.358    0.250    0.447   87.373  199.068
  251.250    5.263    0.276    0.460   87.408  200.133
  251.500    5.363    0.277    0.473   86.846  202.177
  251.750    5.467    0.280    0.469   85.092  208.182
  252.000    5.677    0.268    0.461   82.742  210.227
  252.250    5.786    0.260    0.467   80.391  204.323
  252.500    6.121    0.279    0.475   78.041  202.393
  252.750    6.357    0.283    0.465   77.488  201.456
  253.000    6.479    0.278    0.459   77.522  201.528
  253.250    6.367    0.268    0.458   78.153  202.594
  253.500    6.253    0.253    0.445   80.572  203.630
  253.750    6.029    0.255    0.428   79.406  205.675
  254.000    5.707    0.250    0.433   80.045  208.699
  254.250    5.403    0.251    0.453   81.859  202.809
  254.500    5.021    0.264    0.465   81.297  202.866
  254.750    4.931    0.261    0.460   81.928  205.904
  255.000    4.755    0.231    0.462   83.155  201.973
  255.250    4.586    0.231    0.477   85.565  199.064
  255.500    4.942    0.280    0.492   89.781  198.113
  255.750    5.324    0.275    0.493   74.307  198.156
  256.000    5.954    0.282    0.418   65.399  198.228
  256.250    6.416    0.271    0.407   60.664  197.292
  256.500    6.303    0.251    0.414   55.333  194.368
  256.750    5.749    0.259    0.424   52.386  192.424
  257.000    5.754    0.234    0.394   51.816  186.534
  257.250    6.086    0.228    0.403   53.639  184.590
  257.500    7.195    0.243    0.429   54.874  181.666
  257.750    8.351    0.265    0.427   50.131  180.730
  258.000    8.515    0.275    0.409   46.588  180.802
  258.250    8.518    0.296    0.405   45.430  181.867
  258.500    8.366    0.311    0.407   44.869  181.896
  258.750    8.069    0.313    0.403   47.288  183.955
  259.000    7.779    0.306    0.404   50.303  183.984
  259.250    7.365    0.288    0.406   52.722  187.050
  259.500    6.842    0.293    0.401   55.150  188.073
  259.750    6.358    0.301    0.400   56.964  191.125
  260.000    5.190    0.294    0.405   60.576  193.170
  260.250    5.290    0.282    0.430   65.975  195.229
  260.500    5.702    0.282    0.438   68.403  197.259
  260.750    5.812    0.276    0.437   70.831  198.296
  261.000    5.815    0.264    0.443   71.453  199.361
  261.250    5.405    0.247    0.445   73.284  200.412
  261.500    4.929    0.246    0.439   74.494  201.478
  261.750    4.415    0.253    0.431   75.721  202.500
  262.000    4.417    0.242    0.437   76.360  202.572
  262.250    4.849    0.246    0.447   75.798  202.615
  262.500    5.523    0.268    0.466   63.892  202.701
  262.750    6.410    0.287    0.457   58.570  202.729
  263.000    7.438    0.294    0.440   56.807  201.822
  263.250   10.198    0.291    0.440   53.861  201.851
  263.500   13.227    0.296    0.424   50.327  200.914
  263.750   13.736    0.301    0.417   51.562  199.978
  264.000   13.745    0.306    0.428   53.964  199.042
  264.250   12.538    0.302    0.417   55.795  198.106
  264.500   12.546    0.295    0.406   58.802  198.163
  264.750   13.773    0.274    0.387   62.413  197.227
  265.000   15.117    0.245    0.374   72.583  196.276
  265.250   16.904    0.258    0.419   75.010  196.377
  265.500   18.557    0.264    0.425   72.660  196.420
  265.750   21.140    0.275    0.425   70.301  195.469
  266.000   20.766    0.296    0.424   69.748  195.541
  266.250   16.334    0.302    0.432   69.783  195.569
  266.500   14.094    0.313    0.435   70.422  194.633
  266.750   12.391    0.297    0.428   71.035  193.697
  267.000   11.727    0.271    0.423   72.858  192.761
  267.250   11.308    0.253    0.415   75.277  191.825
  267.500   11.108    0.247    0.422   70.534  190.888
  267.750   10.715    0.254    0.434   62.818  189.952
  268.000   10.720    0.267    0.424   67.026  185.070
  268.250   10.527    0.273    0.415   73.022  184.105
  268.500   10.341    0.249    0.406   77.229  183.169
  268.750    9.972    0.188    0.397   84.426  183.226
  269.000    9.617    0.169    0.399   87.442  183.269
  269.250    9.272    0.150    0.399   85.679  183.327
  269.500    9.110    0.203    0.392   83.329  182.390
  269.750    8.786    0.235    0.389   82.180  183.441
  270.000    8.627    0.237    0.402   84.599  185.486
  270.250    8.478    0.235    0.415   85.229  190.526
  270.500    8.482    0.228    0.418   84.071  193.564
  270.750    8.482    0.228    0.414   82.317  192.628
  271.000    8.655    0.226    0.407   81.159  190.684
  271.250    8.499    0.210    0.401   84.174  189.762
  271.500    8.503    0.222    0.408   88.382  188.826
  271.750    8.509    0.219    0.414   89.618  187.889
  272.000    8.839    0.210    0.410   89.635  187.932
  272.250    9.009    0.201    0.404   90.265  187.990
  272.500    9.009    0.193    0.404   89.704  186.074
  272.750    9.191    0.199    0.411   86.757  184.130
  273.000    9.196    0.216    0.417   85.599  182.200
  273.250    9.372    0.241    0.407   75.490  182.258
  273.500    9.556    0.264    0.409   71.948  183.294
  273.750    9.387    0.280    0.414   73.771  184.360
  274.000    8.098    0.292    0.413   78.574  186.404
  274.250    5.492    0.287    0.421   85.763  188.463
  274.500    4.320    0.286    0.438   95.941  189.485
  274.750    3.940    0.281    0.457  103.725  192.567
  275.000    3.730    0.258    0.514  110.318  192.595
  275.250    3.733    0.248    0.530  109.168  193.632
  275.500    3.876    0.239    0.543  110.991  194.712
  275.750    4.254    0.233    0.546  112.814  194.740
  276.000    4.938    0.229    0.549  111.648  194.798
  276.250    5.420    0.197    0.545  109.297  195.849
  276.500    5.843    0.192    0.533  108.131  196.914
  276.750    5.954    0.188    0.495  108.174  196.986
  277.000    6.183    0.193    0.463  108.208  197.015
  277.250    6.304    0.175    0.455  108.234  198.066
  277.500    6.425    0.161    0.453  108.269  198.123
  277.750    6.549    0.154    0.444  104.726  198.180
  278.000    6.677    0.198    0.465  104.164  198.238
  278.250    6.682    0.209    0.480  104.812  198.295
  278.500    6.685    0.197    0.472  105.426  198.367
  278.750    6.817    0.199    0.458  106.652  198.395
  279.000    6.820    0.191    0.449  106.091  198.453
  279.250    6.951    0.178    0.444  104.933  198.510
