~VERSION INFORMATION
 VERS.                 2.0:   CWLS LOG ASCII STANDARD -VERSION 2.0
 WRAP.                  NO:   ONE LINE PER DEPTH STEP
~WELL INFORMATION BLOCK
#MNEM.UNIT           DATA                    DESCRIPTION OF MNEMONIC
#---------    -------------------            -------------------------------
# Generated from Intellog Unique Number	CN_94_101/WELL/3318
WELL.         10-35-095-08W4                 : Well_name    - WELL
LOC .         AA/10-35-095-08W4/0            : Location     - LOCATION
UWI .         AA/10-35-095-08W400            : Uwi          - UNIQUE WELL ID
ENTR.         JOETTE                         : Entered      - ENTERED BY
SRVC.         SCHLUMBERGER                   : Scn          - SERVICE COMPANY
DATE.         07/22/92                       : Date         - LOG DATE
STRT.M        10                             : top_depth    - START DEPTH
STOP.M        136                            : bot_depth    - STOP DEPTH
STEP.M        0.25                           : increment    - STEP LENGTH
 NULL. -999.2500:NULL Value
~CURVE INFORMATION BLOCK
#MNEM UNIT       ERCB CURVE CODE    CURVE DESCRIPTION
#-----------   ------------------   ----------------------------------
DEPT.M        00 001 00 00         : DEPTH        - DEPTH
GR  .API      00 310 00 00         : GR           - GAMMA RAY
NPHI.V/V      00 330 00 00         : PHIN         - NEUTRON POROSITY (SANDSTONE)
RHOB.KG/M3    00 350 00 00         : DENS         - BULK DENSITY
ILD .OHMM     00 120 00 00         : RESD         - DEEP RESISTIVITY (DIL)
~PARAMETER INFORMATION
#MNEM.UNIT           DATA             DESCRIPTION OF MNEMONIC
#---------         -----------     ------------------------------
GL  .M        334.32               : gl           - GROUND LEVEL ELEVATION
EREF.M        334.32               : kb           - ELEVATION OF DEPTH REFERENCE
DATM.M        334.32               : datum        - DATUM ELEVATION
TDD .M        140.21               : tdd          - TOTAL DEPTH DRILLER
RUN .         ONE                  : Run          - RUN NUMBER
ENG .         BILL                 : Engineer     - RECORDING ENGINEER
WIT .         JIM                  : Witness      - WITNESSED BY
MUD .         GEL                  : Mud_type     - MUD TYPE
MATR.         SANDSTONE            : Logunit      - NEUTRON MATRIX
TMAX.C        4.5                  : BHT          - MAXIMUM RECORDED TEMPERATURE
BHTD.M        140.21               : BHTDEP       - MAXIMUM RECORDED TEMPERATURE
RMT .C        7.5                  : MDTP         - TEMPERATURE OF MUD
MUDD.KG/M     1000                 : MWT          - MUD DENSITY
NEUT.         1                    : NEUTRON      - NEUTRON TYPE
RESI.         0                    : RESIST       - RESISTIVITY TYPE
RM  .OHMM     28.2                 : RM           - RESISTIVITY OF MUD
RMC .OHMM     28.2                 : RMC          - RESISTIVITY OF MUD CAKE
RMF .OHMM     28.2                 : RMF          - RESISTIVITY OF MUD FILTRATE
SUFT.C        4                    : SUFT         - SURFACE TEMPERATURE
~A  DEPTH       GR     PHIN     DENS     RESD
# ...
   97.000   52.727    0.398 2265.210   68.979
   97.250   36.205    0.357 2294.580   55.952
   97.500   29.748    0.329 2294.960  103.461
   97.750   25.679    0.358 2290.860  164.146
   98.000   42.355    0.407 2276.510  161.306
   98.250   64.952    0.378 2262.210  149.605
   98.500   37.770    0.321 2276.950   59.762
   98.750   28.945    0.315 2291.750   31.827
   99.000   26.671    0.321 2327.520  288.407
   99.250   31.466    0.407 2310.980  683.993
   99.500   39.851    0.387 2254.940  711.892
   99.750   50.586    0.346 2267.650  555.990
  100.000   32.879    0.328 2255.390  148.515
  100.250   26.460    0.352 2205.650   90.436
  100.500   25.333    0.381 2174.590  120.722
  100.750   28.962    0.410 2141.500   21.989
  101.000   27.854    0.456 2093.790   11.271
  101.250   39.792    0.504 2179.420   14.760
  101.500   67.719    0.555 2275.460   18.250
  101.750   99.809    0.437 2261.110   21.719
  102.000   93.964    0.464 2263.410   11.567
  102.250  101.146    0.557 2253.220   10.940
  102.500  121.966    0.564 2311.790   13.018
  102.750  125.022    0.520 2320.340   14.911
  103.000  122.119    0.510 2341.430   30.341
  103.250   94.937    0.349 2383.290   28.152
  103.500   89.092    0.387 2396.000   21.570
  103.750   96.866    0.416 2381.650   20.392
  104.000  102.291    0.421 2371.470   46.545
  104.250   85.156    0.379 2396.720   28.355
  104.500   65.672    0.301 2394.810   30.069
  104.750   88.881    0.342 2409.660   20.530
  105.000  101.984    0.422 2376.520   16.034
  105.250  111.554    0.416 2297.580   23.117
  105.500  112.222    0.384 2091.550   55.931
  105.750   50.658    0.331 1937.670   49.904
  106.000   39.464    0.565 1848.270   33.426
  106.250   54.955    0.620 1775.570   40.548
  106.500   72.815    0.715 1732.080   44.696
  106.750   86.530    0.527 2073.920   13.657
  107.000  104.981    0.495 2213.730    8.316
  107.250  117.493    0.522 2339.020    8.993
  107.500  127.655    0.514 2341.330    9.360
  107.750  136.021    0.504 2383.130   10.122
  108.000  142.630    0.457 2408.390   11.822
  108.250  142.706    0.434 2419.020   13.026
  108.500  133.289    0.423 2448.380   13.557
  108.750  136.326    0.400 2434.030   13.070
  109.000  133.441    0.378 2450.910   13.603
  109.250  131.149    0.377 2486.580   15.882
  109.500  124.711    0.350 2499.290   20.412
  109.750  106.431    0.343 2499.510   24.291
  110.000  100.567    0.323 2508.060   26.777
  110.250   97.071    0.324 2491.630   25.325
  110.500   83.528    0.329 2481.440   23.962
  110.750   96.039    0.361 2496.240   25.422
  111.000  107.996    0.390 2477.720   27.479
  111.250   99.763    0.386 2405.030   34.635
  111.500   92.123    0.348 2332.340   60.469
  111.750   73.823    0.344 2315.960   51.970
  112.000   52.582    0.373 2299.420   38.324
  112.250   47.902    0.339 2218.400   55.229
  112.500   49.162    0.336 2202.020   59.725
  112.750   53.403    0.380 2204.330   59.826
  113.000   50.499    0.392 2189.920   68.521
  113.250   48.207    0.372 2175.570   88.068
  113.500   37.605    0.393 2194.530   97.079
  113.750   36.497    0.367 2201.050   83.435
  114.000   34.224    0.358 2211.680   81.991
  114.250   37.834    0.403 2230.640   74.602
  114.500   49.772    0.361 2241.330   67.935
  114.750   80.678    0.383 2231.090   70.676
  115.000   77.813    0.351 2204.250   77.940
  115.250   51.185    0.377 2181.510   82.687
  115.500   38.215    0.391 2150.510   96.576
  115.750   32.981    0.341 2165.300  102.457
  116.000   37.183    0.334 2186.340  102.631
  116.250   35.483    0.361 2201.140   91.649
  116.500   18.960    0.368 2186.840   83.389
  116.750   19.036    0.377 2180.770   71.669
  117.000   22.092    0.383 2187.290   90.330
  117.250   16.820    0.375 2191.620  105.458
  117.500   14.546    0.382 2191.840  109.759
  117.750   15.788    0.396 2169.160   96.197
  118.000   17.640    0.395 2142.320   82.642
  118.250   14.756    0.359 2148.790   73.830
  118.500   16.016    0.366 2194.870   89.521
  118.750   16.112    0.383 2186.710  104.513
  119.000   14.392    0.374 2168.190  106.713
  119.250   14.469    0.394 2153.840  104.911
  119.500   15.137    0.404 2145.850  101.141
  119.750   12.845    0.391 2148.040   97.507
  120.000   11.144    0.349 2173.250   83.767
  120.250   14.181    0.328 2200.640   79.226
  120.500   19.606    0.345 2175.770   79.360
  120.750   19.682    0.342 2232.260   70.868
  121.000   13.818    0.344 2292.900   53.247
  121.250   19.242    0.310 2376.510   69.760
  121.500   26.424    0.294 2328.850   61.114
  121.750   33.014    0.289 2324.800   30.718
  122.000   35.478    0.327 2314.610    8.364
  122.250   46.805    0.350 2389.830    3.749
  122.500   62.296    0.352 2450.480    4.294
  122.750   77.787    0.488 2617.350    8.406
  123.000  103.364    0.513 2596.750    9.095
  123.250  134.251    0.482 2555.280   11.245
  123.500  142.025    0.454 2540.940   12.641
  123.750  151.595    0.449 2499.520   11.724
  124.000  149.895    0.480 2447.650   13.952
  124.250  157.669    0.496 2489.560   15.386
  124.500  150.639    0.441 2618.900   15.412
  124.750  132.340    0.430 2644.160   13.240
  125.000  121.146    0.401 2596.500   23.116
  125.250  118.262    0.326 2580.020   25.492
  125.500  102.923    0.358 2594.810   25.524
  125.750  110.716    0.349 2611.740   28.691
  126.000  101.910    0.348 2595.260   25.621
  126.250   94.862    0.381 2578.820   32.903
  126.500  102.636    0.355 2593.620   29.950
  126.750  102.120    0.376 2625.120   25.752
  127.000  108.729    0.409 2671.140   28.374
  127.250  112.377    0.256 2690.100  147.579
  127.500   98.203    0.191 2609.080  150.686
  127.750   65.081    0.257 2540.610   37.284
  128.000   71.690    0.313 2530.420   23.142
  128.250  113.847    0.337 2553.540   25.026
  128.500  118.068    0.363 2572.500   24.137
  128.750  111.039    0.320 2593.540   22.396
  129.000  106.378    0.311 2585.430   24.209
  129.250   80.953    0.352 2571.080   32.316
  129.500   84.601    0.375 2550.490   24.760
  129.750   96.520    0.388 2521.570   21.289
  130.000   97.208    0.377 2536.360   21.316
  130.250  112.088    0.348 2521.960   21.765
  130.500  131.724    0.382 2511.770   22.223
  130.750  131.800    0.414 2516.210   20.620
  131.000  137.225    0.449 2505.970   20.263
  131.250  114.761    0.351 2533.310   22.768
  131.500  127.311    0.334 2577.250   27.618
  131.750  132.105    0.316 2631.650   28.200
  132.000   97.206    0.285 2588.100  125.845
  132.250   78.907    0.213 2546.800   73.722
  132.500   65.364    0.289 2555.240   51.329
  132.750   91.513    0.344 2565.920   37.851
  133.000  114.703    0.347 2547.360   28.989
  133.250  124.864    0.393 2553.820   25.396
  133.500  137.987    0.385 2564.450   28.006
  133.750  123.240    0.342 2543.860   28.596
  134.000  116.211    0.384 2531.590   24.577
  134.250  128.722    0.390 2579.690   21.522
  134.500  113.383    0.301 2596.680   26.107
  134.750  121.177    0.219 2601.060   42.220
  135.000  102.877    0.194 2597.120   89.265
  135.250   61.465    0.198 2603.540  147.088
  135.500   53.843    0.200 2610.060  121.667
  135.750   58.675    0.193 2610.230  110.842
  136.000   49.258    0.196 2629.180  115.314
