~VERSION INFORMATION
 VERS.                 2.0:   CWLS LOG ASCII STANDARD -VERSION 2.0
 WRAP.                  NO:   ONE LINE PER DEPTH STEP
~WELL INFORMATION BLOCK
#MNEM.UNIT           DATA                    DESCRIPTION OF MNEMONIC
#---------    -------------------            -------------------------------
# Generated from Intellog Unique Number	CW_79_81/WELL/2478
WELL.         10-35-081-19W4                 : Well_name    - WELL
LOC .         AA/10-35-081-19W4/0            : Location     - LOCATION
UWI .         AA/10-35-081-19W400            : Uwi          - UNIQUE WELL ID
ENTR.         MAX                            : Entered      - ENTERED BY
SRVC.         SCHLUMBERGER                   : Scn          - SERVICE COMPANY
STRT.M        167.64                         : top_depth    - START DEPTH
STOP.M        365.64                         : bot_depth    - STOP DEPTH
STEP.M        0.25                           : increment    - STEP LENGTH
 NULL. -999.2500:NULL Value
~CURVE INFORMATION BLOCK
#MNEM UNIT       ERCB CURVE CODE    CURVE DESCRIPTION
#-----------   ------------------   ----------------------------------
DEPT.M        00 001 00 00         : DEPTH        - DEPTH
ILD .OHMM     00 120 00 00         : RESD         - DEEP RESISTIVITY (DIL)
NPHI.V/V      00 330 00 00         : PHIN         - NEUTRON POROSITY (SANDSTONE)
DPHI.V/V      00 890 00 00         : PHID         - DENSITY POROSITY (SANDSTONE)
GR  .API      00 310 00 00         : GR           - GAMMA RAY
CALI.MM       00 280 01 00         : CAL          - CALIPER
~PARAMETER INFORMATION
#MNEM.UNIT           DATA             DESCRIPTION OF MNEMONIC
#---------         -----------     ------------------------------
GL  .M        574.548              : gl           - GROUND LEVEL ELEVATION
EREF.M        577.596              : kb           - ELEVATION OF DEPTH REFERENCE
DATM.M        574.548              : datum        - DATUM ELEVATION
TDD .M        365.455              : tdd          - TOTAL DEPTH DRILLER
RUN .         ONE                  : Run          - RUN NUMBER
ENG .         BILL                 : Engineer     - RECORDING ENGINEER
WIT .         JIM                  : Witness      - WITNESSED BY
MUD .         GEL                  : Mud_type     - MUD TYPE
MATR.         SANDSTONE            : Logunit      - NEUTRON MATRIX
TMAX.C        23.8889              : BHT          - MAXIMUM RECORDED TEMPERATURE
BHTD.M        365.455              : BHTDEP       - MAXIMUM RECORDED TEMPERATURE
MATR.         1                    : LOGUNIT      - NEUTRON MATRIX
RMT .C        7.22222              : MDTP         - TEMPERATURE OF MUD
NEUT.         1                    : NEUTRON      - NEUTRON TYPE
RESI.         0                    : RESIST       - RESISTIVITY TYPE
RMC .OHMM     5.71                 : RMC          - RESISTIVITY OF MUD CAKE
RMF .OHMM     6.9                  : RMF          - RESISTIVITY OF MUD FILTRATE
SUFT.C        -20                  : SUFT         - SURFACE TEMPERATURE
~A  DEPTH     RESD     PHIN     PHID       GR      CAL
# ...
  277.140    8.327    0.471    0.251   84.923  135.707
  277.390    8.261    0.473    0.236   87.735  135.622
  277.640    8.104    0.468    0.229   89.963  135.555
  277.890    7.924    0.461    0.223   92.121  135.486
  278.140    7.777    0.453    0.217   93.950  135.407
  278.390    7.701    0.447    0.214   94.743  135.397
  278.640    7.638    0.455    0.232   96.322  135.775
  278.890    7.575    0.465    0.232   97.833  136.137
  279.140    7.514    0.472    0.232   97.780  136.834
  279.390    7.427    0.473    0.234   97.214  137.635
  279.640    7.328    0.467    0.235   96.523  138.323
  279.890    7.268    0.454    0.232   94.675  138.860
  280.140    7.261    0.449    0.246   90.850  139.695
  280.390    7.361    0.460    0.266   85.093  139.171
  280.640    7.663    0.473    0.260   80.702  137.658
  280.890    8.081    0.478    0.249   77.540  135.605
  281.140    8.571    0.468    0.241   75.155  133.557
  281.390    9.354    0.420    0.227   73.316  131.964
  281.640   10.555    0.330    0.177   75.970  130.968
  281.890   11.902    0.357    0.142   83.187  130.884
  282.140   13.027    0.402    0.165   90.603  130.810
  282.390   14.142    0.434    0.200   93.541  130.733
  282.640   14.990    0.447    0.224   90.186  130.654
  282.890   14.084    0.454    0.231   81.996  130.575
  283.140   12.133    0.457    0.232   84.115  130.487
  283.390   11.105    0.471    0.245   89.003  130.402
  283.640   10.399    0.478    0.237   90.965  130.329
  283.890    9.992    0.476    0.231   92.084  130.479
  284.140    9.788    0.464    0.233   93.402  130.737
  284.390    9.625    0.444    0.236   95.339  130.736
  284.640    9.544    0.444    0.237   97.448  131.113
  284.890    9.605    0.438    0.232   98.959  131.036
  285.140    9.718    0.434    0.224   96.384  131.282
  285.390    9.851    0.426    0.213   92.833  131.417
  285.640    9.986    0.415    0.201   90.316  131.338
  285.890   10.166    0.403    0.189   89.419  131.260
  286.140   10.390    0.398    0.189   87.755  131.180
  286.390   10.533    0.458    0.220   88.752  130.656
  286.640   10.504    0.478    0.233   89.353  130.467
  286.890   10.344    0.482    0.235   88.788  130.610
  287.140   10.152    0.478    0.232   87.708  131.080
  287.390   10.115    0.465    0.233   87.736  132.044
  287.640   10.337    0.463    0.235   85.531  132.895
  287.890   10.554    0.472    0.232   83.147  133.257
  288.140   10.834    0.464    0.233   82.708  133.607
  288.390   11.181    0.456    0.237   83.309  133.750
  288.640   11.583    0.451    0.239   84.430  133.684
  288.890   12.088    0.443    0.229   85.825  133.590
  289.140   12.544    0.428    0.204   85.247  133.501
  289.390   13.369    0.406    0.195   84.423  133.432
  289.640   13.883    0.386    0.178   86.704  131.868
  289.890   14.184    0.392    0.183   89.395  130.393
  290.140   14.122    0.421    0.211   91.203  129.726
  290.390   13.179    0.449    0.233   92.394  129.718
  290.640   12.498    0.441    0.227   93.200  129.710
  290.890   11.696    0.446    0.225   93.454  129.702
  291.140   10.764    0.459    0.218   94.873  130.680
  291.390   10.051    0.464    0.215   95.645  132.206
  291.640    9.622    0.461    0.217   95.317  133.623
  291.890    9.397    0.460    0.222   95.170  133.962
  292.140    9.324    0.465    0.221   97.054  133.498
  292.390    9.252    0.460    0.215   98.344  132.174
  292.640    9.182    0.456    0.214   98.275  132.495
  292.890    9.146    0.453    0.212   99.176  133.364
  293.140    9.160    0.449    0.207  100.854  134.014
  293.390    9.223    0.440    0.205  100.644  134.003
  293.640    9.219    0.438    0.212  100.909  133.996
  293.890    9.216    0.451    0.216  100.646  133.988
  294.140    9.162    0.452    0.212   99.217  133.980
  294.390    9.093    0.446    0.204   97.917  133.752
  294.640    8.974    0.437    0.198   97.329  133.415
  294.890    8.674    0.432    0.202   96.569  133.406
  295.140    8.477    0.434    0.211   92.788  133.398
  295.390    8.351    0.451    0.211   92.006  132.952
  295.640    8.273    0.466    0.205   92.389  132.834
  295.890    8.150    0.472    0.203   92.773  132.826
  296.140    7.986    0.469    0.207   93.417  132.929
  296.390    7.844    0.459    0.211   96.540  133.358
  296.640    7.723    0.450    0.210   99.232  133.349
  296.890    7.554    0.443    0.203  100.005  132.901
  297.140    7.428    0.430    0.181   99.223  132.784
  297.390    7.585    0.413    0.155   94.816  132.118
  297.640    8.107    0.401    0.143   88.209  130.905
  297.890    9.060    0.417    0.173   85.236  129.927
  298.140    9.851    0.423    0.189   89.817  129.463
  298.390   10.658    0.430    0.199   90.589  128.578
  298.640   10.583    0.435    0.203   83.787  128.022
  298.890   10.049    0.438    0.209   79.898  127.794
  299.140    9.394    0.439    0.221   82.094  127.786
  299.390    8.697    0.441    0.240   85.962  127.777
  299.640    8.499    0.444    0.248   84.609  127.768
  299.890    8.558    0.447    0.247   80.202  127.760
  300.140    8.758    0.447    0.229   78.320  127.753
  300.390    9.109    0.441    0.223   77.798  128.183
  300.640    9.583    0.428    0.235   76.692  128.943
  300.890   10.259    0.407    0.237   71.314  129.462
  301.140   11.241    0.374    0.192   66.454  129.912
  301.390   12.513    0.348    0.154   64.895  129.902
  301.640   14.372    0.338    0.138   62.948  129.895
  301.890   16.192    0.333    0.131   62.296  130.107
  302.140   17.453    0.327    0.127   63.133  130.428
  302.390   18.770    0.320    0.129   64.271  130.418
  302.640   20.250    0.316    0.138   64.806  130.411
  302.890   20.688    0.310    0.137   65.061  130.403
  303.140   20.909    0.303    0.131   64.926  130.395
  303.390   20.978    0.304    0.126   65.180  130.387
  303.640   20.777    0.322    0.134   66.083  130.379
  303.890   19.781    0.373    0.177   67.749  130.369
  304.140   18.619    0.412    0.203   69.632  130.361
  304.390   16.053    0.427    0.231   71.181  129.913
  304.640   12.900    0.433    0.217   71.177  129.467
  304.890   11.255    0.426    0.195   70.524  128.802
  305.140   10.817    0.403    0.175   69.936  128.135
  305.390   11.085    0.345    0.139   70.038  128.126
  305.640   11.688    0.283    0.096   70.574  128.119
  305.890   13.195    0.292    0.077   73.677  127.672
  306.140   14.305    0.342    0.123   79.499  127.555
  306.390   14.517    0.391    0.177   85.967  127.766
  306.640   13.779    0.421    0.209   91.465  128.525
  306.890   11.968    0.435    0.219   94.879  130.453
  307.140    9.724    0.433    0.221   95.143  131.359
  307.390    9.235    0.425    0.216   93.844  131.788
  307.640    9.118    0.427    0.211   94.099  131.889
  307.890    9.181    0.437    0.208   94.871  132.320
  308.140    9.278    0.450    0.204   95.643  133.079
  308.390    9.289    0.461    0.193   96.684  133.600
  308.640    9.356    0.466    0.188   98.027  134.048
  308.890    9.353    0.472    0.192   99.318  134.478
  309.140    9.299    0.477    0.190   99.636  134.581
  309.390    9.262    0.473    0.187   99.372  134.573
  309.640    9.259    0.456    0.184   98.979  134.675
  309.890    9.269    0.431    0.181   99.351  135.103
  310.140    9.336    0.431    0.191  101.235  135.094
  310.390    9.469    0.437    0.186  104.338  134.649
  310.640    9.500    0.443    0.181  106.081  134.531
  310.890    9.497    0.447    0.182  106.982  134.304
  311.140    9.511    0.446    0.189  107.236  133.858
  311.390    9.648    0.439    0.189  106.066  133.410
  311.640   10.018    0.427    0.192  102.824  133.401
  311.890   10.235    0.421    0.187   99.971  133.394
  312.140   10.288    0.413    0.176   99.643  133.386
  312.390   10.247    0.414    0.172  101.063  133.597
  312.640   10.113    0.425    0.181  102.935  134.027
  312.890    9.821    0.439    0.197  103.448  134.458
  313.140    9.552    0.446    0.200  104.413  134.448
  313.390    9.549    0.440    0.189  105.757  134.897
