~Version : LASO    vs 4.00
VERS.                2.00:   CWLS Log ASCII Standard -VERSION 2.0
WRAP.                  NO:
~Well Information Block
#MNEM.UNIT       Data                        Description of Mnemonic
#----.----      -------------------------- : -----------------------------
STRT.M            15.0000:
STOP.M           203.4000:
STEP.M             0.1000:
NULL.           -999.2500:
COMP.  MOBIL OIL CANADA LTD.     :COMPANY
WELL.  MOBIL CLARKE OV 12-34     :WELL
FLD.   CLARKE                    :FIELD
LOC.   12-34-089-08W4            :LOCATION
CTRY.  CANADA                    :COUNTRY
PROV.  ALBERTA                   :PROVINCE
SRVC.  SCHLUMBERGER              :SERVICE COMPANY
DATE.  20-FEB-81                 :LOG DATE
UWI.   AA/12-34-089-08W400       :UNIQUE WELL ID
~Parameter Information Block
#MNEM.UNIT       Data                        Description of Mnemonic
#----.----      -------------------------- : -----------------------------
RUN .                   1                 : Run Number
GL  .M           415.1000                 : Ground Level Elevation
DREF.                  KB                 : Depth Reference
EREF.M           418.1000                 : Elevation of Depth Reference
TDL .M           203.0000                 : Total Depth Logger
TDD .M           200.0000                 : Total Depth Driller
CSGL.M            18.0000                 : Casing Bottom Logger
CSGD.M            15.0000                 : Casing Bottom Driller
CSGS.MM          219.0000                 : Casing Size
CSGW.KG/M          0.0000                 : Casing Weight
BHT .DEGC         12.0000                 : Bottom Hole Temperature
BS  .MM          159.0000                 : Bit Size
DFD .           1110.0000                 : Mud Weight (Density)
DFV .             90.0000                 : Mud Viscosity
DFPH.             10.0000                 : Mud pH
RM  .OHMM          1.9600                 : Mud Resistivity
RMT .DEGC         20.0000                 : Mud Resistivity Temperature
~Curve Information Block
#MNEM.UNIT        API CODE    Curve Description
#---------    ------------    -------------------------------------------
DEPT.M                    :   DEPTH
CALI.MM       42 280  1  1:   3 DENSITY CALIPER
DPHI.V/V                  :   DPHI
DT  .US/M     60 520  0  1:   2 SONIC INTERVAL TRANSIT TIME (COMPENSATED)
GR  .GAPI     42 310  1  1:   4 GAMMA RAY
ILD .OHMM      7 120 46  1:   7 DEEP INDUCTION
ILM .OHMM      7 120 44  1:   8 MEDIUM INDUCTION
NPHI.V/V      42 890  3  1:   5 NEUTRON POROSITY (SANDSTONE)
RHOB.K/M3     42 350  1  1:   6 BULK DENSITY
SFLU.OHMM      7 220  1  1:   9 FOCUSSED RESISTIVITY
SP  .MV        7  10  1  1:   10 SPONTANEOUS POTENTIAL
~A  Depth           CALI        DPHI          DT          GR         ILD         ILM        NPHI        RHOB        SFLU          SP
# ...
137.0000        157.8000      0.3467    397.9200     33.3900     83.8359     77.2378      0.4850   2002.0000    222.1416    -61.1300
137.1000        157.8000      0.3522    395.3200     34.8750     83.8359     77.2378      0.4850   2002.0000    222.1416    -61.1300
137.2000        156.7750      0.3611    394.4400     36.6750     82.3057     72.8165      0.5044   2082.3000    119.4070    -59.2800
137.3000        156.7750      0.3586    406.0000     38.3700     82.3057     72.8165      0.5044   2082.3000    119.4070    -59.2800
137.4000        155.5750      0.3582    413.9200     40.4850     76.8121     65.1373      0.4215   2094.6001     86.6622    -57.2700
137.5000        155.5750      0.3631    416.6800     40.3050     76.8121     65.1373      0.4215   2094.6001     86.6622    -57.2700
137.6000        154.7750      0.3717    419.7600     40.0050     60.1215     52.5085      0.3931   2047.9000     78.3845    -60.1900
137.7000        154.7750      0.3807    423.6000     39.7050     60.1215     52.5085      0.3931   2047.9000     78.3845    -60.1900
137.8000        159.3000      0.3906    436.0400     38.4450     58.2143     53.2881      0.4045   2033.2000    102.8561    -61.1800
137.9000        159.3000      0.4029    483.2400     37.0950     58.2143     53.2881      0.4045   2033.2000    102.8561    -61.1800
138.0000        155.5500      0.4102    494.3600     35.7600     59.0242     55.7481      0.4236   2026.1000     78.3845    -61.6900
138.1000        155.5500      0.4103    501.7600     35.3400     59.0242     55.7481      0.4236   2026.1000     78.3845    -61.6900
138.2000        153.7500      0.4017    517.2800     35.9250     57.3099     55.3388      0.4661   2088.3000     68.9017    -61.6500
138.3000        153.7500      0.3836    543.9600     36.5400     57.3099     55.3388      0.4661   2088.3000     68.9017    -61.6500
138.4000        151.6000      0.3676    550.2400     36.2550     58.7530     55.9538      0.4675   2025.9000    104.1909    -62.7500
138.5000        151.6000      0.3557    501.2400     35.7900     58.7530     55.9538      0.4675   2025.9000    104.1909    -62.7500
138.6000        149.8000      0.3471    499.3600     34.5900     62.7234     58.1072      0.4471   1987.1001     96.1679    -63.2900
138.7000        149.8000      0.3368    469.4800     31.7100     62.7234     58.1072      0.4471   1987.1001     96.1679    -63.2900
138.8000        154.0250      0.3350    466.9200     29.2500     70.6366     66.1043      0.4544   1992.6000     79.6214    -61.4100
138.9000        154.0250      0.3407    468.0800     27.2100     70.6366     66.1043      0.4544   1992.6000     79.6214    -61.4100
139.0000        153.5500      0.3543    501.8400     26.8200     74.0338     69.4113      0.4913   2000.8000     87.5447    -62.5500
139.1000        153.5500      0.3627    561.4000     26.4300     74.0338     69.4113      0.4913   2000.8000     87.5447    -62.5500
139.2000        152.5750      0.3557    592.2400     26.2050     76.0379     75.6188      0.5114   2008.0000    102.1951    -64.4300
139.3000        152.5750      0.3455    607.6400     26.1300     76.0379     75.6188      0.5114   2008.0000    102.1951    -64.4300
139.4000        153.0000      0.3390    609.5600     26.0550     82.6856     91.8396      0.5154   2030.4000    108.0015    -66.2300
139.5000        153.0000      0.3362    500.4800     25.9800     82.6856     91.8396      0.5154   2030.4000    108.0015    -66.2300
139.6000        157.1750      0.3350    500.4800     25.9500     81.4760    101.1649      0.4334   1981.9000     83.8359    -65.7700
139.7000        157.1750      0.3458    477.9600     26.2200     81.4760    101.1649      0.4334   1981.9000     83.8359    -65.7700
139.8000        168.6500      0.3535    440.4000     26.4000     74.3755     94.0654      0.4175   1953.1001    144.0887    -66.1100
139.9000        168.6500      0.3947    443.6400     26.5800     74.3755     94.0654      0.4175   1953.1001    144.0887    -66.1100
140.0000        168.7500      0.3928    425.8400     26.9400     65.4983     72.8836      0.4214   1937.7000    180.0653    -67.1500
140.1000        168.7500      0.3890    426.1600     27.9900     65.4983     72.8836      0.4214   1937.7000    180.0653    -67.1500
140.2000        161.6000      0.3863    426.6000     29.0400     51.0775     53.4847      0.4954   1936.1001    104.7683    -67.3800
140.3000        161.6000      0.3832    427.0400     30.0600     51.0775     53.4847      0.4954   1936.1001    104.7683    -67.3800
140.4000        157.9000      0.3776    428.2000     31.4550     45.6068     43.2345      0.5206   1949.4000     73.4226    -65.3100
140.5000        157.9000      0.3692    428.9600     31.3800     45.6068     43.2345      0.5206   1949.4000     73.4226    -65.3100
140.6000        156.5750      0.3529    424.8800     31.2150     41.1367     38.6038      0.5276   1944.5000     65.5586    -63.7000
140.7000        156.5750      0.3405    422.0800     31.0500     41.1367     38.6038      0.5276   1944.5000     65.5586    -63.7000
140.8000        157.5000      0.3457    420.7600     30.9750     32.4063     31.5522      0.4883   1954.1001     43.0755    -66.4000
140.9000        157.5000      0.3687    419.9600     31.4100     32.4063     31.5522      0.4883   1954.1001     43.0755    -66.4000
141.0000        157.8000      0.3807    429.5200     31.6950     29.5822     30.2155      0.4720   1962.0000     38.0741    -67.7700
141.1000        157.8000      0.3860    437.6400     33.7650     29.5822     30.2155      0.4720   1962.0000     38.0741    -67.7700
141.2000        157.5250      0.3915    436.2800     35.6700     27.8631     29.6094      0.4739   1922.8000     41.1747    -66.7900
141.3000        157.5250      0.3962    433.2800     36.6300     27.8631     29.6094      0.4739   1922.8000     41.1747    -66.7900
141.4000        154.5000      0.3995    436.9600     37.4550     26.8306     29.0958      0.4657   1919.3000     43.4740    -65.3700
141.5000        154.5000      0.4040    447.0000     38.1750     26.8306     29.0958      0.4657   1919.3000     43.4740    -65.3700
141.6000        152.6750      0.4102    463.2400     38.8200     26.7565     29.0690      0.4660   1935.9000     41.0610    -66.1700
141.7000        152.6750      0.4171    470.5200     38.6100     26.7565     29.0690      0.4660   1935.9000     41.0610    -66.1700
141.8000        151.9250      0.4172    474.7600     37.7100     27.0290     29.0422      0.4659   1974.4000     41.0610    -66.6100
141.9000        151.9250      0.4137    475.9200     36.3600     27.0290     29.0422      0.4659   1974.4000     41.0610    -66.6100
142.0000        152.5500      0.4145    477.2000     35.4000     27.2038     29.1763      0.4847   1985.6001     39.5394    -64.7700
142.1000        152.5500      0.4138    472.4000     35.6400     27.2038     29.1763      0.4847   1985.6001     39.5394    -64.7700
142.2000        153.0500      0.4124    465.5600     35.8200     27.1288     29.2840      0.5002   1985.8000     34.7240    -65.0400
142.3000        153.0500      0.4095    459.2800     36.3750     27.1288     29.2840      0.5002   1985.8000     34.7240    -65.0400
142.4000        153.5750      0.4072    453.1600     38.5800     27.0041     29.4734      0.5170   1999.7000     34.4057    -64.4200
142.5000        153.5750      0.4091    450.8800     38.2350     27.0041     29.4734      0.5170   1999.7000     34.4057    -64.4200
142.6000        154.9250      0.4158    449.0000     37.1100     27.1538     29.3921      0.5326   2029.2000     40.2745    -63.1500
142.7000        154.9250      0.4247    447.1200     35.8800     27.1538     29.3921      0.5326   2029.2000     40.2745    -63.1500
142.8000        155.1250      0.4360    444.4000     34.6500     26.9793     29.2032      0.5128   2045.4000     36.2268    -63.6100
142.9000        155.1250      0.4364    440.7600     33.5400     26.9793     29.2032      0.5128   2045.4000     36.2268    -63.6100
143.0000        155.1000      0.4239    439.2400     32.5350     25.5994     29.1763      0.4984   2039.6000     30.2434    -64.1900
