~VERSION INFORMATION
 VERS.                 2.0:   CWLS LOG ASCII STANDARD -VERSION 2.0
 WRAP.                  NO:   ONE LINE PER DEPTH STEP
~WELL INFORMATION BLOCK
#MNEM.UNIT           DATA                    DESCRIPTION OF MNEMONIC
#---------    -------------------            -------------------------------
# Generated from Intellog Unique Number	CN_94_101/WELL/3200
WELL.         SHELL CANADA LTD.              : Well_name    - WELL
LOC .         AA/13-07-095-14W4/0            : Location     - LOCATION
UWI .         AA/13-07-095-14W4/0            : Uwi          - UNIQUE WELL ID
ENTR.         JOETTE                         : Entered      - ENTERED BY
SRVC.         SCHLUMBERGER                   : Scn          - SERVICE COMPANY
DATE.         07/20/92                       : Date         - LOG DATE
STRT.F        200                            : top_depth    - START DEPTH
STOP.F        889.797                        : bot_depth    - STOP DEPTH
STEP.F        0.82                           : increment    - STEP LENGTH
 NULL. -999.2500:NULL Value
~CURVE INFORMATION BLOCK
#MNEM UNIT       ERCB CURVE CODE    CURVE DESCRIPTION
#-----------   ------------------   ----------------------------------
DEPT.F        00 001 00 00         : DEPTH        - DEPTH
GR  .API      00 310 00 00         : GR           - GAMMA RAY
DPHI.V/V      00 890 00 00         : PHID         - DENSITY POROSITY (SANDSTONE)
ILD .OHMM     00 120 00 00         : RESD         - DEEP RESISTIVITY (DIL)
~PARAMETER INFORMATION
#MNEM.UNIT           DATA             DESCRIPTION OF MNEMONIC
#---------         -----------     ------------------------------
GL  .F        1723.2               : gl           - GROUND LEVEL ELEVATION
EREF.F        1733.2               : kb           - ELEVATION OF DEPTH REFERENCE
DATM.F        1733.2               : datum        - DATUM ELEVATION
TDD .F        911                  : tdd          - TOTAL DEPTH DRILLER
RUN .         ONE                  : Run          - RUN NUMBER
ENG .         BILL                 : Engineer     - RECORDING ENGINEER
WIT .         JIM                  : Witness      - WITNESSED BY
MUD .         GEL                  : Mud_type     - MUD TYPE
MATR.         SANDSTONE            : Logunit      - NEUTRON MATRIX
TMAX.F        56                   : BHT          - MAXIMUM RECORDED TEMPERATURE
BHTD.F        911                  : BHTDEP       - MAXIMUM RECORDED TEMPERATURE
RMT .F        56                   : MDTP         - TEMPERATURE OF MUD
MUDD.LB/G     9.3                  : MWT          - MUD DENSITY
NEUT.         1                    : NEUTRON      - NEUTRON TYPE
RESI.         0                    : RESIST       - RESISTIVITY TYPE
RM  .OHMM     3.27                 : RM           - RESISTIVITY OF MUD
RMC .OHMM     3.27                 : RMC          - RESISTIVITY OF MUD CAKE
RMF .OHMM     3.27                 : RMF          - RESISTIVITY OF MUD FILTRATE
SUFT.F        39.2                 : SUFT         - SURFACE TEMPERATURE
~A  DEPTH       GR     PHID     RESD
# ...
  733.957   39.529    0.351   33.356
  734.777   40.767    0.349   43.502
  735.597   43.203    0.350   36.843
  736.417   43.652    0.352   40.565
  737.238   43.721    0.357   46.399
  738.058   43.762    0.362   37.827
  738.878   44.620    0.354   22.009
  739.698   44.661    0.346   10.226
  740.518   45.505    0.342    6.534
  741.339   49.110    0.343    5.134
  742.159   55.489    0.346    4.961
  742.979   58.700    0.351    6.109
  743.799   66.670    0.331    5.899
  744.619   64.345    0.330    5.091
  745.440   64.808    0.327    4.919
  746.260   67.230    0.320    5.217
  747.080   70.440    0.317    5.532
  747.900   75.623    0.319    5.978
  748.720   67.001    0.321    6.711
  749.541   65.492    0.318    7.811
  750.361   63.956    0.241   10.776
  751.181   59.659    0.216   13.528
  752.001   51.037    0.208   20.884
  752.822   51.106    0.216   23.887
  753.642   53.514    0.279   16.763
  754.462   58.710    0.302   15.602
  755.282   61.526    0.314   15.351
  756.102   59.609    0.321   16.270
  756.923   56.115    0.324   17.265
  757.743   55.775    0.325   16.662
  758.563   55.436    0.325   14.111
  759.383   54.322    0.324   12.643
  760.203   52.391    0.325   28.948
  761.024   38.629    0.328   35.666
  761.844   34.332    0.343   54.036
  762.664   30.837    0.359   86.605
  763.484   28.131    0.363   95.355
  764.304   26.228    0.359   74.927
  765.125   27.847    0.352   49.705
  765.945   33.438    0.344   36.236
  766.765   35.859    0.347   31.250
  767.585   38.281    0.354   30.177
  768.406   37.955    0.360   36.513
  769.226   34.461    0.355   43.331
  770.046   35.291    0.351   54.431
  770.866   39.712    0.342   51.586
  771.686   42.528    0.337   28.373
  772.507   44.161    0.332   22.281
  773.327   43.427    0.324   25.967
  774.147   43.510    0.328   38.587
  774.967   44.326    0.326   44.136
  775.787   46.353    0.319   13.827
  776.608   50.352    0.316   15.512
  777.428   51.604    0.335   17.079
  778.248   50.885    0.333   20.306
  779.068   49.376    0.330   17.512
  779.888   47.826    0.332   15.379
  780.709   45.909    0.350   24.206
  781.529   43.978    0.358   28.210
  782.349   38.512    0.351   32.836
  783.169   34.229    0.345   40.456
  783.990   31.931    0.341   49.876
  784.810   30.803    0.345   22.322
  785.630   28.478    0.349   25.516
  786.450   28.152    0.355   29.204
  787.270   29.771    0.351   31.537
  788.091   32.207    0.349   29.315
  788.911   33.431    0.342   30.532
  789.731   33.486    0.345   32.400
  790.551   33.569    0.354   34.361
  791.371   33.610    0.360   36.441
  792.192   33.693    0.360   33.873
  793.012   33.721    0.356   28.174
  793.832   32.987    0.355   32.793
  794.652   31.873    0.357   41.973
  795.472   30.350    0.361   46.243
  796.293   29.236    0.364   51.878
  797.113   28.869    0.368   66.358
  797.933   28.924    0.369   70.374
  798.753   28.585    0.373   69.287
  799.573   28.640    0.371   72.070
  800.394   29.498    0.363   59.905
  801.214   29.933    0.359   58.980
  802.034   31.580    0.366   76.821
  802.854   32.818    0.372   51.959
  803.675   34.070    0.372   47.431
  804.495   34.126    0.367   53.245
  805.315   34.181    0.361   48.575
  806.135   34.630    0.354   40.376
  806.955   35.080    0.348   31.117
  807.776   35.543    0.334   21.445
  808.596   37.176    0.311   18.162
  809.416   39.978    0.283   15.382
  810.236   53.456    0.259   15.126
  811.056   61.413    0.260   17.301
  811.877   68.581    0.262   17.673
  812.697   72.975    0.269   15.251
  813.517   73.846    0.272   12.908
  814.337   72.324    0.273   12.701
  815.157   71.590    0.292   14.536
  815.978   71.659    0.299   15.995
  816.798   69.728    0.295   17.944
  817.618   68.587    0.289   22.136
  818.438   66.670    0.299   24.818
  819.259   64.739    0.304   24.881
  820.079   62.047    0.300   25.913
  820.899   60.117    0.306   24.118
  821.719   57.805    0.313   27.023
  822.539   56.310    0.333   33.945
  823.360   56.732    0.342   50.475
  824.180   56.393    0.338   41.929
  825.000   55.292    0.341   31.734
  825.820   56.123    0.343   23.572
  826.640   55.783    0.343   23.223
  827.461   54.247    0.339   24.597
  828.281   47.597    0.336   26.579
  829.101   40.553    0.339   30.383
  829.921   35.876    0.333   32.852
  830.741   36.720    0.326   27.289
  831.562   36.380    0.316   27.876
  832.382   34.844    0.314   39.185
  833.202   31.758    0.348  151.920
  834.022   31.024    0.362  160.910
  834.843   33.065    0.345  190.958
  835.663   34.684    0.341  239.876
  836.483   38.683    0.337  144.896
  837.303   47.429    0.335   16.489
  838.123   58.935    0.330   12.240
  838.944   86.653    0.313    9.086
  839.764   87.103    0.296    9.819
  840.584   87.539    0.307   10.220
  841.404   87.213    0.303   11.057
  842.224   83.311    0.304   11.726
  843.045   79.013    0.300   12.205
  843.865   81.054    0.297   13.189
  844.685   88.603    0.297   14.242
  845.505   92.222    0.290   12.539
  846.325   91.896    0.291   12.793
  847.146   92.332    0.287   13.323
  847.966   94.753    0.279   12.170
  848.786   96.794    0.286   12.201
  849.606   94.483    0.288   12.232
  850.427   92.158    0.286   12.255
  851.247   90.255    0.279   12.772
  852.067   92.296    0.277   13.030
  852.887   89.168    0.285   12.829
  853.707   84.504    0.281   12.158
  854.528   83.757    0.277   13.138
  855.348   85.389    0.274   14.475
  856.168   83.867    0.283   13.463
  856.988   81.964    0.289   12.515
  857.808   79.639    0.285   13.034
  858.629   77.736    0.280   14.075
  859.449   78.594    0.277   14.111
  860.269   80.199    0.287   11.729
  861.089   83.042    0.294   12.439
  861.909   80.717    0.302   13.192
  862.730   78.800    0.307   13.226
  863.550   79.644    0.311   11.849
  864.370   81.277    0.309   12.112
  865.190   79.754    0.315   13.579
  866.010   73.105    0.314   16.135
  866.831   69.202    0.322   18.444
  867.651   62.158    0.319   21.874
  868.471   59.058    0.316   22.782
  869.291   57.141    0.315   22.854
  870.112   55.211    0.318   22.912
  870.932   55.660    0.314   22.956
  871.752   58.884    0.310   23.043
  872.572   58.151    0.303   23.073
  873.392   57.417    0.293   23.160
  874.213   59.852    0.298   22.759
  875.033   61.090    0.308   22.394
  875.853   62.723    0.319   22.034
  876.673   61.595    0.323   23.367
  877.493   62.045    0.322   30.474
  878.314   63.677    0.320   31.719
  879.134   66.113    0.316   24.461
  879.954   64.971    0.308   23.197
  880.774   61.082    0.300   22.400
  881.594   57.587    0.292   17.579
  882.415   57.262    0.288   13.313
  883.235   59.683    0.290   12.617
  884.055   59.344    0.283   10.679
  884.875   57.413    0.269   11.115
  885.696   54.313    0.234   18.845
  886.516   50.030    0.162   40.765
  887.336   46.522    0.135   85.043
  888.156   40.661    0.111   86.927
  888.976   34.011    0.067   88.684
  889.797   30.517    0.081   94.052
