~VERSION INFORMATION
 VERS.                 2.0:   CWLS LOG ASCII STANDARD -VERSION 2.0
 WRAP.                  NO:   ONE LINE PER DEPTH STEP
~WELL INFORMATION BLOCK
#MNEM.UNIT           DATA                    DESCRIPTION OF MNEMONIC
#---------    -------------------            -------------------------------
# Generated from Intellog Unique Number	CN_91_93/WELL/3023
WELL.         PETRO-CANADA                   : Well_name    - WELL
LOC .         AA/10-26-092-16W4/0            : Location     - LOCATION
UWI .         AA/10-26-092-16W400            : Uwi          - UNIQUE WELL ID
ENTR.         JOETTE                         : Entered      - ENTERED BY
SRVC.         SCHLUMBERGER                   : Scn          - SERVICE COMPANY
DATE.         04/09/92                       : Date         - LOG DATE
STRT.F        250                            : top_depth    - START DEPTH
STOP.F        710.138                        : bot_depth    - STOP DEPTH
STEP.F        0.82                           : increment    - STEP LENGTH
 NULL. -999.2500:NULL Value
~CURVE INFORMATION BLOCK
#MNEM UNIT       ERCB CURVE CODE    CURVE DESCRIPTION
#-----------   ------------------   ----------------------------------
DEPT.F        00 001 00 00         : DEPTH        - DEPTH
CALI.IN       00 280 01 00         : CAL          - CALIPER
GR  .API      00 310 00 00         : GR           - GAMMA RAY
NPHI.V/V      00 330 00 00         : PHIN         - NEUTRON POROSITY (SANDSTONE)
DPHI.V/V      00 890 00 00         : PHID         - DENSITY POROSITY (SANDSTONE)
ILD .OHMM     00 120 00 00         : RESD         - DEEP RESISTIVITY (DIL)
~PARAMETER INFORMATION
#MNEM.UNIT           DATA             DESCRIPTION OF MNEMONIC
#---------         -----------     ------------------------------
GL  .F        1562                 : gl           - GROUND LEVEL ELEVATION
EREF.F        1570                 : kb           - ELEVATION OF DEPTH REFERENCE
DATM.F        1570                 : datum        - DATUM ELEVATION
TDD .F        741                  : tdd          - TOTAL DEPTH DRILLER
RUN .         ONE                  : Run          - RUN NUMBER
ENG .         BILL                 : Engineer     - RECORDING ENGINEER
WIT .         JIM                  : Witness      - WITNESSED BY
MUD .         GEL                  : Mud_type     - MUD TYPE
MATR.         SANDSTONE            : Logunit      - NEUTRON MATRIX
TMAX.F        62                   : BHT          - MAXIMUM RECORDED TEMPERATURE
BHTD.F        741                  : BHTDEP       - MAXIMUM RECORDED TEMPERATURE
RMT .F        58                   : MDTP         - TEMPERATURE OF MUD
MUDD.LB/G     8.6                  : MWT          - MUD DENSITY
NEUT.         1                    : NEUTRON      - NEUTRON TYPE
RESI.         0                    : RESIST       - RESISTIVITY TYPE
RM  .OHMM     0.61                 : RM           - RESISTIVITY OF MUD
RMC .OHMM     0.61                 : RMC          - RESISTIVITY OF MUD CAKE
RMF .OHMM     0.61                 : RMF          - RESISTIVITY OF MUD FILTRATE
SUFT.F        39.2                 : SUFT         - SURFACE TEMPERATURE
~A  DEPTH      CAL       GR     PHIN     PHID     RESD
# ...
  609.252    6.274   87.094    0.375    0.160   11.699
  610.072    6.280   90.485    0.393    0.152   12.397
  610.892    6.268   97.775    0.399    0.185   12.755
  611.713    6.294   94.288    0.399    0.219   12.314
  612.533    6.320   92.894    0.399    0.226   11.997
  613.353    6.327   95.088    0.398    0.222   11.904
  614.173    6.336   96.411    0.399    0.220   12.027
  614.993    6.321   95.901    0.402    0.227   12.155
  615.814    6.308   94.806    0.397    0.212   12.397
  616.634    6.315   93.101    0.402    0.205   12.754
  617.454    6.301   89.315    0.411    0.207   13.370
  618.274    6.291   81.928    0.409    0.231   14.141
  619.094    6.295   72.136    0.393    0.240   14.957
  619.915    6.302   68.650    0.369    0.247   15.823
  620.735    6.309   68.165    0.380    0.271   16.587
  621.555    6.317   70.958    0.389    0.261   16.909
  622.375    6.342   74.660    0.388    0.251   17.090
  623.196    6.489   80.741    0.376    0.245   17.428
  624.016    6.575   77.852    0.362    0.232   18.266
  624.836    6.444   73.156    0.357    0.236   20.039
  625.656    6.389   74.753    0.352    0.245   22.801
  626.476    6.317   81.445    0.392    0.276   26.666
  627.297    6.264   83.365    0.401    0.263   28.729
  628.117    6.250   86.755    0.400    0.250   29.031
  628.937    6.258   91.342    0.400    0.244   28.538
  629.757    6.324   96.552    0.404    0.213   27.057
  630.577    6.330   90.946    0.407    0.210   25.648
  631.398    6.178   82.064    0.383    0.215   23.651
  632.218    6.164   77.992    0.369    0.223   21.814
  633.038    6.211   81.669    0.364    0.251   22.655
  633.858    6.297   91.662    0.359    0.253   23.103
  634.678    6.426  101.046    0.370    0.226   20.732
  635.499    6.333   98.755    0.383    0.243   18.775
  636.319    6.319   88.664    0.396    0.250   18.976
  637.139    6.306   75.895    0.398    0.260   20.817
  637.959    6.313   72.097    0.384    0.268   28.180
  638.780    6.321   72.211    0.362    0.242   29.272
  639.600    6.326   87.587    0.363    0.226   29.570
  640.420    6.332   92.484    0.385    0.223   27.527
  641.240    6.339   88.088    0.393    0.238   23.173
  642.060    6.347   83.691    0.395    0.238   20.985
  642.881    6.355   81.101    0.398    0.254   23.230
  643.701    6.362   76.119    0.403    0.269   28.697
  644.521    6.348   68.421    0.405    0.264   41.035
  645.341    6.316   60.748    0.402    0.281   57.615
  646.161    6.321   55.766    0.391    0.269   64.984
  646.982    6.327   55.854    0.392    0.290   59.915
  647.802    6.314   59.245    0.401    0.272   51.838
  648.622    6.321   69.239    0.387    0.256   45.262
  649.442    6.309   72.953    0.375    0.241   46.157
  650.262    6.314   75.434    0.371    0.226   47.077
  651.083    6.343   82.126    0.376    0.218   41.855
  651.903    6.368   91.808    0.373    0.214   33.047
  652.723    6.375   92.819    0.369    0.212   24.705
  653.543    6.364   84.834    0.368    0.226   24.742
  654.364    6.349   83.141    0.371    0.233   28.407
  655.184    6.316   83.242    0.373    0.231   30.605
  656.004    6.303   93.223    0.372    0.207   27.966
  656.824    6.310   99.019    0.369    0.182   19.974
  657.644    6.296  103.630    0.371    0.167   15.918
  658.465    6.304  104.915    0.375    0.187   15.505
  659.285    6.291   91.548    0.371    0.261   19.693
  660.105    6.258   82.952    0.368    0.295   23.883
  660.925    6.246   77.061    0.379    0.270   29.518
  661.745    6.246   77.760    0.392    0.265   29.518
  662.566    6.240   82.957    0.389    0.259   29.858
  663.386    6.224   87.855    0.385    0.252   32.463
  664.206    6.192   93.650    0.382    0.246   22.147
  665.026    6.178  100.342    0.380    0.240   18.477
  665.846    6.165  104.642    0.375    0.220   15.413
  666.667    6.151  105.640    0.369    0.188   15.149
  667.487    5.920  106.638    0.362    0.183   14.360
  668.307    5.985  101.656    0.357    0.270   13.863
  669.127    6.132   97.870    0.373    0.278   14.142
  669.948    6.079  107.552    0.387    0.267   15.369
  670.768    5.746  115.141    0.373    0.193   16.113
  671.588    5.714  106.559    0.369    0.238   15.409
  672.408    5.900   95.571    0.390    0.263   14.476
  673.228    6.127   85.493    0.389    0.278   15.032
  674.049    6.233   79.016    0.384    0.279   16.045
  674.869    6.261   79.105    0.379    0.290   15.490
  675.689    6.268   81.000    0.375    0.290   14.030
  676.509    6.275   82.609    0.371    0.272   13.177
  677.329    6.282   84.205    0.378    0.260   12.725
  678.150    6.288   86.711    0.383    0.251   12.622
  678.970    6.274   91.297    0.376    0.239   12.622
  679.790    6.281   99.784    0.364    0.210   12.657
  680.610    6.268  106.775    0.358    0.174   13.024
  681.430    6.275  107.486    0.354    0.179   13.407
  682.251    6.281  106.404    0.356    0.174   13.407
  683.071    6.288  110.380    0.360    0.180   13.693
  683.891    6.295  108.986    0.363    0.221   13.956
  684.711    6.323   99.207    0.384    0.237   13.979
  685.531    6.330   95.409    0.385    0.265   14.649
  686.352    6.336  111.694    0.382    0.268   15.783
  687.172    6.342  115.683    0.378    0.230   16.542
  687.992    6.350  122.973    0.372    0.217   16.564
  688.812    6.357  116.496    0.365    0.188   16.142
  689.633    6.383  105.521    0.349    0.167   15.722
  690.453    6.389   96.925    0.346    0.104   15.314
  691.273    6.398   86.549    0.340   -0.002   15.339
  692.093    6.423   81.255    0.324    0.003   15.339
  692.913    6.471   80.771    0.311    0.011   15.516
  693.734    6.497   82.055    0.296    0.017   16.411
  694.554    6.543   81.584    0.288    0.013   17.846
  695.374    6.551   81.659    0.298    0.013   19.049
  696.194    6.477   81.163    0.303    0.020   18.729
  697.014    6.384   79.769    0.303    0.020   16.805
  697.835    6.293   77.790    0.300    0.027   15.785
  698.655    6.278   75.810    0.282    0.021   17.798
  699.475    6.285   74.391    0.261    0.028   20.255
  700.295    6.292   72.412    0.255    0.033   21.819
  701.115    6.299   70.096    0.260    0.035   22.868
  701.936    6.325   71.106    0.258    0.026   22.694
  702.756    6.372   69.700    0.255    0.013   22.106
  703.576    6.381   73.402    0.250    0.011   21.344
  704.396    6.366   78.898    0.248    0.015   20.233
  705.217    6.354   82.587    0.293    0.035   19.526
  706.037    6.320   88.083    0.323    0.080   17.683
  706.857    6.288   98.987    0.348    0.082   15.582
  707.677    6.254  100.596    0.356    0.061   12.531
  708.497    6.220   98.279    0.360    0.045   10.742
  709.318    6.148   95.689    0.357    0.048   10.467
  710.138    6.156   98.183    0.342    0.043   12.019
