~VERSION INFORMATION
 VERS.                 2.0:   CWLS LOG ASCII STANDARD -VERSION 2.0
 WRAP.                  NO:   ONE LINE PER DEPTH STEP
~WELL INFORMATION BLOCK
#MNEM.UNIT           DATA                    DESCRIPTION OF MNEMONIC
#---------    -------------------            -------------------------------
# Generated from Intellog Unique Number	CN_94_101/WELL/5043
WELL.         14-35-100-13W4                 : Well_name    - WELL
LOC .         AA/14-35-100-13W4/0            : Location     - LOCATION
UWI .         AA/14-35-100-13W400            : Uwi          - UNIQUE WELL ID
ENTR.         TIM                            : Entered      - ENTERED BY
SRVC.         SCHLUMBERGER                   : Scn          - SERVICE COMPANY
DATE.         08/11/92                       : Date         - LOG DATE
STRT.M        350.52                         : top_depth    - START DEPTH
STOP.M        576.02                         : bot_depth    - STOP DEPTH
STEP.M        0.25                           : increment    - STEP LENGTH
 NULL. -999.2500:NULL Value
~CURVE INFORMATION BLOCK
#MNEM UNIT       ERCB CURVE CODE    CURVE DESCRIPTION
#-----------   ------------------   ----------------------------------
DEPT.M        00 001 00 00         : DEPTH        - DEPTH
GR  .API      00 310 00 00         : GR           - GAMMA RAY
ILD .OHMM     00 120 00 00         : RESD         - DEEP RESISTIVITY (DIL)
NPHI.V/V      00 330 00 00         : PHIN         - NEUTRON POROSITY (SANDSTONE)
~PARAMETER INFORMATION
#MNEM.UNIT           DATA             DESCRIPTION OF MNEMONIC
#---------         -----------     ------------------------------
GL  .M        784.555              : gl           - GROUND LEVEL ELEVATION
EREF.M        787.908              : kb           - ELEVATION OF DEPTH REFERENCE
DATM.M        787.908              : datum        - DATUM ELEVATION
TDD .M        577.596              : tdd          - TOTAL DEPTH DRILLER
RUN .         ONE                  : Run          - RUN NUMBER
ENG .         BILL                 : Engineer     - RECORDING ENGINEER
WIT .         JIM                  : Witness      - WITNESSED BY
MUD .         GEL                  : Mud_type     - MUD TYPE
MATR.         SANDSTONE            : Logunit      - NEUTRON MATRIX
TMAX.C        22.2222              : BHT          - MAXIMUM RECORDED TEMPERATURE
BHTD.M        577.596              : BHTDEP       - MAXIMUM RECORDED TEMPERATURE
RMT .C        22.2222              : MDTP         - TEMPERATURE OF MUD
MUDD.KG/M     9400                 : MWT          - MUD DENSITY
NEUT.         1                    : NEUTRON      - NEUTRON TYPE
RESI.         0                    : RESIST       - RESISTIVITY TYPE
RM  .OHMM     9                    : RM           - RESISTIVITY OF MUD
RMC .OHMM     9                    : RMC          - RESISTIVITY OF MUD CAKE
RMF .OHMM     9                    : RMF          - RESISTIVITY OF MUD FILTRATE
SUFT.C        4                    : SUFT         - SURFACE TEMPERATURE
~A  DEPTH       GR     RESD     PHIN
# ...
  459.020   81.035    3.508    0.422
  459.270   81.047    3.064    0.440
  459.520   81.058    2.782    0.445
  459.770   81.695    2.430    0.498
  460.020   82.326    2.123    0.536
  460.270   84.209    1.891    0.556
  460.520   85.466    1.684    0.560
  460.770   87.349    1.652    0.556
  461.020   87.983    1.591    0.551
  461.270   89.862    1.561    0.540
  461.520   92.365    1.502    0.528
  461.770   92.999    1.503    0.529
  462.020   91.762    1.625    0.529
  462.270   91.150    1.826    0.530
  462.520   90.541    2.052    0.522
  462.770   90.555    2.398    0.512
  463.020   92.441    2.856    0.499
  463.270   93.695    3.028    0.485
  463.520   94.323    3.275    0.470
  463.770   96.206    3.405    0.463
  464.020   96.840    3.611    0.460
  464.270   96.229    3.756    0.459
  464.520   95.622    3.831    0.457
  464.770   95.631    3.907    0.456
  465.020   95.019    4.064    0.452
  465.270   94.404    4.146    0.450
  465.520   93.796    4.229    0.446
  465.770   93.184    4.232    0.441
  466.020   93.198    4.233    0.439
  466.270   93.206    4.235    0.435
  466.520   92.597    4.319    0.437
  466.770   91.365    4.493    0.445
  467.020   90.748    4.764    0.457
  467.270   88.893    5.052    0.460
  467.520   88.907    5.357    0.458
  467.770   90.164    5.359    0.451
  468.020   88.929    5.260    0.443
  468.270   88.315    5.063    0.443
  468.520   88.331    5.064    0.447
  468.770   89.586    4.969    0.449
  469.020   91.471    4.783    0.455
  469.270   92.100    4.784    0.459
  469.520   90.865    4.696    0.460
  469.770   89.630    4.698    0.461
  470.020   92.762    4.609    0.459
  470.270   95.888    4.611    0.454
  470.520   95.276    4.615    0.448
  470.770   90.924    4.616    0.438
  471.020   85.954    4.710    0.429
  471.270   83.471    4.803    0.411
  471.520   80.367    5.094    0.381
  471.770   79.132    5.195    0.360
  472.020   77.278    5.404    0.353
  472.270   74.800    5.620    0.346
  472.520   72.942    5.846    0.330
  472.770   71.085    6.079    0.311
  473.020   69.847    6.200    0.272
  473.270   69.235    6.449    0.237
  473.520   72.984    6.452    0.213
  473.770   77.981    5.974    0.231
  474.020   82.353    5.019    0.300
  474.270   84.233    4.300    0.347
  474.520   87.362    3.756    0.378
  474.770   88.616    3.546    0.391
  475.020   88.633    3.348    0.424
  475.270   89.267    3.284    0.454
  475.520   89.901    3.162    0.463
  475.770   91.161    3.042    0.477
  476.020   91.789    2.928    0.481
  476.270   93.672    2.818    0.486
  476.520   94.929    2.609    0.490
  476.770   96.809    2.416    0.494
  477.020   98.066    2.280    0.496
  477.270  100.577    2.031    0.500
  477.520  101.832    1.740    0.503
  477.770  102.463    1.520    0.504
  478.020  102.471    1.463    0.503
  478.270  101.865    1.581    0.500
  478.520   99.385    1.743    0.493
  478.770   95.655    2.037    0.490
  479.020   93.798    2.522    0.481
  479.270   93.809    2.890    0.476
  479.520   93.820    3.186    0.474
  479.770   93.831    3.378    0.470
  480.020   93.225    3.582    0.467
  480.270   93.859    3.949    0.465
  480.520   93.870    4.107    0.467
  480.770   91.390    4.108    0.469
  481.020   89.532    4.111    0.471
  481.270   88.297    4.113    0.473
  481.520   87.688    4.036    0.475
  481.770   87.700    3.960    0.476
  482.020   87.711    3.961    0.477
  482.270   87.722    3.964    0.480
  482.520   87.736    3.966    0.482
  482.770   88.364    3.967    0.484
  483.020   89.001    3.893    0.484
  483.270   90.261    3.747    0.483
  483.520   90.895    3.606    0.482
  483.770   92.152    3.470    0.482
  484.020   92.786    3.276    0.489
  484.270   92.795    3.278    0.496
  484.520   93.431    3.279    0.501
  484.770   94.063    3.218    0.505
  485.020   94.077    3.158    0.508
  485.270   94.714    3.039    0.512
  485.520   95.350    2.925    0.514
  485.770   95.356    2.926    0.516
  486.020   94.744    2.872    0.514
  486.270   94.133    2.818    0.512
  486.520   93.529    2.765    0.509
  486.770   92.915    2.610    0.506
  487.020   92.300    2.512    0.501
  487.270   91.068    2.513    0.499
  487.520   89.833    2.514    0.501
  487.770   89.219    2.515    0.501
  488.020   89.230    2.468    0.502
  488.270   89.244    2.375    0.502
  488.520   89.255    2.243    0.499
  488.770   90.515    2.201    0.496
  489.020   91.146    2.201    0.494
  489.270   92.403    2.289    0.494
  489.520   94.286    2.573    0.496
  489.770   94.297    2.782    0.498
  490.020   93.062    3.127    0.500
  490.270   91.208    3.316    0.501
  490.520   89.350    3.516    0.504
  490.770   86.870    3.319    0.510
  491.020   85.009    2.899    0.513
  491.270   83.154    2.389    0.508
  491.520   81.299    1.858    0.512
  491.770   80.685    1.561    0.516
  492.020   78.833    1.364    0.526
  492.270   77.595    1.263    0.532
  492.520   76.981    1.169    0.537
  492.770   75.123    1.147    0.539
  493.020   72.642    1.148    0.534
  493.270   69.542    1.194    0.528
  493.520   65.818    1.266    0.523
  493.770   63.337    1.395    0.521
  494.020   59.608    1.599    0.508
  494.270   54.016    1.980    0.486
  494.520   49.041    2.313    0.449
  494.770   44.068    2.809    0.388
  495.020   39.719    3.478    0.351
  495.270   39.110    3.834    0.339
  495.520   41.613    3.912    0.342
  495.770   46.608    3.765    0.349
  496.020   45.996    3.840    0.349
  496.270   41.649    4.574    0.342
  496.520   45.395    5.343    0.333
  496.770   59.114    6.490    0.330
  497.020   66.600    6.247    0.359
  497.270   80.316    5.148    0.384
  497.520   89.671    3.851    0.428
  497.770   86.570    2.994    0.462
  498.020   84.090    2.374    0.496
  498.270   80.986    2.156    0.498
  498.520   81.620    2.075    0.491
  498.770   81.631    2.076    0.483
  499.020   82.266    2.077    0.482
  499.270   84.771    2.118    0.476
  499.520   86.651    2.161    0.474
  499.770   88.531    2.247    0.467
  500.020   89.791    2.384    0.464
  500.270   88.556    2.431    0.457
  500.520   86.076    2.480    0.448
  500.770   85.461    2.579    0.438
  501.020   87.344    2.843    0.411
  501.270   69.913    3.520    0.353
  501.520   47.498    5.292    0.292
  501.770   28.198    9.288    0.264
  502.020   20.111   13.697    0.244
  502.270   12.024   13.703    0.228
  502.520   13.282   13.710    0.248
  502.770   17.033   12.941    0.290
  503.020   18.290   11.303    0.287
  503.270   18.924    5.850    0.275
  503.520   20.181    4.916    0.268
  503.770   22.684    4.640    0.292
  504.020   25.187    4.554    0.312
  504.270   35.165    4.645    0.317
  504.520   42.652    5.120    0.330
  504.770   48.898    5.024    0.339
  505.020   50.155    4.304    0.340
  505.270   52.035    3.547    0.344
  505.520   57.027    3.040    0.351
  505.770   75.726    2.814    0.383
  506.020   84.464    2.708    0.437
  506.270   81.360    2.607    0.475
  506.520   79.500    2.764    0.476
  506.770   76.396    3.106    0.463
  507.020   73.293    3.773    0.440
  507.270   69.566    4.582    0.395
  507.520   65.217    5.458    0.361
  507.770   60.870    7.591    0.330
  508.020   55.278   10.978    0.327
  508.270   48.434   13.335    0.330
  508.520   38.481   13.600    0.331
  508.770   55.309   13.607    0.330
  509.020   60.306   14.428    0.323
  509.270   47.233   16.860    0.312
  509.520   41.014   18.946    0.284
  509.770   24.209   21.710    0.257
  510.020   19.237   24.879    0.258
  510.270   17.385   24.891    0.286
  510.520   15.527   24.902    0.310
  510.770   14.287   24.914    0.318
  511.020   13.052   25.416    0.322
  511.270   13.066   25.428    0.323
  511.520   13.703   24.472    0.326
  511.770   15.583   22.224    0.329
  512.020   16.837   20.178    0.329
  512.270   18.723   16.955    0.329
  512.520   19.974   14.810    0.329
  512.770   21.231   12.206    0.329
  513.020   29.343   10.060    0.331
