~VERSION INFORMATION
 VERS.                 2.0:   CWLS LOG ASCII STANDARD -VERSION 2.0
 WRAP.                  NO:   ONE LINE PER DEPTH STEP
~WELL INFORMATION BLOCK
#MNEM.UNIT           DATA                    DESCRIPTION OF MNEMONIC
#---------    -------------------            -------------------------------
# Generated from Intellog Unique Number	CN_91_93/WELL/2882
WELL.         10-11-092-17W4                 : Well_name    - WELL
LOC .         AA/10-11-092-17W4/0            : Location     - LOCATION
UWI .         AA/10-11-092-17W400            : Uwi          - UNIQUE WELL ID
ENTR.         JOETTE                         : Entered      - ENTERED BY
SRVC.         SCHLUMBERGER                   : Scn          - SERVICE COMPANY
DATE.         03/31/92                       : Date         - LOG DATE
STRT.M        30                             : top_depth    - START DEPTH
STOP.M        260                            : bot_depth    - STOP DEPTH
STEP.M        0.25                           : increment    - STEP LENGTH
 NULL. -999.2500:NULL Value
~CURVE INFORMATION BLOCK
#MNEM UNIT       ERCB CURVE CODE    CURVE DESCRIPTION
#-----------   ------------------   ----------------------------------
DEPT.M        00 001 00 00         : DEPTH        - DEPTH
CALI.MM       00 280 01 00         : CAL          - CALIPER
GR  .API      00 310 00 00         : GR           - GAMMA RAY
NPHI.V/V      00 330 00 00         : PHIN         - NEUTRON POROSITY (SANDSTONE)
DPHI.V/V      00 890 00 00         : PHID         - DENSITY POROSITY (SANDSTONE)
ILD .OHMM     00 120 00 00         : RESD         - DEEP RESISTIVITY (DIL)
~PARAMETER INFORMATION
#MNEM.UNIT           DATA             DESCRIPTION OF MNEMONIC
#---------         -----------     ------------------------------
GL  .M        502.2                : gl           - GROUND LEVEL ELEVATION
EREF.M        505.87               : kb           - ELEVATION OF DEPTH REFERENCE
DATM.M        505.87               : datum        - DATUM ELEVATION
TDD .M        263.3                : tdd          - TOTAL DEPTH DRILLER
RUN .         ONE                  : Run          - RUN NUMBER
ENG .         BILL                 : Engineer     - RECORDING ENGINEER
WIT .         JIM                  : Witness      - WITNESSED BY
MUD .         GEL                  : Mud_type     - MUD TYPE
MATR.         SANDSTONE            : Logunit      - NEUTRON MATRIX
TMAX.C        22                   : BHT          - MAXIMUM RECORDED TEMPERATURE
BHTD.M        263.3                : BHTDEP       - MAXIMUM RECORDED TEMPERATURE
RMT .C        22                   : MDTP         - TEMPERATURE OF MUD
MUDD.KG/M     1100                 : MWT          - MUD DENSITY
NEUT.         1                    : NEUTRON      - NEUTRON TYPE
RESI.         0                    : RESIST       - RESISTIVITY TYPE
RM  .OHMM     11.7                 : RM           - RESISTIVITY OF MUD
RMC .OHMM     11.7                 : RMC          - RESISTIVITY OF MUD CAKE
RMF .OHMM     11.7                 : RMF          - RESISTIVITY OF MUD FILTRATE
SUFT.C        4                    : SUFT         - SURFACE TEMPERATURE
~A  DEPTH      CAL       GR     PHIN     PHID     RESD
   30.000  189.206   60.462    0.611    0.199    1.272
   30.250  205.954   66.362    0.617    0.225    1.271
   30.500  245.436   68.705    0.541    0.260    1.368
   30.750  266.119   67.475    0.547    0.291    1.500
   31.000  267.047   65.679    0.558    0.308    2.613
   31.250  268.005   60.893    0.566    0.319    4.550
   31.500  267.930   58.504    0.572    0.314    8.377
   31.750  267.900   54.912    0.566    0.313   10.852
   32.000  268.828   51.922    0.537    0.320   30.585
   32.250  273.722   51.293    0.543    0.327   29.459
   32.500  283.555   53.628    0.575    0.333   13.528
   32.750  299.315   55.388    0.582    0.337   10.434
   33.000  296.307   58.315    0.598    0.337   11.229
   33.250  268.589   59.474    0.587    0.362   11.647
   33.500  237.907   61.818    0.571    0.352    7.890
   33.750  212.150   65.347    0.560    0.346    6.553
   34.000  213.108   71.830    0.566    0.351    5.861
   34.250  214.036   75.952    0.578    0.289    4.958
   34.500  214.948   80.074    0.589    0.294    4.865
   34.750  214.918   81.232    0.598    0.295    5.139
   35.000  214.918   77.047    0.585    0.284    5.635
   35.250  212.853   71.686    0.562    0.273    6.778
   35.500  211.820   66.298    0.524    0.271   10.180
   35.750  210.758   64.493    0.513    0.260   11.160
   36.000  210.728   63.281    0.516    0.265   12.236
   36.250  210.683   62.069    0.512    0.279   12.689
   36.500  213.586   59.662    0.497    0.285   11.349
   36.750  216.490   58.450    0.469    0.288   10.341
   37.000  217.448   57.238    0.463    0.291    9.078
   37.250  212.449   59.581    0.454    0.286    7.824
   37.500  205.489   62.518    0.443    0.238    7.128
   37.750  200.476   67.232    0.471    0.217    6.739
   38.000  204.397   70.169    0.474    0.234    6.254
   38.250  209.291   76.059    0.504    0.271    5.912
   38.500  210.204   79.580    0.589    0.280    5.802
   38.750  210.174   80.747    0.571    0.291    6.245
   39.000  211.117   82.489    0.535    0.294    7.237
   39.250  211.027   80.684    0.532    0.290    8.388
   39.500  212.973   75.314    0.567    0.298    9.722
   39.750  213.930   68.768    0.585    0.302   15.150
   40.000  224.736   60.434    0.565    0.290   22.756
   40.250  230.618   55.666    0.485    0.275   32.332
   40.500  227.610   47.333    0.425    0.300   38.174
   40.750  213.721   42.564    0.427    0.337   45.915
   41.000  204.771   36.593    0.444    0.356   49.411
   41.250  209.665   35.380    0.451    0.367   46.718
   41.500  213.571   34.752    0.445    0.359   42.559
   41.750  212.523   34.725    0.435    0.361   41.758
   42.000  209.515   34.698    0.423    0.363   45.777
   42.250  215.397   35.246    0.420    0.353   46.617
   42.500  227.205   35.811    0.423    0.342   46.578
   42.750  225.170   35.802    0.436    0.332   46.555
   43.000  217.208   36.952    0.442    0.340   45.663
   43.250  215.187   38.101    0.443    0.346   45.648
   43.500  215.112   38.667    0.452    0.347   45.625
   43.750  216.070   40.409    0.455    0.340   45.594
   44.000  216.998   40.984    0.450    0.333   46.423
   44.250  216.968   42.133    0.436    0.333   45.556
   44.500  213.945   43.291    0.421    0.339   45.511
   44.750  208.961   43.839    0.432    0.344   45.488
   45.000  205.953   44.414    0.443    0.337   45.473
   45.250  204.905   44.962    0.468    0.321   46.291
   45.500  205.848   45.536    0.468    0.335   46.276
   45.750  206.776   46.084    0.456    0.342   46.245
   46.000  205.728   46.066    0.457    0.343   46.222
   46.250  205.698   46.048    0.464    0.341   47.941
   46.500  202.675   45.420    0.466    0.343   50.637
   46.750  199.652   45.393    0.451    0.353   50.620
   47.000  199.622   44.764    0.446    0.344   48.748
   47.250  201.523   45.312    0.460    0.324   47.814
   47.500  202.480   45.294    0.474    0.275   48.699
   47.750  200.445   45.869    0.488    0.262   48.674
   48.000  200.385   47.611    0.473    0.292   44.334
   48.250  204.306   50.538    0.460    0.301   45.148
   48.500  211.161   51.706    0.463    0.299   49.485
   48.750  215.037   54.040    0.476    0.322   51.317
   49.000  215.022   54.588    0.477    0.359   52.250
   49.250  212.987   54.579    0.457    0.359   52.232
   49.500  210.966   53.349    0.443    0.369   51.248
   49.750  215.860   54.516    0.431    0.360   50.267
   50.000  219.752   57.453    0.425    0.358   50.250
   50.250  218.719   59.787    0.435    0.349   50.216
   50.500  213.720   58.575    0.445    0.346   50.200
   50.750  209.709   50.834    0.440    0.356   50.166
   51.000  208.691   49.020    0.429    0.356   50.141
   51.250  206.656   48.975    0.422    0.337   51.052
   51.500  206.581   49.550    0.432    0.327   51.018
   51.750  206.536   49.523    0.454    0.329   50.993
   52.000  206.506   49.487    0.452    0.331   50.950
   52.250  209.410   50.655    0.448    0.335   50.925
   52.500  211.355   57.740    0.448    0.338   51.859
   52.750  217.222   60.667    0.448    0.340   52.792
   53.000  198.409   64.187    0.454    0.339   52.766
   53.250  199.307   62.392    0.460    0.341   53.707
   53.500  199.277   57.022    0.455    0.345   53.689
   53.750  199.247   55.217    0.449    0.347   53.662
   54.000  199.187   56.968    0.453    0.352   53.636
   54.250  198.140   59.895    0.460    0.360   54.592
   54.500  197.107   63.415    0.466    0.349   54.565
   54.750  196.059   66.953    0.470    0.330   54.538
   55.000  196.029   63.954    0.473    0.329   53.501
   55.250  193.964   61.556    0.478    0.325   53.475
   55.500  193.919   65.076    0.480    0.329   52.450
   55.750  193.889   68.597    0.476    0.338   52.424
   56.000  194.817   66.800    0.478    0.350   52.389
   56.250  194.817   60.245    0.467    0.350   52.362
   56.500  196.718   59.033    0.464    0.353   52.345
   56.750  196.643   61.969    0.467    0.358   52.319
   57.000  197.586   67.860    0.462    0.355   52.275
   57.250  196.553   71.982    0.459    0.357   51.291
   57.500  196.553   70.769    0.465    0.352   50.325
   57.750  194.488   60.066    0.482    0.351   49.377
   58.000  192.422   55.890    0.500    0.334   49.352
   58.250  191.390   54.076    0.471    0.337   46.647
   58.500  191.360   54.049    0.458    0.340   46.631
   58.750  192.287   54.597    0.449    0.340   45.753
   59.000  194.218   55.764    0.455    0.319   44.061
   59.250  196.119   56.922    0.463    0.322   44.046
   59.500  197.077   55.108    0.475    0.333   42.417
   59.750  197.032   53.887    0.484    0.344   42.417
   60.000  198.933   54.462    0.498    0.340   40.834
   60.250  199.890   55.010    0.503    0.334   40.058
   60.500  204.799   54.390    0.484    0.340   39.304
   60.750  205.727   53.187    0.453    0.343   37.844
   61.000  201.716   49.586    0.455    0.338   37.137
   61.250  198.723   47.772    0.461    0.339   37.118
   61.500  193.694   47.161    0.465    0.338   35.733
   61.750  193.679   47.125    0.461    0.316   35.066
   62.000  194.592   47.700    0.455    0.312   34.406
   62.250  195.550   47.655    0.453    0.290   33.758
   62.500  195.490   47.637    0.461    0.292   33.111
   62.750  195.430   48.778    0.462    0.346   32.493
   63.000  196.373   49.343    0.452    0.337   32.477
   63.250  197.331   50.502    0.437    0.339   32.455
   63.500  200.234   51.660    0.436    0.348   33.050
   63.750  206.116   54.596    0.437    0.351   34.909
   64.000  217.925   58.117    0.440    0.358   34.257
   64.250  229.733   60.469    0.446    0.355   29.521
   64.500  244.505   66.360    0.460    0.345   22.352
   64.750  245.433   69.296    0.471    0.332   14.864
   65.000  217.715   74.011    0.499    0.327    9.887
   65.250  208.750   76.938    0.520    0.316    7.485
   65.500  209.708   77.504    0.526    0.298    6.102
   65.750  212.612   78.662    0.524    0.282    5.162
   66.000  214.557   79.794    0.540    0.280    4.790
   66.250  216.488   80.369    0.551    0.267    4.614
