~VERSION INFORMATION
 VERS.                 2.0:   CWLS LOG ASCII STANDARD -VERSION 2.0
 WRAP.                  NO:   ONE LINE PER DEPTH STEP
~WELL INFORMATION BLOCK
#MNEM.UNIT           DATA                    DESCRIPTION OF MNEMONIC
#---------    -------------------            -------------------------------
# Generated from Intellog Unique Number	CN_94_101/WELL/5049
WELL.         15-24-097-08W4                 : Well_name    - WELL
LOC .         AA/15-24-097-08W4/0            : Location     - LOCATION
UWI .         AA/15-24-097-08W400            : Uwi          - UNIQUE WELL ID
ENTR.         T                              : Entered      - ENTERED BY
SRVC.         SCHLUMBERGER                   : Scn          - SERVICE COMPANY
DATE.         08/11/92                       : Date         - LOG DATE
STRT.M        0                              : top_depth    - START DEPTH
STOP.M        61                             : bot_depth    - STOP DEPTH
STEP.M        0.25                           : increment    - STEP LENGTH
 NULL. -999.2500:NULL Value
~CURVE INFORMATION BLOCK
#MNEM UNIT       ERCB CURVE CODE    CURVE DESCRIPTION
#-----------   ------------------   ----------------------------------
DEPT.M        00 001 00 00         : DEPTH        - DEPTH
GR  .API      00 310 00 00         : GR           - GAMMA RAY
ILD .OHMM     00 120 00 00         : RESD         - DEEP RESISTIVITY (DIL)
RHOB.KG/M3    00 350 00 00         : DENS         - BULK DENSITY
DPHI.V/V      00 890 00 00         : PHID         - DENSITY POROSITY (SANDSTONE)
~PARAMETER INFORMATION
#MNEM.UNIT           DATA             DESCRIPTION OF MNEMONIC
#---------         -----------     ------------------------------
GL  .M        296.936              : gl           - GROUND LEVEL ELEVATION
EREF.M        296.936              : kb           - ELEVATION OF DEPTH REFERENCE
DATM.M        296.936              : datum        - DATUM ELEVATION
TDD .M        61.2648              : tdd          - TOTAL DEPTH DRILLER
RUN .         ONE                  : Run          - RUN NUMBER
ENG .         BILL                 : Engineer     - RECORDING ENGINEER
WIT .         JIM                  : Witness      - WITNESSED BY
MUD .         GEL                  : Mud_type     - MUD TYPE
MATR.         SANDSTONE            : Logunit      - NEUTRON MATRIX
TMAX.C        10                   : BHT          - MAXIMUM RECORDED TEMPERATURE
BHTD.M        61.2648              : BHTDEP       - MAXIMUM RECORDED TEMPERATURE
RMT .C        10                   : MDTP         - TEMPERATURE OF MUD
MUDD.KG/M     1090                 : MWT          - MUD DENSITY
NEUT.         1                    : NEUTRON      - NEUTRON TYPE
RESI.         0                    : RESIST       - RESISTIVITY TYPE
RM  .OHMM     13.1                 : RM           - RESISTIVITY OF MUD
RMC .OHMM     13.1                 : RMC          - RESISTIVITY OF MUD CAKE
RMF .OHMM     13.1                 : RMF          - RESISTIVITY OF MUD FILTRATE
SUFT.C        4                    : SUFT         - SURFACE TEMPERATURE
~A  DEPTH       GR     RESD     DENS     PHID
    0.000    4.382    1.289 2055.300    0.360
    0.250    5.968    1.254 2051.080    0.363
    0.500    8.750    1.219 2050.800    0.363
    0.750   11.930    1.154 2054.480    0.361
    1.000   16.306    1.092 2064.010    0.355
    1.250   17.890    1.062 2275.410    0.227
    1.500   17.882    1.005 2364.090    0.173
    1.750   17.874    0.978 2464.680    0.112
    2.000   17.468    0.977 2729.340   -0.048
    2.250   14.271    0.977 2764.620   -0.069
    2.500   17.451    0.977 2766.320   -0.070
    2.750   21.030    0.976 2771.970   -0.074
    3.000   23.015    1.003 2773.670   -0.075
    3.250   20.213    1.003 2727.900   -0.047
    3.500   20.209    1.059 2707.880   -0.035
    3.750   20.996    1.058 2766.920   -0.071
    4.000   21.389    1.058 2885.220   -0.143
    4.250   22.574    1.058 2859.270   -0.127
    4.500   22.564    1.057 2811.530   -0.098
    4.750   22.157    1.028 2807.300   -0.095
    5.000   21.751    1.028 2816.900   -0.101
    5.250   21.743    1.000 2830.380   -0.109
    5.500   21.338    0.999 2830.180   -0.109
    5.750   19.736    0.999 2827.790   -0.108
    6.000   18.931    0.972 2821.590   -0.104
    6.250   17.725    0.971 2815.390   -0.100
    6.500   17.316    0.971 2807.220   -0.095
    6.750   16.910    0.944 2802.990   -0.093
    7.000   16.901    0.918 2798.770   -0.090
    7.250   17.692    0.918 2798.490   -0.090
    7.500   18.083    0.893 2806.120   -0.095
    7.750   17.674    0.893 2793.790   -0.087
    8.000   17.666    0.892 2793.650   -0.087
    8.250   18.455    0.892 2793.370   -0.087
    8.500   19.643    0.942 2791.120   -0.086
    8.750   21.628    1.205 2786.900   -0.083
    9.000   23.214   11.090 2778.590   -0.078
    9.250   27.191   29.732 2762.580   -0.068
    9.500   31.567    8.900 2726.690   -0.046
    9.750   53.479    3.804 2674.990   -0.015
   10.000   63.036    2.813 2320.760    0.200
   10.250   68.210    2.590 2207.770    0.268
   10.500   68.999    2.451 2160.020    0.297
   10.750   65.005    2.450 2213.080    0.265
   11.000   59.816    2.733 2262.250    0.235
   11.250   50.639    3.133 2281.720    0.223
   11.500   41.066    4.009 2243.850    0.246
   11.750   33.884    7.950 2198.080    0.274
   12.000   27.499  113.408 2166.210    0.293
   12.250   20.715  265.115 2072.970    0.350
   12.500   21.504  265.023 2088.490    0.340
   12.750   29.067  264.908 2101.970    0.332
   13.000   29.856  230.906 2107.690    0.329
   13.250   28.253  185.401 2144.950    0.306
   13.500   27.050  190.485 2148.620    0.304
   13.750   25.049  190.419 2140.450    0.309
   14.000   23.845   60.209 2128.250    0.316
   14.250   23.439   53.940 2116.130    0.324
   14.500   23.032  243.405 2113.810    0.325
   14.750   23.420  236.743 2123.480    0.319
   15.000   24.207  184.933 2125.110    0.318
   15.250   24.998   79.053 2126.810    0.317
   15.500   27.780   24.994 2138.450    0.310
   15.750   34.149   15.682 2153.980    0.301
   16.000   41.315   11.919 2139.880    0.309
   16.250   45.691    3.667 2137.560    0.311
   16.500   50.067    2.178 2155.130    0.300
   16.750   55.639    2.364 2222.080    0.259
   17.000   56.029    2.785 2292.980    0.216
   17.250   55.618    3.193 2344.050    0.185
   17.500   54.020    3.465 2363.600    0.174
   17.750   50.822    3.464 2381.100    0.163
   18.000   46.828    3.369 2353.110    0.180
   18.250   45.624    3.656 2285.470    0.221
   18.500   43.623    3.968 2299.160    0.213
   18.750   42.021    3.555 2300.790    0.212
   19.000   40.417    3.858 2280.770    0.224
   19.250   38.017    5.660 2254.750    0.240
   19.500   34.422   21.671 2250.450    0.242
   19.750   31.226   29.282 2236.420    0.251
   20.000   28.029   21.655 2216.330    0.263
   20.250   24.034    8.072 2202.160    0.271
   20.500   26.419    4.927 2176.210    0.287
   20.750   31.590    4.294 2158.160    0.298
   21.000   33.178    4.293 2147.940    0.304
   21.250   34.362    4.533 2165.510    0.294
   21.500   32.361    9.240 2222.510    0.259
   21.750   31.159   15.979 2251.930    0.241
   22.000   29.158   20.442 2267.460    0.232
   22.250   26.757   22.185 2263.230    0.234
   22.500   25.157   16.862 2233.260    0.253
   22.750   23.156   20.988 2149.900    0.303
   23.000   25.537   24.730 2201.040    0.272
   23.250   28.718   13.162 2208.670    0.267
   23.500   28.707    4.773 2151.050    0.302
   23.750   30.296    3.530 2196.270    0.275
   24.000   36.266    4.275 2257.220    0.238
   24.250   38.248    4.273 2328.190    0.195
   24.500   38.639    3.934 2209.200    0.267
   24.750   40.626    3.623 2199.050    0.273
   25.000   43.009    3.245 2260.070    0.236
   25.250   46.588    2.828 2265.730    0.233
   25.500   47.373    2.987 2277.160    0.226
   25.750   46.569    3.424 2267.080    0.232
   26.000   44.967    3.926 2268.780    0.231
   26.250   43.365    4.260 2288.330    0.219
   26.500   42.157    4.377 2307.800    0.207
   26.750   42.153    4.497 2224.440    0.258
   27.000   42.145    4.141 2226.140    0.257
   27.250   42.137    3.812 2267.340    0.232
   27.500   40.929    4.252 2241.390    0.248
   27.750   40.126    4.616 2213.330    0.265
   28.000   38.123    5.149 2254.670    0.240
   28.250   35.325    6.409 2297.840    0.213
   28.500   31.732    7.551 2309.350    0.206
   28.750   26.942    9.144 2301.180    0.211
   29.000   22.944    9.924 2294.980    0.215
   29.250   21.740    6.227 2276.860    0.226
   29.500   21.336    4.015 2294.430    0.215
   29.750   21.726    4.357 2304.100    0.210
   30.000   24.508    5.888 2291.830    0.217
   30.250   22.507    9.125 2317.300    0.202
   30.500   18.511   16.218 2336.850    0.190
   30.750   15.713   28.826 2354.350    0.179
   31.000   14.111   28.816 2338.210    0.189
   31.250   14.900   16.651 2327.920    0.195
   31.500   17.284    9.621 2319.810    0.200
   31.750   17.672   12.650 2307.550    0.208
   32.000   16.470   13.728 2303.460    0.210
   32.250   15.267   13.725 2295.220    0.215
   32.500   14.461   13.720 2300.940    0.212
   32.750   14.850   14.890 2310.540    0.206
   33.000   15.639   24.377 2302.230    0.211
   33.250   16.426   38.828 2309.780    0.206
   33.500   15.222   56.965 2313.600    0.204
   33.750   14.419  126.066 2315.300    0.203
   34.000   12.020  161.257 2317.000    0.202
   34.250   10.816  140.548 2308.820    0.207
   34.500   10.409  129.410 2268.980    0.231
   34.750   10.397  144.352 2223.210    0.259
   35.000   10.391  152.444 2232.740    0.253
   35.250   10.781  170.045 2236.410    0.251
   35.500   10.773  169.986 2242.060    0.247
   35.750   11.562  169.927 2253.710    0.240
   36.000   12.349  189.547 2269.230    0.231
   36.250   12.740  217.287 2272.840    0.229
   36.500   12.333  256.007 2274.540    0.228
   36.750   11.925  301.654 2268.340    0.231
   37.000   11.520  277.774 2262.140    0.235
   37.250   11.512  205.412 2259.890    0.236
   37.500   11.900   97.980 2255.670    0.239
   37.750   12.289   74.469 2245.450    0.245
   38.000   11.886   39.633 2241.160    0.248
   38.250   11.878   31.819 2234.960    0.252
   38.500   14.660   56.554 2222.830    0.259
   38.750   12.255  204.964 2196.880    0.275
   39.000   10.654  255.116 2151.110    0.302
   39.250    9.451  364.170 2117.190    0.323
   39.500    9.044  478.813 2087.220    0.341
   39.750    9.038  579.861 2160.160    0.297
   40.000    9.825  629.327 2238.960    0.249
   40.250   10.616  247.787 2276.210    0.227
   40.500   11.405   53.380 2273.890    0.228
   40.750   13.784   38.410 2287.510    0.220
   41.000   15.368   21.012 2318.910    0.201
   41.250   17.357   14.710 2308.620    0.207
   41.500   22.929    7.829 2296.490    0.214
   41.750   39.261    2.999 2310.050    0.206
   42.000   60.376    2.543 2341.440    0.187
   42.250   59.172    2.760 2384.690    0.161
   42.500   54.382    2.759 2382.440    0.162
   42.750   49.990    2.541 2354.440    0.179
   43.000   64.329    2.040 2338.370    0.189
   43.250   70.698    1.878 2421.120    0.139
