~VERSION INFORMATION
 VERS.                 2.0:   CWLS LOG ASCII STANDARD -VERSION 2.0
 WRAP.                  NO:   ONE LINE PER DEPTH STEP
~WELL INFORMATION BLOCK
#MNEM.UNIT           DATA                    DESCRIPTION OF MNEMONIC
#---------    -------------------            -------------------------------
# Generated from Intellog Unique Number	CW_82_90/WELL/875
WELL.         PHILLIPS ET AK GRABIR IV 10-17 : Well_name    - WELL
LOC .         AA/10-17-084-19W4/0            : Location     - LOCATION
UWI .         AA/10-17-084-19W400            : Uwi          - UNIQUE WELL ID
ENTR.         JAYE                           : Entered      - ENTERED BY
SRVC.         SCHLUMBERGER                   : Scn          - SERVICE COMPANY
DATE.         2 MAR 81                       : Date         - LOG DATE
STRT.M        200                            : top_depth    - START DEPTH
STOP.M        365                            : bot_depth    - STOP DEPTH
STEP.M        0.25                           : increment    - STEP LENGTH
 NULL. -999.2500:NULL Value
~CURVE INFORMATION BLOCK
#MNEM UNIT       ERCB CURVE CODE    CURVE DESCRIPTION
#-----------   ------------------   ----------------------------------
DEPT.M        00 001 00 00         : DEPTH        - DEPTH
CALI.MM       00 280 01 00         : CAL          - CALIPER
GR  .API      00 310 00 00         : GR           - GAMMA RAY
DPHI.V/V      00 890 00 00         : PHID         - DENSITY POROSITY (SANDSTONE)
NPHI.V/V      00 330 00 00         : PHIN         - NEUTRON POROSITY (SANDSTONE)
ILD .OHMM     00 120 00 00         : RESD         - DEEP RESISTIVITY (DIL)
~PARAMETER INFORMATION
#MNEM.UNIT           DATA             DESCRIPTION OF MNEMONIC
#---------         -----------     ------------------------------
GL  .M        613                  : gl           - GROUND LEVEL ELEVATION
EREF.M        615.82               : kb           - ELEVATION OF DEPTH REFERENCE
DATM.M        613                  : datum        - DATUM ELEVATION
TDD .M        373                  : tdd          - TOTAL DEPTH DRILLER
RUN .         ONE                  : Run          - RUN NUMBER
ENG .         ISBISTER             : Engineer     - RECORDING ENGINEER
WIT .         THOMAS               : Witness      - WITNESSED BY
BASE.         EDMONTON             : Branch       - HOME BASE OF LOGGING UNIT
MUD .         GEL MUD              : Mud_type     - MUD TYPE
MATR.         SANDSTONE            : Logunit      - NEUTRON MATRIX
TMAX.C        20                   : BHT          - MAXIMUM RECORDED TEMPERATURE
BHTD.M        373                  : BHTDEP       - MAXIMUM RECORDED TEMPERATURE
RMT .C        14                   : MDTP         - TEMPERATURE OF MUD
MUDD.KG/M     1000                 : MWT          - MUD DENSITY
NEUT.         1                    : NEUTRON      - NEUTRON TYPE
RESI.         0                    : RESIST       - RESISTIVITY TYPE
RM  .OHMM     2.6                  : RM           - RESISTIVITY OF MUD
RMC .OHMM     0                    : RMC          - RESISTIVITY OF MUD CAKE
RMF .OHMM     2.11                 : RMF          - RESISTIVITY OF MUD FILTRATE
SUFT.C        0                    : SUFT         - SURFACE TEMPERATURE
~A  DEPTH      CAL       GR     PHID     PHIN     RESD
  200.000  245.324   39.962    0.353    0.483   48.358
  200.250  246.139   41.824    0.357    0.485   47.214
  200.500  245.918   42.626    0.354    0.471   45.917
  200.750  245.901   42.181    0.351    0.456   46.340
  201.000  246.095   43.233    0.352    0.474   46.547
  201.250  246.600   43.412    0.354    0.482   45.738
  201.500  248.038   42.591    0.358    0.473   44.927
  201.750  249.690   42.149    0.361    0.471   43.077
  202.000  252.168   41.017    0.357    0.470   42.236
  202.250  254.130   39.826    0.347    0.475   41.840
  202.500  257.127   37.822    0.344    0.468   41.788
  202.750  263.453   35.569    0.342    0.490   41.550
  203.000  269.882   34.190    0.345    0.508   41.321
  203.250  274.022   33.994    0.358    0.528   40.771
  203.500  274.112   33.922    0.354    0.522   40.625
  203.750  281.268   34.289    0.348    0.505   40.827
  204.000  286.034   35.778    0.354    0.489   41.103
  204.250  286.435   36.954    0.348    0.515   41.382
  204.500  284.650   35.759    0.355    0.532   40.909
  204.750  289.109   35.566    0.348    0.552   40.441
  205.000  302.394   36.680    0.338    0.559   40.225
  205.250  327.110   36.859    0.337    0.568   40.246
  205.500  334.057   36.351    0.344    0.578   40.031
  205.750  309.209   36.655    0.377    0.587   39.732
  206.000  305.350   37.022    0.357    0.614   39.596
  206.250  308.972   37.137    0.357    0.570   39.461
  206.500  287.137   37.939    0.345    0.574   39.332
  206.750  247.431   39.864    0.326    0.514   39.277
  207.000  237.336   42.163    0.344    0.489   38.359
  207.250  236.804   43.526    0.351    0.483   37.525
  207.500  236.581   43.581    0.344    0.472   36.792
  207.750  236.356   43.135    0.329    0.474   35.134
  208.000  236.656   44.499    0.324    0.470   33.541
  208.250  236.745   46.236    0.332    0.471   29.995
  208.500  237.043   48.535    0.339    0.471   20.442
  208.750  238.690   53.390    0.352    0.470   12.838
  209.000  240.548   58.307    0.356    0.463    8.417
  209.250  246.663   63.286    0.361    0.476    6.564
  209.500  262.236   65.585    0.397    0.521    5.205
  209.750  273.651   64.579    0.412    0.554    4.789
  210.000  273.118   63.510    0.428    0.570    4.687
  210.250  255.751   59.823    0.439    0.557    4.777
  210.500  261.555   57.136    0.461    0.554    4.979
  210.750  271.724   53.823    0.516    0.582    5.575
  211.000  300.596   52.193    0.559    0.602    6.281
  211.250  311.907   53.993    0.550    0.618    7.356
  211.500  305.451   54.297    0.506    0.636    8.581
  211.750  360.715   54.475    0.551    0.627    9.453
  212.000  316.851   56.088    0.507    0.615   10.370
  212.250  291.484   57.763    0.515    0.610   11.077
  212.500  320.771   60.062    0.535    0.623   12.005
  212.750  353.175   62.546    0.485    0.638   12.772
  213.000  371.033   64.410    0.393    0.596   13.645
  213.250  284.463   65.462    0.330    0.549   14.790
  213.500  264.293   66.450    0.301    0.489   15.479
  213.750  243.599   67.315    0.276    0.481   16.570
  214.000  239.013   63.941    0.273    0.472   17.628
  214.250  239.413   58.258    0.262    0.458   19.183
  214.500  242.204   51.455    0.251    0.469   20.789
  214.750  245.098   46.584    0.283    0.470   22.624
  215.000  246.542   43.895    0.252    0.455   23.677
  215.250  247.566   43.886    0.260    0.451   25.506
  215.500  247.238   44.128    0.275    0.445   27.083
  215.750  247.225   42.748    0.276    0.445   28.520
  216.000  246.899   42.926    0.276    0.439   30.721
  216.250  246.260   43.605    0.281    0.430   32.614
  216.500  245.934   43.597    0.288    0.419   34.842
  216.750  246.027   41.967    0.288    0.424   37.148
  217.000  245.906   40.276    0.285    0.440   39.122
  217.250  246.099   41.327    0.295    0.450   40.697
  217.500  246.605   43.064    0.312    0.452   42.864
  217.750  247.942   43.305    0.321    0.461   44.494
  218.000  250.213   42.798    0.327    0.474   46.862
  218.250  251.655   41.356    0.332    0.490   48.957
  218.500  252.056   40.537    0.330    0.486   50.614
  218.750  252.250   40.157    0.323    0.469   52.658
  219.000  253.067   39.960    0.321    0.461   54.672
  219.250  253.779   39.828    0.339    0.475   56.177
  219.500  252.310   39.881    0.343    0.468   58.084
  219.750  250.841   39.935    0.340    0.481   60.051
  220.000  249.683   39.926    0.336    0.492   62.224
  220.250  250.085   39.484    0.349    0.496   64.071
  220.500  254.851   38.539    0.330    0.499   66.516
  220.750  261.487   39.342    0.332    0.523   70.808
  221.000  268.122   39.583    0.354    0.516   71.401
  221.250  275.901   39.887    0.354    0.492   74.592
  221.500  281.082   40.938    0.352    0.494   77.620
  221.750  284.809   40.119    0.353    0.509   78.772
  222.000  287.598   38.615    0.353    0.519   79.945
  222.250  289.039   38.046    0.354    0.503   79.945
  222.500  289.544   38.286    0.359    0.494   76.258
  222.750  289.322   38.839    0.358    0.486   71.460
  223.000  288.478   40.015    0.363    0.496   64.700
  223.250  287.320   40.568    0.358    0.513   60.517
  223.500  285.642   40.000    0.347    0.515   54.915
  223.750  283.240   39.430    0.335    0.505   52.312
  224.000  279.066   40.482    0.329    0.504   49.234
  224.250  275.000   40.911    0.330    0.489   43.674
  224.500  271.247   40.902    0.335    0.479   35.922
  224.750  267.076   42.079    0.340    0.475   26.783
  225.000  261.762   42.693    0.341    0.480   20.891
  225.250  256.761   43.620    0.335    0.483   20.948
  225.500  251.031   45.233    0.335    0.507   22.380
  225.750  245.925   46.597    0.345    0.501   24.752
  226.000  241.443   47.148    0.344    0.489   30.014
  226.250  237.793   47.266    0.354    0.479   40.720
  226.500  232.687   47.009    0.364    0.497   54.354
  226.750  224.984   47.063    0.351    0.522   61.239
  227.000  209.591   47.054    0.338    0.536   59.794
  227.250  192.432   45.425    0.338    0.531   61.079
  227.500  128.827   46.352    0.325    0.518   62.513
  227.750  124.758   47.215    0.326    0.506   61.159
  228.000  125.471   47.956    0.356    0.494   55.939
  228.250  129.511   46.951    0.360    0.477   51.269
  228.500  140.406   45.198    0.337    0.472   48.455
  228.750  156.706   44.565    0.339    0.488   46.639
  229.000  183.706   44.744    0.344    0.497   45.086
  229.250  192.316   45.048    0.348    0.479   44.659
  229.500  203.941   44.728    0.354    0.469   44.592
  229.750  219.200   44.844    0.360    0.466   44.814
  230.000  236.851   45.646    0.367    0.474   44.656
  230.250  239.742   46.385    0.364    0.481   44.416
  230.500  237.547   46.379    0.367    0.478   44.443
  230.750  235.143   46.432    0.353    0.466   43.844
  231.000  234.195   48.108    0.342    0.457   42.903
  231.250  233.764   48.971    0.341    0.471   41.299
  231.500  234.164   46.968    0.343    0.483   40.407
  231.750  235.501   45.963    0.353    0.483   39.779
  232.000  237.046   46.204    0.358    0.473   39.401
  232.250  239.215   46.943    0.343    0.468   39.111
  232.500  240.342   47.746    0.347    0.469   38.663
  232.750  241.262   48.424    0.347    0.475   38.379
  233.000  242.183   53.153    0.343    0.480   38.088
  233.250  244.040   54.517    0.347    0.491   38.035
  233.500  245.897   54.509    0.346    0.507   37.832
  233.750  243.805   50.947    0.333    0.525   37.778
  234.000  239.113   48.944    0.361    0.529   37.498
  234.250  238.788   49.434    0.348    0.507   37.217
  234.500  239.191   50.049    0.346    0.488   36.866
  234.750  240.525   49.356    0.345    0.490   36.965
  235.000  242.171   49.223    0.342    0.495   37.073
  235.250  242.472   52.206    0.351    0.493   37.169
  235.500  241.626   54.131    0.353    0.483   37.043
  235.750  240.053   54.310    0.341    0.505   36.469
  236.000  237.234   50.749    0.307    0.507   35.687
  236.250  234.207   49.681    0.300    0.496   34.847
