~Version : LASO    vs 4.00
VERS.                2.00:   CWLS Log ASCII Standard -VERSION 2.0
WRAP.                  NO:
~Well Information Block
#MNEM.UNIT       Data                        Description of Mnemonic
#----.----      -------------------------- : -----------------------------
STRT.M            15.0000:
STOP.M           203.4000:
STEP.M             0.1000:
NULL.           -999.2500:
COMP.  MOBIL OIL CANADA LTD.     :COMPANY
WELL.  MOBIL CLARKE OV 12-34     :WELL
FLD.   CLARKE                    :FIELD
LOC.   12-34-089-08W4            :LOCATION
CTRY.  CANADA                    :COUNTRY
PROV.  ALBERTA                   :PROVINCE
SRVC.  SCHLUMBERGER              :SERVICE COMPANY
DATE.  20-FEB-81                 :LOG DATE
UWI.   AA/12-34-089-08W400       :UNIQUE WELL ID
~Parameter Information Block
#MNEM.UNIT       Data                        Description of Mnemonic
#----.----      -------------------------- : -----------------------------
RUN .                   1                 : Run Number
GL  .M           415.1000                 : Ground Level Elevation
DREF.                  KB                 : Depth Reference
EREF.M           418.1000                 : Elevation of Depth Reference
TDL .M           203.0000                 : Total Depth Logger
TDD .M           200.0000                 : Total Depth Driller
CSGL.M            18.0000                 : Casing Bottom Logger
CSGD.M            15.0000                 : Casing Bottom Driller
CSGS.MM          219.0000                 : Casing Size
CSGW.KG/M          0.0000                 : Casing Weight
BHT .DEGC         12.0000                 : Bottom Hole Temperature
BS  .MM          159.0000                 : Bit Size
DFD .           1110.0000                 : Mud Weight (Density)
DFV .             90.0000                 : Mud Viscosity
DFPH.             10.0000                 : Mud pH
RM  .OHMM          1.9600                 : Mud Resistivity
RMT .DEGC         20.0000                 : Mud Resistivity Temperature
~Curve Information Block
#MNEM.UNIT        API CODE    Curve Description
#---------    ------------    -------------------------------------------
DEPT.M                    :   DEPTH
CALI.MM       42 280  1  1:   3 DENSITY CALIPER
DPHI.V/V                  :   DPHI
DT  .US/M     60 520  0  1:   2 SONIC INTERVAL TRANSIT TIME (COMPENSATED)
GR  .GAPI     42 310  1  1:   4 GAMMA RAY
ILD .OHMM      7 120 46  1:   7 DEEP INDUCTION
ILM .OHMM      7 120 44  1:   8 MEDIUM INDUCTION
NPHI.V/V      42 890  3  1:   5 NEUTRON POROSITY (SANDSTONE)
RHOB.K/M3     42 350  1  1:   6 BULK DENSITY
SFLU.OHMM      7 220  1  1:   9 FOCUSSED RESISTIVITY
SP  .MV        7  10  1  1:   10 SPONTANEOUS POTENTIAL
~A  Depth           CALI        DPHI          DT          GR         ILD         ILM        NPHI        RHOB        SFLU          SP
# ...
39.4000         233.4750      0.3686    618.3200     57.1350     68.6483     63.3622      0.4460   2063.8000     58.0537    -59.0100
39.5000         233.4750      0.3671    618.5600     58.6500     68.6483     63.3622      0.4460   2063.8000     58.0537    -59.0100
39.6000         226.4750      0.3660    618.8000     60.1500     66.9006     61.8629      0.4578   2056.3999     57.5215    -58.4200
39.7000         226.4750      0.3643    617.4800     61.0950     66.9006     61.8629      0.4578   2056.3999     57.5215    -58.4200
39.8000         211.7250      0.3623    616.2800     61.4250     65.8612     61.5219      0.4655   2061.3000     55.5943    -57.8600
39.9000         211.7250      0.3594    613.2000     59.2950     65.8612     61.5219      0.4655   2061.3000     55.5943    -57.8600
40.0000         185.5500      0.3570    609.3200     58.8900     64.4807     61.2393      0.4715   2067.8000     54.7810    -57.2200
40.1000         185.5500      0.3540    607.0800     58.3200     64.4807     61.2393      0.4715   2067.8000     54.7810    -57.2200
40.2000         169.6500      0.3509    607.6400     57.0900     61.5786     60.1215      0.4579   2065.1001     52.6054    -55.6500
40.3000         169.6500      0.3484    608.5600     55.8900     61.5786     60.1215      0.4579   2065.1001     52.6054    -55.6500
40.4000         172.2500      0.3472    609.4000     54.7800     60.7337     58.9156      0.4542   2040.9000     49.9609    -55.5000
40.5000         172.2500      0.3455    609.0800     54.9750     60.7337     58.9156      0.4542   2040.9000     49.9609    -55.5000
40.6000         178.0750      0.3434    608.4000     55.1400     60.4547     57.4156      0.4463   2031.6000     49.3662    -55.9100
40.7000         178.0750      0.3430    604.0800     54.5850     60.4547     57.4156      0.4463   2031.6000     49.3662    -55.9100
40.8000         185.7000      0.3461    600.0000     54.0750     61.3522     56.1604      0.4217   2024.1000     51.0305    -55.3600
40.9000         185.7000      0.3489    596.9600     53.4750     61.3522     56.1604      0.4217   2024.1000     51.0305    -55.3600
41.0000         180.1500      0.3512    595.4800     52.8150     62.3204     56.2639      0.4112   2017.9000     52.5569    -54.9200
41.1000         180.1500      0.3531    594.8800     53.1150     62.3204     56.2639      0.4112   2017.9000     52.5569    -54.9200
41.2000         176.4750      0.3519    595.4400     53.2950     63.4205     56.6800      0.4065   2052.6001     53.9796    -54.8900
41.3000         176.4750      0.3513    596.2800     52.1250     63.4205     56.6800      0.4065   2052.6001     53.9796    -54.8900
41.4000         176.7500      0.3520    597.1200     51.7200     66.0435     57.1518      0.4142   2087.3999     54.5795    -55.2200
41.5000         176.7500      0.3535    599.4800     51.4950     66.0435     57.1518      0.4142   2087.3999     54.5795    -55.2200
41.6000         181.6000      0.3525    601.6400     53.3400     64.6591     57.3627      0.4369   2026.2000     47.8443    -56.2900
41.7000         181.6000      0.3524    598.8400     54.5700     64.6591     57.3627      0.4369   2026.2000     47.8443    -56.2900
41.8000         177.9750      0.3522    595.4400     54.9600     62.7812     57.3627      0.4441   2109.7000     48.7338    -57.0900
41.9000         177.9750      0.3539    600.0400     54.4500     62.7812     57.3627      0.4441   2109.7000     48.7338    -57.0900
42.0000         175.4250      0.3557    604.2800     53.9850     62.1484     56.6800      0.4481   2123.6001     57.2572    -58.5100
42.1000         175.4250      0.3537    607.4800     52.0350     62.1484     56.6800      0.4481   2123.6001     57.2572    -58.5100
42.2000         169.4500      0.3534    604.3200     49.6950     63.3622     56.5757      0.4481   2092.6001     55.1353    -58.0300
42.3000         169.4500      0.3547    602.6800     48.1650     63.3622     56.5757      0.4481   2092.6001     55.1353    -58.0300
42.4000         168.0500      0.3553    601.8800     47.3850     64.5996     57.7870      0.4575   2062.1001     49.9149    -57.6900
42.5000         168.0500      0.3555    607.0400     47.0700     64.5996     57.7870      0.4575   2062.1001     49.9149    -57.6900
42.6000         184.1250      0.3545    610.3600     48.4950     65.9219     58.9156      0.4658   2044.8000     49.5484    -57.5000
42.7000         184.1250      0.3517    611.9200     50.6100     65.9219     58.9156      0.4658   2044.8000     49.5484    -57.5000
42.8000         193.4250      0.3482    609.4400     53.2050     63.4790     57.0992      0.4732   2040.0000     51.1246    -58.8300
42.9000         193.4250      0.3461    606.6800     54.9000     63.4790     57.0992      0.4732   2040.0000     51.1246    -58.8300
43.0000         184.4250      0.3457    602.2400     56.1900     64.2436     58.1607      0.4660   2023.7000     57.2045    -59.8700
43.1000         184.4250      0.3476    598.6800     57.1800     64.2436     58.1607      0.4660   2023.7000     57.2045    -59.8700
43.2000         177.6000      0.3529    596.3600     57.7800     65.9827     60.7337      0.4536   2013.2000     62.2630    -60.8300
43.3000         177.6000      0.3605    595.9200     56.7150     65.9827     60.7337      0.4536   2013.2000     62.2630    -60.8300
43.4000         171.0000      0.3663    597.4800     54.9450     69.2197     63.7133      0.4308   2076.3999     59.3513    -60.6100
43.5000         171.0000      0.3697    600.0800     53.1750     69.2197     63.7133      0.4308   2076.3999     59.3513    -60.6100
43.6000         170.3750      0.3717    602.8000     51.4050     68.0190     64.1254      0.4358   2070.7000     54.6802    -59.3400
43.7000         170.3750      0.3773    605.8000     49.5900     68.0190     64.1254      0.4358   2070.7000     54.6802    -59.3400
43.8000         171.0000      0.3781    608.6400     47.5350     66.5932     63.9484      0.4391   2060.5000     52.7995    -58.7500
43.9000         171.0000      0.3691    610.8000     45.4800     66.5932     63.9484      0.4391   2060.5000     52.7995    -58.7500
44.0000         176.0750      0.3597    611.9200     43.8000     65.3777     57.6806      0.4435   2032.0000     52.1711    -59.2200
44.1000         176.0750      0.3496    612.0800     42.2850     65.3777     57.6806      0.4435   2032.0000     52.1711    -59.2200
44.2000         176.9000      0.3441    612.3200     41.4750     66.3483     56.2639      0.4435   2017.5000     53.9299    -59.5600
44.3000         176.9000      0.3547    611.5200     40.9050     66.3483     56.2639      0.4435   2017.5000     53.9299    -59.5600
44.4000         175.5250      0.3664    610.0800     42.1200     67.7688     58.2143      0.4396   2003.9000     56.2121    -60.0500
44.5000         175.5250      0.3651    607.8400     44.8500     67.7688     58.2143      0.4396   2003.9000     56.2121    -60.0500
44.6000         179.1500      0.3579    607.1600     44.6550     69.6674     61.2957      0.4350   2019.4000     57.0992    -60.5100
44.7000         179.1500      0.3516    606.6400     44.4450     69.6674     61.2957      0.4350   2019.4000     57.0992    -60.5100
44.8000         178.9000      0.3445    606.2800     44.6400     73.2875     67.5196      0.4226   2042.8000     59.3513    -61.9400
44.9000         178.9000      0.3367    606.4400     45.0450     73.2875     67.5196      0.4226   2042.8000     59.3513    -61.9400
45.0000         178.5000      0.3303    606.5600     47.5650     73.6258     68.7749      0.4229   2045.6000     60.3990    -62.7800
45.1000         178.5000      0.3354    606.6000     50.0850     73.6258     68.7749      0.4229   2045.6000     60.3990    -62.7800
45.2000         179.2750      0.3445    606.3200     52.3050     74.1703     69.4113      0.4313   2063.3000     63.2455    -62.9300
45.3000         179.2750      0.3522    606.0800     54.4200     74.1703     69.4113      0.4313   2063.3000     63.2455    -62.9300
45.4000         175.5000      0.3607    605.0000     55.3200     73.2875     67.5196      0.4393   2078.1001     62.3778    -62.5600
