~VERSION INFORMATION
 VERS.                 2.0:   CWLS LOG ASCII STANDARD -VERSION 2.0
 WRAP.                  NO:   ONE LINE PER DEPTH STEP
~WELL INFORMATION BLOCK
#MNEM.UNIT           DATA                    DESCRIPTION OF MNEMONIC
#---------    -------------------            -------------------------------
# Generated from Intellog Unique Number	CN_91_93/WELL/2943
WELL.         11-19-092-11W4                 : Well_name    - WELL
LOC .         AA/11-19-092-11W4/0            : Location     - LOCATION
UWI .         AA/11-19-092-11W400            : Uwi          - UNIQUE WELL ID
ENTR.         JOETTE                         : Entered      - ENTERED BY
SRVC.         SCHLUMBERGER                   : Scn          - SERVICE COMPANY
DATE.         03/31/92                       : Date         - LOG DATE
STRT.F        30                             : top_depth    - START DEPTH
STOP.F        340.039                        : bot_depth    - STOP DEPTH
STEP.F        0.8202                         : increment    - STEP LENGTH
 NULL. -999.2500:NULL Value
~CURVE INFORMATION BLOCK
#MNEM UNIT       ERCB CURVE CODE    CURVE DESCRIPTION
#-----------   ------------------   ----------------------------------
DEPT.F        00 001 00 00         : DEPTH        - DEPTH
CALI.IN       00 280 01 00         : CAL          - CALIPER
GR  .API      00 310 00 00         : GR           - GAMMA RAY
NPHI.V/V      00 330 00 00         : PHIN         - NEUTRON POROSITY (SANDSTONE)
DPHI.V/V      00 890 00 00         : PHID         - DENSITY POROSITY (SANDSTONE)
ILD .OHMM     00 120 00 00         : RESD         - DEEP RESISTIVITY (DIL)
~PARAMETER INFORMATION
#MNEM.UNIT           DATA             DESCRIPTION OF MNEMONIC
#---------         -----------     ------------------------------
GL  .M        362.407              : gl           - GROUND LEVEL ELEVATION
EREF.M        362.407              : kb           - ELEVATION OF DEPTH REFERENCE
DATM.M        362.407              : datum        - DATUM ELEVATION
TDD .M        111.252              : tdd          - TOTAL DEPTH DRILLER
RUN .         ONE                  : Run          - RUN NUMBER
ENG .         BILL                 : Engineer     - RECORDING ENGINEER
WIT .         JIM                  : Witness      - WITNESSED BY
MUD .         GEL                  : Mud_type     - MUD TYPE
MATR.         SANDSTONE            : Logunit      - NEUTRON MATRIX
TMAX.F        65                   : BHT          - MAXIMUM RECORDED TEMPERATURE
BHTD.F        365                  : BHTDEP       - MAXIMUM RECORDED TEMPERATURE
RMT .F        60                   : MDTP         - TEMPERATURE OF MUD
MUDD.LB/G     10                   : MWT          - MUD DENSITY
NEUT.         1                    : NEUTRON      - NEUTRON TYPE
RESI.         0                    : RESIST       - RESISTIVITY TYPE
RM  .OHMM     4.23                 : RM           - RESISTIVITY OF MUD
RMC .OHMM     4.23                 : RMC          - RESISTIVITY OF MUD CAKE
RMF .OHMM     4.23                 : RMF          - RESISTIVITY OF MUD FILTRATE
SUFT.F        39.2                 : SUFT         - SURFACE TEMPERATURE
~A  DEPTH      CAL       GR     PHIN     PHID     RESD
   30.000    3.487   69.564    0.596    0.284   25.602
   30.820    3.489   71.349    0.591    0.254   22.403
   31.640    3.508   69.615    0.578    0.227   20.326
   32.461    3.580   71.113    0.567    0.249   19.104
   33.281    3.634   72.014    0.556    0.257   17.484
   34.101    3.653   70.864    0.540    0.254   15.863
   34.921    3.655   71.775    0.509    0.262   17.539
   35.742    3.638   72.673    0.489    0.271   24.948
   36.562    3.605   72.999    0.484    0.261   45.278
   37.382    3.536   71.550    0.470    0.244   88.310
   38.202    3.467   71.871    0.471    0.238  195.417
   39.022    3.398   73.652    0.480    0.237  120.298
   39.843    3.347   75.737    0.504    0.247   17.061
   40.663    3.295   77.815    0.526    0.249    1.188
   41.483    3.279   87.820    0.549    0.220   96.454
   42.303    3.333   91.657    0.473    0.241  115.668
   43.123    3.687   94.618    0.447    0.268   15.967
   43.944    3.777   89.066    0.461    0.283   22.319
   44.764    3.848   82.340    0.459    0.296   22.146
   45.584    3.938   76.495    0.459    0.308   24.491
   46.404    3.975   76.518    0.458    0.302   22.620
   47.224    3.976   79.486    0.428    0.305   23.905
   48.045    4.101   80.388    0.425    0.296   25.271
   48.865    4.191   79.235    0.410    0.279   27.202
   49.685    4.227   74.856    0.409    0.264   21.942
   50.505    4.194   71.658    0.428    0.282   21.585
   51.325    4.002   70.799    0.424    0.289   18.881
   52.146    3.844   65.540    0.422    0.247   69.801
   52.966    3.564   54.998    0.369    0.208   92.421
   53.786    3.266   56.783    0.306    0.153   22.100
   54.606    3.497   66.792    0.403    0.220   20.416
   55.426    3.639   67.990    0.421    0.263   21.771
   56.247    3.834   70.655    0.424    0.295   22.201
   57.067    3.748   75.668    0.418    0.290   18.733
   57.887    3.820   78.929    0.429    0.291   14.981
   58.707    3.909   80.714    0.438    0.280   16.122
   59.528    3.788   81.906    0.453    0.277   13.976
   60.348    3.666   79.001    0.462    0.267   16.023
   61.168    3.632   76.974    0.464    0.293   17.879
   61.988    3.669   76.408    0.457    0.302   20.493
   62.808    3.776   77.603    0.441    0.291   17.451
   63.629    3.813   79.981    0.424    0.274   18.954
   64.449    3.832   82.352    0.415    0.268   20.398
   65.269    3.851   84.727    0.430    0.266   19.883
   66.089    3.852   84.751    0.448    0.264   17.085
   66.909    3.871   81.547    0.459    0.264   14.549
   67.730    3.855   79.810    0.466    0.272   14.701
   68.550    3.822   76.606    0.456    0.283   19.290
   69.370    3.805   71.347    0.451    0.293   21.336
   70.190    3.807   68.439    0.426    0.280   27.007
   71.010    3.791   69.340    0.424    0.257   23.202
   71.831    3.792   72.302    0.424    0.272   21.623
   72.651    3.794   74.677    0.415    0.295   20.697
   73.471    3.795   75.875    0.428    0.288   18.108
   74.291    3.814   77.079    0.418    0.269   19.663
   75.112    3.834   75.923    0.427    0.265   20.609
   75.932    3.870   74.479    0.442    0.261   20.817
   76.752    3.889   71.572    0.420    0.260   23.651
   77.572    3.891   69.541    0.420    0.253   21.844
   78.392    3.892   71.035    0.440    0.279   21.288
   79.213    3.894   73.991    0.456    0.298   22.303
   80.033    3.913   79.594    0.452    0.302   15.577
   80.853    3.932   84.608    0.456    0.280   16.171
   81.673    3.951   92.852    0.457    0.279   11.398
   82.493    3.970   97.278    0.470    0.255    9.448
   83.314    4.007   96.134    0.489    0.275   11.743
   84.134    4.061   92.927    0.484    0.273   10.651
   84.954    4.098   96.182    0.478    0.277    9.154
   85.774    4.135   97.093    0.481    0.280    8.379
   86.594    4.154   96.817    0.489    0.280    7.951
   87.415    4.155   96.551    0.506    0.283    8.251
   88.235    4.157   92.762    0.519    0.286    8.567
   89.055    4.158   88.971    0.507    0.272   10.180
   89.875    4.142   89.285    0.493    0.239   13.121
   90.695    4.126   84.910    0.482    0.237   11.796
   91.516    4.128   85.811    0.479    0.246   12.464
   92.336    4.111   91.708    0.482    0.264   12.713
   93.156    4.113   92.909    0.485    0.260   10.164
   93.976    4.097   91.469    0.460    0.235   12.295
   94.797    4.080   82.098    0.449    0.221   22.314
   95.617    4.064   77.136    0.438    0.203   14.371
   96.437    4.031   78.624    0.435    0.231   12.578
   97.257    4.015   83.347    0.443    0.258   15.078
   98.077    4.034   85.722    0.436    0.271   14.697
   98.898    4.071   87.210    0.433    0.263   13.819
   99.718    4.072   87.531    0.445    0.259   14.874
  100.538    4.091   88.731    0.449    0.249   11.576
  101.358    4.128   91.981    0.452    0.231   11.594
  102.178    4.147   94.649    0.460    0.197   20.659
  102.999    4.166   92.035    0.434    0.184   13.674
  103.819    4.167   91.469    0.419    0.224    9.128
  104.639    4.169   99.716    0.436    0.253    8.281
  105.459    4.170  104.139    0.452    0.254    9.406
  106.280    4.154  108.862    0.483    0.274    9.253
  107.100    4.156  105.658    0.488    0.284    8.777
  107.920    4.157  100.989    0.513    0.295    8.105
  108.740    4.159   98.959    0.520    0.298    6.424
  109.560    4.178  100.743    0.516    0.297    6.432
  110.381    4.197   99.594    0.521    0.288    6.386
  111.201    4.181  101.085    0.545    0.295    6.224
  112.021    4.095   99.938    0.587    0.290    5.644
  112.841    4.043  100.842    0.599    0.292    4.982
  113.661    4.045   93.529    0.615    0.244    5.126
  114.482    4.063   92.676    0.549    0.193    7.294
  115.302    4.083   90.055    0.492    0.160   18.810
  116.122    4.066   93.900    0.517    0.192   14.636
  116.942    4.068   99.791    0.541    0.249    8.771
  117.762    4.070  102.462    0.525    0.265    7.013
  118.583    4.089   98.671    0.489    0.263    8.797
  119.403    4.108   97.228    0.485    0.255    8.272
  120.223    4.109   96.078    0.479    0.249   11.354
  121.043    4.093   90.235    0.461    0.238   15.725
  121.864    4.095   97.893    0.452    0.238   11.186
  122.684    4.096  101.435    0.446    0.238   10.516
  123.504    4.080  103.220    0.430    0.236    9.626
  124.324    4.082  106.182    0.419    0.233    9.991
  125.144    4.083  104.445    0.408    0.227   13.110
  125.965    4.084   99.480    0.411    0.197   14.629
  126.785    4.086   95.395    0.406    0.178   13.388
  127.605    4.088   91.017    0.389    0.143   12.932
  128.425    4.072   95.153    0.399    0.197   19.776
  129.245    4.073  101.046    0.420    0.225   13.207
  130.066    4.074  100.196    0.429    0.218   11.246
  130.886    4.076   99.336    0.421    0.208   13.127
  131.706    4.077   98.773    0.399    0.200   12.678
  132.526    4.079   96.449    0.425    0.219   17.560
  133.346    4.098   95.886    0.454    0.246   11.625
  134.167    4.135   98.848    0.469    0.253   10.447
  134.987    4.136   95.937    0.473    0.248    9.391
  135.807    4.138   94.200    0.465    0.239    9.069
  136.627    4.139   95.988    0.476    0.237   10.878
  137.448    4.141  100.121    0.460    0.236   10.226
  138.268    4.125  105.140    0.464    0.232    9.192
  139.088    4.108  106.628    0.448    0.226    8.338
  139.908    4.075  102.250    0.443    0.230    8.273
  140.728    4.059  100.519    0.442    0.235   10.759
  141.549    4.043  101.130    0.442    0.235   13.255
  142.369    4.044  100.861    0.443    0.238   11.390
  143.189    4.045  100.295    0.450    0.234   11.203
  144.009    4.047  104.137    0.456    0.244   11.737
  144.829    4.048  103.283    0.454    0.242    9.815
  145.650    4.033  104.188    0.450    0.228   10.009
  146.470    4.034  107.733    0.449    0.229   10.297
  147.290    4.034  109.228    0.448    0.231    9.771
  148.110    4.037  109.252    0.451    0.231   10.147
  148.930    4.038  111.333    0.441    0.231   11.115
