~VERSION INFORMATION
 VERS.                 2.0:   CWLS LOG ASCII STANDARD -VERSION 2.0
 WRAP.                  NO:   ONE LINE PER DEPTH STEP
~WELL INFORMATION BLOCK
#MNEM.UNIT           DATA                    DESCRIPTION OF MNEMONIC
#---------    -------------------            -------------------------------
# Generated from Intellog Unique Number	CC_80_83/WELL/2382
NULL.         -999.25                        : NULL_VALUE
WELL.         PEX PCEJ CHARD OV              : Well_name    - WELL
LOC .         10-29-080-08W4                 : Location     - LOCATION          
UWI .         AA/10-29-080-08W400             : Uwi          - UNIQUE WELL ID    
ENTR.         DW                             : Entered      - ENTERED BY        
SRVC.         SCHLUMBERGER                   : Scn          - SERVICE COMPANY   
DATE.         05 FEB 80                      : Date         - LOG DATE
STRT.M        260                            : top_depth    - START DEPTH       
STOP.M        448.092                        : bot_depth    - STOP DEPTH        
STEP.M        0.3                            : increment    - STEP LENGTH       
~CURVE INFORMATION BLOCK
#MNEM UNIT       ERCB CURVE CODE    CURVE DESCRIPTION
#-----------   ------------------   ----------------------------------
DEPT.M        00 001 00 00         : DEPTH        - DEPTH                       
DPHI.V/V      00 890 00 00         : PHID         - DENSITY POROSITY (LIMESTONE)
NPHI.V/V      00 330 00 00         : PHIN         - NEUTRON POROSITY (LIMESTONE)
GR  .API      00 310 00 00         : GR           - GAMMA RAY                   
ILD .OHMM     00 120 00 00         : RESD         - DEEP RESISTIVITY (DIL)      
~PARAMETER INFORMATION       
#MNEM.UNIT           DATA             DESCRIPTION OF MNEMONIC
#---------         -----------     ------------------------------
GL  .M        702.53               : gl           - GROUND LEVEL ELEVATION      
EREF.M        706.18               : kb           - ELEVATION OF DEPTH REFERENCE
DATM.M        706.18               : datum        - DATUM ELEVATION             
TDD .M        456                  : tdd          - TOTAL DEPTH DRILLER         
RUN .         ONE                  : Run          - RUN NUMBER                  
ENG .         BILL                 : Engineer     - RECORDING ENGINEER          
WIT .         JIM                  : Witness      - WITNESSED BY                
MUD .         GEL                  : Mud_type     - MUD TYPE                    
MATR.         LIMESTONE            : Logunit      - NEUTRON MATRIX              
TMAX.C        18                   : BHT          - MAXIMUM RECORDED TEMPERATURE
BHTD.M        456                  : BHTDEP       - MAXIMUM RECORDED TEMPERATURE
MATR.         1                    : LOGUNIT      - NEUTRON MATRIX              
RMT .C        25                   : MDTP         - TEMPERATURE OF MUD          
NEUT.         1                    : NEUTRON      - NEUTRON TYPE                
RESI.         0                    : RESIST       - RESISTIVITY TYPE            
RMC .OHMM     0.25                 : RMC          - RESISTIVITY OF MUD CAKE     
RMF .OHMM     0.25                 : RMF          - RESISTIVITY OF MUD FILTRATE 
SUFT.C        15                   : SUFT         - SURFACE TEMPERATURE         
~A  DEPTH     PHID     PHIN       GR     RESD
# ...
  312.198    0.207    0.451  130.263   10.436
  312.498    0.237    0.455  117.194   13.840
  312.798    0.248    0.454  108.483   14.637
  313.098    0.266    0.459  103.509   13.825
  313.398    0.276    0.450   94.799   11.884
  313.698    0.277    0.445  101.034    9.653
  313.998    0.266    0.439  105.401    7.990
  314.298    0.247    0.434   99.182    7.407
  314.598    0.233    0.498  107.908    6.864
  314.898    0.230    0.543  116.634    6.861
  315.198    0.225    0.557  130.964    6.989
  315.498    0.225    0.547  123.499    7.675
  315.798    0.238    0.489  137.829    8.272
  316.098    0.250    0.492  135.346    9.258
  316.398    0.255    0.514  109.201   10.169
  316.698    0.256    0.478  110.453   11.598
  316.998    0.265    0.469  118.556   12.267
  317.298    0.277    0.467  109.223   12.030
  317.598    0.262    0.456   96.154   11.153
  317.898    0.253    0.447  102.389    9.232
  318.198    0.241    0.453   92.434    8.085
  318.498    0.235    0.478   86.214    7.783
  318.798    0.233    0.507   98.677    7.492
  319.098    0.228    0.515  111.761    8.228
  319.398    0.232    0.506  117.998    9.744
  319.698    0.255    0.488  119.872   11.541
  319.998    0.273    0.500  108.671   13.163
  320.298    0.297    0.473  101.829   15.588
  320.598    0.311    0.423   76.928   15.582
  320.898    0.316    0.419   60.745   14.442
  321.198    0.304    0.420   61.998   11.513
  321.497    0.288    0.427   73.838   10.471
  321.797    0.277    0.438   92.528   10.466
  322.097    0.273    0.458   89.422   11.069
  322.397    0.272    0.474   82.580   12.389
  322.697    0.284    0.486   72.001   14.399
  322.997    0.322    0.499   58.931   17.051
  323.297    0.383    0.543   47.731   17.698
  323.597    0.519    0.593   37.774   17.690
  323.897    0.599    0.610   29.687   16.710
  324.197    0.546    0.545   42.772   15.783
  324.497    0.294    0.393   60.839   15.190
  324.797    0.301    0.415   67.697   15.470
  325.097    0.308    0.433   74.554   15.758
  325.397    0.313    0.442   67.091   16.355
  325.697    0.314    0.413   65.231   16.349
  325.997    0.313    0.404   63.993   16.649
  326.297    0.306    0.410   62.755   16.638
  326.597    0.311    0.419   60.271   16.633
  326.897    0.314    0.427   59.032   16.007
  327.197    0.322    0.416   56.552   15.703
  327.497    0.324    0.422   60.916   15.404
  327.797    0.322    0.436   70.266   15.104
  328.097    0.322    0.463   76.500   14.816
  328.397    0.323    0.458   78.999   14.809
  328.697    0.323    0.452   77.138   15.086
  328.997    0.324    0.425   62.202   15.075
  329.297    0.324    0.432   64.702   14.790
  329.597    0.323    0.432   69.069   14.781
  329.897    0.315    0.417   70.320   14.775
  330.197    0.310    0.417   54.137   14.765
  330.497    0.306    0.399   62.242   14.760
  330.797    0.304    0.386   64.739   14.751
  331.097    0.307    0.382   60.389   14.197
  331.397    0.314    0.398   59.774   14.193
  331.697    0.316    0.423   59.780   13.659
  331.997    0.316    0.428   56.678   13.146
  332.297    0.319    0.434   57.930   12.655
  332.597    0.319    0.462   63.543   12.412
  332.897    0.320    0.449   67.284   12.404
  333.197    0.321    0.458   69.160   12.400
  333.497    0.321    0.470   61.073   12.627
  333.797    0.318    0.458   59.213   12.864
  334.097    0.313    0.440   56.730   12.856
  334.397    0.308    0.430   58.609   12.852
  334.697    0.311    0.451   59.239   12.605
  334.997    0.311    0.456   57.999   11.906
  335.297    0.306    0.466   60.497   11.246
  335.597    0.305    0.460   63.620   10.620
  335.897    0.306    0.473   58.024   10.617
  336.197    0.313    0.446   58.652   10.611
  336.497    0.315    0.466   58.039   10.807
  336.797    0.311    0.468   58.046   10.804
  337.097    0.304    0.465   62.412   10.595
  337.397    0.301    0.471   63.667   10.793
  337.697    0.303    0.470   61.182   10.991
  337.997    0.304    0.468   63.059   11.408
  338.297    0.309    0.470   59.331   12.529
  338.597    0.324    0.449   56.847   13.253
  338.897    0.328    0.450   53.742   14.284
  339.197    0.327    0.440   51.259   14.277
  339.497    0.323    0.438   51.889   12.043
  339.797    0.321    0.445   59.992    9.599
  340.097    0.316    0.455   66.849    8.252
  340.397    0.284    0.483   76.199    6.961
  340.697    0.252    0.484   86.792    6.452
  340.997    0.246    0.480   92.404    6.093
  341.297    0.244    0.474  100.508    5.975
  341.597    0.248    0.472  102.386    6.203
  341.897    0.255    0.474   99.279    6.812
  342.197    0.261    0.480   98.041    7.207
  342.497    0.263    0.491   99.293    7.767
  342.797    0.256    0.467  103.037    7.910
  343.097    0.234    0.475   95.574    7.614
  343.397    0.231    0.480   98.694    6.796
  343.697    0.231    0.484  109.289    6.419
  343.997    0.232    0.477  113.032    6.538
  344.297    0.231    0.472  106.191    6.660
  344.597    0.235    0.481  106.822    7.178
  344.897    0.240    0.499  111.187    7.882
  345.197    0.235    0.461  103.100    8.495
  345.497    0.232    0.461   98.125    8.985
  345.797    0.229    0.453   92.529    9.153
  346.096    0.229    0.465   98.142    9.148
  346.396    0.234    0.475   94.413    9.143
  346.696    0.238    0.452   95.044    8.801
  346.996    0.241    0.463   92.560    8.313
  347.296    0.254    0.495   86.342    7.705
  347.596    0.259    0.518   95.068    6.500
  347.896    0.248    0.545  101.925    5.912
  348.196    0.244    0.567  104.425    4.209
  348.496    0.244    0.562  106.924    2.940
  348.796    0.244    0.570  109.420    2.257
  349.096    0.241    0.588  111.919    1.977
  349.396    0.240    0.598  130.609    2.297
  349.696    0.242    0.590  133.732    2.721
  349.996    0.249    0.589  132.493    4.118
  350.296    0.255    0.603  114.443    5.161
  350.596    0.264    0.593  113.204    5.667
  350.896    0.274    0.590  106.362    5.994
  351.196    0.269    0.562   95.161    6.339
  351.496    0.259    0.535   95.791    6.458
  351.796    0.259    0.523  103.272    6.828
  352.096    0.259    0.501  110.130    6.956
  352.396    0.254    0.509  101.420    6.952
  352.696    0.252    0.498   92.709    6.693
  352.996    0.254    0.499   90.848    5.974
  353.296    0.259    0.519   92.103    4.500
  353.596    0.260    0.537   91.487    3.655
  353.896    0.275    0.568  115.781    3.325
  354.196    0.299    0.601  121.393    3.200
  354.496    0.280    0.601  125.761    3.198
  354.796    0.286    0.600  120.786    3.382
  355.096    0.303    0.605  102.736    3.512
  355.396    0.356    0.604   97.761    3.784
  355.696    0.362    0.610   94.656    3.854
  355.996    0.315    0.611  105.251    3.852
  356.296    0.321    0.599  103.392    3.998
  356.596    0.339    0.593  102.151    4.310
  356.896    0.369    0.585  110.255    5.104
  357.196    0.361    0.572  104.036    5.821
  357.496    0.251    0.561  100.932    6.157
  357.796    0.264    0.565  101.560    6.389
  358.096    0.269    0.546   98.454    6.268
  358.396    0.272    0.522  102.198    6.147
  358.696    0.278    0.537   95.979    6.028
  358.996    0.266    0.524   91.006    6.026
  359.296    0.250    0.505   88.522    6.138
  359.596    0.252    0.515  101.606    6.251
  359.896    0.256    0.502   92.897    6.250
  360.196    0.263    0.481   94.777    6.609
  360.496    0.265    0.472   95.403    7.124
  360.796    0.265    0.505  105.997    7.823
  361.096    0.255    0.484  106.004    8.432
  361.396    0.241    0.467   94.803    8.918
  361.696    0.240    0.455   93.567    9.082
  361.996    0.243    0.457   94.819    9.080
  362.296    0.244    0.465   91.718    9.248
  362.596    0.244    0.460   90.476    9.241
  362.896    0.247    0.469   92.974    9.238
  363.196    0.250    0.481   94.229    9.232
  363.496    0.246    0.451   88.632    9.057
  363.796    0.236    0.428   84.903    8.718
  364.096    0.231    0.436   85.533    8.234
