~VERSION INFORMATION
 VERS.                 2.0:   CWLS LOG ASCII STANDARD -VERSION 2.0
 WRAP.                  NO:   ONE LINE PER DEPTH STEP
~WELL INFORMATION BLOCK
#MNEM.UNIT           DATA                    DESCRIPTION OF MNEMONIC
#---------    -------------------            -------------------------------
# Generated from Intellog Unique Number	CC_84_87/WELL/2345
NULL.         -999.25                        : NULL_VALUE
WELL.         ARCO ACI MCMURRAY              : Well_name    - WELL
LOC .         13-26-084-11W4                 : Location     - LOCATION          
UWI .         AA/13-26-084-11W400            : Uwi          - UNIQUE WELL ID    
ENTR.         JHS                            : Entered      - ENTERED BY        
SRVC.         SCHLUMBERGER                   : Scn          - SERVICE COMPANY   
DATE.         17 JAN 74                      : Date         - LOG DATE
STRT.M        76.2                           : top_depth    - START DEPTH       
STOP.M        317.906                        : bot_depth    - STOP DEPTH        
STEP.M        0.3048                         : increment    - STEP LENGTH       
~CURVE INFORMATION BLOCK
#MNEM UNIT       ERCB CURVE CODE    CURVE DESCRIPTION
#-----------   ------------------   ----------------------------------
DEPT.M        00 001 00 00         : DEPTH        - DEPTH                       
NPHI.V/V      00 330 00 00         : PHIN         - NEUTRON POROSITY (LIMESTONE)
GR  .API      00 310 00 00         : GR           - GAMMA RAY                   
ILD .OHMM     00 120 00 00         : RESD         - DEEP RESISTIVITY (DIL)      
~PARAMETER INFORMATION       
#MNEM.UNIT           DATA             DESCRIPTION OF MNEMONIC
#---------         -----------     ------------------------------
GL  .M        566.318              : gl           - GROUND LEVEL ELEVATION      
EREF.M        567.995              : kb           - ELEVATION OF DEPTH REFERENCE
DATM.M        567.995              : datum        - DATUM ELEVATION             
TDD .M        317.906              : tdd          - TOTAL DEPTH DRILLER         
RUN .         ONE                  : Run          - RUN NUMBER                  
ENG .         BILL                 : Engineer     - RECORDING ENGINEER          
WIT .         JIM                  : Witness      - WITNESSED BY                
MUD .         GEL                  : Mud_type     - MUD TYPE                    
MATR.         LIMESTONE            : Logunit      - NEUTRON MATRIX              
TMAX.C        60                   : BHT          - MAXIMUM RECORDED TEMPERATURE
BHTD.M        317.906              : BHTDEP       - MAXIMUM RECORDED TEMPERATURE
MATR.         1                    : LOGUNIT      - NEUTRON MATRIX              
RMT .C        25                   : MDTP         - TEMPERATURE OF MUD          
NEUT.         1                    : NEUTRON      - NEUTRON TYPE                
RESI.         0                    : RESIST       - RESISTIVITY TYPE            
RMC .OHMM     0.25                 : RMC          - RESISTIVITY OF MUD CAKE     
RMF .OHMM     0.25                 : RMF          - RESISTIVITY OF MUD FILTRATE 
SUFT.C        15                   : SUFT         - SURFACE TEMPERATURE         
~A  DEPTH     PHIN       GR     RESD
   76.200    0.377   85.319    4.084
   76.505    0.370   84.138    4.007
   76.810    0.364   77.007    3.861
   77.114    0.378   79.794    3.788
   77.419    0.397   75.837    3.787
   77.724    0.381   78.229    3.784
   78.029    0.383   76.653    3.782
   78.334    0.377   77.457    3.849
   78.638    0.365   76.674    3.847
   78.943    0.367   76.687    3.916
   79.248    0.391   81.855    3.842
   79.553    0.375   80.676    3.840
   79.858    0.365   78.307    3.769
   80.162    0.390   75.540    3.698
   80.467    0.408   72.772    3.563
   80.772    0.408   79.132    3.562
   81.077    0.416   89.064    3.431
   81.382    0.426   84.314    3.429
   81.686    0.421   85.118    3.428
   81.991    0.403   83.144    3.426
   82.296    0.404   81.966    3.423
   82.601    0.399   80.390    3.421
   82.906    0.400   81.989    3.483
   83.210    0.393   85.569    3.480
   83.515    0.389   90.342    3.479
   83.820    0.408   87.178    3.477
   84.125    0.416   91.554    3.474
   84.430    0.409   89.581    3.410
   84.734    0.391   82.053    3.408
   85.039    0.391   86.429    3.406
   85.344    0.406   90.409    3.530
   85.649    0.391   92.007    3.593
   85.954    0.412   86.463    3.863
   86.258    0.381   88.457    4.079
   86.563    0.379   84.896    4.306
   86.868    0.371   84.511    4.303
   87.173    0.385   82.141    4.147
   87.478    0.387   84.929    3.852
   87.782    0.400   78.987    3.514
   88.087    0.416   78.603    3.324
   88.392    0.423   86.549    3.203
   88.697    0.421   86.560    3.320
   89.002    0.406   84.587    4.365
   89.306    0.382   84.202    9.227
   89.611    0.313   84.609   14.831
   89.916    0.284   84.621   22.980
   90.221    0.287   85.424   28.078
   90.526    0.279   77.896   26.563
   90.831    0.307   72.750   16.814
   91.135    0.319   71.174   12.318
   91.440    0.311   79.913    8.387
   91.745    0.331   83.893    6.610
   92.050    0.364   83.905    5.919
   92.355    0.357   84.707    5.019
   92.659    0.350   83.925    3.956
   92.964    0.358   77.984    3.675
   93.269    0.406   71.646    3.740
   93.574    0.383   61.340    4.096
   93.879    0.341   29.207    4.914
   94.183    0.279   14.933    5.381
   94.488    0.340   11.374    4.999
   94.793    0.348   11.384    4.086
   95.098    0.314   14.174    3.593
   95.403    0.396   18.152    3.338
   95.707    0.401   25.702    3.275
   96.012    0.389   39.205    3.274
   96.317    0.396   47.154    3.456
   96.622    0.386   47.958    3.784
   96.927    0.405   44.794    3.923
   97.231    0.392   73.376    3.993
   97.536    0.379   78.545    3.848
   97.841    0.405   61.890    3.574
   98.146    0.406   45.235    3.381
   98.451    0.397   28.975    3.379
   98.755    0.407   52.399    3.503
   99.060    0.399   54.394    3.699
   99.365    0.393   61.547    3.977
   99.670    0.373   78.226    4.122
   99.975    0.382   83.792    4.120
  100.279    0.387   86.978    4.117
  100.584    0.392   88.577    4.040
  100.889    0.393   83.031    4.038
  101.194    0.381   77.090    3.963
  101.499    0.373   82.260    3.960
  101.803    0.377   89.016    3.958
  102.108    0.376   84.265    4.029
  102.413    0.378   87.056    4.101
  102.718    0.372   89.446    4.490
  103.023    0.371   85.094    5.387
  103.327    0.370   83.914    7.481
  103.632    0.350   86.702   10.389
  103.937    0.356   81.158   14.165
  104.242    0.364   83.945   16.686
  104.547    0.371   86.338   16.077
  104.851    0.365   88.731   14.400
  105.156    0.351   88.343   13.378
  105.461    0.332   83.990   13.127
  105.766    0.320   82.016   13.120
  106.071    0.333   84.409   13.112
  106.375    0.329   81.244   13.345
  106.680    0.327   79.273   14.090
  106.985    0.329   75.315   15.428
  107.290    0.330   74.134   15.992
  107.595    0.342   74.543   15.411
  107.899    0.339   68.204   14.314
  108.204    0.347   46.788   14.046
  108.509    0.331   47.989   13.784
  108.814    0.333   53.555   13.775
  109.119    0.313   58.330   13.519
  109.423    0.315   60.721   13.027
  109.728    0.311   60.333   12.552
  110.033    0.316   59.554   12.094
  110.338    0.326   59.959   12.310
  110.643    0.317   60.763   12.531
  110.947    0.329   63.951   13.229
  111.252    0.326   60.389   14.486
  111.557    0.332   51.272   14.745
  111.862    0.337   54.459   14.206
  112.167    0.349   61.215   13.440
  112.471    0.326   60.036   12.260
  112.776    0.336   62.824   11.389
  113.081    0.330   64.026   10.775
  113.386    0.319   69.592   10.967
  113.691    0.332   62.460   11.579
  113.995    0.348   55.328   13.641
  114.300    0.344   60.498   12.672
  114.605    0.331   64.478   10.942
  114.910    0.347   63.299    9.981
  115.215    0.369   58.944   10.537
  115.519    0.386   60.542   12.412
  115.824    0.357   53.807   15.733
  116.129    0.324   52.628   30.354
  116.434    0.324   62.559   36.420
  116.739    0.326   63.364   36.393
  117.043    0.332   70.121   34.431
  117.348    0.320   70.530   30.280
  117.653    0.338   64.191   25.676
  117.958    0.331   64.995   18.808
  118.263    0.319   67.387   16.241
  118.567    0.336   57.874   14.812
  118.872    0.336   44.790   14.274
  119.177    0.344   50.754   13.503
  119.482    0.327   80.130   13.013
  119.787    0.343   78.950   12.769
  120.091    0.345   51.183   12.762
  120.396    0.332   42.067   12.989
  120.701    0.320   33.349   13.222
  121.006    0.331   34.550   13.705
  121.311    0.310   34.164   14.207
  121.615    0.321   32.190   14.460
  121.920    0.317   35.774   14.191
  122.225    0.307   45.308   13.673
  122.530    0.318   60.001   13.418
  122.835    0.306   70.726   13.410
  123.139    0.318   71.927   13.649
  123.444    0.344   65.194   13.891
  123.749    0.340   73.934   13.884
  124.054    0.324   79.897   14.132
  124.359    0.324   75.147   14.921
  124.664    0.322   72.379   17.577
  124.968    0.314   76.360   22.275
  125.273    0.314   77.958   25.301
  125.578    0.351   74.000   27.705
  125.883    0.349   74.408   28.720
  126.188    0.343   68.069   28.698
  126.492    0.356   64.509   28.686
  126.797    0.346   69.282   27.639
  127.102    0.345   70.086   26.633
  127.407    0.354   70.097   25.196
  127.712    0.361   66.141   23.839
  128.016    0.355   66.548   22.554
  128.321    0.340   68.544   20.571
  128.626    0.330   72.125   19.464
  128.931    0.334   68.168   18.413
  129.236    0.337   65.402   17.422
  129.540    0.349   62.239   16.483
  129.845    0.352   57.884   15.592
  130.150    0.321   50.752   14.752
  130.455    0.329   52.351   13.704
  130.759    0.333   47.996   12.273
  131.064    0.326   55.546   11.404
  131.369    0.317   63.891    9.847
  131.674    0.325   56.759    8.197
  131.979    0.352   44.072    7.209
  132.283    0.348   45.275    6.576
  132.588    0.357   51.238    6.108
  132.893    0.349   56.406    5.675
  133.198    0.329   62.766    4.990
  133.503    0.352   67.142    4.470
  133.807    0.378   63.185    4.077
  134.112    0.383   67.164    3.928
  134.417    0.383   64.002    4.147
  134.722    0.397   67.186    4.625
  135.027    0.396   69.975    7.710
  135.331    0.368   74.351   14.343
  135.636    0.343   80.314   19.202
  135.941    0.330   82.707   21.415
  136.246    0.324   89.462   21.400
  136.551    0.331   91.458   20.620
  136.855    0.331   87.899   20.610
  137.160    0.328   88.703   21.363
  137.465    0.318   98.634   22.971
  137.770    0.332   98.248   23.812
  138.075    0.347   92.705   22.943
  138.379    0.327   96.682   21.312
  138.684    0.347  100.661   18.404
  138.989    0.344   97.498   13.731
  139.294    0.327   95.128   10.244
  139.599    0.317   80.853    9.870
  139.903    0.333   72.531   11.417
  140.208    0.357   79.288   15.567
  140.513    0.340   98.743   19.373
  140.818    0.324   68.993   22.409
  141.122    0.327   65.037   22.808
  141.427    0.337   65.048   21.975
  141.732    0.330   67.438   20.793
  142.037    0.328   71.814   18.963
