~VERSION INFORMATION
 VERS.                 2.0:   CWLS LOG ASCII STANDARD -VERSION 2.0
 WRAP.                  NO:   ONE LINE PER DEPTH STEP
~WELL INFORMATION BLOCK
#MNEM.UNIT           DATA                    DESCRIPTION OF MNEMONIC
#---------    -------------------            -------------------------------
# Generated from Intellog Unique Number	CN_94_101/WELL/5014
WELL.         11-08-101-14W4                 : Well_name    - WELL
LOC .         AA/11-08-101-14W4/0            : Location     - LOCATION
UWI .         AA/11-08-101-14W400            : Uwi          - UNIQUE WELL ID
ENTR.         TIM                            : Entered      - ENTERED BY
SRVC.         SCHLUMBERGER                   : Scn          - SERVICE COMPANY
DATE.         08/13/92                       : Date         - LOG DATE
STRT.M        300                            : top_depth    - START DEPTH
STOP.M        506                            : bot_depth    - STOP DEPTH
STEP.M        0.25                           : increment    - STEP LENGTH
NULL. -999.2500:NULL Value
~CURVE INFORMATION BLOCK
#MNEM UNIT       ERCB CURVE CODE    CURVE DESCRIPTION
#-----------   ------------------   ----------------------------------
DEPT.M        00 001 00 00         : DEPTH        - DEPTH
GR  .API      00 310 00 00         : GR           - GAMMA RAY
ILD .OHMM     00 120 00 00         : RESD         - DEEP RESISTIVITY (DIL)
NPHI.V/V      00 330 00 00         : PHIN         - NEUTRON POROSITY (SANDSTONE)
DPHI.V/V      00 890 00 00         : PHID         - DENSITY POROSITY (SANDSTONE)
~PARAMETER INFORMATION
#MNEM.UNIT           DATA             DESCRIPTION OF MNEMONIC
#---------         -----------     ------------------------------
GL  .M        734.7                : gl           - GROUND LEVEL ELEVATION
EREF.M        737.96               : kb           - ELEVATION OF DEPTH REFERENCE
DATM.M        737.96               : datum        - DATUM ELEVATION
TDD .M        508                  : tdd          - TOTAL DEPTH DRILLER
RUN .         ONE                  : Run          - RUN NUMBER
ENG .         BILL                 : Engineer     - RECORDING ENGINEER
WIT .         JIM                  : Witness      - WITNESSED BY
MUD .         GEL                  : Mud_type     - MUD TYPE
MATR.         SANDSTONE            : Logunit      - NEUTRON MATRIX
TMAX.C        20                   : BHT          - MAXIMUM RECORDED TEMPERATURE
BHTD.M        508                  : BHTDEP       - MAXIMUM RECORDED TEMPERATURE
RMT .C        12                   : MDTP         - TEMPERATURE OF MUD
MUDD.KG/M     1150                 : MWT          - MUD DENSITY
NEUT.         1                    : NEUTRON      - NEUTRON TYPE
RESI.         0                    : RESIST       - RESISTIVITY TYPE
RM  .OHMM     1.01                 : RM           - RESISTIVITY OF MUD
RMC .OHMM     1.01                 : RMC          - RESISTIVITY OF MUD CAKE
RMF .OHMM     1.01                 : RMF          - RESISTIVITY OF MUD FILTRATE
SUFT.C        4                    : SUFT         - SURFACE TEMPERATURE
~A  DEPTH       GR     RESD     PHIN     PHID
  300.000  129.072    6.330    0.504    0.247
  300.250  127.218    6.532    0.495    0.251
  300.500  130.922    6.325    0.499    0.251
  300.750  135.243    5.913    0.513    0.248
  301.000  138.329    5.708    0.541    0.242
  301.250  139.562    5.705    0.535    0.235
  301.500  139.560    5.702    0.507    0.235
  301.750  138.942    5.497    0.509    0.235
  302.000  138.323    5.289    0.518    0.235
  302.250  135.850    5.288    0.532    0.231
  302.500  133.997    5.082    0.543    0.226
  302.750  130.907    4.875    0.558    0.217
  303.000  127.818    4.464    0.536    0.216
  303.250  134.609    4.054    0.515    0.220
  303.500  138.313    3.439    0.509    0.224
  303.750  137.077    2.823    0.515    0.227
  304.000  135.840    2.618    0.523    0.235
  304.250  134.603    3.432    0.525    0.236
  304.500  133.366    4.655    0.516    0.236
  304.750  132.129    5.062    0.520    0.231
  305.000  129.040    5.263    0.530    0.222
  305.250  124.716    5.261    0.537    0.217
  305.500  123.479    5.258    0.548    0.209
  305.750  126.565    5.256    0.508    0.209
  306.000  130.269    5.254    0.507    0.217
  306.250  132.738    5.047    0.529    0.226
  306.500  133.971    5.045    0.546    0.231
  306.750  134.587    5.044    0.547    0.226
  307.000  137.674    4.836    0.544    0.220
  307.250  138.907    4.834    0.544    0.214
  307.500  135.818    4.832    0.537    0.214
  307.750  133.346    4.830    0.536    0.219
  308.000  132.108    4.827    0.534    0.225
  308.250  132.724    4.622    0.532    0.225
  308.500  133.958    4.414    0.534    0.221
  308.750  134.575    4.412    0.548    0.220
  309.000  136.426    4.206    0.566    0.219
  309.250  139.512    4.204    0.565    0.219
  309.500  140.745    4.202    0.544    0.219
  309.750  139.508    4.199    0.530    0.218
  310.000  138.890    4.195    0.533    0.215
  310.250  137.035    4.194    0.536    0.211
  310.500  135.181    4.397    0.540    0.213
  310.750  136.414    4.393    0.529    0.221
  311.000  137.648    4.391    0.535    0.231
  311.250  137.646    4.389    0.573    0.241
  311.500  138.262    4.388    0.589    0.250
  311.750  138.878    4.181    0.587    0.254
  312.000  138.877    4.179    0.590    0.256
  312.250  137.640    4.176    0.593    0.248
  312.500  134.551    4.175    0.593    0.245
  312.750  132.079    4.172    0.590    0.243
  313.000  131.460    4.170    0.589    0.247
  313.250  130.840    4.168    0.557    0.251
  313.500  130.839    4.166    0.551    0.253
  313.750  130.220    4.162    0.544    0.256
  314.000  128.983    4.364    0.531    0.255
  314.250  128.364    4.567    0.522    0.251
  314.500  127.745    4.565    0.507    0.247
  314.750  127.126    4.767    0.496    0.246
  315.000  125.889    4.559    0.486    0.246
  315.250  123.417    4.354    0.483    0.246
  315.500  122.181    4.351    0.477    0.243
  315.750  120.944    5.778    0.469    0.242
  316.000  120.942    6.593    0.456    0.240
  316.250  120.940    6.999    0.442    0.236
  316.500  120.939    6.997    0.449    0.236
  316.750  121.554    6.790    0.471    0.237
  317.000  121.553    6.175    0.487    0.240
  317.250  122.787    5.968    0.482    0.242
  317.500  125.256    5.967    0.483    0.247
  317.750  128.342    5.964    0.491    0.248
  318.000  130.193    5.757    0.499    0.248
  318.250  127.721    5.551    0.511    0.248
  318.500  126.484    5.141    0.520    0.250
  318.750  125.865    3.913    0.522    0.252
  319.000  124.010    3.503    0.524    0.260
  319.250  122.156    3.297    0.538    0.269
  319.500  118.450    2.886    0.551    0.276
  319.750  111.655    3.292    0.561    0.284
  320.000  106.095    4.106    0.512    0.293
  320.250   98.065    4.921    0.502    0.303
  320.500   91.270    5.940    0.485    0.305
  320.750   90.651    6.754    0.475    0.285
  321.000   96.208    7.159    0.470    0.267
  321.250  102.382    7.158    0.465    0.260
  321.500  106.086    7.156    0.456    0.263
  321.750  107.319    6.949    0.449    0.272
  322.000  107.317    6.742    0.443    0.277
  322.250  107.316    6.740    0.432    0.284
  322.500  109.167    6.943    0.421    0.288
  322.750  110.401    6.941    0.437    0.294
  323.000  111.634    7.142    0.497    0.297
  323.250  111.633    7.140    0.493    0.287
  323.500  110.396    7.137    0.479    0.273
  323.750  111.629    6.931    0.479    0.269
  324.000  114.716    5.704    0.487    0.269
  324.250  116.567    4.477    0.507    0.271
  324.500  116.566    3.657    0.540    0.271
  324.750  115.945    3.859    0.544    0.271
  325.000  114.709    4.061    0.519    0.269
  325.250  112.855    4.059    0.513    0.268
  325.500  117.794    4.057    0.509    0.265
  325.750  121.498    3.850    0.516    0.262
  326.000  120.878    4.052    0.518    0.256
  326.250  120.877    5.070    0.513    0.251
  326.500  120.258    5.476    0.503    0.246
  326.750  117.786    6.087    0.497    0.245
  327.000  115.314    6.289    0.491    0.247
  327.250  116.547    6.491    0.487    0.250
  327.500  117.782    6.693    0.489    0.252
  327.750  119.015    6.487    0.490    0.254
  328.000  119.014    6.280    0.492    0.255
  328.250  118.394    5.869    0.496    0.256
  328.500  117.775    5.459    0.524    0.254
  328.750  119.009    4.843    0.545    0.254
  329.000  120.242    4.638    0.578    0.255
  329.250  119.623    4.022    0.582    0.255
  329.500  117.769    3.817    0.576    0.255
  329.750  115.915    3.610    0.550    0.255
  330.000  113.442    3.403    0.537    0.255
  330.250  111.588    3.605    0.534    0.260
  330.500  114.057    3.806    0.558    0.266
  330.750  116.526    3.805    0.562    0.267
  331.000  118.376    3.598    0.562    0.275
  331.250  118.993    3.597    0.562    0.277
  331.500  119.609    3.594    0.561    0.272
  331.750  118.990    3.796    0.565    0.265
  332.000  111.578    3.998    0.574    0.270
  332.250  109.723    4.404    0.585    0.282
  332.500  108.486    4.606    0.574    0.283
  332.750  107.867    4.602    0.526    0.276
  333.000  106.012    4.600    0.529    0.268
  333.250  103.540    4.599    0.553    0.270
  333.500  102.922    4.596    0.550    0.275
  333.750  104.155    4.595    0.518    0.280
  334.000  106.624    4.592    0.494    0.278
  334.250  110.328    4.590    0.492    0.277
  334.500  114.032    4.587    0.495    0.270
  334.750  117.118    4.586    0.499    0.265
  335.000  118.969    4.787    0.505    0.261
  335.250  122.055    4.785    0.516    0.260
  335.500  122.671    4.782    0.529    0.259
  335.750  120.817    4.780    0.507    0.254
  336.000  118.345    4.779    0.501    0.245
  336.250  117.108    4.776    0.491    0.243
  336.500  117.107    4.774    0.494    0.243
  336.750  117.723    4.975    0.524    0.246
  337.000  118.339    4.974    0.550    0.251
  337.250  118.337    5.175    0.563    0.255
  337.500  118.335    5.173    0.542    0.262
  337.750  118.951    5.171    0.505    0.267
  338.000  118.950    5.168    0.490    0.271
  338.250  118.948    5.167    0.485    0.266
  338.500  118.947    5.164    0.492    0.259
  338.750  117.710    5.162    0.510    0.253
  339.000  118.944    5.159    0.529    0.246
  339.250  121.413    5.158    0.550    0.243
  339.500  125.117    5.154    0.559    0.239
  339.750  129.438    4.949    0.558    0.238
  340.000  132.524    4.947    0.557    0.237
  340.250  132.523    4.536    0.550    0.235
  340.500  128.198    4.329    0.550    0.235
  340.750  125.726    3.919    0.552    0.235
  341.000  125.106    3.507    0.552    0.240
  341.250  125.105    3.301    0.548    0.244
  341.500  125.720    3.299    0.541    0.249
  341.750  126.337    3.297    0.534    0.251
  342.000  126.953    3.294    0.528    0.254
  342.250  126.334    3.293    0.527    0.255
  342.500  125.097    3.290    0.527    0.258
  342.750  120.155    3.288    0.523    0.256
  343.000  117.066    3.286    0.516    0.256
  343.250  117.682    3.488    0.511    0.262
