~VERSION INFORMATION
 VERS.                 2.0:   CWLS LOG ASCII STANDARD -VERSION 2.0
 WRAP.                  NO:   ONE LINE PER DEPTH STEP
~WELL INFORMATION BLOCK
#MNEM.UNIT           DATA                    DESCRIPTION OF MNEMONIC
#---------    -------------------            -------------------------------
# Generated from Intellog Unique Number	CX_WELLS/WELL/3822
WELL.         REGENT HORSE                   : Well_name    - WELL
LOC .         AA/16-34-086-12W4/0            : Location     - LOCATION
UWI .         AA/16-34-086-12W400            : Uwi          - UNIQUE WELL ID
ENTR.         T                              : Entered      - ENTERED BY
SRVC.         SCHLUMBERGER                   : Scn          - SERVICE COMPANY
STRT.F        150                            : top_depth    - START DEPTH
STOP.F        639.665                        : bot_depth    - STOP DEPTH
STEP.F        0.82                           : increment    - STEP LENGTH
 NULL. -999.2500:NULL Value
~CURVE INFORMATION BLOCK
#MNEM UNIT       ERCB CURVE CODE    CURVE DESCRIPTION
#-----------   ------------------   ----------------------------------
DEPT.F        00 001 00 00         : DEPTH        - DEPTH
GR  .API      00 310 00 00         : GR           - GAMMA RAY
NPHI.V/V      00 330 00 00         : PHIN         - NEUTRON POROSITY (SANDSTONE)
ILD .OHMM     00 120 00 00         : RESD         - DEEP RESISTIVITY (DIL)
~PARAMETER INFORMATION
#MNEM.UNIT           DATA             DESCRIPTION OF MNEMONIC
#---------         -----------     ------------------------------
GL  .F        1515                 : gl           - GROUND LEVEL ELEVATION
EREF.F        1515                 : kb           - ELEVATION OF DEPTH REFERENCE
DATM.F        1515                 : datum        - DATUM ELEVATION
TDD .F        647                  : tdd          - TOTAL DEPTH DRILLER
RUN .         ONE                  : Run          - RUN NUMBER
ENG .         BILL                 : Engineer     - RECORDING ENGINEER
WIT .         JIM                  : Witness      - WITNESSED BY
MUD .         GEL                  : Mud_type     - MUD TYPE
MATR.         SANDSTONE            : Logunit      - NEUTRON MATRIX
TMAX.F        58                   : BHT          - MAXIMUM RECORDED TEMPERATURE
BHTD.F        647                  : BHTDEP       - MAXIMUM RECORDED TEMPERATURE
MATR.         1                    : LOGUNIT      - NEUTRON MATRIX
RMT .F        50                   : MDTP         - TEMPERATURE OF MUD
NEUT.         1                    : NEUTRON      - NEUTRON TYPE
RESI.         2.6                  : RESIST       - RESISTIVITY TYPE
RMC .OHMM     0.25                 : RMC          - RESISTIVITY OF MUD CAKE
RMF .OHMM     2.9                  : RMF          - RESISTIVITY OF MUD FILTRATE
SUFT.F        39.2                 : SUFT         - SURFACE TEMPERATURE
~A  DEPTH       GR     PHIN     RESD
# ...
  327.986   98.465    0.481   13.595
  328.806  101.096    0.475   13.441
  329.626  102.872    0.466   13.834
  330.446  101.243    0.457   14.958
  331.266  100.008    0.449   16.271
  332.087   99.646    0.440   18.491
  332.907   98.000    0.428   21.266
  333.727   94.644    0.412   21.483
  334.547   90.860    0.418   21.512
  335.367   85.381    0.445   21.547
  336.188   85.446    0.462   21.940
  337.008   87.650    0.479   21.603
  337.828   90.265    0.491   20.345
  338.648   95.051    0.498   14.339
  339.469   96.399    0.504   13.447
  340.289   97.336    0.501   11.831
  341.109   98.256    0.495   12.231
  341.929   98.749    0.492   12.259
  342.749   99.686    0.484   12.301
  343.570   99.751    0.481   12.322
  344.390  100.228    0.478   12.533
  345.210  100.309    0.465   13.467
  346.030  100.390    0.450   19.354
  346.850  100.423    0.426   17.366
  347.671  100.488    0.425   13.923
  348.491  100.126    0.428   14.317
  349.311   98.908    0.436   15.806
  350.131   94.268    0.435   18.215
  350.951   89.629    0.433   19.353
  351.772   87.128    0.432   19.550
  352.592   83.788    0.427   19.409
  353.412   83.837    0.424   19.430
  354.232   87.751    0.421   19.093
  355.052   88.671    0.418   18.397
  355.873   87.881    0.412   18.053
  356.693   86.252    0.410   18.088
  357.513   85.462    0.420   18.481
  358.333   88.948    0.437   17.961
  359.154   92.435    0.450   17.252
  359.974   93.372    0.461   15.819
  360.794   92.565    0.448   15.481
  361.614   91.775    0.436   15.516
  362.434   89.718    0.429   15.910
  363.255   88.484    0.410   17.764
  364.075   86.838    0.387   21.817
  364.895   87.758    0.375   23.672
  365.715   90.406    0.379   24.985
  366.535   92.609    0.394   20.440
  367.356   94.846    0.423   16.626
  368.176   96.178    0.460   15.010
  368.996   98.414    0.457   13.577
  369.816   99.302    0.452   13.239
  370.636  100.650    0.452   12.909
  371.457  100.715    0.456   12.755
  372.277   99.497    0.460   12.965
  373.097   96.996    0.460   13.169
  373.917   93.672    0.458   13.948
  374.738   92.422    0.458   14.152
  375.558   92.487    0.459   14.187
  376.378   94.707    0.462   14.026
  377.198   93.489    0.462   13.864
  378.018   92.255    0.456   13.892
  378.839   90.181    0.423   14.285
  379.659   88.108    0.415   16.147
  380.479   86.890    0.405   17.636
  381.299   86.544    0.399   17.481
  382.119   86.609    0.397   19.526
  382.940   87.102    0.399   26.136
  383.760   88.466    0.398   26.353
  384.580   89.370    0.398   21.991
  385.400   90.719    0.398   17.994
  386.220   92.067    0.399   15.837
  387.041   94.303    0.398   16.237
  387.861   94.779    0.399   16.258
  388.681   95.272    0.406   15.921
  389.501   94.910    0.421   15.584
  390.322   93.264    0.418   15.605
  391.142   92.474    0.412   16.195
  391.962   93.822    0.410   16.040
  392.782   96.026    0.415   15.162
  393.602   97.406    0.417   14.818
  394.423   97.472    0.418   14.473
  395.243   97.093    0.425   13.960
  396.063   94.624    0.435   13.981
  396.883   93.801    0.449   14.016
  397.703   91.317    0.451   14.037
  398.524   89.227    0.417   14.248
  399.344   88.437    0.411   17.030
  400.164   91.496    0.438   16.875
  400.984   95.838    0.460   17.276
  401.804  100.196    0.465   17.662
  402.625  101.972    0.471   17.704
  403.445  103.748    0.476   17.352
  404.265  103.402    0.483   14.451
  405.085  102.200    0.487   11.922
  405.906  101.821    0.490   11.402
  406.726  101.886    0.493   11.065
  407.546  102.395    0.494   10.728
  408.366  103.300    0.494   10.756
  409.186  104.680    0.492   11.697
  410.007  105.157    0.489   13.010
  410.827  106.505    0.484   13.039
  411.647  110.419    0.480   12.884
  412.467  113.478    0.477   12.919
  413.287  114.004    0.475   12.940
  414.108  113.625    0.473   12.785
  414.928  112.835    0.473   12.827
  415.748  110.778    0.474   13.031
  416.568  108.260    0.467   13.803
  417.388  104.888    0.462   14.190
  418.209  105.380    0.462   14.948
  419.029  109.311    0.461   15.714
  419.849  110.264    0.459   16.473
  420.669  110.741    0.462   16.683
  421.490  110.806    0.464   15.798
  422.310  109.999    0.458   15.278
  423.130  108.354    0.452   15.671
  423.950  109.702    0.449   16.247
  424.770  113.205    0.449   17.737
  425.591  116.264    0.444   16.500
  426.411  115.917    0.441   15.790
  427.231  113.005    0.435   15.088
  428.051  112.182    0.435   14.744
  428.871  109.254    0.442   14.238
  429.692  106.325    0.450   14.076
  430.512  107.673    0.442   13.921
  431.332  110.748    0.437   14.322
  432.152  110.830    0.424   14.701
  432.972  109.151    0.412   17.117
  433.793  105.795    0.402   17.869
  434.613  103.294    0.393   17.904
  435.433   99.970    0.384   17.756
  436.253   98.720    0.381   17.777
  437.073   96.219    0.414   17.812
  437.894   94.573    0.421   17.841
  438.714   93.355    0.438   17.869
  439.534   92.993    0.452   17.707
  440.354   93.058    0.465   17.742
  441.175   93.551    0.457   17.953
  441.995   94.471    0.446   17.981
  442.815   95.819    0.445   18.198
  443.635   96.329    0.451   18.219
  444.455   96.838    0.455   18.247
  445.276   97.742    0.459   18.282
  446.096   98.662    0.460   18.310
  446.916   99.583    0.457   18.338
  447.736   99.648    0.456   18.184
  448.556   98.019    0.448   17.488
  449.377   95.945    0.439   16.596
  450.197   93.428    0.428   17.537
  451.017   90.927    0.409   18.844
  451.837   86.715    0.387   19.609
  452.657   84.642    0.358   21.099
  453.478   85.562    0.332   22.222
  454.298   87.766    0.326   18.043
  455.118   90.397    0.359   16.244
  455.938   95.183    0.370   15.907
  456.759   96.959    0.396   15.759
  457.579   96.613    0.417   15.780
  458.399   97.106    0.434   15.626
  459.219   98.026    0.438   15.661
  460.039   99.374    0.445   16.237
  460.860  100.771    0.455   16.644
  461.680  101.232    0.468   16.110
  462.500  101.708    0.477   15.042
  463.320  103.500    0.479   13.616
  464.140  106.148    0.481   12.724
  464.961  107.908    0.485   11.656
  465.781  111.838    0.488   10.778
  466.601  114.897    0.489   10.251
  467.421  115.850    0.489   10.286
  468.241  114.172    0.484   10.496
  469.062  112.099    0.480   11.255
  469.882  110.025    0.474   12.189
  470.702  106.685    0.469   12.955
  471.522  105.023    0.463   12.990
  472.343  102.522    0.460   13.383
  473.163   99.182    0.450   14.142
  473.983   97.504    0.440   15.448
  474.803   98.441    0.409   16.572
  475.623  100.644    0.401   15.322
  476.444  103.276    0.389   15.350
  477.264  104.196    0.419   16.122
  478.084  105.149    0.432   16.509
  478.904  105.214    0.460   16.909
  479.724  104.440    0.468   16.213
  480.545  104.045    0.480   15.679
  481.365  101.561    0.495   15.159
  482.185  100.326    0.506   14.640
  483.005   96.970    0.503   12.651
  483.825   95.324    0.493   10.670
  484.646   92.807    0.486   10.881
  485.466   89.039    0.480   12.742
  486.286   89.088    0.475   12.777
  487.106   90.041    0.469   12.082
  487.927   90.074    0.473   12.096
  488.747   88.461    0.479   13.051
  489.567   87.654    0.479   14.168
  490.387   86.864    0.473   15.840
  491.207   87.833    0.462   16.416
  492.028   88.277    0.455   13.704
  492.848   90.070    0.455   13.915
  493.668   91.401    0.453   14.674
  494.488   94.904    0.447   13.606
  495.308   97.963    0.464   11.990
  496.129  101.894    0.483   10.564
  496.949  105.808    0.508   10.606
  497.769  107.173    0.524   10.620
  498.589  105.511    0.512   10.641
  499.409  105.164    0.505   10.500
  500.230  106.085    0.494   10.352
  501.050  107.005    0.484   10.373
  501.870  108.354    0.480   10.212
  502.690  109.702    0.484   10.064
  503.510  109.767    0.489   10.085
  504.331  110.276    0.490   10.113
  505.151  110.753    0.494   10.148
