~VERSION INFORMATION
 VERS.                 2.0:   CWLS LOG ASCII STANDARD -VERSION 2.0
 WRAP.                  NO:   ONE LINE PER DEPTH STEP
~WELL INFORMATION BLOCK
#MNEM.UNIT           DATA                    DESCRIPTION OF MNEMONIC
#---------    -------------------            -------------------------------
# Generated from Intellog Unique Number	CW_79_81/WELL/2487
WELL.         13-06-081-21W4                 : Well_name    - WELL
LOC .         AA/13-06-081-21W4/0            : Location     - LOCATION
UWI .         AA/13-06-081-21W4/0            : Uwi          - UNIQUE WELL ID
ENTR.         MAX                            : Entered      - ENTERED BY
SRVC.         SCHLUMBERGER                   : Scn          - SERVICE COMPANY
STRT.M        185                            : top_depth    - START DEPTH
STOP.M        434.75                         : bot_depth    - STOP DEPTH
STEP.M        0.25                           : increment    - STEP LENGTH
 NULL. -999.2500:NULL Value
~CURVE INFORMATION BLOCK
#MNEM UNIT       ERCB CURVE CODE    CURVE DESCRIPTION
#-----------   ------------------   ----------------------------------
DEPT.M        00 001 00 00         : DEPTH        - DEPTH
ILD .OHMM     00 120 00 00         : RESD         - DEEP RESISTIVITY (DIL)
NPHI.V/V      00 330 00 00         : PHIN         - NEUTRON POROSITY (SANDSTONE)
DPHI.V/V      00 890 00 00         : PHID         - DENSITY POROSITY (SANDSTONE)
GR  .API      00 310 00 00         : GR           - GAMMA RAY
CALI.MM       00 280 01 00         : CAL          - CALIPER
~PARAMETER INFORMATION
#MNEM.UNIT           DATA             DESCRIPTION OF MNEMONIC
#---------         -----------     ------------------------------
GL  .M        604.15               : gl           - GROUND LEVEL ELEVATION
EREF.M        608.75               : kb           - ELEVATION OF DEPTH REFERENCE
DATM.M        604.15               : datum        - DATUM ELEVATION
TDD .M        442                  : tdd          - TOTAL DEPTH DRILLER
RUN .         ONE                  : Run          - RUN NUMBER
ENG .         BILL                 : Engineer     - RECORDING ENGINEER
WIT .         JIM                  : Witness      - WITNESSED BY
MUD .         GEL                  : Mud_type     - MUD TYPE
MATR.         SANDSTONE            : Logunit      - NEUTRON MATRIX
TMAX.C        28.9                 : BHT          - MAXIMUM RECORDED TEMPERATURE
BHTD.M        442                  : BHTDEP       - MAXIMUM RECORDED TEMPERATURE
MATR.         1                    : LOGUNIT      - NEUTRON MATRIX
RMT .C        23.9                 : MDTP         - TEMPERATURE OF MUD
NEUT.         1                    : NEUTRON      - NEUTRON TYPE
RESI.         0                    : RESIST       - RESISTIVITY TYPE
RMC .OHMM     5.54                 : RMC          - RESISTIVITY OF MUD CAKE
RMF .OHMM     3.27                 : RMF          - RESISTIVITY OF MUD FILTRATE
SUFT.C        -20                  : SUFT         - SURFACE TEMPERATURE
~A  DEPTH     RESD     PHIN     PHID       GR      CAL
# ...
  294.500   16.671    0.243    0.058   55.116  161.863
  294.750   16.890    0.213    0.046   59.851  161.817
  295.000   16.517    0.189    0.065   63.874  161.490
  295.250   14.965    0.221    0.134   66.113  160.665
  295.500   12.787    0.301    0.239   66.152  159.738
  295.750   10.754    0.379    0.331   64.371  159.618
  296.000   10.310    0.473    0.358   65.088  159.161
  296.250   10.237    0.461    0.357   65.307  159.126
  296.500   10.475    0.451    0.354   64.992  159.093
  296.750   10.900    0.449    0.351   64.379  159.258
  297.000   11.458    0.458    0.351   64.536  159.521
  297.250   12.305    0.479    0.359   67.364  159.482
  297.500   13.013    0.476    0.370   67.344  159.449
  297.750   13.451    0.475    0.380   62.566  159.814
  298.000   14.320    0.450    0.381   63.496  159.876
  298.250   15.216    0.413    0.376   66.567  160.236
  298.500   15.030    0.399    0.370   69.339  160.894
  298.750   12.428    0.458    0.373   69.516  161.249
  299.000   11.354    0.448    0.379   64.537  161.220
  299.250   10.825    0.435    0.376   62.853  161.181
  299.500   10.752    0.424    0.369   61.165  161.439
  299.750   10.857    0.429    0.365   59.599  161.802
  300.000   11.018    0.444    0.366   58.868  162.070
  300.250   11.270    0.441    0.370   60.960  162.027
  300.500   11.424    0.432    0.376   64.410  161.990
  300.750   11.575    0.441    0.379   68.671  161.959
  301.000   11.845    0.441    0.374   66.868  161.924
  301.250   12.242    0.445    0.371   63.517  161.693
  301.500   12.824    0.456    0.373   61.593  161.261
  301.750   13.939    0.466    0.373   61.922  160.812
  302.000   15.165    0.466    0.343   58.930  160.779
  302.250   17.523    0.402    0.213   57.009  160.747
  302.500   20.849    0.281    0.143   59.901  160.713
  302.750   25.663    0.204    0.091   67.729  160.481
  303.000   30.803    0.199    0.041   78.231  160.152
  303.250   29.048    0.222    0.007   88.997  160.110
  303.500   23.809    0.276    0.031  100.125  160.077
  303.750   18.827    0.431    0.155   78.225  160.045
  304.000   16.553    0.461    0.265   58.642  160.008
  304.250   15.551    0.450    0.333   47.800  159.973
  304.500   15.212    0.440    0.354   45.639  159.941
  304.750   15.019    0.440    0.356   45.612  159.902
  305.000   14.600    0.466    0.353   45.594  159.865
  305.250   14.207    0.469    0.352   45.571  160.223
  305.500   14.108    0.462    0.350   45.906  160.288
  305.750   14.056    0.454    0.348   46.124  160.257
  306.000   13.886    0.449    0.343   46.045  160.224
  306.250   13.300    0.443    0.333   45.833  160.098
  306.500   12.317    0.451    0.320   46.057  159.645
  306.750   11.508    0.451    0.296   48.415  159.613
  307.000   10.865    0.445    0.299   52.380  159.581
  307.250    9.968    0.442    0.315   58.305  159.546
  307.500    8.863    0.445    0.327   65.359  159.408
  307.750    7.632    0.447    0.302   73.351  158.968
  308.000    6.830    0.444    0.266   82.495  158.942
  308.250    5.794    0.466    0.250   87.230  158.904
  308.500    5.110    0.476    0.246   83.584  158.868
  308.750    4.933    0.472    0.256   77.500  158.832
  309.000    5.208    0.458    0.275   72.544  158.798
  309.250    5.865    0.437    0.290   70.448  158.676
  309.500    6.426    0.429    0.296   73.151  158.227
  309.750    6.776    0.431    0.290   79.790  158.195
  310.000    6.972    0.442    0.281   84.999  158.158
  310.250    7.111    0.455    0.269   88.071  158.125
  310.500    7.242    0.460    0.260   90.015  157.995
  310.750    7.367    0.447    0.258   94.498  157.553
  311.000    7.521    0.442    0.251   99.183  157.520
  311.250    7.876    0.446    0.242   99.877  157.481
  311.500    8.010    0.453    0.233  102.710  157.448
  311.750    8.090    0.459    0.228  103.877  157.611
  312.000    8.182    0.462    0.231  100.704  157.971
  312.250    8.257    0.458    0.239   91.892  158.414
  312.500    8.370    0.453    0.235   93.110  158.790
  312.750    8.423    0.448    0.230   95.943  158.755
  313.000    8.435    0.437    0.232   97.170  158.420
  313.250    8.403    0.435    0.235   95.841  158.188
  313.500    8.357    0.445    0.234   93.561  158.157
  313.750    8.332    0.452    0.227   94.638  158.111
  314.000    8.213    0.451    0.228   95.359  158.075
  314.250    8.101    0.451    0.224   95.811  158.046
  314.500    7.990    0.457    0.224   96.982  158.008
  314.750    7.854    0.458    0.223   97.555  157.974
  315.000    7.708    0.449    0.221   97.174  157.947
  315.250    7.592    0.425    0.221   96.585  157.904
  315.500    7.536    0.427    0.233   97.310  157.867
  315.750    7.533    0.465    0.238   99.429  158.225
  316.000    7.531    0.470    0.237  101.907  158.288
  316.250    7.604    0.451    0.240  102.481  158.453
  316.500    7.743    0.439    0.254  100.439  158.717
  316.750    7.855    0.477    0.278   96.905  158.758
  317.000    7.908    0.473    0.265   98.370  159.138
  317.250    7.853    0.459    0.254   99.775  159.495
  317.500    7.718    0.465    0.245  100.469  159.858
  317.750    7.587    0.470    0.241  100.568  160.025
  318.000    7.509    0.465    0.242   99.774  159.992
  318.250    7.485    0.459    0.245   96.675  159.950
  318.500    7.378    0.464    0.247   93.187  159.917
  318.750    7.376    0.469    0.249   94.357  159.089
  319.000    7.336    0.479    0.247   95.525  158.261
  319.250    7.234    0.487    0.241   95.861  157.435
  319.500    7.123    0.487    0.234   96.196  156.609
  319.750    7.111    0.476    0.230   98.925  155.770
  320.000    7.060    0.465    0.224   98.408  155.734
  320.250    7.010    0.450    0.239   96.251  155.698
  320.500    6.961    0.438    0.257   96.409  155.668
  320.750    6.888    0.431    0.265   97.576  156.031
  321.000    6.794    0.428    0.259   99.099  156.785
  321.250    6.692    0.431    0.244  101.274  157.616
  321.500    6.642    0.444    0.239  102.743  157.999
  321.750    6.640    0.464    0.235  102.482  158.364
  322.000    6.638    0.468    0.231  100.440  158.726
  322.250    6.725    0.473    0.232   94.594  158.691
  322.500    6.917    0.483    0.246   86.547  158.061
  322.750    7.181    0.470    0.272   81.180  156.664
  323.000    7.331    0.401    0.273   79.422  155.802
  323.250    7.378    0.395    0.275   77.740  155.370
  323.500    7.388    0.415    0.282   77.126  155.238
  323.750    7.385    0.437    0.289   76.509  155.401
  324.000    7.382    0.450    0.295   75.833  155.761
  324.250    7.390    0.456    0.297   76.198  156.201
  324.500    7.439    0.456    0.295   76.917  156.577
  324.750    7.486    0.452    0.289   77.849  156.541
  325.000    8.527    0.446    0.277   80.189  156.740
  325.250    9.384    0.443    0.268   81.589  156.673
  325.500    9.365    0.444    0.266   81.700  156.559
  325.750    9.264    0.453    0.272   82.617  157.339
  326.000    9.120    0.462    0.276   84.850  157.322
  326.250    8.916    0.456    0.267   85.079  157.309
  326.500    8.570    0.443    0.247   85.488  156.996
  326.750    7.843    0.428    0.230   86.795  156.982
  327.000    6.899    0.424    0.225   89.597  157.367
  327.250    5.948    0.457    0.243   96.361  158.161
  327.500    5.505    0.497    0.263  106.315  160.222
  327.750    5.671    0.512    0.272   99.373  159.013
  328.000    6.166    0.509    0.284   84.719  159.299
  328.250    6.773    0.506    0.296   76.580  160.081
  328.500    7.291    0.502    0.304   77.885  160.662
  328.750    7.601    0.476    0.304   80.069  160.646
  329.000    7.483    0.458    0.301   79.064  160.631
  329.250    7.939    0.460    0.289   76.185  160.618
  329.500    8.838    0.486    0.274   76.535  160.602
  329.750    9.793    0.494    0.235   78.081  160.588
  330.000   10.572    0.450    0.178   79.388  160.277
  330.250   11.448    0.328    0.135   80.065  159.311
  330.500   11.270    0.291    0.140   82.298  160.541
  330.750    9.831    0.372    0.216   86.593  161.324
