~VERSION INFORMATION
 VERS.                 2.0:   CWLS LOG ASCII STANDARD -VERSION 2.0
 WRAP.                  NO:   ONE LINE PER DEPTH STEP
~WELL INFORMATION BLOCK
#MNEM.UNIT           DATA                    DESCRIPTION OF MNEMONIC
#---------    -------------------            -------------------------------
# Generated from Intellog Unique Number	CS_73_76/WELL/3285
WELL.         AMOCO KIRBY                    : Well_name    - WELL
LOC .         AA/10-11-074-07W4/0            : Location     - LOCATION
UWI .         AA/10-11-074-07W4/0            : Uwi          - UNIQUE WELL ID
ENTR.         TIM                            : Entered      - ENTERED BY
SRVC.         SCHLUMBERGER                   : Scn          - SERVICE COMPANY
STRT.M        300                            : top_depth    - START DEPTH
STOP.M        515                            : bot_depth    - STOP DEPTH
STEP.M        0.25                           : increment    - STEP LENGTH
 NULL. -999.2500:NULL Value
~CURVE INFORMATION BLOCK
#MNEM UNIT       ERCB CURVE CODE    CURVE DESCRIPTION
#-----------   ------------------   ----------------------------------
DEPT.M        00 001 00 00         : DEPTH        - DEPTH
NPHI.V/V      00 330 00 00         : PHIN         - NEUTRON POROSITY (SANDSTONE)
GR  .API      00 310 00 00         : GR           - GAMMA RAY
DPHI.V/V      00 890 00 00         : PHID         - DENSITY POROSITY (SANDSTONE)
ILD .OHMM     00 120 00 00         : RESD         - DEEP RESISTIVITY (DIL)
~PARAMETER INFORMATION
#MNEM.UNIT           DATA             DESCRIPTION OF MNEMONIC
#---------         -----------     ------------------------------
GL  .M        685.15               : gl           - GROUND LEVEL ELEVATION
EREF.M        688.25               : kb           - ELEVATION OF DEPTH REFERENCE
DATM.M        688.25               : datum        - DATUM ELEVATION
TDD .M        519                  : tdd          - TOTAL DEPTH DRILLER
RUN .         ONE                  : Run          - RUN NUMBER
ENG .         BILL                 : Engineer     - RECORDING ENGINEER
WIT .         JIM                  : Witness      - WITNESSED BY
MUD .         GEL                  : Mud_type     - MUD TYPE
MATR.         SANDSTONE            : Logunit      - NEUTRON MATRIX
TMAX.C        22                   : BHT          - MAXIMUM RECORDED TEMPERATURE
BHTD.M        519                  : BHTDEP       - MAXIMUM RECORDED TEMPERATURE
RMT .C        20                   : MDTP         - TEMPERATURE OF MUD
MUDD.KG/M     1150                 : MWT          - MUD DENSITY
NEUT.         1                    : NEUTRON      - NEUTRON TYPE
RESI.         0                    : RESIST       - RESISTIVITY TYPE
RM  .OHMM     6.05                 : RM           - RESISTIVITY OF MUD
RMC .OHMM     5.92                 : RMC          - RESISTIVITY OF MUD CAKE
RMF .OHMM     6.3                  : RMF          - RESISTIVITY OF MUD FILTRATE
SUFT.C        4                    : SUFT         - SURFACE TEMPERATURE
~A  DEPTH     PHIN       GR     PHID     RESD
  300.000    0.455  103.149    0.271    3.673
  300.250    0.453  100.763    0.261    3.601
  300.500    0.457   98.966    0.258    3.598
  300.750    0.456   92.421    0.253    3.734
  301.000    0.452   84.696    0.252    4.023
  301.250    0.453   82.899    0.250    4.020
  301.500    0.459   84.066    0.250    4.018
  301.750    0.463   95.903    0.251    4.015
  302.000    0.470   96.472    0.252    4.166
  302.250    0.475   94.082    0.251    5.421
  302.500    0.465   94.063    0.251    7.464
  302.750    0.413   92.271    0.255    9.711
  303.000    0.401   87.509    0.263   11.282
  303.250    0.404   81.558    0.272   12.159
  303.500    0.403   77.389    0.298   12.857
  303.750    0.391   85.077    0.304   13.341
  304.000    0.378   86.836    0.314   13.843
  304.250    0.384   88.596    0.319   14.638
  304.500    0.398   93.319    0.292   15.189
  304.750    0.406  100.414    0.269   15.464
  305.000    0.406  105.731    0.267   15.452
  305.250    0.391  104.521    0.274   15.149
  305.500    0.385  103.317    0.283   15.135
  305.750    0.378  100.339    0.299   16.007
  306.000    0.375   89.057    0.312   18.603
  306.250    0.373   77.177    0.312   20.812
  306.500    0.373   68.859    0.312   22.007
  306.750    0.379   62.319    0.318   22.409
  307.000    0.393   53.408    0.325   21.559
  307.250    0.398   48.647    0.329   20.362
  307.500    0.383   42.690    0.325   18.869
  307.750    0.374   41.490    0.281   17.488
  308.000    0.381   61.034    0.268   15.020
  308.250    0.388   77.614    0.263   14.734
  308.500    0.400   77.002    0.268   13.913
  308.750    0.405   78.169    0.270   13.903
  309.000    0.389   79.929    0.273   13.890
  309.250    0.393   85.838    0.268   13.880
  309.500    0.405   93.526    0.262   13.869
  309.750    0.421   98.249    0.259   14.126
  310.000    0.420   97.045    0.258   14.655
  310.250    0.409   92.876    0.263   14.925
  310.500    0.415   86.336    0.270   15.776
  310.750    0.414   82.163    0.283   16.376
  311.000    0.407   81.552    0.297   17.317
  311.250    0.402   77.976    0.308   18.307
  311.500    0.400   73.215    0.318   19.355
  311.750    0.395   69.041    0.326   20.083
  312.000    0.385   72.584    0.332   18.610
  312.250    0.391   78.493    0.327   16.300
  312.500    0.402   86.181    0.267   14.008
  312.750    0.390   90.312    0.252   12.266
  313.000    0.374   90.886    0.240   10.541
  313.250    0.356   91.460    0.229   11.146
  313.500    0.352   90.255    0.216   12.472
  313.750    0.358   87.272    0.210   14.221
  314.000    0.365   81.918    0.200   16.215
  314.250    0.370   76.559    0.190   18.489
  314.500    0.365   75.948    0.183   20.689
  314.750    0.359   72.965    0.224   23.141
  315.000    0.356   69.384    0.265   23.564
  315.250    0.358   66.406    0.293   23.550
  315.500    0.363   60.454    0.297   23.093
  315.750    0.369   57.471    0.289   20.996
  316.000    0.375   57.448    0.285   19.830
  316.250    0.383   58.619    0.285   18.033
  316.500    0.390   63.936    0.275   16.092
  316.750    0.397   71.031    0.262   12.824
  317.000    0.410   93.543    0.228   10.218
  317.250    0.425  100.633    0.187    8.456
  317.500    0.422  100.022    0.172    6.997
  317.750    0.420  101.188    0.184    6.013
  318.000    0.416  103.536    0.195    5.167
  318.250    0.413  104.110    0.207    4.699
  318.500    0.415  107.055    0.216    4.353
  318.750    0.424  110.598    0.216    4.033
  319.000    0.438  115.910    0.218    3.809
  319.250    0.451  114.710    0.224    3.597
  319.500    0.460  114.098    0.233    3.527
  319.750    0.455  114.074    0.241    3.660
  320.000    0.424  112.870    0.246    4.417
  320.250    0.384  110.485    0.249    5.746
  320.500    0.370  101.569    0.260    8.216
  320.750    0.359   88.508    0.273   11.527
  321.000    0.351   76.040    0.269   13.142
  321.250    0.346   71.274    0.265   13.379
  321.500    0.353   70.070    0.273   13.374
  321.750    0.370   72.427    0.282   13.364
  322.000    0.398   77.151    0.276   13.354
  322.250    0.398   78.308    0.263   13.344
  322.500    0.371   76.511    0.234   13.329
  322.750    0.356   72.940    0.207   13.325
  323.000    0.369   68.766    0.192   13.568
  323.250    0.386   74.088    0.203   14.079
  323.500    0.358   76.440    0.238   14.063
  323.750    0.350   75.231    0.286   15.442
  324.000    0.358   75.805    0.312   16.959
  324.250    0.372   76.972    0.335   20.852
  324.500    0.385   74.586    0.344   25.160
  324.750    0.387   65.666    0.354   26.103
  325.000    0.380   60.904    0.355   26.580
  325.250    0.373   71.561    0.355   27.066
  325.500    0.373   81.620    0.354   27.561
  325.750    0.380   93.457    0.354   27.540
  326.000    0.392  107.073    0.356   27.011
  326.250    0.409  106.461    0.357   25.982
  326.500    0.426   99.328    0.357   25.006
  326.750    0.389   91.603    0.356   24.067
  327.000    0.402   93.363    0.354   22.718
  327.250    0.431  100.457    0.349   22.282
  327.500    0.444   97.470    0.344   21.841
  327.750    0.434   94.487    0.335   21.421
  328.000    0.411   91.509    0.316   21.009
  328.250    0.399   87.331    0.296   20.594
  328.500    0.407   85.538    0.284   20.201
  328.750    0.401   81.963    0.294   20.179
  329.000    0.393   80.165    0.305   20.171
  329.250    0.412   80.739    0.305   20.156
  329.500    0.415   75.385    0.312   20.525
  329.750    0.403   68.252    0.324   21.695
  330.000    0.382   56.373    0.341   22.095
  330.250    0.387   46.276    0.340   22.927
  330.500    0.386   45.664    0.335   23.342
  330.750    0.381   48.012    0.333   23.769
  331.000    0.373   50.962    0.337   24.203
  331.250    0.364   53.907    0.340   24.185
  331.500    0.361   54.481    0.340   24.171
  331.750    0.362   50.313    0.342   25.077
  332.000    0.363   47.330    0.343   25.540
  332.250    0.364   40.785    0.344   25.516
  332.500    0.369   37.210    0.346   25.497
  332.750    0.378   36.005    0.348   24.535
  333.000    0.384   34.208    0.343   23.605
  333.250    0.377   33.596    0.335   23.156
  333.500    0.366   35.356    0.324   21.450
  333.750    0.353   41.265    0.312   20.255
  334.000    0.339   50.138    0.297   18.773
  334.250    0.353   59.011    0.284   17.717
  334.500    0.365   58.400    0.278   17.052
  334.750    0.383   55.417    0.300   16.727
  335.000    0.400   57.176    0.318   15.793
  335.250    0.400   67.235    0.316   15.200
  335.500    0.398   75.516    0.288   14.085
  335.750    0.405   84.389    0.273   13.052
  336.000    0.412   89.108    0.249   11.005
  336.250    0.411   83.161    0.243   10.196
  336.500    0.401   76.621    0.263   10.986
  336.750    0.375   72.453    0.277   11.619
  337.000    0.352   78.955    0.280   13.246
  337.250    0.359   77.746    0.280   14.009
  337.500    0.373   77.139    0.277   12.739
  337.750    0.377   81.862    0.273   11.366
  338.000    0.374   89.550    0.262   10.338
  338.250    0.371  109.686    0.250    9.225
  338.500    0.384  115.003    0.241    8.547
  338.750    0.394  115.567    0.243    8.221
  339.000    0.405  114.372    0.245    8.063
  339.250    0.421  107.833    0.246    7.908
  339.500    0.426   94.174    0.251    7.753
  339.750    0.433   87.635    0.251    7.749
  340.000    0.426   94.730    0.248    7.743
  340.250    0.403   97.670    0.247    8.033
  340.500    0.394   95.873    0.247    8.182
  340.750    0.401   94.668    0.253    8.488
  341.000    0.400   96.428    0.260    8.806
  341.250    0.385   97.002    0.262    8.970
  341.500    0.383   95.802    0.262    9.485
  341.750    0.387   92.819    0.264   10.028
  342.000    0.387   92.796    0.269   10.405
  342.250    0.385   96.333    0.275   10.795
  342.500    0.384   95.129    0.276   11.202
  342.750    0.379   92.739    0.273   11.407
  343.000    0.365   88.570    0.267   11.617
  343.250    0.355   84.990    0.251   12.050
