~VERSION INFORMATION
 VERS.                 2.0:   CWLS LOG ASCII STANDARD -VERSION 2.0
 WRAP.                  NO:   ONE LINE PER DEPTH STEP
~WELL INFORMATION BLOCK
#MNEM.UNIT           DATA                    DESCRIPTION OF MNEMONIC
#---------    -------------------            -------------------------------
# Generated from Intellog Unique Number	CS_73_76/WELL/3235
WELL.         HOME OIL COMPANY LIMITED       : Well_name    - WELL
LOC .         AA/10-14-076-07W4/0            : Location     - LOCATION
UWI .         AA/10-14-076-07W4/0            : Uwi          - UNIQUE WELL ID
ENTR.         SP                             : Entered      - ENTERED BY
SRVC.         SCHLUMBERGER                   : Scn          - SERVICE COMPANY
STRT.M        175                            : top_depth    - START DEPTH
STOP.M        405                            : bot_depth    - STOP DEPTH
STEP.M        0.25                           : increment    - STEP LENGTH
 NULL. -999.2500:NULL Value
~CURVE INFORMATION BLOCK
#MNEM UNIT       ERCB CURVE CODE    CURVE DESCRIPTION
#-----------   ------------------   ----------------------------------
DEPT.M        00 001 00 00         : DEPTH        - DEPTH
DPHI.V/V      00 890 00 00         : PHID         - DENSITY POROSITY (LIMESTONE)
NPHI.V/V      00 330 00 00         : PHIN         - NEUTRON POROSITY (LIMESTONE)
GR  .API      00 310 00 00         : GR           - GAMMA RAY
ILD .OHMM     00 120 00 00         : RESD         - DEEP RESISTIVITY (DIL)
~PARAMETER INFORMATION
#MNEM.UNIT           DATA             DESCRIPTION OF MNEMONIC
#---------         -----------     ------------------------------
GL  .M        590.89               : gl           - GROUND LEVEL ELEVATION
EREF.M        594.34               : kb           - ELEVATION OF DEPTH REFERENCE
DATM.M        590.89               : datum        - DATUM ELEVATION
TDD .M        430                  : tdd          - TOTAL DEPTH DRILLER
RUN .         ONE                  : Run          - RUN NUMBER
ENG .         BILL                 : Engineer     - RECORDING ENGINEER
WIT .         JIM                  : Witness      - WITNESSED BY
MUD .         GEL                  : Mud_type     - MUD TYPE
MATR.         LIMESTONE            : Logunit      - NEUTRON MATRIX
TMAX.C        21                   : BHT          - MAXIMUM RECORDED TEMPERATURE
BHTD.M        430                  : BHTDEP       - MAXIMUM RECORDED TEMPERATURE
MATR.         1                    : LOGUNIT      - NEUTRON MATRIX
RMT .C        25                   : MDTP         - TEMPERATURE OF MUD
NEUT.         1                    : NEUTRON      - NEUTRON TYPE
RESI.         0                    : RESIST       - RESISTIVITY TYPE
RMC .OHMM     0.25                 : RMC          - RESISTIVITY OF MUD CAKE
RMF .OHMM     0.25                 : RMF          - RESISTIVITY OF MUD FILTRATE
SUFT.C        15                   : SUFT         - SURFACE TEMPERATURE
~A  DEPTH     PHID     PHIN       GR     RESD
# ...
  218.500    0.253    0.461  107.157   10.386
  218.750    0.246    0.472  101.676   11.198
  219.000    0.248    0.484   94.975   12.073
  219.250    0.253    0.471   90.713   12.773
  219.500    0.262    0.444   96.208   13.771
  219.750    0.262    0.456   99.871   14.570
  220.000    0.259    0.456   99.268   15.415
  220.250    0.264    0.434   96.225   16.619
  220.500    0.259    0.423   91.962   17.256
  220.750    0.265    0.428   86.482   17.582
  221.000    0.263    0.427   87.707   17.253
  221.250    0.267    0.439   93.200   16.615
  221.500    0.270    0.414   91.377   15.701
  221.750    0.273    0.391   94.432   15.407
  222.000    0.252    0.395  101.146   14.837
  222.250    0.238    0.397  101.761   14.288
  222.500    0.234    0.401  101.160   13.759
  222.750    0.235    0.460  100.556   13.502
  223.000    0.244    0.456   99.341   14.285
  223.250    0.252    0.464   93.859   15.992
  223.500    0.257    0.473   85.329   18.243
  223.750    0.275    0.435   78.627   20.041
  224.000    0.277    0.422   68.878   22.862
  224.250    0.279    0.436   63.395   26.576
  224.500    0.288    0.413   50.597   35.242
  224.750    0.302    0.380   47.555   45.009
  225.000    0.314    0.396   49.389   46.733
  225.250    0.321    0.401   51.226   40.197
  225.500    0.321    0.391   52.450   30.884
  225.750    0.314    0.401   55.507   23.285
  226.000    0.320    0.420   56.731   20.029
  226.250    0.319    0.402   61.615   18.228
  226.500    0.294    0.404   81.743   16.905
  226.750    0.250    0.420   85.408   16.280
  227.000    0.248    0.437   83.585   15.975
  227.250    0.258    0.421   80.542   16.587
  227.500    0.274    0.397   78.111   17.549
  227.750    0.276    0.386   77.505   17.548
  228.000    0.275    0.397   75.683   17.880
  228.250    0.276    0.430   78.737   17.878
  228.500    0.286    0.443   79.352   18.916
  228.750    0.298    0.429   74.482   20.013
  229.000    0.305    0.425   71.438   23.264
  229.250    0.308    0.429   66.567   27.556
  229.500    0.308    0.432   61.696   32.640
  229.750    0.321    0.429   58.043   35.191
  230.000    0.331    0.409   53.171   42.476
  230.250    0.331    0.399   48.299   47.551
  230.500    0.331    0.403   50.134   51.265
  230.750    0.337    0.419   54.408   51.260
  231.000    0.337    0.432   54.415   51.258
  231.250    0.331    0.431   53.201   51.600
  231.500    0.328    0.427   52.597   52.224
  231.750    0.328    0.424   53.825   52.221
  232.000    0.330    0.410   55.048   55.250
  232.250    0.334    0.389   52.006   56.296
  232.500    0.339    0.400   49.572   56.292
  232.750    0.336    0.421   48.969   56.287
  233.000    0.330    0.422   50.195   56.285
  233.250    0.327    0.409   53.249   57.349
  233.500    0.334    0.382   56.303   57.345
  233.750    0.336    0.397   57.529   57.340
  234.000    0.331    0.405   56.925   57.338
  234.250    0.329    0.409   54.493   57.333
  234.500    0.327    0.414   52.669   57.330
  234.750    0.327    0.414   55.115   58.413
  235.000    0.328    0.414   55.732   59.519
  235.250    0.327    0.419   55.128   59.517
  235.500    0.333    0.403   54.523   59.511
  235.750    0.340    0.382   53.310   59.508
  236.000    0.340    0.395   52.096   58.393
  236.250    0.339    0.416   51.492   58.390
  236.500    0.337    0.408   53.328   56.228
  236.750    0.333    0.401   58.213   55.177
  237.000    0.332    0.406   58.829   53.133
  237.250    0.332    0.404   58.836   51.166
  237.500    0.331    0.406   58.231   49.272
  237.750    0.331    0.410   57.018   48.351
  238.000    0.331    0.415   57.634   47.447
  238.250    0.337    0.415   60.688   45.691
  238.500    0.345    0.406   63.743   43.999
  238.750    0.344    0.404   65.578   43.174
  239.000    0.343    0.412   65.584   42.367
  239.250    0.343    0.415   63.761   42.365
  239.500    0.343    0.416   63.159   42.362
  239.750    0.348    0.425   64.384   42.357
  240.000    0.351    0.431   63.780   42.355
  240.250    0.354    0.421   61.346   42.352
  240.500    0.352    0.424   58.304   42.349
  240.750    0.350    0.426   59.529   41.556
  241.000    0.347    0.424   62.584   40.779
  241.250    0.347    0.443   61.371   40.016
  241.500    0.352    0.462   60.767   40.013
  241.750    0.357    0.449   61.992   40.770
  242.000    0.357    0.440   61.388   40.768
  242.250    0.357    0.431   58.955   41.539
  242.500    0.356    0.437   55.913   41.537
  242.750    0.356    0.440   54.091   41.533
  243.000    0.360    0.430   54.706   41.531
  243.250    0.358    0.443   54.711   40.753
  243.500    0.353    0.446   52.279   40.751
  243.750    0.351    0.444   57.773   40.748
  244.000    0.355    0.456   60.828   39.985
  244.250    0.363    0.450   62.054   39.237
  244.500    0.368    0.443   61.449   37.783
  244.750    0.364    0.448   60.236   36.386
  245.000    0.369    0.450   59.023   33.744
  245.250    0.357    0.452   62.688   30.139
  245.500    0.347    0.467   63.914   27.951
  245.750    0.339    0.460   63.309   25.922
  246.000    0.336    0.450   62.096   25.438
  246.250    0.336    0.455   60.882   26.411
  246.500    0.340    0.443   59.669   26.911
  246.750    0.339    0.418   59.066   26.910
  247.000    0.340    0.394   60.902   25.913
  247.250    0.342    0.414   63.956   25.911
  247.500    0.341    0.434   67.621   25.910
  247.750    0.337    0.441   66.408   25.425
  248.000    0.343    0.455   63.974   24.949
  248.250    0.346    0.468   60.932   24.025
  248.500    0.346    0.461   59.718   23.136
  248.750    0.346    0.445   62.773   22.703
  249.000    0.343    0.439   65.828   21.863
  249.250    0.341    0.453   67.053   20.661
  249.500    0.340    0.463   67.059   18.804
  249.750    0.335    0.462   68.285   18.108
  250.000    0.327    0.461   72.560   16.480
  250.250    0.323    0.456   75.616   15.284
  250.500    0.314    0.444   78.060   14.444
  250.750    0.296    0.446   81.115   13.395
  251.000    0.275    0.442   83.560   12.900
  251.250    0.272    0.414   85.394   12.191
  251.500    0.258    0.411   87.231   11.520
  251.750    0.243    0.425   89.676   10.684
  252.000    0.242    0.441   92.120   10.484
  252.250    0.244    0.454   95.176    9.908
  252.500    0.247    0.446   96.401    9.722
  252.750    0.244    0.424   96.407    9.541
  253.000    0.237    0.432   93.974    9.540
  253.250    0.243    0.431   89.712    9.361
  253.500    0.234    0.426   87.889    9.360
  253.750    0.227    0.432   90.944    9.185
  254.000    0.216    0.437   91.560    9.359
  254.250    0.223    0.427   91.567    9.359
  254.500    0.236    0.418   92.791    9.183
  254.750    0.233    0.426   95.237    9.183
  255.000    0.237    0.427   95.243    9.011
  255.250    0.234    0.424   92.199    8.842
  255.500    0.226    0.434   96.475    8.356
  255.750    0.236    0.449   98.309    8.200
  256.000    0.239    0.473   98.318    7.896
  256.250    0.232    0.451   98.322    7.604
  256.500    0.228    0.426  103.206    6.299
  256.750    0.229    0.469  107.480    5.626
  257.000    0.231    0.487  108.096    5.120
  257.250    0.226    0.499  102.615    4.839
  257.500    0.217    0.532  102.010    4.838
  257.750    0.226    0.557  103.236    4.748
  258.000    0.220    0.562  100.803    4.747
  258.250    0.215    0.520   99.589    4.837
  258.500    0.210    0.501  100.206    4.837
  258.750    0.218    0.492   99.603    4.837
  259.000    0.231    0.496   99.609    4.836
  259.250    0.238    0.499   99.614    4.746
  259.500    0.244    0.507   97.181    4.657
  259.750    0.248    0.507   95.358    4.657
  260.000    0.250    0.512  100.242    5.021
  260.250    0.248    0.534  100.857    5.516
  260.500    0.241    0.531   96.595    6.175
  260.750    0.241    0.482   88.065    7.044
  261.000    0.246    0.426   86.851    7.594
  261.250    0.248    0.411   88.686    8.187
  261.500    0.248    0.394   82.596    8.662
  261.750    0.244    0.449   78.943    8.662
