~VERSION INFORMATION
 VERS.                 2.0:   CWLS LOG ASCII STANDARD -VERSION 2.0
 WRAP.                  NO:   ONE LINE PER DEPTH STEP
~WELL INFORMATION BLOCK
#MNEM.UNIT           DATA                    DESCRIPTION OF MNEMONIC
#---------    -------------------            -------------------------------
# Generated from Intellog Unique Number	CW_82_90/WELL/995
WELL.         11-17-082-19W4                 : Well_name    - WELL
LOC .         AA/11-17-082-19W4/0            : Location     - LOCATION
UWI .         AA/11-17-082-19W400            : Uwi          - UNIQUE WELL ID
ENTR.         JAYE                           : Entered      - ENTERED BY
SRVC.         SCHLUMBERGER                   : Scn          - SERVICE COMPANY
DATE.         28 JAN 78                      : Date         - LOG DATE
STRT.M        173.736                        : top_depth    - START DEPTH
STOP.M        363.986                        : bot_depth    - STOP DEPTH
STEP.M        0.25                           : increment    - STEP LENGTH
 NULL. -999.2500:NULL Value
~CURVE INFORMATION BLOCK
#MNEM UNIT       ERCB CURVE CODE    CURVE DESCRIPTION
#-----------   ------------------   ----------------------------------
DEPT.M        00 001 00 00         : DEPTH        - DEPTH
CALI.MM       00 280 01 00         : CAL          - CALIPER
GR  .API      00 310 00 00         : GR           - GAMMA RAY
NPHI.V/V      00 330 00 00         : PHIN         - NEUTRON POROSITY (SANDSTONE)
DPHI.V/V      00 890 00 00         : PHID         - DENSITY POROSITY (SANDSTONE)
ILD .OHMM     00 120 00 00         : RESD         - DEEP RESISTIVITY (DIL)
~PARAMETER INFORMATION
#MNEM.UNIT           DATA             DESCRIPTION OF MNEMONIC
#---------         -----------     ------------------------------
GL  .M        585.216              : gl           - GROUND LEVEL ELEVATION
EREF.M        588.569              : kb           - ELEVATION OF DEPTH REFERENCE
DATM.M        585.216              : datum        - DATUM ELEVATION
TDD .M        366.37               : tdd          - TOTAL DEPTH DRILLER
RUN .         ONE                  : Run          - RUN NUMBER
ENG .         GUNN                 : Engineer     - RECORDING ENGINEER
WIT .         BICKHAM              : Witness      - WITNESSED BY
BASE.         EDMONTON             : Branch       - HOME BASE OF LOGGING UNIT
MUD .         GEL CHEM             : Mud_type     - MUD TYPE
MATR.         SANDSTONE            : Logunit      - NEUTRON MATRIX
TMAX.C        27.7778              : BHT          - MAXIMUM RECORDED TEMPERATURE
BHTD.M        366.37               : BHTDEP       - MAXIMUM RECORDED TEMPERATURE
RMT .C        18.3333              : MDTP         - TEMPERATURE OF MUD
MUDD.KG/M     9300                 : MWT          - MUD DENSITY
NEUT.         0                    : NEUTRON      - NEUTRON TYPE
RESI.         0                    : RESIST       - RESISTIVITY TYPE
RM  .OHMM     4.82                 : RM           - RESISTIVITY OF MUD
RMC .OHMM     0                    : RMC          - RESISTIVITY OF MUD CAKE
RMF .OHMM     0                    : RMF          - RESISTIVITY OF MUD FILTRATE
SUFT.C        4                    : SUFT         - SURFACE TEMPERATURE
~A  DEPTH      CAL       GR     PHIN     PHID     RESD
# ...
  210.236  158.632  108.654    0.522    0.235    5.454
  210.486  153.605  102.358    0.550    0.284    6.034
  210.736  149.834   87.913    0.546    0.309    8.047
  210.986  147.215   73.901    0.514    0.321   12.817
  211.236  146.692   71.926    0.498    0.310   18.351
  211.486  147.948   76.370    0.501    0.311   32.635
  211.736  148.263   78.654    0.502    0.313   41.615
  211.986  148.682   75.198    0.510    0.320   44.021
  212.236  148.682   75.445    0.521    0.316   42.413
  212.486  149.101   76.371    0.513    0.312   38.134
  212.736  149.520   79.148    0.496    0.319   34.543
  212.986  149.415   80.939    0.479    0.311   34.678
  213.236  149.101   80.815    0.479    0.299   32.670
  213.486  149.624   76.803    0.486    0.305   30.040
  213.736  150.672   73.902    0.482    0.307   29.933
  213.986  151.929   73.964    0.474    0.308   30.846
  214.236  151.195   71.186    0.482    0.312   31.668
  214.486  150.148   69.334    0.491    0.325   31.971
  214.736  149.415   69.149    0.484    0.326   30.176
  214.986  149.101   70.754    0.489    0.323   28.270
  215.236  148.786   73.347    0.501    0.316   25.608
  215.486  148.682   74.396    0.516    0.307   22.640
  215.736  147.948   72.606    0.518    0.314   21.489
  215.986  145.644   72.174    0.508    0.331   20.899
  216.236  146.063   73.656    0.495    0.331   18.685
  216.486  147.948   74.582    0.495    0.328   16.336
  216.736  149.310   73.224    0.505    0.336   16.277
  216.986  149.101   71.557    0.519    0.330   17.576
  217.236  148.996   70.755    0.523    0.329   19.014
  217.486  149.415   69.644    0.510    0.335   19.741
  217.736  150.253   69.644    0.509    0.322   19.855
  217.986  150.253   72.360    0.507    0.332   19.747
  218.236  150.148   73.409    0.509    0.335   19.493
  218.486  150.043   71.743    0.520    0.338   18.816
  218.736  149.729   71.496    0.520    0.343   17.760
  218.986  149.205   71.620    0.513    0.340   17.175
  219.236  149.415   71.496    0.504    0.327   17.082
  219.486  149.834   70.509    0.502    0.320   17.277
  219.736  150.148   69.398    0.513    0.329   17.771
  219.986  149.310   70.632    0.534    0.326   18.143
  220.236  148.263   76.682    0.531    0.326   17.124
  220.486  149.101   84.275    0.525    0.325   13.184
  220.736  151.300   87.793    0.515    0.289    7.992
  220.986  153.290   93.102    0.517    0.238    5.057
  221.236  154.233   96.620    0.538    0.238    3.416
  221.486  154.861   97.238    0.546    0.234    2.834
  221.736  155.176   96.065    0.535    0.232    2.665
  221.986  155.385   88.226    0.531    0.243    2.777
  222.236  155.280   84.522    0.533    0.250    3.154
  222.486  154.652   80.942    0.542    0.280    3.657
  222.736  153.919   80.695    0.555    0.273    4.335
  222.986  153.186   78.534    0.560    0.283    5.139
  223.236  153.290   75.386    0.520    0.312    6.150
  223.486  153.919   75.695    0.482    0.329    8.373
  223.736  153.500   75.263    0.483    0.337   11.083
  223.986  152.767   74.584    0.496    0.313   11.990
  224.236  151.300   74.337    0.503    0.289   12.127
  224.486  149.834   74.152    0.499    0.277   12.151
  224.736  148.891   74.461    0.500    0.274   12.085
  224.986  148.786   76.313    0.486    0.284   12.020
  225.236  149.101   78.720    0.492    0.298   11.977
  225.486  149.415   77.424    0.499    0.302   11.911
  225.736  149.939   75.140    0.500    0.315   11.780
  225.986  150.881   73.350    0.486    0.310   11.695
  226.236  149.939   69.955    0.477    0.326   11.631
  226.486  148.786   71.499    0.472    0.299   11.633
  226.736  148.158   74.770    0.471    0.290   11.548
  226.986  147.634   70.696    0.474    0.291   11.485
  227.236  147.425   64.647    0.477    0.289   11.338
  227.486  147.111   63.104    0.476    0.292   11.150
  227.736  146.796   65.697    0.480    0.300   10.966
  227.986  147.320   67.672    0.476    0.312   10.846
  228.236  147.529   70.388    0.472    0.298   10.746
  228.486  147.634   70.203    0.478    0.295   10.628
  228.736  147.634   69.524    0.480    0.309   10.551
  228.986  147.529   69.277    0.472    0.311   10.493
  229.236  147.948   68.907    0.464    0.304   10.417
  229.486  148.053   68.907    0.461    0.309   10.302
  229.736  148.053   68.907    0.475    0.307   10.075
  229.986  147.948   69.771    0.474    0.308   10.002
  230.236  147.111   71.006    0.467    0.313    9.873
  230.486  145.539   71.191    0.458    0.320    9.765
  230.736  145.225   69.463    0.448    0.318    9.676
  230.986  144.178   66.870    0.438    0.304    9.713
  231.236  143.864   62.920    0.415    0.290   10.009
  231.486  145.225   56.253    0.389    0.265   10.353
  231.736  147.844   45.945    0.352    0.110   10.610
  231.986  149.834   46.007    0.200    0.041   10.771
  232.236  149.834   52.179    0.245    0.075   10.653
  232.486  149.101   64.896    0.328    0.133   10.187
  232.736  149.101   72.365    0.407    0.190    9.724
  232.986  149.415   72.859    0.469    0.255    9.563
  233.236  149.939   71.130    0.475    0.270    9.458
  233.486  150.148   68.291    0.448    0.224    9.512
  233.736  150.358   64.958    0.423    0.174   11.110
  233.986  150.148   61.810    0.219    0.099   12.500
  234.236  150.358   61.563    0.227    0.047   13.272
  234.486  149.939   67.921    0.310    0.112   13.349
  234.736  149.415   73.230    0.371    0.166   13.055
  234.986  148.891   71.687    0.446    0.269   12.094
  235.236  148.682   70.699    0.493    0.277   10.833
  235.486  148.472   72.057    0.497    0.279    9.832
  235.736  148.682   68.539    0.488    0.287    9.543
  235.986  148.472   66.625    0.468    0.296    9.563
  236.236  147.739   65.576    0.463    0.299    9.618
  236.486  147.425   65.391    0.473    0.298    9.656
  236.736  147.529   65.823    0.481    0.303    9.729
  236.986  147.948   67.181    0.474    0.302    9.841
  237.236  148.577   68.231    0.479    0.307    9.935
  237.486  149.310   69.403    0.470    0.305    9.955
  237.736  149.834   69.897    0.470    0.296    9.956
  237.986  150.253   69.404    0.478    0.294   10.014
  238.236  150.672   68.169    0.460    0.304   10.262
  238.486  150.986   65.947    0.462    0.318   10.575
  238.736  151.719   65.947    0.468    0.232   11.123
  238.986  152.138   66.873    0.457    0.187   12.169
  239.236  152.557   63.169    0.346    0.120   13.140
  239.486  153.081   61.626    0.310    0.096   14.162
  239.736  154.338   62.244    0.289    0.107   15.293
  239.986  155.595   62.676    0.287    0.107   15.759
  240.236  155.490   60.886    0.291    0.119   15.644
  240.486  155.176   61.441    0.351    0.138   14.933
  240.736  153.081   66.442    0.405    0.173   14.306
  240.986  151.195   70.639    0.452    0.211   13.229
  241.236  148.786   71.380    0.483    0.299   12.301
  241.486  147.844   70.825    0.480    0.325   11.675
  241.736  147.215   69.899    0.477    0.330   11.123
  241.986  147.844   69.713    0.479    0.338   10.757
  242.236  148.682   69.528    0.479    0.320   10.192
  242.486  148.996   66.319    0.483    0.319    9.948
  242.736  149.415   66.874    0.484    0.336    9.639
  242.986  149.729   67.368    0.482    0.329    9.479
  243.236  149.729   66.010    0.486    0.326    9.288
  243.486  150.148   65.084    0.484    0.325    9.238
  243.736  150.043   65.023    0.492    0.331    9.222
  243.986  150.148   65.763    0.509    0.333    9.258
  244.236  149.415   68.665    0.510    0.327    9.294
  244.486  148.996   70.208    0.504    0.323    9.365
  244.736  148.053   71.813    0.502    0.317    9.419
  244.986  147.425   71.258    0.501    0.313    9.438
  245.236  147.320   71.258    0.488    0.306    9.528
  245.486  148.263   71.875    0.488    0.308    9.655
  245.736  148.682   69.036    0.497    0.310    9.894
  245.986  148.263   63.110    0.498    0.303   10.177
  246.236  148.053   58.295    0.489    0.295   10.448
  246.486  148.577   53.542    0.471    0.274   11.603
