~VERSION INFORMATION
 VERS.                 2.0:   CWLS LOG ASCII STANDARD -VERSION 2.0
 WRAP.                  NO:   ONE LINE PER DEPTH STEP
~WELL INFORMATION BLOCK
#MNEM.UNIT           DATA                    DESCRIPTION OF MNEMONIC
#---------    -------------------            -------------------------------
# Generated from Intellog Unique Number	CN_94_101/WELL/3194
WELL.         THE CALIFORNIA STANDARD COMPAN : Well_name    - WELL
LOC .         AA/10-26-095-13W4/0            : Location     - LOCATION
UWI .         AA/10-26-095-13W4/0            : Uwi          - UNIQUE WELL ID
ENTR.         JOETTE                         : Entered      - ENTERED BY
SRVC.         SCHLUMBERGER                   : Scn          - SERVICE COMPANY
DATE.         07/17/92                       : Date         - LOG DATE
STRT.F        50                             : top_depth    - START DEPTH
STOP.F        570.013                        : bot_depth    - STOP DEPTH
STEP.F        0.8202                         : increment    - STEP LENGTH
 NULL. -999.2500:NULL Value
~CURVE INFORMATION BLOCK
#MNEM UNIT       ERCB CURVE CODE    CURVE DESCRIPTION
#-----------   ------------------   ----------------------------------
DEPT.F        00 001 00 00         : DEPTH        - DEPTH
ILD .OHMM     00 120 00 00         : RESD         - DEEP RESISTIVITY (DIL)
GR  .API      00 310 00 00         : GR           - GAMMA RAY
NPHI.V/V      00 330 00 00         : PHIN         - NEUTRON POROSITY (SANDSTONE)
~PARAMETER INFORMATION
#MNEM.UNIT           DATA             DESCRIPTION OF MNEMONIC
#---------         -----------     ------------------------------
GL  .F        1282.7               : gl           - GROUND LEVEL ELEVATION
EREF.F        1282.7               : kb           - ELEVATION OF DEPTH REFERENCE
DATM.F        1282.7               : datum        - DATUM ELEVATION
TDD .F        572                  : tdd          - TOTAL DEPTH DRILLER
RUN .         ONE                  : Run          - RUN NUMBER
ENG .         BILL                 : Engineer     - RECORDING ENGINEER
WIT .         JIM                  : Witness      - WITNESSED BY
MUD .         GEL                  : Mud_type     - MUD TYPE
MATR.         SANDSTONE            : Logunit      - NEUTRON MATRIX
TMAX.F        46                   : BHT          - MAXIMUM RECORDED TEMPERATURE
BHTD.F        572                  : BHTDEP       - MAXIMUM RECORDED TEMPERATURE
RMT .F        32                   : MDTP         - TEMPERATURE OF MUD
MUDD.LB/G     1.13                 : MWT          - MUD DENSITY
NEUT.         1                    : NEUTRON      - NEUTRON TYPE
RESI.         0                    : RESIST       - RESISTIVITY TYPE
RM  .OHMM     12.5                 : RM           - RESISTIVITY OF MUD
RMC .OHMM     12.5                 : RMC          - RESISTIVITY OF MUD CAKE
RMF .OHMM     12.5                 : RMF          - RESISTIVITY OF MUD FILTRATE
SUFT.F        39.2                 : SUFT         - SURFACE TEMPERATURE
~A  DEPTH     RESD       GR     PHIN
# ...
  405.971   93.053   39.439    0.348
  406.791   72.750   39.032    0.354
  407.612   74.126   45.156    0.397
  408.432  188.217   42.139    0.363
  409.252  188.871   38.254    0.358
  410.072  172.900   40.021    0.357
  410.892  164.167   44.398    0.392
  411.713  159.749   49.209    0.417
  412.533  161.125   55.767    0.405
  413.353  166.129   66.666    0.366
  414.173  168.949   52.344    0.348
  414.993  154.439   42.370    0.335
  415.814  129.803   39.789    0.334
  416.634  124.680   43.730    0.345
  417.454  292.946   47.672    0.333
  418.274  277.697   42.917    0.317
  419.094  281.256   41.647    0.310
  419.915  290.558   44.712    0.306
  420.735  284.730   44.747    0.332
  421.555  265.871   46.080    0.339
  422.375  248.455   49.151    0.333
  423.196  256.348   33.952    0.332
  424.016  201.366   29.204    0.342
  424.836  104.486   29.666    0.328
  425.656  110.195   35.348    0.321
  426.476  154.914   49.291    0.361
  427.297  242.270   47.145    0.390
  428.117  170.681   41.954    0.357
  428.937  138.824   36.329    0.340
  429.757  108.410   48.540    0.350
  430.577  119.174   50.742    0.352
  431.398  120.550   42.508    0.329
  432.218  107.467   39.492    0.348
  433.038  118.970   44.738    0.345
  433.858  175.259   49.985    0.336
  434.678  201.187   49.585    0.327
  435.499  183.788   40.039    0.311
  436.319  164.929   22.672    0.314
  437.139  149.697   25.744    0.326
  437.959  161.182   39.694    0.327
  438.780  151.727   52.768    0.322
  439.600  135.756   45.404    0.317
  440.420  132.799   33.690    0.315
  441.240  137.786   30.681    0.326
  442.060  136.996   32.883    0.346
  442.881  145.593   35.079    0.356
  443.701  158.539   39.455    0.355
  444.521  184.467   55.580    0.358
  445.341  183.677   59.964    0.364
  446.161  173.499   58.680    0.361
  446.982  151.734   54.794    0.360
  447.802  148.795   48.299    0.359
  448.622   89.481   40.500    0.356
  449.442   74.971   36.179    0.343
  450.262   71.275   34.040    0.347
  451.083   73.391   32.321    0.346
  451.903   72.601   31.479    0.341
  452.723   69.610   35.856    0.341
  453.543   65.949   41.979    0.374
  454.364   56.493   49.400    0.395
  455.184   42.671   63.785    0.418
  456.004   41.881   61.639    0.415
  456.824   41.091   57.753    0.378
  457.644   47.539   57.788    0.334
  458.465   79.999   57.816    0.374
  459.285  209.977   56.097    0.382
  460.105  174.509   43.949    0.367
  460.925  155.649   37.889    0.338
  461.745  149.082   35.307    0.322
  462.566  156.218   33.596    0.325
  463.386  153.984   29.710    0.325
  464.206  156.821   25.831    0.325
  465.026  164.696   26.722    0.330
  465.846  157.407   29.794    0.330
  466.667  158.061   33.301    0.327
  467.487  211.462   39.859    0.367
  468.307  217.876   51.628    0.380
  469.127  213.476   57.316    0.357
  469.948  213.408   36.899    0.328
  470.768  217.689   30.404    0.298
  471.588  196.663   28.692    0.296
  472.408  131.572   24.371    0.311
  473.228   42.636   29.618    0.358
  474.049   24.498   39.213    0.365
  474.869   22.264   77.088    0.374
  475.689   21.474   82.769    0.406
  476.509   22.833   76.274    0.418
  477.329   24.931   83.702    0.447
  478.150   27.046   68.502    0.454
  478.970   31.311   60.703    0.426
  479.790   37.002   55.519    0.402
  480.610   34.063   56.852    0.405
  481.430   21.719   55.133    0.412
  482.251   20.190   55.596    0.417
  483.071   20.827   66.503    0.422
  483.891   21.515   73.488    0.430
  484.711   24.336   70.907    0.423
  485.531   24.990   66.586    0.388
  486.352   24.200   63.136    0.373
  487.172   21.226   63.163    0.370
  487.992   18.992   65.800    0.363
  488.812   17.480   76.707    0.405
  489.633   16.672   79.344    0.440
  490.453   16.604   71.980    0.436
  491.273   16.536   69.833    0.431
  492.093   16.468   67.687    0.408
  492.913   16.417   69.454    0.375
  493.734   16.349   74.266    0.385
  494.554   15.542   85.607    0.401
  495.374   15.491   79.112    0.403
  496.194   15.389   67.833    0.406
  497.014   15.355   72.210    0.419
  497.835   15.992   85.719    0.433
  498.655   18.812   98.365    0.437
  499.475   22.372   99.269    0.405
  500.295   28.080   86.679    0.395
  501.115   35.250   74.089    0.378
  501.936   40.942   55.853    0.407
  502.756   27.876   48.923    0.421
  503.576   25.642   50.690    0.438
  504.396   40.755   53.769    0.447
  505.217   53.684   33.352    0.458
  506.037   72.408   27.719    0.453
  506.857  131.586   25.573    0.434
  507.677  124.280   26.478    0.399
  508.497   84.480   28.259    0.326
  509.318   56.955   30.020    0.356
  510.138   38.095   33.092    0.382
  510.958   64.762   36.157    0.419
  511.778   69.026   43.149    0.421
  512.598   53.794   33.617    0.348
  513.419   39.972   24.934    0.284
  514.239   37.755   23.657    0.174
  515.059   41.297   31.954    0.216
  515.879   48.450   31.113    0.282
  516.699   50.566   25.929    0.370
  517.520   47.592   24.218    0.412
  518.340   40.303   25.557    0.426
  519.160   33.014   26.883    0.388
  519.980   30.058   30.390    0.349
  520.801   29.990   35.636    0.357
  521.621   40.031   36.969    0.368
  522.441   52.239   32.213    0.375
  523.261   63.741   23.979    0.343
  524.081   80.986   21.404    0.314
  524.902   97.561   21.432    0.290
  525.722  111.212   19.721    0.252
  526.542  121.254   17.140    0.235
  527.362  124.074   16.291    0.243
  528.182   93.678   18.493    0.258
  529.003   58.915   20.695    0.262
  529.823   33.574   25.514    0.269
  530.643   25.546   29.462    0.301
  531.463   24.016   26.874    0.308
  532.283   22.487   23.865    0.300
  533.104   21.731   25.640    0.306
  533.924   20.941   27.828    0.313
  534.744   20.873   32.639    0.310
  535.564   30.192   37.030    0.302
  536.385   43.861   34.007    0.309
  537.205   86.413   29.251    0.313
  538.025  128.244   21.451    0.315
  538.845  124.565   21.045    0.315
  539.665   71.028   25.421    0.322
  540.486   49.297   34.146    0.330
  541.306   23.217   44.183    0.333
  542.126   18.094   50.299    0.330
  542.946   36.078   46.413    0.321
  543.766   55.524   31.656    0.314
  544.587  111.091   28.640    0.319
  545.407  133.408   21.275    0.322
  546.227  136.229   18.259    0.310
  547.047  100.761   18.294    0.275
  547.867   63.127   18.757    0.184
  548.688   71.002   19.220    0.198
  549.508   65.879   19.241    0.235
  550.328   53.518   18.834    0.283
  551.148   47.673   17.992    0.288
  551.969   41.812   16.715    0.291
  552.789   38.872   17.613    0.286
  553.609   39.526   20.692    0.289
  554.429   52.456   23.343    0.307
  555.249   51.666   23.792    0.290
  556.070   37.878   22.080    0.295
  556.890   33.460   21.673    0.296
  557.710   39.908   27.355    0.284
  558.530   44.895   26.085    0.251
  559.350   39.033   27.417    0.190
  560.171   33.188   31.359    0.164
  560.991   29.510   36.605    0.204
  561.811   28.703   50.121    0.221
  562.631   30.818   53.628    0.236
  563.451   36.526   54.091    0.210
  564.272   53.084   53.256    0.162
  565.092   52.999   54.154    0.011
  565.912   50.042   57.226    0.014
  566.732   50.713   57.689    0.015
  567.552   51.367   42.496    0.015
  568.373   46.967   42.531    0.014
  569.193   37.494   45.168    0.013
  570.013   33.816   47.364    0.009
