~VERSION INFORMATION
 VERS.                 2.0:   CWLS LOG ASCII STANDARD -VERSION 2.0
 WRAP.                  NO:   ONE LINE PER DEPTH STEP
~WELL INFORMATION BLOCK
#MNEM.UNIT           DATA                    DESCRIPTION OF MNEMONIC
#---------    -------------------            -------------------------------
# Generated from Intellog Unique Number	CC_80_83/WELL/2429
NULL.         -999.25                        : NULL_VALUE
WELL.         ARCO ACI McMURRAY              : Well_name    - WELL              
LOC .         12-11-083-12W4                 : Location     - LOCATION          
UWI .         AA/12-11-083-12W400            : Uwi          - UNIQUE WELL ID    
ENTR.         DW                             : Entered      - ENTERED BY        
SRVC.         SCHLUMBERGER                   : Scn          - SERVICE COMPANY   
DATE.         17 MAR 74                      : Date         - LOG DATE
STRT.M        137.16                         : top_depth    - START DEPTH       
STOP.M        399.29                         : bot_depth    - STOP DEPTH        
STEP.M        0.305                          : increment    - STEP LENGTH       
~CURVE INFORMATION BLOCK
#MNEM UNIT       ERCB CURVE CODE    CURVE DESCRIPTION
#-----------   ------------------   ----------------------------------
DEPT.M        00 001 00 00         : DEPTH        - DEPTH                       
DPHI.V/V      00 890 00 00         : PHID         - DENSITY POROSITY (LIMESTONE)
GR  .API      00 310 00 00         : GR           - GAMMA RAY                   
NPHI.V/V      00 330 00 00         : PHIN         - NEUTRON POROSITY (LIMESTONE)
ILD .OHMM     00 120 00 00         : RESD         - DEEP RESISTIVITY (DLL)      
~PARAMETER INFORMATION       
#MNEM.UNIT           DATA             DESCRIPTION OF MNEMONIC
#---------         -----------     ------------------------------
GL  .M        630.631              : gl           - GROUND LEVEL ELEVATION      
EREF.M        632.308              : kb           - ELEVATION OF DEPTH REFERENCE
DATM.M        632.308              : datum        - DATUM ELEVATION             
TDD .M        399.288              : tdd          - TOTAL DEPTH DRILLER         
RUN .         ONE                  : Run          - RUN NUMBER                  
ENG .         BILL                 : Engineer     - RECORDING ENGINEER          
WIT .         JIM                  : Witness      - WITNESSED BY                
MUD .         GEL                  : Mud_type     - MUD TYPE                    
MATR.         LIMESTONE            : Logunit      - NEUTRON MATRIX              
TMAX.C        21.1111              : BHT          - MAXIMUM RECORDED TEMPERATURE
BHTD.M        399.288              : BHTDEP       - MAXIMUM RECORDED TEMPERATURE
MATR.         1                    : LOGUNIT      - NEUTRON MATRIX              
RMT .C        25                   : MDTP         - TEMPERATURE OF MUD          
NEUT.         0                    : NEUTRON      - NEUTRON TYPE                
RESI.         1                    : RESIST       - RESISTIVITY TYPE            
RMC .OHMM     0.25                 : RMC          - RESISTIVITY OF MUD CAKE     
RMF .OHMM     0.25                 : RMF          - RESISTIVITY OF MUD FILTRATE 
SUFT.C        4                    : SUFT         - SURFACE TEMPERATURE         
~A  DEPTH     PHID       GR     PHIN     RESD
# ...
  349.302    0.269   89.844    0.372    3.423
  349.606    0.250   89.862    0.392    3.422
  349.911    0.235   87.465    0.379    3.551
  350.216    0.205   74.601    0.341    4.044
  350.521    0.198   71.399    0.300    4.693
  350.826    0.254   69.001    0.330    5.346
  351.130    0.280   67.009    0.348    6.320
  351.435    0.275   64.207    0.354    7.334
  351.740    0.284   58.188    0.348    8.512
  352.045    0.284   59.815    0.300    9.340
  352.350    0.265   64.665    0.315   10.059
  352.654    0.252   64.682    0.321   10.633
  352.959    0.277   58.259    0.297   10.829
  353.264    0.285   59.487    0.307   10.428
  353.569    0.291   60.308    0.322   10.042
  353.874    0.286   59.920    0.322   10.038
  354.178    0.263   53.501    0.311   10.416
  354.483    0.261   55.932    0.300   11.009
  354.788    0.271   61.585    0.288   11.005
  355.093    0.280   66.028    0.302   10.599
  355.398    0.284   74.097    0.315    8.469
  355.703    0.274   84.981    0.323    7.856
  356.007    0.262   85.004    0.321    7.854
  356.312    0.245   83.003    0.308    8.301
  356.617    0.222   80.204    0.314    8.775
  356.922    0.209   78.613    0.321    8.938
  357.227    0.206   80.644    0.315    9.448
  357.531    0.198   83.879    0.319    9.621
  357.836    0.184   87.921    0.316    9.800
  358.141    0.220   81.099    0.280    9.615
  358.446    0.199   81.520    0.279    9.259
  358.751    0.189   87.170    0.318    9.254
  359.055    0.208   88.396    0.305    9.425
  359.360    0.224   87.205    0.285   10.342
  359.665    0.249   73.538    0.276   11.780
  359.970    0.269   59.875    0.273   14.730
  360.275    0.289   59.890    0.273   18.763
  360.579    0.273   62.723    0.282   19.835
  360.884    0.262   70.389    0.290   19.102
  361.189    0.259   76.445    0.293   16.142
  361.494    0.251   83.304    0.306   13.642
  361.799    0.232   84.532    0.320   12.894
  362.104    0.232   82.138    0.313   13.131
  362.408    0.237   80.539    0.298   14.409
  362.713    0.274   58.420    0.279   16.109
  363.018    0.261   59.246    0.280   19.405
  363.323    0.255   61.674    0.275   20.512
  363.628    0.244   66.525    0.269   19.753
  363.932    0.236   68.554    0.269   18.670
  364.237    0.239   67.765    0.270   18.318
  364.542    0.245   63.358    0.280   19.729
  364.847    0.268   61.764    0.303   20.856
  365.152    0.287   55.744    0.308   23.316
  365.456    0.321   44.091    0.345   27.059
  365.761    0.344   47.729    0.353   32.593
  366.066    0.344   52.578    0.320   37.824
  366.371    0.332   51.791    0.323   40.738
  366.676    0.329   44.562    0.336   41.485
  366.980    0.336   42.970    0.362   35.721
  367.285    0.352   57.879    0.347   20.787
  367.590    0.340   72.790    0.373   11.653
  367.895    0.331   79.247    0.408    8.325
  368.200    0.334   82.887    0.395    7.869
  368.505    0.326   88.944    0.380    7.577
  368.809    0.260   89.365    0.374    7.574
  369.114    0.230   90.994    0.374    7.715
  369.419    0.220   93.826    0.376    8.004
  369.724    0.221   94.246    0.360    8.152
  370.029    0.225   90.238    0.340    9.113
  370.333    0.226   86.231    0.309    9.999
  370.638    0.222   83.836    0.285   10.770
  370.943    0.220   83.050    0.299   12.040
  371.248    0.220   79.441    0.289   12.729
  371.553    0.221   74.228    0.284   13.206
  371.857    0.216   73.842    0.292   12.957
  372.162    0.213   80.299    0.311   12.248
  372.467    0.209   78.307    0.322   11.152
  372.772    0.210   81.142    0.309   10.346
  373.077    0.214   85.987    0.301    9.963
  373.381    0.223   81.980    0.301    9.773
  373.686    0.228   79.985    0.317    9.954
  373.991    0.234   82.820    0.344    9.950
  374.296    0.238   80.825    0.348   10.323
  374.601    0.235   79.236    0.342   10.320
  374.906    0.220   77.240    0.323   11.115
  375.210    0.219   68.805    0.306   13.141
  375.515    0.233   57.552    0.310   16.127
  375.820    0.271   47.506    0.328   19.794
  376.125    0.313   42.294    0.344   32.741
  376.430    0.340   43.920    0.354   51.209
  376.734    0.349   41.526    0.360   51.186
  377.039    0.348   44.761    0.353   45.749
  377.344    0.336   50.009    0.319   36.556
  377.649    0.315   53.651    0.324   33.282
  377.954    0.300   46.825    0.333   32.654
  378.258    0.315   46.038    0.349   32.646
  378.563    0.330   49.275    0.361   33.247
  378.868    0.326   56.136    0.341   31.420
  379.173    0.301   61.386    0.306   29.701
  379.478    0.271   60.196    0.301   24.634
  379.782    0.267   60.213    0.312   21.211
  380.087    0.271   66.270    0.307   19.675
  380.392    0.274   66.287    0.308   19.670
  380.697    0.285   66.306    0.295   19.661
  381.002    0.272   71.957    0.259   19.290
  381.307    0.262   76.804    0.263   18.576
  381.611    0.263   80.848    0.274   17.233
  381.916    0.252   80.869    0.302   16.594
  382.221    0.249   76.053    0.286   16.282
  382.526    0.254   73.657    0.301   15.677
  382.831    0.260   70.855    0.298   15.381
  383.135    0.253   69.666    0.297   14.812
  383.440    0.233   72.905    0.279   14.265
  383.745    0.226   74.933    0.280   13.232
  384.050    0.213   72.938    0.285   12.742
  384.355    0.203   81.408    0.277   12.271
  384.659    0.224   74.584    0.310   11.817
  384.964    0.232   78.225    0.312   11.380
  385.269    0.232   83.474    0.307   10.958
  385.574    0.214   88.322    0.311   10.164
  385.879    0.204   86.327    0.322    9.430
  386.183    0.206   78.698    0.329    9.082
  386.488    0.206   79.519    0.319    8.745
  386.793    0.224   76.719    0.308    8.742
  387.098    0.255   40.512    0.326    9.773
  387.403    0.277   36.908    0.335   12.221
  387.708    0.305   38.938    0.319   19.475
  388.012    0.331   45.798    0.310   29.343
  388.317    0.318   54.268    0.324   28.789
  388.622    0.288   70.385    0.309   23.004
  388.927    0.260   76.038    0.306   18.727
  389.232    0.254   77.263    0.320   17.054
  389.536    0.261   84.525    0.331   15.529
  389.841    0.247   87.362    0.318   14.677
  390.146    0.243   76.109    0.286   14.400
  390.451    0.266   76.931    0.287   14.395
  390.756    0.242   85.402    0.299   14.659
  391.060    0.224   85.016    0.295   15.209
  391.365    0.227   68.129    0.286   15.491
  391.670    0.286   69.757    0.293   16.072
  391.975    0.280   80.642    0.308   16.066
  392.280    0.268   78.651    0.327   16.360
  392.584    0.302   61.358    0.317   16.353
  392.889    0.307   64.997    0.315   16.347
  393.194    0.269   74.273    0.308   16.037
  393.499    0.243   81.536    0.286   15.446
  393.804    0.221   80.345    0.309   13.802
  394.109    0.234   30.856    0.286   13.292
  394.413    0.239    5.919    0.285   12.800
  394.718    0.204    3.120    0.277   13.036
  395.023    0.159    2.331    0.274   14.040
  395.328    0.079    2.349    0.262   16.600
  395.633    0.072    1.966    0.216   19.996
  395.937    0.071    1.982    0.156   26.941
  396.242    0.052    2.002    0.130   33.686
  396.547    0.058    2.018    0.117   40.574
  396.852    0.073    2.436    0.108   43.701
  397.157    0.074    2.461    0.107   46.200
  397.461    0.056    2.472    0.111   48.835
  397.766    0.063    4.101    0.117   47.911
  398.071    0.079    6.936    0.127   46.139
  398.376    0.092   49.215    0.135   44.428
  398.681    0.094   77.410    0.145   43.594
  398.985    0.096   80.646    0.161   42.768
  399.290    0.098   80.669    0.190   42.752
