~VERSION INFORMATION
 VERS.                 2.0:   CWLS LOG ASCII STANDARD -VERSION 2.0
 WRAP.                  NO:   ONE LINE PER DEPTH STEP
~WELL INFORMATION BLOCK
#MNEM.UNIT           DATA                    DESCRIPTION OF MNEMONIC
#---------    -------------------            -------------------------------
# Generated from Intellog Unique Number	CC_88_90/WELL/3139
WELL.         CAN KEWANEE                    : Well_name    - WELL
LOC .         AA/10-29-088-14W4/0            : Location     - LOCATION
UWI .         AA/10-29-088-14W400            : Uwi          - UNIQUE WELL ID
ENTR.         T                              : Entered      - ENTERED BY
SRVC.         SCHLUMBERGER                   : Scn          - SERVICE COMPANY
STRT.F        200                            : top_depth    - START DEPTH
STOP.F        739.698                        : bot_depth    - STOP DEPTH
STEP.F        0.82                           : increment    - STEP LENGTH
 NULL. -999.2500:NULL Value
~CURVE INFORMATION BLOCK
#MNEM UNIT       ERCB CURVE CODE    CURVE DESCRIPTION
#-----------   ------------------   ----------------------------------
DEPT.F        00 001 00 00         : DEPTH        - DEPTH
GR  .API      00 310 00 00         : GR           - GAMMA RAY
NPHI.V/V      00 330 00 00         : PHIN         - NEUTRON POROSITY (SANDSTONE)
ILD .OHMM     00 120 00 00         : RESD         - DEEP RESISTIVITY (DIL)
~PARAMETER INFORMATION
#MNEM.UNIT           DATA             DESCRIPTION OF MNEMONIC
#---------         -----------     ------------------------------
GL  .F        1700.8               : gl           - GROUND LEVEL ELEVATION
EREF.F        1700.8               : kb           - ELEVATION OF DEPTH REFERENCE
DATM.F        1700.8               : datum        - DATUM ELEVATION
TDD .F        745                  : tdd          - TOTAL DEPTH DRILLER
RUN .         ONE                  : Run          - RUN NUMBER
ENG .         BILL                 : Engineer     - RECORDING ENGINEER
WIT .         JIM                  : Witness      - WITNESSED BY
MUD .         GEL                  : Mud_type     - MUD TYPE
MATR.         SANDSTONE            : Logunit      - NEUTRON MATRIX
TMAX.F        56                   : BHT          - MAXIMUM RECORDED TEMPERATURE
BHTD.F        745                  : BHTDEP       - MAXIMUM RECORDED TEMPERATURE
MATR.         1                    : LOGUNIT      - NEUTRON MATRIX
RMT .F        56                   : MDTP         - TEMPERATURE OF MUD
NEUT.         1                    : NEUTRON      - NEUTRON TYPE
RESI.         0                    : RESIST       - RESISTIVITY TYPE
RMC .OHMM     7.7                  : RMC          - RESISTIVITY OF MUD CAKE
RMF .OHMM     7.7                  : RMF          - RESISTIVITY OF MUD FILTRATE
SUFT.F        40                   : SUFT         - SURFACE TEMPERATURE
~A  DEPTH       GR     PHIN     RESD
# ...
  555.971   92.709    0.456   16.328
  556.791   86.617    0.450   16.257
  557.612   85.014    0.441   16.257
  558.432   85.029    0.437   16.188
  559.252   85.861    0.429   16.116
  560.072   89.564    0.431   16.044
  560.892   98.997    0.435   15.898
  561.713   98.211    0.447   15.898
  562.533   97.410    0.452   15.752
  563.353   97.410    0.471   15.534
  564.173   96.231    0.476   15.534
  564.993  103.215    0.468   15.388
  565.814  103.245    0.464   15.392
  566.634  101.219    0.464   15.392
  567.454  100.009    0.458   15.396
  568.274   92.269    0.456   15.325
  569.094   89.442    0.456   15.180
  569.915   92.738    0.463   15.032
  570.735   95.217    0.472   14.589
  571.555   96.063    0.477   13.920
  572.375   96.894    0.483   10.569
  573.196   97.333    0.475   10.273
  574.016   94.914    0.474    9.829
  574.836   93.704    0.467   10.801
  575.656   91.270    0.460   11.922
  576.476   88.443    0.453   12.372
  577.297   92.147    0.447   11.927
  578.117   96.274    0.448   10.962
  578.937   96.274    0.452   10.591
  579.757   96.712    0.458   10.371
  580.577   99.191    0.461   10.223
  581.398  101.670    0.475   10.152
  582.218  103.741    0.480   10.152
  583.038  102.139    0.485   10.083
  583.858  100.929    0.487   10.162
  584.678   97.271    0.479   10.313
  585.499   93.219    0.467   10.313
  586.319   90.785    0.461   10.914
  587.139   94.489    0.463   11.215
  587.959  105.963    0.470   11.516
  588.780  111.299    0.479   11.516
  589.600  109.288    0.469   12.117
  590.420  106.854    0.448   12.791
  591.240  104.012    0.447   13.839
  592.060   93.007    0.449   14.064
  592.881   88.124    0.453   14.064
  593.701   92.235    0.453   14.367
  594.521   94.321    0.448   14.148
  595.341   94.760    0.441   14.001
  596.161   95.591    0.437   13.854
  596.982   98.478    0.440   13.857
  597.802   98.508    0.459   14.456
  598.622   98.115    0.459   15.353
  599.442   96.513    0.455   15.951
  600.262   95.711    0.449   16.923
  601.083   92.053    0.446   17.969
  601.903   89.649    0.443   18.419
  602.723   90.480    0.460   17.901
  603.543   91.720    0.483   17.530
  604.364   93.383    0.491   17.310
  605.184   96.693    0.488   17.313
  606.004   96.723    0.482   17.317
  606.824   96.723    0.478   17.317
  607.644   97.162    0.470   17.171
  608.465   98.008    0.465   17.025
  609.285   98.008    0.458   16.880
  610.105   97.645    0.454   16.658
  610.925   96.451    0.459   16.438
  611.745   93.609    0.459   15.994
  612.566   91.189    0.472   15.698
  613.386   89.164    0.468   15.031
  614.206   86.745    0.460   14.883
  615.026   85.127    0.454   14.291
  615.846   86.790    0.454   13.845
  616.667   92.534    0.451   12.730
  617.487   95.830    0.460   11.392
  618.307   93.411    0.497   10.500
  619.127   92.610    0.516    9.235
  619.948   93.063    0.519    8.643
  620.768   94.302    0.514    8.348
  621.588   96.782    0.511    8.052
  622.408   95.587    0.505    7.831
  623.228   93.970    0.498    7.984
  624.049   90.719    0.493    8.283
  624.869   85.035    0.494    9.553
  625.689   80.152    0.494   13.357
  626.509   76.085    0.495   15.148
  627.329   72.835    0.489   16.567
  628.150   71.641    0.459   17.985
  628.970   70.038    0.445   18.585
  629.790   70.068    0.417   18.664
  630.610   70.098    0.413   18.442
  631.430   69.705    0.437   18.295
  632.251   65.638    0.478   17.479
  633.071   59.123    0.501   15.767
  633.891   55.056    0.491   12.788
  634.711   50.173    0.460   12.788
  635.531   46.938    0.457   11.079
  636.352   45.320    0.455   11.381
  637.172   44.549    0.442   11.905
  637.992   44.549    0.433   12.877
  638.812   45.395    0.424   14.147
  639.633   47.874    0.421   15.565
  640.453   51.578    0.424   36.138
  641.273   54.480    0.433   37.482
  642.093   56.536    0.440   37.482
  642.913   59.016    0.452   38.232
  643.734   60.270    0.450   38.161
  644.554   61.933    0.449   37.792
  645.374   63.989    0.446   37.421
  646.194   70.156    0.473   23.562
  647.014   80.391    0.487   22.670
  647.835   91.880    0.535   18.424
  648.655   92.711    0.532   12.763
  649.475   93.558    0.527    7.325
  650.295   95.205    0.519    7.030
  651.115   96.868    0.514    7.555
  651.936   97.306    0.511    7.558
  652.756   97.745    0.510    7.487
  653.576   98.183    0.503    7.490
  654.396   99.029    0.493    7.790
  655.217   99.861    0.488    7.941
  656.037  102.340    0.481    8.318
  656.857  103.595    0.476    8.096
  657.677  102.793    0.470    7.726
  658.497   99.135    0.467    7.582
  659.318   91.395    0.459    7.807
  660.138   84.894    0.452    8.032
  660.958   82.460    0.462    8.929
  661.778   80.026    0.469   10.050
  662.598   70.653    0.469   11.319
  663.419   73.540    0.468   14.676
  664.239   76.851    0.465   16.765
  665.059   74.825    0.463   17.588
  665.879   74.024    0.456   19.230
  666.699   74.024    0.488   20.649
  667.520   72.028    0.499   19.237
  668.340   89.231    0.509   17.749
  669.160   88.430    0.507   17.303
  669.980   85.195    0.492   17.977
  670.801   83.169    0.479   18.651
  671.621   79.102    0.471   20.144
  672.441   78.724    0.462   21.339
  673.261   79.571    0.448   22.534
  674.081   79.571    0.431   24.177
  674.902   81.249    0.427   24.627
  675.722   82.911    0.431   23.064
  676.542   84.982    0.437   20.310
  677.362   87.461    0.443   19.047
  678.182   89.941    0.446   18.676
  679.003   89.154    0.453   18.232
  679.823   88.353    0.456   18.159
  680.643   85.118    0.464   17.865
  681.463   83.092    0.467   17.570
  682.283   81.489    0.469   17.499
  683.104   79.872    0.478   17.351
  683.924   79.494    0.488   17.055
  684.744   80.748    0.502   16.686
  685.564   81.580    0.503   16.390
  686.385   83.242    0.479   15.797
  687.205   88.987    0.466   15.203
  688.025   86.160    0.448   14.984
  688.845   84.542    0.433   14.984
  689.665   81.307    0.425   15.137
  690.486   80.097    0.429   15.365
  691.306   85.842    0.431   15.592
  692.126   90.362    0.434   15.742
  692.946   91.617    0.432   15.893
  693.766   92.463    0.431   16.269
  694.587   92.901    0.432   16.421
  695.407   92.508    0.432   16.424
  696.227   90.906    0.435   16.501
  697.047   89.696    0.440   16.876
  697.867   88.502    0.442   17.476
  698.688   88.502    0.447   17.777
  699.508   86.914    0.447   18.002
  700.328   86.536    0.450   18.378
  701.148   86.536    0.442   18.828
  701.969   86.989    0.437   19.129
  702.789   89.075    0.434   19.354
  703.609   89.907    0.430   19.879
  704.429   95.651    0.426   20.478
  705.249  100.171    0.425   21.227
  706.070  103.467    0.431   21.826
  706.890  105.538    0.432   22.872
  707.710  105.160    0.426   24.589
  708.530  104.766    0.422   26.380
  709.350   99.883    0.423   28.096
  710.171   92.551    0.426   33.092
  710.991   86.051    0.428   33.096
  711.811   85.658    0.431   32.428
  712.631   88.545    0.433   31.983
  713.451   91.432    0.436   26.843
  714.272   91.462    0.438   25.804
  715.092   90.676    0.438   25.209
  715.912   90.298    0.441   24.317
  716.732   91.129    0.441   23.650
  717.552   95.241    0.443   22.907
  718.373  100.577    0.443   21.644
  719.193  103.873    0.442   19.783
  720.013  107.168    0.442   19.114
  720.833  109.648    0.443   18.373
  721.654  109.648    0.444   18.002
  722.474  110.509    0.445   17.782
  723.294  110.539    0.448   17.785
  724.114  110.161    0.446   17.863
  724.934  109.360    0.443   18.015
  725.755  104.885    0.436   18.240
  726.575  102.058    0.428   18.391
  727.395  100.440    0.410   18.841
  728.215   93.516    0.406   24.061
  729.035   75.980    0.408   25.405
  729.856   67.408    0.404   29.954
  730.676   62.132    0.393   33.534
  731.496   61.346    0.386   37.489
  732.316   60.953    0.388   37.342
  733.136   61.391    0.405   37.045
