~VERSION INFORMATION
 VERS.                 2.0:   CWLS LOG ASCII STANDARD -VERSION 2.0
 WRAP.                  NO:   ONE LINE PER DEPTH STEP
~WELL INFORMATION BLOCK
#MNEM.UNIT           DATA                    DESCRIPTION OF MNEMONIC
#---------    -------------------            -------------------------------
# Generated from Intellog Unique Number	CC_80_83/WELL/2372
NULL.         -999.25                        : NULL_VALUE
WELL.         PEX PCEJU KEANE OV             : Well_name    - WELL              
LOC .         10-26-080-14W4                 : Location     - LOCATION          
UWI .         AA/10-26-080-14W4/0            : Uwi          - UNIQUE WELL ID    
ENTR.         DW                             : Entered      - ENTERED BY        
SRVC.         SCHLUMBERGER                   : Scn          - SERVICE COMPANY   
DATE.         25 JAN 81                      : Date         - LOG DATE
STRT.M        240                            : top_depth    - START DEPTH       
STOP.M        484.791                        : bot_depth    - STOP DEPTH        
STEP.M        0.3                            : increment    - STEP LENGTH       
~CURVE INFORMATION BLOCK
#MNEM UNIT       ERCB CURVE CODE    CURVE DESCRIPTION
#-----------   ------------------   ----------------------------------
DEPT.M        00 001 00 00         : DEPTH        - DEPTH                       
DPHI.V/V      00 890 00 00         : PHID         - DENSITY POROSITY (LIMESTONE)
NPHI.V/V      00 330 00 00         : PHIN         - NEUTRON POROSITY (LIMESTONE)
GR  .API      00 310 00 00         : GR           - GAMMA RAY                   
ILD .OHMM     00 120 00 00         : RESD         - DEEP RESISTIVITY (DIL)      
~PARAMETER INFORMATION       
#MNEM.UNIT           DATA             DESCRIPTION OF MNEMONIC
#---------         -----------     ------------------------------
GL  .M        669.37               : gl           - GROUND LEVEL ELEVATION      
EREF.M        672.27               : kb           - ELEVATION OF DEPTH REFERENCE
DATM.M        672.27               : datum        - DATUM ELEVATION             
TDD .M        492                  : tdd          - TOTAL DEPTH DRILLER         
RUN .         ONE                  : Run          - RUN NUMBER                  
ENG .         BILL                 : Engineer     - RECORDING ENGINEER          
WIT .         JIM                  : Witness      - WITNESSED BY                
MUD .         GEL                  : Mud_type     - MUD TYPE                    
MATR.         LIMESTONE            : Logunit      - NEUTRON MATRIX              
TMAX.C        28                   : BHT          - MAXIMUM RECORDED TEMPERATURE
BHTD.M        492                  : BHTDEP       - MAXIMUM RECORDED TEMPERATURE
MATR.         1                    : LOGUNIT      - NEUTRON MATRIX              
RMT .C        25                   : MDTP         - TEMPERATURE OF MUD          
NEUT.         1                    : NEUTRON      - NEUTRON TYPE                
RESI.         0                    : RESIST       - RESISTIVITY TYPE            
RMC .OHMM     0.25                 : RMC          - RESISTIVITY OF MUD CAKE     
RMF .OHMM     0.25                 : RMF          - RESISTIVITY OF MUD FILTRATE 
SUFT.C        4                    : SUFT         - SURFACE TEMPERATURE         
~A  DEPTH     PHID     PHIN       GR     RESD
# ...
  292.199    0.242    0.473   97.908   10.905
  292.499    0.239    0.471   96.646   10.915
  292.799    0.237    0.466   98.534   10.925
  293.099    0.239    0.457   92.229   10.935
  293.399    0.264    0.444  101.050   10.734
  293.699    0.270    0.441   99.787   10.744
  293.999    0.265    0.432   91.591   10.754
  294.299    0.255    0.443   95.371   10.764
  294.599    0.257    0.468  104.192   10.774
  294.899    0.259    0.482  117.425   10.782
  295.199    0.257    0.481  133.179   11.217
  295.499    0.252    0.492  136.958   11.447
  295.799    0.252    0.458  135.065   11.681
  296.099    0.247    0.476  143.256   11.691
  296.399    0.240    0.501  133.800   11.476
  296.699    0.237    0.471  124.344   11.268
  296.999    0.229    0.451  104.173   11.062
  297.298    0.173    0.455  100.389   10.653
  297.598    0.200    0.441  109.841   10.459
  297.898    0.236    0.457  117.402   10.071
  298.198    0.244    0.457  104.164    9.698
  298.498    0.251    0.443  114.246    9.707
  298.798    0.262    0.452  116.764    9.906
  299.098    0.261    0.473  127.476   10.305
  299.398    0.254    0.491  123.062   10.928
  299.698    0.259    0.457  126.841   12.047
  299.998    0.271    0.446  126.209   13.026
  300.298    0.281    0.438  115.492   13.293
  300.598    0.270    0.445  119.271   12.556
  300.898    0.276    0.446  114.857   11.858
  301.198    0.280    0.453  114.854   10.987
  301.498    0.281    0.431  113.592    9.607
  301.798    0.274    0.446  104.135    8.082
  302.098    0.256    0.461   99.091    6.931
  302.398    0.260    0.442  108.542    6.179
  302.698    0.270    0.441  116.734    6.066
  302.998    0.344    0.435  130.597    8.269
  303.298    0.316    0.482  126.182   10.846
  303.598    0.332    0.471  104.121   12.427
  303.898    0.345    0.498  118.615   16.299
  304.198    0.284    0.523  102.856   19.410
  304.498    0.311    0.517   76.383   20.583
  304.798    0.420    0.514   60.625   21.004
  305.098    0.398    0.477   58.101   21.434
  305.398    0.294    0.417   60.619   21.454
  305.698    0.296    0.447   60.617   21.474
  305.998    0.297    0.442   59.985   21.490
  306.298    0.299    0.443   63.133   21.510
  306.598    0.297    0.473   66.283   21.530
  306.898    0.300    0.460   59.977   21.550
  307.198    0.292    0.460   66.278   21.570
  307.498    0.292    0.456   71.947   21.173
  307.798    0.299    0.448   73.206   21.193
  308.098    0.301    0.453   62.489   21.213
  308.398    0.305    0.447   60.595   21.233
  308.698    0.310    0.456   61.223   20.846
  308.998    0.311    0.441   59.330   20.862
  309.298    0.310    0.423   51.135   20.881
  309.598    0.307    0.427   53.654   20.901
  309.898    0.309    0.437   57.433   20.520
  310.198    0.310    0.436   58.691   20.539
  310.498    0.302    0.446   61.840   20.555
  310.798    0.296    0.443   61.838   20.574
  311.098    0.296    0.402   65.617   20.593
  311.398    0.296    0.416   60.573   20.612
  311.698    0.296    0.435   58.049   21.034
  311.998    0.294    0.423   56.156   21.053
  312.298    0.290    0.428   53.002   21.069
  312.598    0.269    0.426   54.891   21.500
  312.898    0.275    0.443   60.561   21.940
  313.198    0.315    0.452   63.709   22.388
  313.498    0.320    0.455   63.707   22.409
  313.798    0.320    0.452   61.814   22.426
  314.098    0.324    0.427   60.551   22.447
  314.398    0.326    0.420   63.700   22.906
  314.698    0.330    0.437   66.849   23.374
  314.998    0.332    0.441   63.065   23.396
  315.298    0.334    0.433   59.911   23.413
  315.598    0.330    0.440   66.842   27.350
  315.898    0.322    0.411   63.688   31.337
  316.198    0.322    0.400   69.989   36.605
  316.498    0.324    0.374   73.768   32.631
  316.798    0.316    0.270   64.311   28.533
  317.098    0.053    0.208   54.225   26.432
  317.398    0.147    0.268   47.920   24.490
  317.698    0.185    0.327   49.178   21.414
  317.998    0.188    0.366   57.369   17.668
  318.298    0.317    0.433   65.560   16.057
  318.598    0.301    0.418   59.255   15.167
  318.898    0.210    0.349   59.253   14.891
  319.198    0.241    0.352   59.881   14.340
  319.498    0.322    0.437   59.878   14.351
  319.798    0.320    0.448   58.616   14.364
  320.098    0.314    0.436   62.395   14.658
  320.398    0.312    0.452   62.392   14.672
  320.698    0.319    0.485   57.978   14.686
  320.998    0.320    0.501   58.605   14.697
  321.298    0.319    0.485   57.974   14.710
  321.598    0.319    0.471   58.601   14.724
  321.897    0.314    0.470   59.859   14.741
  322.197    0.308    0.476   59.227   14.752
  322.497    0.312    0.470   56.704   14.763
  322.797    0.308    0.463   63.004   14.779
  323.097    0.308    0.458   57.959   14.793
  323.397    0.314    0.437   49.764   14.804
  323.697    0.315    0.435   51.652   14.818
  323.997    0.309    0.447   52.910   14.829
  324.297    0.305    0.463   53.538   14.843
  324.597    0.303    0.475   51.645   14.857
  324.897    0.305    0.486   57.945   14.870
  325.197    0.309    0.476   59.203   14.884
  325.497    0.313    0.458   55.420   14.896
  325.797    0.314    0.466   51.005   15.200
  326.097    0.315    0.473   56.045   15.214
  326.397    0.313    0.452   52.261   15.229
  326.697    0.311    0.427   50.368   15.243
  326.997    0.310    0.439   52.887   15.260
  327.297    0.305    0.447   55.405   15.271
  327.597    0.300    0.473   57.924   15.283
  327.897    0.298    0.460   59.812   15.595
  328.197    0.298    0.473   61.070   15.613
  328.497    0.291    0.447   58.547   15.624
  328.797    0.290    0.460   60.436   15.636
  329.097    0.304    0.468   63.584   15.650
  329.397    0.306    0.457   62.322   15.366
  329.697    0.301    0.451   68.622   15.380
  329.997    0.301    0.439   69.880   15.394
  330.297    0.301    0.441   68.617   15.406
  330.597    0.304    0.449   71.765   16.027
  330.897    0.305    0.447   74.284   16.674
  331.197    0.295    0.437   75.543   21.451
  331.497    0.271    0.395   71.759   21.890
  331.797    0.160    0.365   67.345   22.773
  332.097    0.077    0.281   57.258   21.926
  332.397    0.164    0.259   47.802   20.316
  332.697    0.289    0.417   54.102   17.764
  332.997    0.288    0.454   62.293   17.441
  333.297    0.285    0.452   70.484   17.120
  333.597    0.285    0.462   70.481   16.808
  333.897    0.286    0.473   72.370   16.824
  334.197    0.288    0.459   76.779   16.843
  334.497    0.291    0.445   79.929   16.858
  334.797    0.291    0.452   82.447   16.868
  335.097    0.288    0.475   72.991   16.884
  335.397    0.280    0.491   73.619   16.899
  335.697    0.276    0.474   71.096   16.915
  335.997    0.284    0.450   72.984   16.931
  336.297    0.291    0.450   76.763   16.944
  336.597    0.290    0.462   66.046   16.959
  336.897    0.285    0.452   67.935   16.975
  337.197    0.290    0.462   70.454   16.994
  337.497    0.293    0.484   74.233   17.007
  337.797    0.294    0.474   83.054   17.023
  338.097    0.296    0.475   85.573   17.036
  338.397    0.296    0.450   68.553   16.726
  338.697    0.283    0.454   72.963   15.799
  338.997    0.275    0.466   79.893   14.638
  339.297    0.274    0.489   72.958   13.825
  339.597    0.274    0.485   74.216   12.809
  339.897    0.273    0.459   77.995   12.100
  340.197    0.270    0.462   77.993   11.430
  340.497    0.265    0.472   81.772   10.796
  340.797    0.259    0.461   87.441   10.598
  341.097    0.265    0.459   83.028   10.405
  341.397    0.271    0.449   86.807   10.216
  341.697    0.266    0.461   90.586   10.225
  341.997    0.260    0.457   93.105   10.235
  342.297    0.255    0.457  104.447   10.645
  342.597    0.245    0.447   95.621   11.511
  342.897    0.242    0.450  101.921   12.447
  343.197    0.268    0.475   94.986   12.458
  343.497    0.285    0.470   73.555   12.470
  343.797    0.280    0.437   63.469   13.744
  344.097    0.276    0.442   69.138   14.577
