~Version : LASO    vs 4.00 - DATA COPYRIGHT - RILEYS DATASHARE INTERNATIONAL
 VERS.                2.0 :   CWLS Log ASCII Standard -VERSION 2.0
 WRAP.                 NO :   One line per depth step
~Well Information Block
#MNEM.UNIT       Data                        Description of Mnemonic
#----.----      -------------------------- : -----------------------------
 STRT.FT           30.0000                 : Start Depth
 STOP.FT          463.0000                 : End Depth
 STEP.FT            0.5000                 : Depth Increment
 NULL.           -999.25                   : NULL Value
 COMP.    PACIFIC PETROLEUMS LIMITED       : COMPANY
 WELL.    BAYSEL-ASHLAND STPBK CH#21 13-30 : WELL NAME
 FLD .    STPBK. OIL SANDS                 : FIELD NAME
 LOC .    13-30-091-08W4                     : WELL LOCATION
 PROV.    ALBERTA                          : PROVINCE
 SRVC.    SCHLUMBERGER                     : LOGGING SERVICE COMPANY
 DATE.    01-MAR-73                        : DATE LOGGED
 UWI .    AA/13-30-091-08W400              : UNIQUE WELL ID
~Curve Information Block
#MNEM.UNIT        API CODE                   Curve Description
#----.----      LG--CV-CL--M               : -----------------
 DEPT.FT         0   1  0  0               : 1 DEPTH
 CALI.IN        45 280  1  1               : 2 DENSITY CALIPER
 DPHI.%         45 890 12  1               : 3 DENSITY POROSITY (SANDSTONE)
 GR  .GAPI      45 310  1  1               : 4 GAMMA RAY
 RHOB.G/C3      45 350  1  1               : 5 BULK DENSITY
 LLS .OHMM      11 220  9  1               : 6 FOCUSSED RESISTIVITY
 SP  .MV        11  10  1  1               : 7 SPONTANEOUS POTENTIAL
 NPHI.%         41 890  3  1               : 8 NEUTRON POROSITY (SANDSTONE)
~Parameter Information Block
#MNEM.UNIT       Data                        Description of Mnemonic
#----.----      -------------------------- : -----------------------------
 RUN .                   1                 : Run Number
 GL  .FT         1240.0000                 : Ground Level Elevation
 DREF.                  KB                 : Depth Reference
 EREF.FT         1244.0000                 : Elevation of Depth Reference
 TDL .FT          464.0000                 : Total Depth Logger
 TDD .FT          455.0000                 : Total Depth Driller
 CSGL.FT            0.0000                 : Casing Bottom Logger
 CSGD.FT            0.0000                 : Casing Bottom Driller
 CSGS.IN          219.0000                 : Casing Size
 CSGW.LBS           0.0000                 : Casing Weight
 BHT .DEGF         52.0000                 : Bottom Hole Temperature
 BS  .IN            6.2500                 : Bit Size
 DFD .           1110.0000                 : Mud Weight (Density)
 DFV .             89.0000                 : Mud Viscosity
 DFL .              4.5000                 : Mud Fluid Loss
 DFPH.              9.0000                 : Mud pH
 RM  .OHMM          4.6200                 : Mud Resistivity
 RMT .DEGF         49.0000                 : Mud Resistivity Temperature
 RMF .OHMM          5.0000                 : Mud Filtrate Resistivity
 RMFT.DEGF         20.0000                 : RMF Temperature
 RMC .OHMM          5.3000                 : Mud Cake Resistivity
 RMCT.DEGF         20.0000                 : RMC Temperature
~Asc DEPTH      CALI       DPHI       GR         RHOB       LLS        SP         NPHI 
# ...
  212.0000     6.9000    24.4380    76.9800     2.2417     6.0622    63.6750    41.8680
  212.5000     6.9080    23.7720    75.9700     2.2530     6.0510    64.7850    43.1880
  213.0000     6.9220    23.2260    74.1000     2.2629     5.9956    65.3850    43.3020
  213.5000     6.9360    23.2860    75.0500     2.2661     5.8753    64.6200    43.8000
  214.0000     6.9500    23.7240    74.6300     2.2620     5.7099    63.4500    42.4860
  214.5000     6.9670    24.5820    74.3400     2.2417     5.5135    62.6100    44.5920
  215.0000     6.9830    23.8980    76.1300     2.2531     5.9242    61.7700    42.7980
  215.5000     6.9990    23.1720    77.7500     2.2735     6.5137    61.5150    41.5980
  216.0000     7.0070    22.4460    77.4300     2.2796     6.3948    61.3650    40.7280
  216.5000     7.0040    21.8340    77.1100     2.2861     6.7706    61.4550    40.3560
  217.0000     7.0020    21.1740    74.8300     2.3021     7.7309    61.5750    38.3280
  217.5000     6.9510    20.0520    67.5400     2.3181    10.8400    61.6650    35.9760
  218.0000     6.8970    18.9600    66.2800     2.3347    15.3260    61.1700    33.9360
  218.5000     6.8580    17.9520    62.2700     2.3521    19.4729    59.5050    31.5660
  219.0000     6.8260    16.8300    58.5500     2.3729    20.8463    56.5500    31.6140
  219.5000     6.7970    18.5400    59.6900     2.3448    17.3233    54.4500    29.9640
  220.0000     6.8070    20.4840    60.6900     2.3096    16.1819    52.6050    28.6260
  220.5000     6.8160    22.4340    54.4600     2.2779    17.2119    51.1650    29.5500
  221.0000     6.8210    21.1440    54.5500     2.3067    18.2402    52.3800    29.8800
  221.5000     6.8180    19.8540    55.6500     2.3285    19.5088    53.3250    31.5480
  222.0000     6.8170    17.9280    58.0100     2.3417    19.1880    52.5150    33.1500
  222.5000     6.8240    18.7500    61.0500     2.3486    17.0228    51.7050    32.9700
  223.0000     6.8310    20.3880    63.6600     2.3100    15.1158    54.0450    34.0440
  223.5000     6.8430    22.0260    65.8800     2.2839    15.2275    56.8050    33.6060
  224.0000     6.8560    23.7780    67.5700     2.2492    15.5679    54.0900    33.2220
  224.5000     6.8370    24.9960    68.0200     2.2310    16.3316    52.0200    32.3100
  225.0000     6.8170    25.5960    70.1600     2.2268    16.7275    51.5850    32.6940
  225.5000     6.8340    25.3380    72.7300     2.2300    15.4252    53.4000    34.2000
  226.0000     6.8960    25.1880    72.7900     2.2339    19.8349    55.1250    33.1500
  226.5000     7.0550    27.2280    60.0700     2.2108    21.9498    54.8400    31.1340
  227.0000     6.9240    29.5980    49.9900     2.1764    24.9937    51.9000    28.2780
  227.5000     6.8600    31.7340    45.2600     2.1356    24.4023    48.7800    29.0340
  228.0000     6.9640    32.8020    39.2700     2.1055    23.6282    46.2450    30.3360
  228.5000     6.9190    31.4160    40.2100     2.1448    24.9018    44.5200    31.6380
  229.0000     6.8250    30.3840    40.2200     2.1614    25.0859    42.7500    32.7000
  229.5000     6.8490    29.3520    43.5000     2.1728    20.8656    43.3350    32.9220
  230.0000     6.8740    28.3200    46.3600     2.1837    18.5622    43.9350    32.3220
  230.5000     6.8990    27.2820    49.5400     2.2115    15.1158    44.4750    33.0780
  231.0000     6.9250    26.2500    53.6000     2.2282    19.0471    45.0900    32.8860
  231.5000     6.9480    25.4640    55.2700     2.2239    23.2397    44.4450    33.9060
  232.0000     6.8940    26.4660    56.9400     2.2140    31.2629    42.0750    34.4400
  232.5000     6.8100    28.0260    57.4000     2.1915    47.1444    38.7750    31.8960
  233.0000     6.7480    30.0660    49.0700     2.1525    71.0935    35.4750    29.3640
  233.5000     6.7180    31.6320    45.9400     2.1240    94.5867    32.3550    28.0260
  234.0000     6.6880    31.1100    44.4200     2.1318   108.3004    29.8800    27.6720
  234.5000     6.6580    30.7980    44.2700     2.1413    91.7550    28.1250    28.0380
  235.0000     6.6570    30.7620    46.1500     2.1370    87.8678    27.3750    27.7680
  235.5000     6.6560    31.2780    46.8600     2.1311    88.9262    26.8350    27.4500
  236.0000     6.6550    31.8300    47.8900     2.1254   112.0547    26.4450    28.3080
  236.5000     6.6540    32.3100    50.6200     2.1183   152.8375    25.4250    29.4840
  237.0000     6.6600    32.6280    53.1900     2.1119   210.5862    24.1500    29.3880
  237.5000     6.6670    32.9460    50.4700     2.1092   290.1549    22.5300    29.2620
  238.0000     6.6740    33.1920    47.0700     2.1011   323.7650    22.1850    28.5900
  238.5000     6.6830    33.3360    43.2400     2.0966   352.0707    21.9150    29.7600
  239.0000     6.6940    32.8500    41.0900     2.0958   393.5772    23.2200    29.1240
  239.5000     6.7030    32.0220    42.0400     2.1068   417.8592    25.3050    28.5300
  240.0000     6.7230    30.8520    42.8000     2.1295   260.0339    28.6800    31.1640
  240.5000     6.7940    29.6820    37.5100     2.1522   204.2819    30.1800    33.5280
  241.0000     6.8480    28.4940    35.5800     2.1772   179.5684    30.6600    33.7140
  241.5000     6.8060    27.1380    35.6200     2.2023   171.4865    31.1700    33.7380
  242.0000     6.7800    25.7820    31.5300     2.2274   199.8158    31.1250    29.2740
  242.5000     6.7530    24.5940    29.5900     2.2405   220.5108    31.0800    27.5100
  243.0000     6.7780    27.6780    29.7800     2.1949   213.5157    31.0200    29.6940
  243.5000     6.8050    28.3380    30.2800     2.1806   212.1436    30.9900    30.8760
  244.0000     6.7840    28.5960    31.7200     2.1754   269.0481    31.5000    28.9320
  244.5000     6.7650    28.7700    35.2400     2.1704   355.9836    32.9100    29.8920
  245.0000     6.7950    28.5540    37.2100     2.1690   426.4125    35.5650    32.3400
  245.5000     6.8250    27.5340    36.4900     2.1943    96.1679    39.7350    33.5580
  246.0000     6.8670    25.9680    38.2400     2.2259    33.6845    44.4150    33.0060
  246.5000     6.9090    23.8980    42.6300     2.2576    19.0121    49.0950    34.4100
  247.0000     6.9460    21.7500    52.0400     2.2893    12.9727    53.0250    35.2680
  247.5000     6.9830    20.0100    61.4500     2.3186    15.2556    54.9450    34.5900
  248.0000     6.9690    19.9200    63.8000     2.3212    18.2570    53.0550    36.0600
  248.5000     6.9440    19.7820    64.7800     2.3246    21.8489    51.2250    35.6280
  249.0000     6.9890    19.3740    62.5500     2.3286    26.1716    52.5000    34.0560
  249.5000     7.0430    18.7860    61.7200     2.3345    20.0553    54.3600    34.4160
  250.0000     7.0230    18.3600    63.8700     2.3399    20.6172    55.8450    33.9240
  250.5000     7.0700    20.0880    65.1300     2.3108    21.4501    57.0000    33.6000
  251.0000     7.1240    20.7600    62.6000     2.2983    19.7256    57.9600    33.2880
  251.5000     7.1570    21.8100    60.5500     2.2826    23.4547    58.5900    32.3340
  252.0000     7.1780    24.1020    59.2200     2.2606    25.8363    58.9950    34.9920
  252.5000     7.1460    26.4000    60.7500     2.2067    28.0175    59.4300    37.8840
  253.0000     7.1240    28.1880    62.1300     2.1528    22.6063    60.1350    40.7760
  253.5000     7.1020    31.1520    63.5100     2.0989    17.0541    61.6200    44.9700
  254.0000     7.0900    34.0020    64.2300     2.0707    13.0807    62.0850    53.8080
  254.5000     7.2930    36.2220    67.1500     2.0574    11.2572    59.9400    56.2500
  255.0000     7.3500    31.5120    72.8800     2.1280    10.6226    56.1450    52.9800
  255.5000     7.4010    27.6540    78.3800     2.1868    14.2243    53.5200    48.5580
  256.0000     7.4370    23.7960    83.1000     2.2537    16.2716    51.7050    44.1360
  256.5000     7.4530    20.3160    79.7300     2.3177    18.0397    52.2150    40.0380
  257.0000     7.4550    18.3540    76.7200     2.3493    19.6350    52.9950    38.8560
