~VERSION INFORMATION
 VERS.                 2.0:   CWLS LOG ASCII STANDARD -VERSION 2.0
 WRAP.                  NO:   ONE LINE PER DEPTH STEP
~WELL INFORMATION BLOCK
#MNEM.UNIT           DATA                    DESCRIPTION OF MNEMONIC
#---------    -------------------            -------------------------------
# Generated from Intellog Unique Number	CC_80_83/WELL/2337
NULL.         -999.25                        : NULL_VALUE
WELL.         PEX PCEJU HOUSE OV             : Well_name    - WELL              
LOC .         10-08-081-13W4                 : Location     - LOCATION          
UWI .         AA/10-08-081-13W400            : Uwi          - UNIQUE WELL ID    
ENTR.         DW                             : Entered      - ENTERED BY        
SRVC.         DRESSER ATLAS                  : Scn          - SERVICE COMPANY   
DATE.         31 JAN 81                      : Date         - LOG DATE
STRT.M        225                            : top_depth    - START DEPTH       
STOP.M        474.891                        : bot_depth    - STOP DEPTH        
STEP.M        0.3                            : increment    - STEP LENGTH       
~CURVE INFORMATION BLOCK
#MNEM UNIT       ERCB CURVE CODE    CURVE DESCRIPTION
#-----------   ------------------   ----------------------------------
DEPT.M        00 001 00 00         : DEPTH        - DEPTH                       
DPHI.V/V      00 890 00 00         : PHID         - DENSITY POROSITY (LIMESTONE)
NPHI.V/V      00 330 00 00         : PHIN         - NEUTRON POROSITY (LIMESTONE)
GR  .API      00 310 00 00         : GR           - GAMMA RAY                   
ILD .OHMM     00 120 00 00         : RESD         - DEEP RESISTIVITY (DIL)      
~PARAMETER INFORMATION       
#MNEM.UNIT           DATA             DESCRIPTION OF MNEMONIC
#---------         -----------     ------------------------------
GL  .M        667.8                : gl           - GROUND LEVEL ELEVATION      
EREF.M        670.7                : kb           - ELEVATION OF DEPTH REFERENCE
DATM.M        670.7                : datum        - DATUM ELEVATION             
TDD .M        477                  : tdd          - TOTAL DEPTH DRILLER         
RUN .         ONE                  : Run          - RUN NUMBER                  
ENG .         BILL                 : Engineer     - RECORDING ENGINEER          
WIT .         JIM                  : Witness      - WITNESSED BY                
MUD .         GEL                  : Mud_type     - MUD TYPE                    
MATR.         LIMESTONE            : Logunit      - NEUTRON MATRIX              
TMAX.C        18                   : BHT          - MAXIMUM RECORDED TEMPERATURE
BHTD.M        4772                 : BHTDEP       - MAXIMUM RECORDED TEMPERATURE
MATR.         1                    : LOGUNIT      - NEUTRON MATRIX              
RMT .C        25                   : MDTP         - TEMPERATURE OF MUD          
NEUT.         1                    : NEUTRON      - NEUTRON TYPE                
RESI.         0                    : RESIST       - RESISTIVITY TYPE            
RMC .OHMM     0.25                 : RMC          - RESISTIVITY OF MUD CAKE     
RMF .OHMM     0.25                 : RMF          - RESISTIVITY OF MUD FILTRATE 
SUFT.C        4                    : SUFT         - SURFACE TEMPERATURE         
~A  DEPTH     PHID     PHIN       GR     RESD
# ...
  433.793    0.235    0.424  133.280   16.480
  434.093    0.216    0.425  133.389   18.825
  434.393    0.217    0.412   92.139   21.099
  434.693    0.239    0.410   98.499   22.329
  434.993    0.261    0.416  101.732   21.074
  435.293    0.255    0.404  102.458   20.273
  435.593    0.256    0.394  112.577   19.880
  435.893    0.256    0.396  104.559   20.645
  436.193    0.239    0.393  102.133   22.271
  436.493    0.219    0.385  104.729   24.959
  436.793    0.286    0.383  108.587   29.618
  437.093    0.283    0.391   90.515   35.144
  437.393    0.238    0.389   71.192   33.806
  437.693    0.247    0.388   66.283   32.531
  437.993    0.279    0.380   65.145   28.449
  438.293    0.268    0.379   69.632   23.945
  438.593    0.254    0.411   75.348   20.543
  438.893    0.240    0.429   89.868   19.025
  439.193    0.232    0.420  101.228   18.304
  439.493    0.237    0.415  103.224   17.948
  439.793    0.242    0.403   89.520   18.635
  440.093    0.235    0.407   86.490   19.349
  440.393    0.231    0.398   81.596   20.475
  440.693    0.231    0.404   86.081   20.468
  440.993    0.235    0.392   85.547   20.454
  441.293    0.243    0.389   81.246   20.061
  441.593    0.237    0.381   76.334   18.579
  441.893    0.215    0.376   83.948   16.879
  442.193    0.223    0.392   95.948   16.870
  442.493    0.242    0.403  102.313   17.855
  442.793    0.256    0.384   87.374   20.785
  443.093    0.251    0.369   53.017   24.204
  443.393    0.246    0.398   62.518   28.180
  443.693    0.297    0.395   83.292   30.398
  443.993    0.290    0.384   42.047   31.565
  444.293    0.282    0.412   64.690   32.773
  444.593    0.281    0.387   62.283   30.348
  444.893    0.273    0.373   66.770   28.102
  445.193    0.262    0.339   75.016   29.183
  445.493    0.263    0.322   70.094   32.086
  445.793    0.323    0.296   34.489   32.069
  446.093    0.320    0.292   30.200   26.997
  446.393    0.315    0.296   25.289   14.376
  446.693    0.312    0.339   26.644   11.427
  446.993    0.310    0.373   31.121   11.206
  447.293    0.310    0.386   36.863   14.911
  447.593    0.318    0.421   33.837   21.827
  447.893    0.314    0.410   32.046   30.175
  448.193    0.301    0.402   32.150   72.534
  448.492    0.308    0.398   34.752   75.323
  448.792    0.311    0.395   44.251   52.391
  449.092    0.303    0.401   53.121   21.358
  449.392    0.277    0.439   69.494   18.326
  449.692    0.246    0.403   94.678   14.847
  449.992    0.230    0.393   99.141   12.983
  450.292    0.216    0.394  103.618   12.732
  450.592    0.216    0.387  103.092   12.969
  450.892    0.211    0.380  102.582   12.962
  451.192    0.230    0.389   86.377   12.712
  451.492    0.248    0.394   83.345   11.548
  451.792    0.251    0.393   95.347   10.293
  452.092    0.263    0.409   96.074    9.715
  452.392    0.277    0.419   77.996    9.348
  452.692    0.291    0.409   75.601    8.823
  452.992    0.288    0.424   71.955    8.488
  453.292    0.271    0.412   69.531    8.647
  453.592    0.267    0.422   72.137    8.980
  453.892    0.280    0.413   72.861    9.686
  454.192    0.302    0.414   56.662   10.252
  454.492    0.303    0.402   44.859   11.710
  454.792    0.308    0.393   33.681   13.376
  455.092    0.315    0.390   25.016   15.874
  455.392    0.315    0.382   23.230   18.838
  455.692    0.308    0.384   25.235   17.781
  455.992    0.304    0.391   24.702    8.941
  456.292    0.311    0.394   22.901    7.384
  456.592    0.312    0.388   21.742    5.983
  456.892    0.308    0.377   22.473    5.037
  457.192    0.305    0.359   23.822    4.664
  457.492    0.310    0.355   25.822    4.574
  457.792    0.316    0.357   27.151    4.571
  458.092    0.319    0.368   28.502    4.657
  458.392    0.319    0.374   28.645    4.834
  458.692    0.311    0.378   27.451    4.925
  458.992    0.304    0.382   26.319    4.830
  459.292    0.304    0.387   26.401    4.646
  459.592    0.303    0.389   27.781    4.557
  459.892    0.294    0.383   29.122    4.382
  460.192    0.292    0.377   31.075    4.380
  460.492    0.313    0.368   31.805    4.378
  460.792    0.311    0.362   27.517    4.461
  461.092    0.314    0.380   26.986    4.632
  461.392    0.313    0.392   33.349    4.719
  461.692    0.307    0.385   36.575    4.716
  461.992    0.305    0.382   27.291    4.804
  462.292    0.307    0.390   22.992    4.710
  462.592    0.311    0.390   26.237    4.531
  462.892    0.315    0.391   30.088    4.444
  463.192    0.317    0.384   35.195    4.358
  463.492    0.317    0.372   37.189    4.274
  463.792    0.314    0.359   35.382    4.111
  464.092    0.313    0.344   24.872    4.109
  464.392    0.313    0.318   22.431    4.266
  464.692    0.306    0.305   22.527    4.691
  464.992    0.289    0.279   30.796    7.849
  465.292    0.257    0.241   35.252   13.131
  465.592    0.008    0.221   42.274   17.473
  465.892    0.014    0.158   44.241   27.085
  466.192    0.011    0.157   41.818   30.355
  466.492    0.012    0.160   33.799   31.512
  466.792    0.013    0.165   31.359   32.727
  467.092    0.018    0.167   29.584   35.297
  467.392    0.023    0.169   23.412   37.362
  467.692    0.024    0.162   17.254   43.501
  467.992    0.025    0.159   11.702   51.626
  468.292    0.025    0.155    9.937   63.642
  468.592    0.027    0.154   11.939   69.971
  468.892    0.034    0.161   12.637   75.480
  469.192    0.044    0.165   15.252   75.439
  469.492    0.044    0.161   17.837   65.967
  469.792    0.040    0.153   21.696   59.940
  470.092    0.035    0.140   28.054   48.569
  470.392    0.043    0.147   38.800   30.129
  470.692    0.054    0.170   47.680   22.191
  470.992    0.051    0.232   54.039   18.325
  471.292    0.049    0.241   61.650   16.651
  471.592    0.049    0.233   66.764   14.285
  471.892    0.056    0.217   70.004   12.980
  472.192    0.081    0.193   72.596   11.792
  472.492    0.077    0.279   78.332   11.563
  472.792    0.066    0.247   77.186   11.558
  473.091    0.045    0.205   82.911   12.707
  473.391    0.032    0.155   85.521   17.234
  473.691    0.037    0.147   79.353   24.752
  473.991    0.042    0.147   78.833   34.216
  474.291    0.038    0.146   79.562   38.344
  474.591    0.036    0.149   80.932   39.817
  474.891    0.039    0.148   79.757   39.793
