~VERSION INFORMATION
 VERS.                 2.0:   CWLS LOG ASCII STANDARD -VERSION 2.0
 WRAP.                  NO:   ONE LINE PER DEPTH STEP
~WELL INFORMATION BLOCK
#MNEM.UNIT           DATA                    DESCRIPTION OF MNEMONIC
#---------    -------------------            -------------------------------
# Generated from Intellog Unique Number	CC_88_90/WELL/1184
WELL.         10-26-089-15W4                 : Well_name    - WELL
LOC .         AA/10-26-089-15W4/0            : Location     - LOCATION
UWI .         AA/10-26-089-15W400            : Uwi          - UNIQUE WELL ID
ENTR.         DW                             : Entered      - ENTERED BY
SRVC.         SCHLUMBERGER                   : Scn          - SERVICE COMPANY
STRT.M        65                             : top_depth    - START DEPTH
STOP.M        204.75                         : bot_depth    - STOP DEPTH
STEP.M        0.25                           : increment    - STEP LENGTH
 NULL. -999.2500:NULL Value
~CURVE INFORMATION BLOCK
#MNEM UNIT       ERCB CURVE CODE    CURVE DESCRIPTION
#-----------   ------------------   ----------------------------------
DEPT.M        00 001 00 00         : DEPTH        - DEPTH
GR  .API      00 310 00 00         : GR           - GAMMA RAY
DPHI.V/V      00 890 00 00         : PHID         - DENSITY POROSITY (SANDSTONE)
NPHI.V/V      00 330 00 00         : PHIN         - NEUTRON POROSITY (SANDSTONE)
ILD .OHMM     00 120 00 00         : RESD         - DEEP RESISTIVITY (DIL)
~PARAMETER INFORMATION
#MNEM.UNIT           DATA             DESCRIPTION OF MNEMONIC
#---------         -----------     ------------------------------
GL  .M        476.41               : gl           - GROUND LEVEL ELEVATION
EREF.M        479.61               : kb           - ELEVATION OF DEPTH REFERENCE
DATM.M        479.61               : datum        - DATUM ELEVATION
TDD .M        213                  : tdd          - TOTAL DEPTH DRILLER
RUN .         ONE                  : Run          - RUN NUMBER
ENG .         BILL                 : Engineer     - RECORDING ENGINEER
WIT .         JIM                  : Witness      - WITNESSED BY
MUD .         GEL                  : Mud_type     - MUD TYPE
MATR.         SANDSTONE            : Logunit      - NEUTRON MATRIX
TMAX.C        25                   : BHT          - MAXIMUM RECORDED TEMPERATURE
BHTD.M        213                  : BHTDEP       - MAXIMUM RECORDED TEMPERATURE
MATR.         1                    : LOGUNIT      - NEUTRON MATRIX
RMT .C        25                   : MDTP         - TEMPERATURE OF MUD
NEUT.         1                    : NEUTRON      - NEUTRON TYPE
RESI.         0                    : RESIST       - RESISTIVITY TYPE
RMC .OHMM     0.25                 : RMC          - RESISTIVITY OF MUD CAKE
RMF .OHMM     0.25                 : RMF          - RESISTIVITY OF MUD FILTRATE
SUFT.C        15                   : SUFT         - SURFACE TEMPERATURE
~A  DEPTH       GR     PHID     PHIN     RESD
   65.000   61.130    0.336    0.489   36.663
   65.250   61.921    0.355    0.477   34.918
   65.500   60.283    0.342    0.477   33.669
   65.750   57.638    0.358    0.512   32.992
   66.000   55.419    0.375    0.564   32.395
   66.250   54.081    0.356    0.590   31.127
   66.500   53.693    0.353    0.577   29.153
   66.750   55.594    0.390    0.550   27.319
   67.000   58.407    0.392    0.509   26.178
   67.250   59.881    0.377    0.480   26.090
   67.500   61.173    0.364    0.474   26.846
   67.750   62.306    0.352    0.487   27.574
   68.000   61.073    0.351    0.504   26.958
   68.250   60.802    0.342    0.483   24.224
   68.500   63.093    0.332    0.500   21.384
   68.750   65.188    0.323    0.549   18.573
   69.000   66.662    0.310    0.559   16.446
   69.250   67.990    0.296    0.522   14.411
   69.500   68.459    0.305    0.511   11.077
   69.750   71.087    0.338    0.537    9.501
   70.000   77.817    0.326    0.556    8.829
   70.250   81.631    0.310    0.564    8.527
   70.500   80.925    0.323    0.543    8.490
   70.750   79.143    0.336    0.529    8.740
   71.000   77.693    0.325    0.579    9.147
   71.250   78.995    0.290    0.602    8.755
   71.500   82.090    0.262    0.579    8.184
   71.750   84.405    0.281    0.573    7.157
   72.000   85.403    0.309    0.573    6.258
   72.250   85.685    0.303    0.562    6.149
   72.500   85.695    0.289    0.578    6.372
   72.750   86.368    0.276    0.572    7.219
   73.000   84.868    0.292    0.549    9.453
   73.250   82.205    0.270    0.510   12.406
   73.500   76.652    0.253    0.483   17.077
   73.750   69.929    0.275    0.492   21.898
   74.000   67.762    0.274    0.503   23.346
   74.250   65.282    0.310    0.476   25.159
   74.500   62.148    0.313    0.450   27.545
   74.750   59.375    0.312    0.433   28.296
   75.000   56.786    0.318    0.433   28.217
   75.250   53.360    0.311    0.453   28.757
   75.500   49.827    0.305    0.472   29.187
   75.750   49.552    0.309    0.482   30.024
   76.000   51.198    0.316    0.492   31.538
   76.250   51.650    0.323    0.475   32.347
   76.500   50.535    0.331    0.454   33.047
   76.750   49.768    0.343    0.453   34.965
   77.000   50.415    0.352    0.445   37.179
   77.250   51.881    0.335    0.437   38.370
   77.500   53.965    0.326    0.465   39.575
   77.750   55.450    0.327    0.466   40.546
   78.000   54.693    0.331    0.438   40.808
   78.250   52.486    0.338    0.426   40.779
   78.500   51.625    0.345    0.421   40.743
   78.750   52.498    0.351    0.426   40.075
   79.000   54.390    0.355    0.432   39.800
   79.250   54.077    0.356    0.447   40.329
   79.500   52.122    0.356    0.467   40.703
   79.750   50.735    0.359    0.466   40.682
   80.000   50.362    0.363    0.441   41.394
   80.250   52.392    0.368    0.447   42.717
   80.500   53.875    0.374    0.467   43.589
   80.750   54.075    0.350    0.480   43.855
   81.000   54.155    0.325    0.484   43.485
   81.250   54.840    0.334    0.485   42.747
   81.500   55.890    0.345    0.483   42.051
   81.750   56.943    0.347    0.472   40.758
   82.000   57.821    0.354    0.461   39.423
   82.250   59.466    0.363    0.465   38.288
   82.500   60.100    0.354    0.482   36.819
   82.750   59.644    0.332    0.473   35.119
   83.000   60.807    0.323    0.438   34.075
   83.250   61.343    0.322    0.465   33.129
   83.500   61.847    0.345    0.483   30.866
   83.750   62.123    0.350    0.485   28.507
   84.000   61.904    0.337    0.478   25.983
   84.250   62.216    0.326    0.471   22.639
   84.500   64.483    0.308    0.498   19.664
   84.750   68.178    0.296    0.542   18.033
   85.000   70.293    0.303    0.515   17.761
   85.250   70.998    0.308    0.476   18.117
   85.500   71.436    0.305    0.482   18.999
   85.750   72.003    0.310    0.492   20.818
   86.000   71.869    0.324    0.466   23.671
   86.250   69.307    0.335    0.460   26.979
   86.500   67.362    0.326    0.478   28.825
   86.750   66.547    0.312    0.472   29.006
   87.000   69.401    0.303    0.455   25.324
   87.250   75.363    0.294    0.455   20.003
   87.500   78.015    0.287    0.460   18.130
   87.750   76.912    0.278    0.492   14.407
   88.000   77.683    0.288    0.482   11.569
   88.250   80.024    0.297    0.469   10.047
   88.500   81.470    0.287    0.482    9.431
   88.750   81.711    0.277    0.475   10.142
   89.000   82.309    0.284    0.438   11.934
   89.250   84.770    0.256    0.460   14.632
   89.500   87.518    0.195    0.473   20.881
   89.750   86.921    0.172    0.510   30.744
   90.000   83.016    0.102    0.433   47.934
   90.250   78.248   -0.014    0.238   66.508
   90.500   74.261   -0.000    0.177   72.750
   90.750   72.609    0.073    0.179   69.379
   91.000   71.692    0.112    0.222   44.842
   91.250   73.102    0.132    0.258   24.622
   91.500   80.635    0.161    0.302   19.106
   91.750   90.601    0.180    0.364   17.431
   92.000   95.219    0.171    0.391   16.979
   92.250   97.369    0.175    0.412   17.293
   92.500   92.924    0.215    0.435   16.757
   92.750   87.227    0.250    0.452   15.711
   93.000   84.608    0.271    0.465   14.784
   93.250   84.085    0.292    0.473   14.242
   93.500   84.083    0.300    0.475   14.283
   93.750   83.112    0.304    0.480   14.305
   94.000   81.874    0.314    0.464   14.082
   94.250   81.644    0.312    0.438   13.971
   94.500   82.790    0.297    0.443   13.995
   94.750   82.311    0.281    0.470   13.982
   95.000   78.502    0.274    0.466   13.977
   95.250   77.773    0.271    0.469   13.945
   95.500   78.441    0.270    0.465   14.171
   95.750   80.749    0.282    0.457   14.137
   96.000   82.490    0.289    0.454   13.841
   96.250   82.110    0.284    0.465   13.236
   96.500   82.176    0.286    0.484   11.763
   96.750   83.356    0.281    0.490    9.922
   97.000   88.713    0.269    0.480    8.193
   97.250   97.539    0.253    0.481    6.918
   97.500  103.267    0.256    0.497    6.198
   97.750  100.807    0.268    0.524    6.105
   98.000   93.273    0.252    0.551    6.534
   98.250   89.906    0.238    0.520    6.779
   98.500   99.196    0.237    0.495    6.644
   98.750  104.811    0.233    0.491    6.343
   99.000  101.488    0.220    0.509    6.058
   99.250   99.488    0.208    0.540    5.931
   99.500  103.108    0.211    0.551    6.042
   99.750  108.530    0.235    0.526    6.143
  100.000  110.246    0.251    0.494    6.121
  100.250  108.971    0.252    0.479    5.810
  100.500  107.646    0.254    0.475    5.515
  100.750  107.457    0.259    0.490    5.319
  101.000  108.647    0.257    0.537    4.895
  101.250  113.188    0.257    0.561    4.650
  101.500  123.107    0.249    0.571    4.546
  101.750  128.656    0.226    0.573    4.556
  102.000  126.110    0.225    0.569    4.676
  102.250  120.445    0.250    0.565    4.812
  102.500  118.500    0.251    0.569    4.880
  102.750  126.612    0.228    0.593    4.950
  103.000  131.898    0.226    0.596    5.058
  103.250  125.574    0.223    0.582    4.985
  103.500  115.915    0.213    0.590    4.819
  103.750  111.775    0.193    0.588    4.778
  104.000  111.682    0.162    0.530    4.959
  104.250  115.914    0.201    0.529    5.669
  104.500  116.902    0.253    0.572    6.881
  104.750  111.000    0.252    0.603    8.570
  105.000  100.342    0.235    0.549   10.595
  105.250   91.212    0.246    0.457   12.616
  105.500   87.573    0.256    0.452   14.214
  105.750   85.914    0.269    0.464   15.176
  106.000   90.701    0.259    0.470   15.775
  106.250   92.360    0.246    0.478   15.921
  106.500   88.169    0.234    0.463   15.892
  106.750   84.599    0.227    0.429   14.893
  107.000   83.841    0.240    0.426   12.420
  107.250   85.432    0.243    0.437   11.725
  107.500   91.636    0.251    0.442   11.812
  107.750   96.763    0.258    0.457   12.338
  108.000   93.816    0.256    0.477   13.260
  108.250   88.333    0.248    0.473   13.963
