~VERSION INFORMATION
 VERS.                 2.0:   CWLS LOG ASCII STANDARD -VERSION 2.0
 WRAP.                  NO:   ONE LINE PER DEPTH STEP
~WELL INFORMATION BLOCK
#MNEM.UNIT           DATA                    DESCRIPTION OF MNEMONIC
#---------    -------------------            -------------------------------
# Generated from Intellog Unique Number	CN_91_93/WELL/2882
WELL.         10-11-092-17W4                 : Well_name    - WELL
LOC .         AA/10-11-092-17W4/0            : Location     - LOCATION
UWI .         AA/10-11-092-17W400            : Uwi          - UNIQUE WELL ID
ENTR.         JOETTE                         : Entered      - ENTERED BY
SRVC.         SCHLUMBERGER                   : Scn          - SERVICE COMPANY
DATE.         03/31/92                       : Date         - LOG DATE
STRT.M        30                             : top_depth    - START DEPTH
STOP.M        260                            : bot_depth    - STOP DEPTH
STEP.M        0.25                           : increment    - STEP LENGTH
 NULL. -999.2500:NULL Value
~CURVE INFORMATION BLOCK
#MNEM UNIT       ERCB CURVE CODE    CURVE DESCRIPTION
#-----------   ------------------   ----------------------------------
DEPT.M        00 001 00 00         : DEPTH        - DEPTH
CALI.MM       00 280 01 00         : CAL          - CALIPER
GR  .API      00 310 00 00         : GR           - GAMMA RAY
NPHI.V/V      00 330 00 00         : PHIN         - NEUTRON POROSITY (SANDSTONE)
DPHI.V/V      00 890 00 00         : PHID         - DENSITY POROSITY (SANDSTONE)
ILD .OHMM     00 120 00 00         : RESD         - DEEP RESISTIVITY (DIL)
~PARAMETER INFORMATION
#MNEM.UNIT           DATA             DESCRIPTION OF MNEMONIC
#---------         -----------     ------------------------------
GL  .M        502.2                : gl           - GROUND LEVEL ELEVATION
EREF.M        505.87               : kb           - ELEVATION OF DEPTH REFERENCE
DATM.M        505.87               : datum        - DATUM ELEVATION
TDD .M        263.3                : tdd          - TOTAL DEPTH DRILLER
RUN .         ONE                  : Run          - RUN NUMBER
ENG .         BILL                 : Engineer     - RECORDING ENGINEER
WIT .         JIM                  : Witness      - WITNESSED BY
MUD .         GEL                  : Mud_type     - MUD TYPE
MATR.         SANDSTONE            : Logunit      - NEUTRON MATRIX
TMAX.C        22                   : BHT          - MAXIMUM RECORDED TEMPERATURE
BHTD.M        263.3                : BHTDEP       - MAXIMUM RECORDED TEMPERATURE
RMT .C        22                   : MDTP         - TEMPERATURE OF MUD
MUDD.KG/M     1100                 : MWT          - MUD DENSITY
NEUT.         1                    : NEUTRON      - NEUTRON TYPE
RESI.         0                    : RESIST       - RESISTIVITY TYPE
RM  .OHMM     11.7                 : RM           - RESISTIVITY OF MUD
RMC .OHMM     11.7                 : RMC          - RESISTIVITY OF MUD CAKE
RMF .OHMM     11.7                 : RMF          - RESISTIVITY OF MUD FILTRATE
SUFT.C        4                    : SUFT         - SURFACE TEMPERATURE
~A  DEPTH      CAL       GR     PHIN     PHID     RESD
# ...
  176.000  209.162   85.474    0.455    0.193    7.996
  176.250  208.114   89.587    0.458    0.189    8.448
  176.500  209.057   93.708    0.457    0.171    8.762
  176.750  209.012   95.450    0.452    0.169    8.756
  177.000  210.913   93.636    0.452    0.160    8.750
  177.250  211.871   91.248    0.457    0.151    8.746
  177.500  210.838   87.063    0.464    0.141    8.581
  177.750  199.897   89.398    0.462    0.118    8.420
  178.000  202.831   92.325    0.455    0.067    8.260
  178.250  206.722   94.076    0.451    0.123    8.254
  178.500  210.613   94.058    0.483    0.173    7.952
  178.750  211.571   90.475    0.496    0.152    7.244
  179.000  214.475   82.735    0.512    0.138    6.478
  179.250  209.491   78.559    0.511    0.150    6.124
  179.500  202.501   74.374    0.452    0.162    6.471
  179.750  203.459   69.606    0.436    0.170    7.228
  180.000  209.341   65.421    0.445    0.161    8.533
  180.250  217.198   61.839    0.455    0.149    9.356
  180.500  211.212   56.468    0.415    0.144   10.844
  180.750  204.252   51.700    0.360    0.181   14.845
  181.000  182.461   45.136    0.342    0.214   16.276
  181.250  170.533   41.553    0.316    0.242   24.903
  181.500  170.503   38.562    0.307    0.259   34.097
  181.750  171.416   35.554    0.315    0.277   36.026
  182.000  171.386   33.758    0.327    0.292   32.819
  182.250  172.314   32.528    0.351    0.298   29.903
  182.500  172.269   32.510    0.358    0.295   25.292
  182.750  172.209   33.651    0.359    0.289   23.479
  183.000  173.167   34.234    0.360    0.278   21.389
  183.250  173.107   35.393    0.361    0.282   19.849
  183.500  173.062   37.727    0.365    0.290   19.839
  183.750  173.017   38.877    0.367    0.298   19.829
  184.000  171.939   38.850    0.370    0.293   19.820
  184.250  171.895   37.629    0.375    0.287   19.443
  184.500  171.850   37.018    0.378    0.292   19.070
  184.750  171.805   35.204    0.377    0.293   18.714
  185.000  171.760   36.946    0.377    0.274   18.708
  185.250  171.715   37.521    0.377    0.267   21.282
  185.500  171.670   38.670    0.377    0.269   24.215
  185.750  171.595   38.032    0.376    0.293   29.669
  186.000  171.550   37.422    0.375    0.289   37.717
  186.250  171.520   36.802    0.375    0.285   44.532
  186.500  171.460   36.165    0.374    0.288   54.554
  186.750  171.415   35.554    0.374    0.288   58.727
  187.000  171.356   37.287    0.374    0.283   63.189
  187.250  171.326   38.446    0.374    0.275   61.999
  187.500  171.266   39.604    0.373    0.269   60.831
  187.750  171.206   40.170    0.372    0.266   60.800
  188.000  171.146   40.143    0.372    0.266   60.770
  188.250  171.116   40.700    0.371    0.268   60.719
  188.500  171.071   40.681    0.368    0.271   60.679
  188.750  171.999   40.637    0.370    0.273   60.659
  189.000  172.927   40.619    0.375    0.285   60.618
  189.250  172.897   41.759    0.375    0.275   60.598
  189.500  173.810   42.334    0.372    0.267   59.437
  189.750  174.753   42.900    0.371    0.269   57.257
  190.000  175.711   44.633    0.377    0.273   54.128
  190.250  176.639   45.207    0.383    0.272   53.099
  190.500  176.579   46.357    0.385    0.269   56.113
  190.750  177.522   46.931    0.382    0.266   59.278
  191.000  177.477   48.081    0.386    0.272   61.483
  191.250  178.405   48.036    0.387    0.285   62.601
  191.500  179.317   48.018    0.386    0.284   63.728
  191.750  180.260   47.982    0.384    0.277   62.528
  192.000  181.218   48.548    0.389    0.275   56.962
  192.250  182.161   49.114    0.400    0.267   53.867
  192.500  183.104   50.263    0.406    0.261   47.288
  192.750  185.020   50.838    0.406    0.255   42.295
  193.000  188.911   51.987    0.399    0.252   37.824
  193.250  190.857   52.544    0.393    0.255   35.094
  193.500  196.708   53.109    0.385    0.249   34.439
  193.750  200.615   53.092    0.376    0.234   34.422
  194.000  202.560   53.056    0.352    0.223   35.697
  194.250  206.452   53.020    0.321    0.206   37.710
  194.500  208.367   53.002    0.326    0.187   37.691
  194.750  209.325   51.762    0.353    0.206   37.678
  195.000  209.265   51.736    0.359    0.244   36.957
  195.250  208.218   51.116    0.365    0.243   36.261
  195.500  208.188   51.089    0.376    0.243   35.578
  195.750  208.128   51.062    0.380    0.246   35.554
  196.000  211.031   51.035    0.384    0.255   38.989
  196.250  214.937   51.592    0.387    0.283   44.361
  196.500  220.804   52.759    0.381    0.282   51.400
  196.750  223.738   55.094    0.379    0.279   50.440
  197.000  227.644   58.030    0.388    0.261   45.950
  197.250  227.584   61.550    0.406    0.255   42.649
  197.500  227.539   65.071    0.433    0.246   38.146
  197.750  225.504   67.423    0.442    0.237   31.097
  198.000  223.483   70.952    0.436    0.230   23.985
  198.250  217.512   74.472    0.424    0.215   16.552
  198.500  209.564   76.224    0.417    0.194   13.005
  198.750  203.563   72.641    0.420    0.176   10.029
  199.000  199.582   66.678    0.417    0.193    9.309
  199.250  190.632   62.502    0.412    0.210   10.591
  199.500  185.633   63.652    0.400    0.224   16.200
  199.750  179.631   65.394    0.385    0.245   17.762
  200.000  177.611   65.969    0.364    0.279   19.478
  200.250  175.605   67.118    0.345    0.286   21.756
  200.500  173.555   66.489    0.361    0.273   23.408
  200.750  172.522   65.870    0.369    0.259   22.971
  201.000  172.462   64.648    0.374    0.245   22.118
  201.250  171.459   64.038    0.369    0.225   23.810
  201.500  171.400   62.215    0.363    0.204   25.627
  201.750  170.337   61.011    0.355    0.225   27.578
  202.000  170.292   58.605    0.350    0.224   27.578
  202.250  170.247   57.393    0.338    0.225   28.590
  202.500  170.217   58.542    0.327    0.231   28.571
  202.750  170.157   59.709    0.325    0.244   28.023
  203.000  171.085   60.266    0.333    0.258   26.991
  203.250  171.055   59.045    0.343    0.257   26.487
  203.500  170.980   56.054    0.342    0.259   25.040
  203.750  171.938   53.648    0.337    0.271   23.671
  204.000  171.893   50.056    0.343    0.285   22.799
  204.250  172.821   50.631    0.395    0.281   22.374
  204.500  172.761   51.789    0.411    0.278   21.542
  204.750  172.731   51.735    0.422    0.279   21.528
  205.000  173.644   51.115    0.424    0.272   22.333
  205.250  173.614   50.505    0.426    0.261   23.163
  205.500  174.527   48.107    0.425    0.260   25.863
  205.750  174.482   44.524    0.431    0.268   26.825
  206.000  174.437   40.932    0.451    0.285   27.308
  206.250  174.407   37.942    0.443    0.283   27.304
  206.500  174.318   34.943    0.425    0.283   27.281
  206.750  174.273   33.129    0.408    0.278   27.781
  207.000  174.213   32.518    0.391    0.258   29.348
  207.250  174.168   31.880    0.363    0.249   30.445
  207.500  174.123   31.854    0.346    0.266   35.282
  207.750  175.066   32.410    0.348    0.280   41.657
  208.000  176.009   32.985    0.355    0.287   55.990
  208.250  175.964   33.551    0.360    0.280   90.560
  208.500  177.865   33.515    0.358    0.274  117.275
  208.750  178.822   34.080    0.358    0.276  133.434
  209.000  179.765   35.230    0.361    0.274  140.984
  209.250  179.765   36.388    0.365    0.272  130.812
  209.500  182.639   37.547    0.369    0.266  123.683
  209.750  182.579   38.687    0.369    0.268  116.962
  210.000  183.522   39.855    0.367    0.273  106.550
  210.250  184.465   39.810    0.364    0.273  106.479
  210.500  186.380   39.801    0.362    0.291  118.909
  210.750  188.296   39.756    0.357    0.289  132.812
  211.000  190.242   39.729    0.355    0.285  135.249
  211.250  194.133   39.711    0.357    0.281  137.661
  211.500  195.076   39.082    0.367    0.281  137.569
  211.750  198.967   39.046    0.374    0.286  135.001
  212.000  200.913   38.418    0.384    0.283  132.436
  212.250  204.804   37.807    0.383    0.283  129.942
