~VERSION INFORMATION
 VERS.                 2.0:   CWLS LOG ASCII STANDARD -VERSION 2.0
 WRAP.                  NO:   ONE LINE PER DEPTH STEP
~WELL INFORMATION BLOCK
#MNEM.UNIT           DATA                    DESCRIPTION OF MNEMONIC
#---------    -------------------            -------------------------------
# Generated from Intellog Unique Number	CN_94_101/WELL/5046
WELL.         15-12-097-08W4                 : Well_name    - WELL
LOC .         AA/15-12-097-08W4/0            : Location     - LOCATION
UWI .         AA/15-12-097-08W400            : Uwi          - UNIQUE WELL ID
ENTR.         T                              : Entered      - ENTERED BY
SRVC.         SCHLUMBERGER                   : Scn          - SERVICE COMPANY
DATE.         08/14/92                       : Date         - LOG DATE
STRT.M        0                              : top_depth    - START DEPTH
STOP.M        75                             : bot_depth    - STOP DEPTH
STEP.M        0.25                           : increment    - STEP LENGTH
 NULL. -999.2500:NULL Value
~CURVE INFORMATION BLOCK
#MNEM UNIT       ERCB CURVE CODE    CURVE DESCRIPTION
#-----------   ------------------   ----------------------------------
DEPT.M        00 001 00 00         : DEPTH        - DEPTH
GR  .API      00 310 00 00         : GR           - GAMMA RAY
NPHI.V/V      00 330 00 00         : PHIN         - NEUTRON POROSITY (SANDSTONE)
RHOB.KG/M3    00 350 00 00         : DENS         - BULK DENSITY
ILD .OHMM     00 120 00 00         : RESD         - DEEP RESISTIVITY (DIL)
DPHI.V/V      00 890 00 00         : PHID         - DENSITY POROSITY (SANDSTONE)
~PARAMETER INFORMATION
#MNEM.UNIT           DATA             DESCRIPTION OF MNEMONIC
#---------         -----------     ------------------------------
GL  .M        308.79               : gl           - GROUND LEVEL ELEVATION
EREF.M        308.79               : kb           - ELEVATION OF DEPTH REFERENCE
DATM.M        308.79               : datum        - DATUM ELEVATION
TDD .M        79.5                 : tdd          - TOTAL DEPTH DRILLER
RUN .         ONE                  : Run          - RUN NUMBER
ENG .         BILL                 : Engineer     - RECORDING ENGINEER
WIT .         JIM                  : Witness      - WITNESSED BY
MUD .         GEL                  : Mud_type     - MUD TYPE
MATR.         SANDSTONE            : Logunit      - NEUTRON MATRIX
TMAX.C        8                    : BHT          - MAXIMUM RECORDED TEMPERATURE
BHTD.M        79.5                 : BHTDEP       - MAXIMUM RECORDED TEMPERATURE
RMT .C        8                    : MDTP         - TEMPERATURE OF MUD
MUDD.KG/M     1090                 : MWT          - MUD DENSITY
NEUT.         1                    : NEUTRON      - NEUTRON TYPE
RESI.         0                    : RESIST       - RESISTIVITY TYPE
RM  .OHMM     5.7                  : RM           - RESISTIVITY OF MUD
RMC .OHMM     5.7                  : RMC          - RESISTIVITY OF MUD CAKE
RMF .OHMM     5.7                  : RMF          - RESISTIVITY OF MUD FILTRATE
SUFT.C        4                    : SUFT         - SURFACE TEMPERATURE
~A  DEPTH       GR     PHIN     DENS     RESD     PHID
    0.000   17.257    0.924 3005.660    1.000   -0.216
    0.250    9.793    0.935 3007.940    0.417   -0.217
    0.500    7.729    0.856 3008.180    0.410   -0.217
    0.750   11.034    0.723 3004.490    0.402   -0.215
    1.000   17.594    0.392 3004.720    0.403   -0.215
    1.250   18.753    0.429 3002.950    0.403   -0.214
    1.500   18.835    0.480 2995.170    0.411   -0.209
    1.750   18.917    0.407 2659.560    0.412   -0.006
    2.000   14.138    0.457 2830.840    0.397   -0.110
    2.250   14.229    0.444 2863.240    0.398   -0.129
    2.500   12.684    0.419 2863.510    0.391   -0.129
    2.750   15.460    0.402 2847.730    0.391   -0.120
    3.000   15.542    0.402 2870.080    0.384   -0.133
    3.250   16.722    0.406 2884.450    0.385   -0.142
    3.500   17.333    0.430 2886.730    0.385   -0.143
    3.750   16.336    0.424 2862.840    0.386   -0.129
    4.000   18.584    0.448 2877.180    0.386   -0.138
    4.250   21.899    0.491 2795.010    0.386   -0.088
    4.500   24.676    0.514 2795.280    0.394   -0.088
    4.750   26.913    0.515 2803.620    0.395   -0.093
    5.000   31.297    0.514 2781.740    0.395   -0.080
    5.250   34.073    0.515 2810.190    0.395   -0.097
    5.500   37.948    0.513 2788.310    0.389   -0.084
    5.750   39.647    0.514 2776.510    0.389   -0.077
    6.000   34.867    0.515 2774.770    0.382   -0.076
    6.250   33.332    0.516 2799.170    0.383   -0.090
    6.500   30.719    0.513 2809.520    0.376   -0.097
    6.750   23.784    0.510 2839.980    0.369   -0.115
    7.000   17.947    0.502 2810.020    0.370   -0.097
    7.250   16.941    0.501 2810.320    0.370   -0.097
    7.500   18.100    0.508 2810.630    0.371   -0.097
    7.750   24.110    0.512 2796.820    0.371   -0.089
    8.000   26.358    0.508 2817.160    0.371   -0.101
    8.250   29.674    0.506 2803.350    0.365   -0.093
    8.500   28.138    0.508 2761.360    0.372   -0.067
    8.750   32.003    0.500 2608.790    0.373    0.025
    9.000   37.464    0.489 2381.790    0.937    0.163
    9.250   55.342    0.474 2112.590    1.990    0.326
    9.500   52.190    0.464 2134.940    2.592    0.312
    9.750   57.122    0.464 2173.450    2.150    0.289
   10.000   60.438    0.468 2197.880    1.818    0.274
   10.250   65.370    0.467 2141.810    2.037    0.308
   10.500   63.296    0.462 2164.200    2.283    0.294
   10.750   60.144    0.461 2200.660    2.243    0.272
   11.000   59.147    0.461 2235.110    1.968    0.251
   11.250   67.873    0.469 2243.450    1.898    0.246
   11.500   64.171    0.469 2225.590    1.830    0.257
   11.750   61.009    0.475 2081.060    2.339    0.345
   12.000   65.413    0.475 2193.960    1.869    0.276
   12.250   66.043    0.470 2220.400    1.802    0.260
   12.500   61.813    0.468 2188.460    1.982    0.280
   12.750   57.583    0.469 2190.770    2.221    0.278
   13.000   54.950    0.470 2154.810    2.266    0.300
   13.250   52.337    0.470 2062.560    2.636    0.356
   13.500   46.490    0.463 2137.250    3.702    0.311
   13.750   57.361    0.464 2189.870    3.014    0.279
   14.000   62.832    0.471 2151.870    2.408    0.302
   14.250   60.758    0.475 2160.180    2.194    0.297
   14.500   59.762    0.475 2150.390    2.753    0.303
   14.750   49.054    0.473 2082.300    2.416    0.344
   15.000   57.230    0.475 1973.960    1.859    0.410
   15.250   57.861    0.475 2115.000    1.694    0.324
   15.500   49.309    0.467 2113.260    2.424    0.325
   15.750   56.947    0.467 2117.550    2.768    0.323
   16.000   61.330    0.472 2137.990    2.170    0.310
   16.250   63.028    0.474 2176.430    1.978    0.287
   16.500   65.276    0.477 2206.890    1.907    0.269
   16.750   66.974    0.472 2170.970    1.909    0.290
   17.000   62.734    0.467 2155.110    1.911    0.300
   17.250   68.206    0.465 2189.560    1.878    0.279
   17.500   61.291    0.472 2207.930    2.027    0.268
   17.750   61.362    0.470 2224.310    2.030    0.258
   18.000   53.359    0.465 2180.310    2.361    0.285
   18.250   51.295    0.455 2208.760    3.133    0.267
   18.500   58.912    0.446 2200.990    2.856    0.272
   18.750   50.371    0.436 2217.340    3.386    0.262
   19.000   55.313    0.429 2241.770    3.265    0.247
   19.250   59.157    0.431 2240.000    2.608    0.248
   19.500   60.866    0.436 2254.340    2.377    0.240
   19.750   64.721    0.437 2286.780    2.379    0.220
   20.000   57.247    0.434 2196.570    2.295    0.275
   20.250   50.861    0.447 2084.200    1.903    0.343
   20.500   64.427    0.460 2090.500    1.835    0.339
   20.750   68.291    0.476 2102.840    1.980    0.332
   21.000   72.135    0.472 2123.240    1.805    0.319
   21.250   73.305    0.468 2224.040    1.877    0.258
   21.500   64.214    0.475 2202.200    2.184    0.271
   21.750   56.212    0.475 2120.030    1.990    0.321
   22.000   48.748    0.473 1989.530    2.030    0.400
   22.250   42.362    0.465 1943.560    2.407    0.428
   22.500   37.583    0.459 2012.220    2.907    0.387
   22.750   41.976    0.456 2082.860    2.552    0.344
   23.000   52.847    0.461 2113.360    2.555    0.325
   23.250   65.325    0.459 2171.900    2.003    0.290
   23.500   65.956    0.462 2190.260    1.932    0.279
   23.750   62.254    0.468 2220.730    1.933    0.260
   24.000   62.875    0.475 2220.990    2.010    0.260
   24.250   62.957    0.468 2225.320    2.295    0.257
   24.500   61.432    0.462 2213.520    2.431    0.265
   24.750   66.364    0.465 2280.140    1.870    0.224
   25.000   64.829    0.471 2280.370    2.136    0.224
   25.250   58.443    0.467 2216.300    2.730    0.263
   25.500   56.369    0.460 2228.630    3.361    0.255
   25.750   55.383    0.459 2238.990   22.471    0.249
   26.000   47.359    0.452 2227.190   73.526    0.256
   26.250   32.350    0.442 2195.260  111.310    0.276
   26.500   27.042    0.440 2090.940  652.371    0.339
   26.750   24.419    0.427 2173.680 2994.490    0.289
   27.000   18.572    0.404 2169.920 3686.470    0.291
   27.250   17.576    0.406 2146.060 3978.790    0.305
   27.500   20.352    0.406 2138.290 3983.230    0.310
   27.750   16.661    0.410 2144.620 4063.900    0.306
   28.000   15.126    0.397 2142.840 4224.310    0.307
   28.250   16.296    0.410 2147.170 4558.640    0.305
   28.500   19.611    0.417 2137.350 5109.330    0.311
   28.750   18.086    0.414 2123.580 5726.550    0.319
   29.000   18.157    0.415 2127.860 6179.770    0.316
   29.250   20.944    0.425 2148.240 6423.690    0.304
   29.500   17.792    0.426 2148.470 6430.860    0.304
   29.750   15.697    0.416 2148.740 5540.670    0.304
   30.000   15.779    0.420 2120.860 4954.530    0.321
   30.250   16.410    0.411 2137.210 4776.370    0.311
   30.500   18.668    0.412 2131.450 4605.900    0.314
   30.750   20.346    0.396 2210.170 4119.790    0.267
   31.000   21.516    0.392 2234.560 3416.630    0.252
   31.250   22.126    0.382 2192.640 2178.450    0.277
   31.500   26.540    0.393 2235.100  103.768    0.251
   31.750   29.845    0.398 2251.450   31.776    0.242
   32.000   39.089    0.413 2318.100   22.257    0.201
   32.250   61.807    0.437 2302.290    3.879    0.211
   32.500   76.451    0.459 2272.430    3.099    0.229
   32.750   67.371    0.469 2276.690    2.932    0.226
   33.000   60.435    0.466 2293.040    3.048    0.216
   33.250   50.277    0.467 2224.910    3.614    0.258
   33.500   57.904    0.455 2325.780    2.781    0.196
   33.750   65.023    0.457 2297.860    2.582    0.213
   34.000   64.016    0.466 2276.010    2.353    0.227
   34.250   60.854    0.467 2278.290    2.637    0.225
   34.500   51.224    0.469 2260.470    2.690    0.236
   34.750   36.764    0.462 2158.160    3.997    0.298
   35.000   38.462    0.457 2114.190    4.233    0.325
   35.250   39.612    0.449 2106.420    6.532    0.329
   35.500   42.388    0.446 2219.310    5.120    0.261
   35.750   46.243    0.451 2119.010    3.454    0.322
   36.000   42.013    0.451 2179.640    3.872    0.285
   36.250   49.650    0.458 2246.260    2.923    0.245
