~VERSION INFORMATION
 VERS.                 2.0:   CWLS LOG ASCII STANDARD -VERSION 2.0
 WRAP.                  NO:   ONE LINE PER DEPTH STEP
~WELL INFORMATION BLOCK
#MNEM.UNIT           DATA                    DESCRIPTION OF MNEMONIC
#---------    -------------------            -------------------------------
# Generated from Intellog Unique Number	CC_84_87/WELL/2329
NULL.         -999.25                        : NULL_VALUE
WELL.         SUN CHEECHAM                   : Well_name    - WELL              
LOC .         11-17-084-07W4                 : Location     - LOCATION          
UWI .         AA/11-17-084-07W4/0            : Uwi          - UNIQUE WELL ID    
ENTR.         RJA                            : Entered      - ENTERED BY        
SRVC.         SCHLUMBERGER                   : Scn          - SERVICE COMPANY   
DATE.         02 FEB 80                      : Date         - LOG DATE
STRT.M        215                            : top_depth    - START DEPTH       
STOP.M        478.091                        : bot_depth    - STOP DEPTH        
STEP.M        0.3                            : increment    - STEP LENGTH       
~CURVE INFORMATION BLOCK
#MNEM UNIT       ERCB CURVE CODE    CURVE DESCRIPTION
#-----------   ------------------   ----------------------------------
DEPT.M        00 001 00 00         : DEPTH        - DEPTH                       
DPHI.V/V      00 890 00 00         : PHID         - DENSITY POROSITY (LIMESTONE)
NPHI.V/V      00 330 00 00         : PHIN         - NEUTRON POROSITY (LIMESTONE)
GR  .API      00 310 00 00         : GR           - GAMMA RAY                   
ILD .OHMM     00 120 00 00         : RESD         - DEEP RESISTIVITY (DIL)      
~PARAMETER INFORMATION       
#MNEM.UNIT           DATA             DESCRIPTION OF MNEMONIC
#---------         -----------     ------------------------------
GL  .M        679.4                : gl           - GROUND LEVEL ELEVATION      
EREF.M        682.4                : kb           - ELEVATION OF DEPTH REFERENCE
DATM.M        682.4                : datum        - DATUM ELEVATION             
TDD .M        482                  : tdd          - TOTAL DEPTH DRILLER         
RUN .         ONE                  : Run          - RUN NUMBER                  
ENG .         BILL                 : Engineer     - RECORDING ENGINEER          
WIT .         JIM                  : Witness      - WITNESSED BY                
MUD .         GEL                  : Mud_type     - MUD TYPE                    
MATR.         LIMESTONE            : Logunit      - NEUTRON MATRIX              
TMAX.C        43                   : BHT          - MAXIMUM RECORDED TEMPERATURE
BHTD.M        482                  : BHTDEP       - MAXIMUM RECORDED TEMPERATURE
MATR.         1                    : LOGUNIT      - NEUTRON MATRIX              
RMT .C        25                   : MDTP         - TEMPERATURE OF MUD          
NEUT.         1                    : NEUTRON      - NEUTRON TYPE                
RESI.         0                    : RESIST       - RESISTIVITY TYPE            
RMC .OHMM     0.25                 : RMC          - RESISTIVITY OF MUD CAKE     
RMF .OHMM     0.25                 : RMF          - RESISTIVITY OF MUD FILTRATE 
SUFT.C        4                    : SUFT         - SURFACE TEMPERATURE         
~A  DEPTH     PHID     PHIN       GR     RESD
# ...
  319.398    0.297    0.572  103.352    1.126
  319.698    0.307    0.563   94.919    1.331
  319.998    0.369    0.577   90.703    1.860
  320.298    0.402    0.588   89.499    2.698
  320.598    0.416    0.574   90.705    2.962
  320.898    0.397    0.529   88.898    3.312
  321.198    0.339    0.513   87.092    4.715
  321.498    0.301    0.488   87.695    5.575
  321.798    0.262    0.480   92.516    6.592
  322.098    0.273    0.486   89.505    6.720
  322.398    0.299    0.521   84.084    6.477
  322.698    0.303    0.505   82.880    6.130
  322.998    0.325    0.512   92.520    5.801
  323.298    0.309    0.492   99.750    6.369
  323.598    0.309    0.512  108.185    7.257
  323.898    0.322    0.521  105.776    6.868
  324.198    0.287    0.518  102.765    6.379
  324.498    0.296    0.526   93.127    6.150
  324.798    0.308    0.507   95.538    5.821
  325.098    0.328    0.482   96.743    5.114
  325.398    0.314    0.491   96.142    4.095
  325.698    0.373    0.550   95.541    3.467
  325.998    0.385    0.585  100.963    2.935
  326.298    0.355    0.577  103.976    2.937
  326.598    0.301    0.559  106.387    3.050
  326.898    0.363    0.548  102.773    2.996
  327.198    0.405    0.568   94.943    2.888
  327.497    0.426    0.593   90.125    2.784
  327.797    0.404    0.627   86.511    2.734
  328.097    0.411    0.588   87.115    2.685
  328.397    0.400    0.580   91.935    2.948
  328.697    0.416    0.561   93.141    3.359
  328.997    0.375    0.567   89.527    3.972
  329.297    0.303    0.573   83.504    4.784
  329.597    0.298    0.504   79.288    6.686
  329.897    0.308    0.486   76.879    8.357
  330.197    0.325    0.491   70.856   11.464
  330.497    0.316    0.467   60.616   12.820
  330.797    0.307    0.463   52.786   15.162
  331.097    0.274    0.477   55.197   16.039
  331.397    0.277    0.492   58.812   16.346
  331.697    0.341    0.483   58.210   16.354
  331.997    0.343    0.477   58.211   16.060
  332.297    0.349    0.492   54.598   15.779
  332.597    0.347    0.480   50.984   16.081
  332.897    0.314    0.453   51.588   17.009
  333.197    0.301    0.452   53.396   18.328
  333.497    0.322    0.446   57.614   18.338
  333.797    0.351    0.456   60.627   17.357
  334.097    0.355    0.468   57.616   15.536
  334.397    0.354    0.462   57.617   14.703
  334.697    0.354    0.457   59.425   14.987
  334.997    0.350    0.461   59.426   15.566
  335.297    0.357    0.465   56.415   15.862
  335.597    0.350    0.469   54.609   15.870
  335.897    0.344    0.461   53.405   15.302
  336.197    0.350    0.455   54.009   15.026
  336.497    0.346    0.452   54.612   14.756
  336.797    0.355    0.456   54.612   14.767
  337.097    0.356    0.463   54.614   15.333
  337.397    0.344    0.456   55.217   16.221
  337.697    0.315    0.462   55.218   16.843
  337.997    0.261    0.438   54.014   16.850
  338.297    0.240    0.345   58.834   16.860
  338.597    0.298    0.393   61.847   16.255
  338.897    0.338    0.488   63.053   14.823
  339.197    0.350    0.474   61.849   13.769
  339.497    0.339    0.458   63.055   13.526
  339.797    0.328    0.455   65.466   13.281
  340.097    0.337    0.464   64.262   13.293
  340.397    0.337    0.481   61.853   13.299
  340.697    0.337    0.486   60.047   13.303
  340.997    0.329    0.473   60.048   13.310
  341.297    0.310    0.459   61.254   13.570
  341.597    0.327    0.462   58.845   13.576
  341.897    0.339    0.472   58.846   13.580
  342.197    0.334    0.473   61.257   13.591
  342.497    0.323    0.464   64.270   13.344
  342.797    0.317    0.452   65.475   13.353
  343.097    0.337    0.437   66.079   13.867
  343.397    0.329    0.428   63.670   14.132
  343.697    0.325    0.426   64.274   14.953
  343.997    0.331    0.439   65.479   15.238
  344.297    0.325    0.452   66.083   14.967
  344.597    0.323    0.457   64.276   14.697
  344.897    0.325    0.450   65.483   14.436
  345.197    0.310    0.445   64.278   14.714
  345.497    0.290    0.451   60.665   15.000
  345.797    0.166    0.405   58.859   15.006
  346.097    0.180    0.350   61.872   15.017
  346.397    0.296    0.367   66.090   15.021
  346.697    0.272    0.427   67.898   13.957
  346.997    0.246    0.455   68.501   13.453
  347.297    0.234    0.450   67.297   12.500
  347.597    0.275    0.434   69.708   12.505
  347.897    0.356    0.431   70.914   12.986
  348.197    0.350    0.443   68.505   12.754
  348.497    0.346    0.443   67.301   12.759
  348.797    0.334    0.435   69.712   13.498
  349.097    0.277    0.427   70.918   14.280
  349.397    0.251    0.409   69.111   14.826
  349.697    0.256    0.356   71.522   14.563
  349.997    0.295    0.399   72.125   13.781
  350.297    0.333    0.466   68.512   13.040
  350.597    0.320    0.456   64.296   12.342
  350.897    0.322    0.450   60.682   12.125
  351.197    0.303    0.446   63.093   12.357
  351.497    0.278    0.437   65.504   12.361
  351.797    0.219    0.434   63.095   12.368
  352.096    0.197    0.434   66.710   12.608
  352.396    0.190    0.422   70.928   12.153
  352.696    0.191    0.397   77.556   10.682
  352.996    0.308    0.425   81.171   10.297
  353.296    0.334    0.434   79.968    9.743
  353.596    0.325    0.436   82.981    8.562
  353.896    0.308    0.454   84.789    8.253
  354.196    0.296    0.448   84.790    6.988
  354.496    0.305    0.442   82.381    5.807
  354.796    0.327    0.470   83.587    5.198
  355.096    0.428    0.539   85.395    5.105
  355.396    0.486    0.511   89.011    5.301
  355.696    0.331    0.463   89.011    5.404
  355.996    0.354    0.463   86.603    5.406
  356.296    0.323    0.499   88.411    4.839
  356.596    0.396    0.540   88.412    4.098
  356.896    0.357    0.563   86.606    3.806
  357.196    0.411    0.575   85.402    3.808
  357.496    0.423    0.586   87.210    3.954
  357.796    0.433    0.578   89.018    4.261
  358.096    0.412    0.539   87.815    4.855
  358.396    0.285    0.495   86.610    5.330
  358.696    0.244    0.520   84.202    5.744
  358.996    0.144    0.501   81.191    5.964
  359.296    0.102    0.474   92.638    5.968
  359.596    0.238    0.418   96.253    5.544
  359.896    0.287    0.472   92.640    5.247
  360.196    0.317    0.473   90.833    5.059
  360.496    0.345    0.478   93.244    4.876
  360.796    0.356    0.533   98.064    4.365
  361.096    0.329    0.552  100.475    3.765
  361.396    0.340    0.563  102.283    3.433
  361.696    0.320    0.554  105.899    3.073
  361.996    0.292    0.542  105.899    2.750
  362.296    0.303    0.561  108.912    2.462
  362.596    0.333    0.596  105.299    2.287
  362.896    0.350    0.621  102.890    2.288
  363.196    0.347    0.604   96.265    2.656
  363.496    0.331    0.583   94.459    2.970
  363.796    0.333    0.567   93.254    3.783
  364.096    0.310    0.518   96.870    4.556
  364.396    0.317    0.500   99.281    5.288
  364.696    0.298    0.479   96.269    5.806
  364.996    0.320    0.506   95.066    6.257
  365.296    0.334    0.525   95.669    6.496
  365.596    0.281    0.513   92.658    7.001
  365.896    0.340    0.503   98.081    7.269
  366.196    0.313    0.489  103.503    7.835
  366.496    0.302    0.477  105.312    7.986
  366.796    0.317    0.463  101.096    8.767
  367.096    0.339    0.484  100.494    9.991
  367.396    0.272    0.492  103.507    9.995
  367.696    0.219    0.468   98.689   10.571
  367.996    0.197    0.430   93.871   11.822
  368.296    0.130    0.418   95.076   12.506
  368.596    0.162    0.384   99.897   12.985
  368.896    0.279    0.402   99.295   12.995
  369.196    0.245    0.396   99.899   12.069
  369.496    0.249    0.415  103.514   10.032
  369.796    0.254    0.447  101.708    9.318
  370.096    0.260    0.430   96.889    8.037
  370.396    0.285    0.435   95.686    6.806
  370.696    0.307    0.484   96.289    6.321
  370.996    0.311    0.495   97.495    5.982
  371.296    0.335    0.502  100.508    6.098
