~VERSION INFORMATION
 VERS.                 2.0:   CWLS LOG ASCII STANDARD -VERSION 2.0
 WRAP.                  NO:   ONE LINE PER DEPTH STEP
~WELL INFORMATION BLOCK
#MNEM.UNIT           DATA                    DESCRIPTION OF MNEMONIC
#---------    -------------------            -------------------------------
# Generated from Intellog Unique Number	CC_80_83/WELL/2438
NULL.         -999.25                        : NULL_VALUE
WELL.         GULF RESDELN                   : Well_name    - WELL              
LOC .         14-36-082-07W4                 : Location     - LOCATION          
UWI .         AA/14-36-082-07W4/0            : Uwi          - UNIQUE WELL ID    
ENTR.         DW                             : Entered      - ENTERED BY        
SRVC.         SCHLUMBERGER                   : Scn          - SERVICE COMPANY   
DATE.         01 MAR 81                      : Date         - LOG DATE
STRT.M        160                            : top_depth    - START DEPTH       
STOP.M        419.794                        : bot_depth    - STOP DEPTH        
STEP.M        0.3                            : increment    - STEP LENGTH       
~CURVE INFORMATION BLOCK
#MNEM UNIT       ERCB CURVE CODE    CURVE DESCRIPTION
#-----------   ------------------   ----------------------------------
DEPT.M        00 001 00 00         : DEPTH        - DEPTH                       
DPHI.V/V      00 890 00 00         : PHID         - DENSITY POROSITY (LIMESTONE)
NPHI.V/V      00 330 00 00         : PHIN         - NEUTRON POROSITY (LIMESTONE)
GR  .API      00 310 00 00         : GR           - GAMMA RAY                   
ILD .OHMM     00 120 00 00         : RESD         - DEEP RESISTIVITY (DIL)      
~PARAMETER INFORMATION       
#MNEM.UNIT           DATA             DESCRIPTION OF MNEMONIC
#---------         -----------     ------------------------------
GL  .M        627.75               : gl           - GROUND LEVEL ELEVATION      
EREF.M        631.5                : kb           - ELEVATION OF DEPTH REFERENCE
DATM.M        631.5                : datum        - DATUM ELEVATION             
TDD .M        461                  : tdd          - TOTAL DEPTH DRILLER         
RUN .         ONE                  : Run          - RUN NUMBER                  
ENG .         BILL                 : Engineer     - RECORDING ENGINEER          
WIT .         JIM                  : Witness      - WITNESSED BY                
MUD .         GEL                  : Mud_type     - MUD TYPE                    
MATR.         LIMESTONE            : Logunit      - NEUTRON MATRIX              
TMAX.C        17.8                 : BHT          - MAXIMUM RECORDED TEMPERATURE
BHTD.M        461                  : BHTDEP       - MAXIMUM RECORDED TEMPERATURE
MATR.         1                    : LOGUNIT      - NEUTRON MATRIX              
RMT .C        25                   : MDTP         - TEMPERATURE OF MUD          
NEUT.         1                    : NEUTRON      - NEUTRON TYPE                
RESI.         0                    : RESIST       - RESISTIVITY TYPE            
RMC .OHMM     0.25                 : RMC          - RESISTIVITY OF MUD CAKE     
RMF .OHMM     0.25                 : RMF          - RESISTIVITY OF MUD FILTRATE 
SUFT.C        4                    : SUFT         - SURFACE TEMPERATURE         
~A  DEPTH     PHID     PHIN       GR     RESD
# ...
  368.796    0.256    0.365   63.653   13.303
  369.096    0.235    0.344   66.697   13.516
  369.396    0.219    0.335   65.422   13.228
  369.696    0.222    0.338   64.145   12.696
  369.996    0.229    0.336   64.119   12.186
  370.296    0.233    0.338   65.924   11.936
  370.596    0.236    0.340   66.495   11.661
  370.896    0.237    0.379   65.229   11.644
  371.196    0.236    0.372   61.495   12.057
  371.496    0.243    0.373   58.380   13.220
  371.796    0.272    0.388   53.417   14.777
  372.096    0.277    0.408   49.688   17.485
  372.396    0.288    0.410   47.181   19.540
  372.696    0.291    0.413   51.453   20.603
  372.996    0.273    0.404   55.719   20.178
  373.296    0.276    0.391   56.301   20.109
  373.596    0.286    0.386   51.957   20.062
  373.896    0.292    0.379   47.603   20.779
  374.196    0.255    0.370   48.183   21.939
  374.496    0.272    0.373   53.066   23.588
  374.796    0.280    0.402   54.258   23.087
  375.096    0.274    0.416   54.223   23.916
  375.396    0.302    0.413   46.179   26.236
  375.696    0.307    0.414   44.906   29.866
  375.996    0.305    0.424   46.712   29.779
  376.296    0.321    0.419   44.834   31.451
  376.596    0.284    0.407   47.253   27.451
  376.896    0.247    0.378   60.755   23.077
  377.196    0.250    0.383   55.183   20.927
  377.496    0.272    0.376   43.442   21.255
  377.796    0.302    0.364   42.792   22.875
  378.096    0.307    0.366   48.294   24.147
  378.396    0.286    0.380   48.254   28.575
  378.696    0.298    0.397   43.907   33.808
  378.996    0.319    0.397   30.939   45.681
  379.296    0.321    0.376   32.741   85.249
  379.596    0.318    0.379   37.016  228.118
  379.896    0.336    0.391   38.210  227.374
  380.196    0.332    0.379   41.249  198.450
  380.496    0.321    0.377   41.824  173.402
  380.796    0.322    0.384   41.785  132.532
  381.096    0.315    0.384   47.289  103.280
  381.396    0.274    0.378   54.024   54.003
  381.696    0.266    0.383   51.523   44.545
  381.996    0.287    0.393   42.862   40.381
  382.296    0.331    0.391   32.968   51.557
  382.596    0.332    0.386   33.548  114.104
  382.896    0.317    0.370   35.960  140.189
  383.196    0.328    0.360   37.784  147.993
  383.496    0.327    0.370   40.207  142.140
  383.796    0.311    0.373   40.778  126.467
  384.096    0.310    0.372   40.129  110.393
  384.396    0.317    0.370   37.627  108.047
  384.696    0.318    0.373   34.511  113.993
  384.996    0.338    0.384   31.390  115.813
  385.296    0.343    0.399   29.497  117.774
  385.596    0.331    0.418   30.082  117.376
  385.896    0.314    0.404   34.969  119.271
  386.196    0.316    0.396   36.772  121.197
  386.496    0.329    0.406   35.498  120.959
  386.796    0.346    0.398   33.619  118.368
  387.096    0.340    0.395   31.733  117.961
  387.396    0.325    0.395   32.929  113.296
  387.696    0.317    0.392   43.358   93.436
  387.996    0.308    0.408   45.166   80.074
  388.296    0.297    0.432   30.352   62.374
  388.596    0.326    0.412   28.466   62.208
  388.896    0.349    0.396   29.657   87.272
  389.196    0.344    0.406   33.928  134.701
  389.496    0.345    0.401   33.886  168.668
  389.796    0.343    0.395   31.381  192.083
  390.096    0.352    0.420   30.723  195.208
  390.396    0.371    0.438   31.308  167.291
  390.695    0.368    0.467   31.269  111.982
  390.995    0.357    0.460   29.385   92.331
  391.295    0.347    0.413   28.107  117.872
  391.595    0.340    0.377   27.455  185.351
  391.895    0.351    0.388   28.651  255.187
  392.195    0.372    0.396   31.078  285.063
  392.495    0.389    0.418   34.108  279.038
  392.795    0.359    0.407   32.848  217.307
  393.095    0.321    0.380   27.877  193.392
  393.395    0.313    0.375   26.603  196.619
  393.695    0.313    0.381   25.955  228.234
  393.995    0.327    0.389   27.152  255.031
  394.295    0.325    0.396   29.569  269.034
  394.595    0.325    0.404   28.912  243.958
  394.895    0.339    0.395   28.264  221.402
  395.195    0.332    0.388   26.379  224.830
  395.495    0.351    0.412   25.718  224.443
  395.795    0.354    0.423   26.919  203.559
  396.095    0.329    0.406   32.421  146.889
  396.395    0.305    0.387   40.993  130.770
  396.695    0.280    0.377   43.423  118.581
  396.995    0.272    0.360   40.296   90.665
  397.295    0.279    0.369   38.415   45.632
  397.595    0.297    0.400   37.762   34.211
  397.895    0.318    0.386   38.959   31.035
  398.195    0.333    0.389   37.688   32.749
  398.495    0.344    0.421   34.567   34.580
  398.795    0.363    0.448   32.682   35.801
  399.095    0.368    0.442   30.797   35.708
  399.395    0.351    0.426   30.143   35.614
  399.695    0.331    0.414   33.802   34.864
  399.995    0.332    0.414   28.223   34.719
  400.295    0.346    0.402   23.873   35.973
  400.595    0.346    0.412   27.528   36.571
  400.895    0.341    0.413   32.414   36.487
  401.195    0.340    0.419   30.521   37.802
  401.495    0.333    0.411   28.643   39.854
  401.795    0.339    0.400   26.757   39.781
  402.095    0.333    0.382   25.479   40.442
  402.395    0.324    0.386   26.063   40.296
  402.695    0.326    0.404   22.933   40.974
  402.995    0.321    0.401   21.663   44.936
  403.295    0.317    0.390   21.639   47.432
  403.595    0.319    0.388   21.598   45.486
  403.895    0.329    0.389   22.788   43.711
  404.195    0.340    0.388   23.980   39.646
  404.495    0.345    0.394   25.165   41.056
  404.795    0.349    0.402   25.748   44.172
  405.095    0.340    0.399   24.473   46.633
  405.395    0.333    0.390   22.593   49.200
  405.695    0.340    0.387   21.939   50.940
  405.995    0.332    0.390   23.133   52.808
  406.295    0.329    0.391   26.783   52.673
  406.595    0.349    0.386   27.977   51.545
  406.895    0.360    0.441   31.632   46.737
  407.195    0.332    0.442   36.523   33.744
  407.495    0.291    0.405   45.108   24.370
  407.795    0.135    0.351   51.227   15.403
  408.095    0.101    0.354   61.038   10.915
  408.395    0.025    0.348   67.146    9.531
  408.695    0.050    0.296   65.257    9.499
  408.995    0.038    0.268   64.618   10.620
  409.295    0.026    0.251   63.331   13.811
  409.595    0.012    0.234   62.074   18.663
  409.895    0.029    0.225   62.647   22.488
  410.195    0.017    0.225   63.226   25.131
  410.495    0.033    0.226   62.571   25.066
  410.795    0.051    0.228   61.909   22.721
  411.095    0.027    0.228   63.107   21.403
  411.395    0.000    0.229   64.916   20.572
  411.695    0.025    0.230   66.105   20.128
  411.995    0.031    0.238   66.680   20.060
  412.295    0.000    0.242   66.648   21.165
  412.595    0.008    0.245   65.999   21.947
  412.895    0.029    0.247   64.103   23.166
  413.195    0.045    0.244   63.454   22.660
  413.495    0.044    0.242   62.796   21.728
  413.795    0.012    0.238   62.753   21.289
  414.095    0.029    0.240   63.331   20.036
  414.395    0.025    0.248   63.295   19.216
  414.695    0.023    0.251   62.027   18.824
  414.995    0.032    0.246   58.908   18.056
  415.294    0.030    0.255   54.562   18.023
  415.594    0.021    0.259   45.907   17.627
  415.894    0.010    0.249   31.706   17.931
  416.194    0.000    0.128   23.044   18.933
  416.494    0.003    0.105   18.690   22.393
  416.794    0.000    0.102   19.871   38.005
  417.094    0.000    0.109   20.462   77.942
  417.394    0.000    0.118   19.803   90.506
  417.694    0.000    0.106   19.160   90.233
  417.994    0.000    0.097   18.496   86.577
  418.294    0.002    0.101   20.310   81.565
  418.594    0.011    0.110   22.119   81.371
  418.894    0.016    0.120   23.314   84.305
  419.194    0.008    0.127   25.734   80.904
  419.494    0.000    0.122   25.699   71.991
  419.794    0.000    0.113   22.582   67.820
