~VERSION INFORMATION
 VERS.                 2.0:   CWLS LOG ASCII STANDARD -VERSION 2.0
 WRAP.                  NO:   ONE LINE PER DEPTH STEP
~WELL INFORMATION BLOCK
#MNEM.UNIT           DATA                    DESCRIPTION OF MNEMONIC
#---------    -------------------            -------------------------------
# Generated from Intellog Unique Number	CN_94_101/WELL/5020
WELL.         11-22-099-14W4                 : Well_name    - WELL
LOC .         AA/11-22-099-14W4/0            : Location     - LOCATION
UWI .         AA/11-22-099-14W400            : Uwi          - UNIQUE WELL ID
ENTR.         TIM                            : Entered      - ENTERED BY
SRVC.         SCHLUMBERGER                   : Scn          - SERVICE COMPANY
DATE.         08/13/92                       : Date         - LOG DATE
STRT.M        370                            : top_depth    - START DEPTH
STOP.M        575                            : bot_depth    - STOP DEPTH
STEP.M        0.25                           : increment    - STEP LENGTH
 NULL. -999.2500:NULL Value
~CURVE INFORMATION BLOCK
#MNEM UNIT       ERCB CURVE CODE    CURVE DESCRIPTION
#-----------   ------------------   ----------------------------------
DEPT.M        00 001 00 00         : DEPTH        - DEPTH
GR  .API      00 310 00 00         : GR           - GAMMA RAY
NPHI.V/V      00 330 00 00         : PHIN         - NEUTRON POROSITY (SANDSTONE)
DPHI.V/V      00 890 00 00         : PHID         - DENSITY POROSITY (SANDSTONE)
ILD .OHMM     00 120 00 00         : RESD         - DEEP RESISTIVITY (DIL)
~PARAMETER INFORMATION
#MNEM.UNIT           DATA             DESCRIPTION OF MNEMONIC
#---------         -----------     ------------------------------
GL  .M        815.9                : gl           - GROUND LEVEL ELEVATION
EREF.M        817.1                : kb           - ELEVATION OF DEPTH REFERENCE
DATM.M        817.1                : datum        - DATUM ELEVATION
TDD .M        578                  : tdd          - TOTAL DEPTH DRILLER
RUN .         ONE                  : Run          - RUN NUMBER
ENG .         BILL                 : Engineer     - RECORDING ENGINEER
WIT .         JIM                  : Witness      - WITNESSED BY
MUD .         GEL                  : Mud_type     - MUD TYPE
MATR.         SANDSTONE            : Logunit      - NEUTRON MATRIX
TMAX.C        21                   : BHT          - MAXIMUM RECORDED TEMPERATURE
BHTD.M        583                  : BHTDEP       - MAXIMUM RECORDED TEMPERATURE
RMT .C        25                   : MDTP         - TEMPERATURE OF MUD
MUDD.KG/M     1090                 : MWT          - MUD DENSITY
NEUT.         1                    : NEUTRON      - NEUTRON TYPE
RESI.         0                    : RESIST       - RESISTIVITY TYPE
RM  .OHMM     4.6                  : RM           - RESISTIVITY OF MUD
RMC .OHMM     4.6                  : RMC          - RESISTIVITY OF MUD CAKE
RMF .OHMM     4.6                  : RMF          - RESISTIVITY OF MUD FILTRATE
SUFT.C        4                    : SUFT         - SURFACE TEMPERATURE
~A  DEPTH       GR     PHIN     PHID     RESD
# ...
  413.500   89.431    0.450    0.287    2.520
  413.750   89.433    0.438    0.288    2.665
  414.000   88.848    0.423    0.288    2.767
  414.250   87.089    0.417    0.288    2.821
  414.500   85.328    0.422    0.290    2.876
  414.750   84.743    0.427    0.293    2.825
  415.000   85.335    0.428    0.295    2.625
  415.250   85.339    0.431    0.299    2.394
  415.500   85.931    0.435    0.301    2.184
  415.750   85.934    0.438    0.303    2.105
  416.000   85.938    0.440    0.306    2.030
  416.250   87.118    0.440    0.308    1.994
  416.500   88.298    0.441    0.310    1.995
  416.750   90.065    0.444    0.310    1.997
  417.000   91.246    0.446    0.310    1.998
  417.250   91.836    0.461    0.311    1.962
  417.500   92.427    0.461    0.311    1.964
  417.750   91.843    0.453    0.309    1.929
  418.000   91.259    0.451    0.309    1.966
  418.250   90.675    0.445    0.309    2.004
  418.500   90.678    0.443    0.311    2.081
  418.750   90.094    0.439    0.311    2.121
  419.000   90.098    0.438    0.309    2.084
  419.250   90.689    0.436    0.307    2.009
  419.500   89.519    0.455    0.301    1.937
  419.750   88.345    0.467    0.292    1.834
  420.000   87.760    0.475    0.289    1.802
  420.250   91.291    0.479    0.284    1.802
  420.500   96.001    0.485    0.282    1.770
  420.750   97.179    0.491    0.280    1.739
  421.000   98.359    0.494    0.279    1.708
  421.250  100.127    0.490    0.277    1.774
  421.500  101.895    0.484    0.277    1.774
  421.750  102.487    0.480    0.278    1.809
  422.000  101.315    0.479    0.280    1.810
  422.250   98.377    0.475    0.288    1.714
  422.500   93.090    0.474    0.298    1.683
  422.750   90.741    0.481    0.308    1.593
  423.000   93.097    0.493    0.315    1.594
  423.250   94.864    0.500    0.320    1.655
  423.500   96.632    0.502    0.320    1.851
  423.750   96.636    0.497    0.321    2.108
  424.000   93.698    0.474    0.325    2.492
  424.250   88.997    0.468    0.327    3.001
  424.500   83.121    0.462    0.331    3.482
  424.750   74.892    0.451    0.337    3.966
  425.000   63.723    0.425    0.344    4.354
  425.250   53.730    0.408    0.353    4.693
  425.500   48.441    0.400    0.362    4.782
  425.750   46.682    0.400    0.364    4.876
  426.000   46.096    0.400    0.362    4.878
  426.250   44.925    0.400    0.362    4.972
  426.500   44.928    0.401    0.364    5.068
  426.750   45.521    0.404    0.366    5.166
  427.000   45.523    0.405    0.367    5.170
  427.250   47.879    0.407    0.371    5.270
  427.500   49.058    0.407    0.372    5.272
  427.750   52.592    0.405    0.370    5.275
  428.000   53.182    0.400    0.367    5.183
  428.250   51.422    0.388    0.362    5.186
  428.500   50.838    0.364    0.364    5.093
  428.750   52.018    0.335    0.372    4.911
  429.000   52.021    0.333    0.384    4.563
  429.250   52.026    0.361    0.379    4.086
  429.500   53.204    0.373    0.368    3.658
  429.750   59.677    0.403    0.353    3.216
  430.000   66.736    0.423    0.327    2.305
  430.250   76.148    0.442    0.308    2.142
  430.500   84.384    0.446    0.301    1.954
  430.750   94.385    0.459    0.303    1.849
  431.000   98.505    0.470    0.308    1.751
  431.250   90.864    0.471    0.310    1.719
  431.500   86.752    0.461    0.310    1.721
  431.750   91.460    0.448    0.309    1.722
  432.000   94.403    0.441    0.305    1.755
  432.250   96.171    0.436    0.298    1.756
  432.500   94.999    0.431    0.292    1.757
  432.750   96.178    0.459    0.286    1.758
  433.000  103.827    0.477    0.279    1.727
  433.250  107.947    0.471    0.273    1.696
  433.500  109.714    0.461    0.270    1.762
  433.750  107.953    0.465    0.270    1.762
  434.000  105.018    0.467    0.273    1.864
  434.250  103.258    0.458    0.275    1.936
  434.500  103.260    0.454    0.279    1.937
  434.750  103.852    0.469    0.279    1.974
  435.000  105.032    0.501    0.279    1.976
  435.250  106.211    0.500    0.279    1.977
  435.500  108.568    0.490    0.281    1.942
  435.750  111.512    0.496    0.284    1.907
  436.000  111.515    0.517    0.293    1.873
  436.250  110.343    0.523    0.302    1.807
  436.500  108.583    0.515    0.311    1.742
  436.750  108.585    0.500    0.298    1.711
  437.000  108.001    0.510    0.298    1.681
  437.250  108.593    0.517    0.302    1.681
  437.500  109.773    0.494    0.306    1.683
  437.750  109.190    0.473    0.304    1.684
  438.000  108.604    0.473    0.303    1.685
  438.250  108.607    0.476    0.302    1.686
  438.500  108.612    0.481    0.299    1.687
  438.750  108.614    0.485    0.298    1.688
  439.000  108.030    0.483    0.296    1.689
  439.250  108.034    0.489    0.294    1.690
  439.500  107.449    0.499    0.294    1.691
  439.750  106.277    0.505    0.298    1.661
  440.000  104.517    0.488    0.299    1.662
  440.250  104.521    0.481    0.300    1.663
  440.500  103.349    0.481    0.300    1.633
  440.750  101.000    0.483    0.300    1.634
  441.000   99.827    0.491    0.302    1.636
  441.250  102.183    0.502    0.304    1.637
  441.500  101.010    0.506    0.310    1.700
  441.750   98.074    0.478    0.320    1.732
  442.000   95.137    0.465    0.324    1.799
  442.250   97.493    0.468    0.314    1.834
  442.500  102.201    0.477    0.309    1.835
  442.750  102.792    0.482    0.306    1.836
  443.000   99.268    0.474    0.304    1.837
  443.250   96.333    0.467    0.298    1.872
  443.500   99.275    0.474    0.288    1.908
  443.750  105.748    0.497    0.252    1.982
  444.000  108.104    0.501    0.245    2.020
  444.250  105.756    0.500    0.254    2.060
  444.500  104.584    0.450    0.274    2.023
  444.750  105.174    0.454    0.281    1.880
  445.000  108.706    0.466    0.292    1.779
  445.250  112.237    0.477    0.299    1.715
  445.500  114.593    0.488    0.305    1.624
  445.750  114.598    0.500    0.309    1.566
  446.000  113.425    0.514    0.311    1.566
  446.250  111.665    0.511    0.315    1.510
  446.500  109.905    0.505    0.317    1.456
  446.750  106.379    0.497    0.322    1.404
  447.000  102.268    0.505    0.326    1.354
  447.250   99.918    0.513    0.334    1.306
  447.500   99.922    0.523    0.339    1.259
  447.750  101.102    0.514    0.338    1.237
  448.000  101.106    0.508    0.333    1.237
  448.250  101.109    0.501    0.330    1.238
  448.500  101.113    0.506    0.328    1.262
  448.750   99.353    0.508    0.325    1.287
  449.000   99.355    0.501    0.324    1.336
  449.250  101.125    0.494    0.323    1.362
  449.500  101.127    0.486    0.324    1.414
  449.750   99.956    0.482    0.327    1.468
  450.000   98.784    0.479    0.329    1.612
  450.250   98.198    0.477    0.332    1.705
  450.500   97.613    0.469    0.334    1.803
  450.750   95.853    0.457    0.335    1.943
  451.000   93.504    0.440    0.335    2.133
  451.250   89.391    0.423    0.335    2.385
  451.500   75.870    0.416    0.335    2.667
  451.750   72.345    0.415    0.334    3.038
  452.000   66.469    0.409    0.334    3.397
  452.250   64.708    0.398    0.333    3.593
  452.500   67.653    0.403    0.333    3.218
  452.750   73.537    0.408    0.333    3.045
  453.000   79.421    0.420    0.334    2.677
  453.250   83.540    0.434    0.335    2.442
  453.500   88.837    0.446    0.335    2.311
  453.750   90.016    0.445    0.331    2.228
  454.000   91.196    0.440    0.319    2.230
  454.250   90.612    0.434    0.307    2.273
  454.500   89.440    0.425    0.301    2.360
  454.750   88.854    0.426    0.311    2.406
  455.000   89.447    0.426    0.320    2.407
  455.250   89.451    0.426    0.327    2.454
  455.500   89.456    0.426    0.329    2.455
  455.750   89.457    0.431    0.330    2.457
  456.000   89.461    0.427    0.330    2.504
  456.250   87.113    0.420    0.329    2.749
  456.500   84.176    0.423    0.329    2.854
  456.750   79.475    0.426    0.325    3.019
