~VERSION INFORMATION
 VERS.                 2.0:   CWLS LOG ASCII STANDARD -VERSION 2.0
 WRAP.                  NO:   ONE LINE PER DEPTH STEP
~WELL INFORMATION BLOCK
#MNEM.UNIT           DATA                    DESCRIPTION OF MNEMONIC
#---------    -------------------            -------------------------------
# Generated from Intellog Unique Number	CN_94_101/WELL/3648
WELL.         10-14-096-13W4                 : Well_name    - WELL
LOC .         AA/10-14-096-13W4/0            : Location     - LOCATION
UWI .         AA/10-14-096-13W400            : Uwi          - UNIQUE WELL ID
ENTR.         J                              : Entered      - ENTERED BY
SRVC.         SCHLUMBERGER                   : Scn          - SERVICE COMPANY
DATE.         08/05/92                       : Date         - LOG DATE
STRT.F        50                             : top_depth    - START DEPTH
STOP.F        760.302                        : bot_depth    - STOP DEPTH
STEP.F        0.8202                         : increment    - STEP LENGTH
 NULL. -999.2500:NULL Value
~CURVE INFORMATION BLOCK
#MNEM UNIT       ERCB CURVE CODE    CURVE DESCRIPTION
#-----------   ------------------   ----------------------------------
DEPT.F        00 001 00 00         : DEPTH        - DEPTH
ILD .OHMM     00 120 00 00         : RESD         - DEEP RESISTIVITY (DIL)
GR  .API      00 310 00 00         : GR           - GAMMA RAY
NPHI.V/V      00 330 00 00         : PHIN         - NEUTRON POROSITY (SANDSTONE)
~PARAMETER INFORMATION
#MNEM.UNIT           DATA             DESCRIPTION OF MNEMONIC
#---------         -----------     ------------------------------
GL  .M        418.003              : gl           - GROUND LEVEL ELEVATION
EREF.M        419.527              : kb           - ELEVATION OF DEPTH REFERENCE
DATM.M        419.527              : datum        - DATUM ELEVATION
TDD .M        235.001              : tdd          - TOTAL DEPTH DRILLER
RUN .         ONE                  : Run          - RUN NUMBER
ENG .         BILL                 : Engineer     - RECORDING ENGINEER
WIT .         JIM                  : Witness      - WITNESSED BY
MUD .         GEL                  : Mud_type     - MUD TYPE
MATR.         SANDSTONE            : Logunit      - NEUTRON MATRIX
TMAX.F        40                   : BHT          - MAXIMUM RECORDED TEMPERATURE
BHTD.F        771                  : BHTDEP       - MAXIMUM RECORDED TEMPERATURE
RMT .F        40                   : MDTP         - TEMPERATURE OF MUD
MUDD.LB/G     0.001                : MWT          - MUD DENSITY
NEUT.         1                    : NEUTRON      - NEUTRON TYPE
RESI.         0                    : RESIST       - RESISTIVITY TYPE
RM  .OHMM     0.9                  : RM           - RESISTIVITY OF MUD
RMC .OHMM     0.9                  : RMC          - RESISTIVITY OF MUD CAKE
RMF .OHMM     0.9                  : RMF          - RESISTIVITY OF MUD FILTRATE
SUFT.F        39.2                 : SUFT         - SURFACE TEMPERATURE
~A  DEPTH     RESD       GR     PHIN
   50.000   46.566   52.652    0.453
   50.820   43.260   50.680    0.448
   51.640   40.167   48.318    0.423
   52.461   36.590   50.774    0.420
   53.281   33.313   48.412    0.408
   54.101   29.773   47.254    0.410
   54.921   24.652   46.911    0.401
   55.742   21.603   49.768    0.393
   56.562   21.663   54.644    0.397
   57.382   23.433   51.869    0.406
   58.202   24.398   51.514    0.419
   59.022   24.923   55.978    0.399
   59.843   28.549   56.024    0.389
   60.663   25.515   54.064    0.394
   61.483   23.717   50.497    0.427
   62.303   23.294   47.734    0.439
   63.123   23.345   46.175    0.417
   63.944   22.954   50.638    0.418
   64.764   22.569   57.533    0.424
   65.584   25.853   56.777    0.408
   66.404   29.086   51.191    0.370
   67.224   26.467   49.231    0.389
   68.045   22.337   52.489    0.378
   68.865   19.963   52.135    0.386
   69.685   23.758   48.981    0.407
   70.505   29.390   51.425    0.398
   71.326   27.815   55.109    0.406
   72.146   27.349   52.723    0.428
   72.966   31.949   49.570    0.407
   73.786   30.220   52.427    0.422
   74.606   25.505   50.856    0.434
   75.427   19.195   49.297    0.436
   76.247   17.476   53.772    0.450
   77.067   15.619   55.425    0.462
   77.887   17.901   55.483    0.451
   78.707   14.534   55.920    0.457
   79.528    9.037   54.762    0.467
   80.348   12.530   61.244    0.463
   81.168   12.557   60.087    0.455
   81.988   11.223   59.331    0.447
   82.808   11.911   61.385    0.433
   83.629   15.308   61.030    0.405
   84.449   21.633   54.653    0.393
   85.269   29.442   49.068    0.381
   86.089   22.573   49.917    0.386
   86.909   19.419   53.601    0.398
   87.730   21.823   53.246    0.399
   88.550   25.985   52.478    0.405
   89.370   29.766   51.722    0.378
   90.190   27.638   50.565    0.390
   91.010   25.676   49.407    0.434
   91.831   28.294   53.067    0.415
   92.651   26.778   53.114    0.416
   93.471   19.021   50.752    0.442
   94.291    9.772   56.832    0.438
   95.112   10.175   62.098    0.433
   95.932   13.578   66.172    0.424
   96.752   11.460   67.022    0.419
   97.572    8.140   71.886    0.425
   98.392    6.244   81.179    0.452
   99.213    7.153   87.248    0.450
  100.033    8.043   91.722    0.425
  100.853    7.908   90.175    0.425
  101.673    8.393   89.820    0.406
  102.493    9.437   92.689    0.417
  103.314    9.453   92.713    0.413
  104.134    8.611   91.956    0.393
  104.954    8.311   89.204    0.390
  105.774    9.164   88.035    0.412
  106.594    9.725   85.673    0.415
  107.415    9.199   83.323    0.421
  108.235    8.066   85.767    0.409
  109.055    8.398   91.847    0.423
  109.875    9.265   88.671    0.443
  110.696    8.602   85.506    0.408
  111.516    7.684   85.954    0.453
  112.336    8.635   85.623    0.458
  113.156   12.685   84.052    0.426
  113.976   12.713   83.685    0.419
  114.797    8.208   86.956    0.411
  115.617    6.061   93.426    0.426
  116.437    7.356   89.458    0.396
  117.257    6.571   87.096    0.409
  118.077    6.712   88.359    0.447
  118.898    6.114   87.993    0.442
  119.718    4.602   88.843    0.437
  120.538    4.035   96.529    0.480
  121.358    4.711  100.992    0.478
  122.178    5.000  102.267    0.470
  122.999    5.013   99.893    0.466
  123.819    4.927  101.144    0.449
  124.639    4.940  101.593    0.460
  125.459    4.855   96.019    0.474
  126.280    4.773   93.645    0.504
  127.100    5.367  103.740    0.510
  127.920    5.180  102.583    0.522
  128.740    4.714   96.607    0.515
  129.560    5.403   93.041    0.515
  130.381    6.072   96.713    0.530
  131.201    5.426   92.332    0.502
  132.021    4.850   95.189    0.477
  132.841    4.768  104.080    0.470
  133.661    4.688   98.896    0.472
  134.482    4.610  100.560    0.467
  135.302    4.714   97.785    0.480
  136.122    4.810   93.014    0.481
  136.942    5.008   92.671    0.497
  137.762    5.629   94.323    0.468
  138.583    6.206   92.753    0.472
  139.403    6.226   89.989    0.479
  140.223    5.886   90.036    0.447
  141.043    5.362   88.878    0.435
  141.864    4.704   91.759    0.445
  142.684    4.365   93.400    0.490
  143.504    4.136   91.439    0.477
  144.324    4.220   88.274    0.447
  145.144    4.397   87.128    0.441
  145.965    4.575   85.156    0.419
  146.785    5.556   83.998    0.432
  147.605    6.007   86.454    0.441
  148.425    5.685   88.508    0.425
  149.245    5.181   87.351    0.411
  150.066    5.496   85.000    0.429
  150.886    6.795   85.838    0.441
  151.706    7.942   86.298    0.398
  152.526    7.814   84.326    0.416
  153.346    7.822   83.168    0.429
  154.167    9.671   86.427    0.401
  154.987   10.264   90.099    0.403
  155.807    5.798   90.960    0.416
  156.627    5.593   88.587    0.392
  157.448    8.061   83.816    0.397
  158.268    9.064   79.836    0.411
  159.088    9.994   70.672    0.398
  159.908   12.122   71.912    0.382
  160.728   12.629   66.326    0.401
  161.549   13.149   63.562    0.373
  162.369   13.171   66.018    0.364
  163.189   10.104   69.678    0.373
  164.009    9.025   72.145    0.392
  164.829    9.961   70.575    0.383
  165.650    9.609   72.239    0.387
  166.470    9.816   73.892    0.381
  167.290   10.027   72.734    0.371
  168.110   11.263   69.156    0.399
  168.930   14.194   70.029    0.410
  169.751   13.699   70.879    0.430
  170.571   10.305   71.717    0.418
  171.391    9.387   74.987    0.395
  172.211    9.408   76.628    0.423
  173.031    6.436   79.521    0.421
  173.852    4.937   80.347    0.430
  174.672    5.872   84.019    0.414
  175.492    6.121   84.869    0.428
  176.312    6.617   84.915    0.437
  177.133    6.632   85.364    0.425
  177.953    5.815   87.430    0.429
  178.773    6.789   85.056    0.415
  179.593    7.630   82.682    0.412
  180.413    7.085   83.555    0.393
  181.234    7.381   81.984    0.403
  182.054    8.450   78.808    0.416
  182.874   10.061   74.840    0.419
  183.694    9.522   76.091    0.424
  184.514    5.918   78.960    0.431
  185.335    4.994   82.620    0.435
  186.155    4.379   89.102    0.464
  186.975    3.771   92.774    0.505
  187.795    4.000   89.609    0.495
  188.615    4.410   88.038    0.497
  189.436    4.505   89.289    0.504
  190.256    4.261   92.949    0.493
  191.076    3.957  103.458    0.479
  191.896    4.449  104.319    0.458
  192.717    5.094  103.941    0.423
  193.537    6.301   97.966    0.418
  194.357    5.851   90.385    0.422
  195.177    5.537   88.011    0.428
  195.997    5.444   91.281    0.421
  196.818    5.565   89.722    0.400
  197.638    5.906   86.545    0.389
  198.458    6.149   86.191    0.398
  199.278    6.526   86.651    0.399
  200.098    6.291   83.474    0.402
  200.919    5.310   84.749    0.410
  201.739    4.748   82.375    0.377
  202.559    5.133   78.808    0.338
  203.379    6.983   75.632    0.301
  204.199   11.502   70.861    0.264
  205.020   18.238   63.669    0.221
  205.840   30.044   58.497    0.178
  206.660   46.710   66.183    0.210
  207.480   21.388   69.442    0.259
  208.301   11.860   75.523    0.388
  209.121    8.109   78.793    0.391
  209.941    7.110   80.434    0.419
  210.761    5.556   82.087    0.438
  211.581    4.966   80.126    0.403
  212.402    8.030   78.165    0.387
  213.222    7.595   89.076    0.397
  214.042    5.939   85.899    0.400
  214.862    5.210   79.522    0.414
  215.682    7.501   81.175    0.400
  216.503    8.275   84.835    0.395
  217.323    7.114   82.874    0.418
  218.143    6.004   80.512    0.415
  218.963    7.567   77.749    0.401
  219.783    8.347   76.201    0.389
  220.604    7.045   80.664    0.417
  221.424    6.414   79.495    0.431
  222.244    6.187   78.739    0.447
  223.064    7.367   81.596    0.429
  223.885    6.844   86.472    0.430
  224.705    6.228   86.932    0.431
  225.525    5.897   86.589    0.415
  226.345    6.502   85.810    0.407
  227.165    7.592   84.262    0.422
