~Version : LASO    vs 4.00
VERS.                2.00:   CWLS Log ASCII Standard -VERSION 2.0
WRAP.                  NO:
~Well Information Block
#MNEM.UNIT       Data                        Description of Mnemonic
#----.----      -------------------------- : -----------------------------
STRT.M            15.0000:
STOP.M           203.4000:
STEP.M             0.1000:
NULL.           -999.2500:
COMP.  MOBIL OIL CANADA LTD.     :COMPANY
WELL.  MOBIL CLARKE OV 12-34     :WELL
FLD.   CLARKE                    :FIELD
LOC.   12-34-089-08W4            :LOCATION
CTRY.  CANADA                    :COUNTRY
PROV.  ALBERTA                   :PROVINCE
SRVC.  SCHLUMBERGER              :SERVICE COMPANY
DATE.  20-FEB-81                 :LOG DATE
UWI.   AA/12-34-089-08W400       :UNIQUE WELL ID
~Parameter Information Block
#MNEM.UNIT       Data                        Description of Mnemonic
#----.----      -------------------------- : -----------------------------
RUN .                   1                 : Run Number
GL  .M           415.1000                 : Ground Level Elevation
DREF.                  KB                 : Depth Reference
EREF.M           418.1000                 : Elevation of Depth Reference
TDL .M           203.0000                 : Total Depth Logger
TDD .M           200.0000                 : Total Depth Driller
CSGL.M            18.0000                 : Casing Bottom Logger
CSGD.M            15.0000                 : Casing Bottom Driller
CSGS.MM          219.0000                 : Casing Size
CSGW.KG/M          0.0000                 : Casing Weight
BHT .DEGC         12.0000                 : Bottom Hole Temperature
BS  .MM          159.0000                 : Bit Size
DFD .           1110.0000                 : Mud Weight (Density)
DFV .             90.0000                 : Mud Viscosity
DFPH.             10.0000                 : Mud pH
RM  .OHMM          1.9600                 : Mud Resistivity
RMT .DEGC         20.0000                 : Mud Resistivity Temperature
~Curve Information Block
#MNEM.UNIT        API CODE    Curve Description
#---------    ------------    -------------------------------------------
DEPT.M                    :   DEPTH
CALI.MM       42 280  1  1:   3 DENSITY CALIPER
DPHI.V/V                  :   DPHI
DT  .US/M     60 520  0  1:   2 SONIC INTERVAL TRANSIT TIME (COMPENSATED)
GR  .GAPI     42 310  1  1:   4 GAMMA RAY
ILD .OHMM      7 120 46  1:   7 DEEP INDUCTION
ILM .OHMM      7 120 44  1:   8 MEDIUM INDUCTION
NPHI.V/V      42 890  3  1:   5 NEUTRON POROSITY (SANDSTONE)
RHOB.K/M3     42 350  1  1:   6 BULK DENSITY
SFLU.OHMM      7 220  1  1:   9 FOCUSSED RESISTIVITY
SP  .MV        7  10  1  1:   10 SPONTANEOUS POTENTIAL
~A  Depth           CALI        DPHI          DT          GR         ILD         ILM        NPHI        RHOB        SFLU          SP
# ...
112.6000        173.5000      0.2629    493.5600     98.0400      3.7517      3.7002      0.4921   2239.6001      4.2445    -36.9900
112.7000        173.5000      0.2635    491.2400     98.3850      3.7517      3.7002      0.4921   2239.6001      4.2445    -36.9900
112.8000        173.1500      0.2635    487.9200     97.2450      3.7864      3.7242      0.4981   2246.7000      4.3195    -37.6300
112.9000        173.1500      0.2604    485.5600     95.8350      3.7864      3.7242      0.4981   2246.7000      4.3195    -37.6300
113.0000        173.0750      0.2578    484.8400     95.0850      3.7864      3.7552      0.5035   2231.8000      3.8109    -37.3200
113.1000        173.0750      0.2608    499.6400     94.7550      3.7864      3.7552      0.5035   2231.8000      3.8109    -37.3200
113.2000        176.8750      0.2653    501.5200     93.5550      3.7379      3.7934      0.5011   2234.8999      3.3684    -35.6800
113.3000        176.8750      0.2647    525.9600     91.0350      3.7379      3.7934      0.5011   2234.8999      3.3684    -35.6800
113.4000        177.2500      0.2630    570.0000     87.1950      3.7795      3.9033      0.4776   2283.3000      3.6495    -34.7700
113.5000        177.2500      0.2622    499.1200     83.4150      3.7795      3.9033      0.4776   2283.3000      3.6495    -34.7700
113.6000        180.8000      0.2620    468.3600     80.2050      3.8497      4.2017      0.4538   2335.6001      3.5598    -34.4000
113.7000        180.8000      0.2608    454.5600     77.7600      3.8497      4.2017      0.4538   2335.6001      3.5598    -34.4000
113.8000        171.3000      0.2613    439.2400     76.5600      4.4651      5.0749      0.4019   2281.2000      3.0327    -35.1100
113.9000        171.3000      0.2608    440.0000     76.8600      4.4651      5.0749      0.4019   2281.2000      3.0327    -35.1100
114.0000        172.7250      0.2606    463.8000     77.1000      4.9321      5.8268      0.3829   2252.7000      4.5397    -35.8300
114.1000        172.7250      0.2596    501.5200     76.5750      4.9321      5.8268      0.3829   2252.7000      4.5397    -35.8300
114.2000        170.1250      0.2580    501.5200     76.0950      5.3781      6.5559      0.3863   2226.5000      6.8333    -36.9800
114.3000        170.1250      0.2539    501.5200     75.9300      5.3781      6.5559      0.3863   2226.5000      6.8333    -36.9800
114.4000        167.6500      0.2480    501.5200     75.8700      5.9461      7.1094      0.3906   2205.1001      8.6423    -39.1800
114.5000        167.6500      0.2432    635.7200     75.7650      5.9461      7.1094      0.3906   2205.1001      8.6423    -39.1800
114.6000        164.8750      0.2391    639.8800     75.0750      8.2609      8.5552      0.3827   2207.5000     16.8822    -44.6000
114.7000        164.8750      0.2417    641.2000     74.1600      8.2609      8.5552      0.3827   2207.5000     16.8822    -44.6000
114.8000        164.7000      0.2548    642.8000     73.2450      9.1840      9.5374      0.3756   2235.2000     15.0463    -46.2800
114.9000        164.7000      0.2551    641.8800     72.6000      9.1840      9.5374      0.3756   2235.2000     15.0463    -46.2800
115.0000        165.0500      0.2361    624.8000     72.0000      9.9685     10.1538      0.3692   2263.0000     11.0619    -47.7600
115.1000        165.0500      0.2204    610.6400     71.4750      9.9685     10.1538      0.3692   2263.0000     11.0619    -47.7600
115.2000        166.7500      0.2106    599.6000     71.4750     10.8201     10.5738      0.3618   2296.3999      8.8030    -49.0100
115.3000        166.7500      0.2029    621.6400     72.1200     10.8201     10.5738      0.3618   2296.3999      8.8030    -49.0100
115.4000        167.5250      0.1963    643.9200     74.0400     10.7110     10.4576      0.3683   2237.7000     10.3141    -47.8200
115.5000        167.5250      0.2000    604.9600     77.1900     10.7110     10.4576      0.3683   2237.7000     10.3141    -47.8200
115.6000        168.1000      0.2168    531.0400     80.2350     10.5543     10.1258      0.3767   2220.1001     13.2993    -47.0000
115.7000        168.1000      0.2431    500.0000     82.3650     10.5543     10.1258      0.3767   2220.1001     13.2993    -47.0000
115.8000        168.8500      0.2591    500.0000     83.3400     10.0422      9.4848      0.3905   2187.0000     16.6200    -48.3300
115.9000        168.8500      0.2653    500.0000     83.7600     10.0422      9.4848      0.3905   2187.0000     16.6200    -48.3300
116.0000        169.0500      0.2646    500.7200     84.1950      9.7506      9.1081      0.3964   2167.3000     14.5690    -49.6500
116.1000        169.0500      0.2490    599.6800     84.6450      9.7506      9.1081      0.3964   2167.3000     14.5690    -49.6500
116.2000        168.8750      0.2336    632.7600     85.4100      9.4587      8.6582      0.3868   2141.6001     10.9001    -49.3300
116.3000        168.8750      0.2191    637.7600     86.4750      9.4587      8.6582      0.3868   2141.6001     10.9001    -49.3300
116.4000        168.1750      0.2048    639.4400     87.5250      8.9090      8.5316      0.3666   2108.1001      6.6593    -47.5200
116.5000        168.1750      0.1924    587.6000     88.4550      8.9090      8.5316      0.3666   2108.1001      6.6593    -47.5200
116.6000        167.8250      0.1825    556.0400     89.5200      8.6982      8.6105      0.3608   2115.8000      7.0377    -49.1400
116.7000        167.8250      0.1853    538.7600     90.6900      8.6982      8.6105      0.3608   2115.8000      7.0377    -49.1400
116.8000        167.2500      0.1968    549.2400     92.8500      8.3297      8.6264      0.3703   2141.0000     10.2195    -51.5800
116.9000        167.2500      0.2144    581.8000     96.7200      8.3297      8.6264      0.3703   2141.0000     10.2195    -51.5800
117.0000        166.0500      0.2246    597.4400    100.5900      8.0063      8.3913      0.4237   2206.5000     12.4919    -55.2700
117.1000        166.0500      0.2331    614.6400    102.8100      8.0063      8.3913      0.4237   2206.5000     12.4919    -55.2700
117.2000        165.7000      0.2414    576.8400    102.5700      7.7737      8.2154      0.4584   2193.1001     16.7275    -52.9400
117.3000        165.7000      0.2502    534.8400     99.4950      7.7737      8.2154      0.4584   2193.1001     16.7275    -52.9400
117.4000        166.2000      0.2619    499.7600     91.8150      7.6319      7.8529      0.4812   2173.0000     14.2899    -49.7400
117.5000        166.2000      0.2730    493.3600     83.1300      7.6319      7.8529      0.4812   2173.0000     14.2899    -49.7400
117.6000        169.3250      0.2806    481.2800     78.5250      7.5133      7.5898      0.4853   2149.7000     12.6424    -45.0500
117.7000        169.3250      0.2914    479.6000     75.8850      7.5133      7.5898      0.4853   2149.7000     12.6424    -45.0500
117.8000        173.0500      0.3069    500.9600     73.8000      7.2683      7.0637      0.4822   2122.6001      4.7712    -40.4400
117.9000        173.0500      0.3187    500.9600     72.1050      7.2683      7.0637      0.4822   2122.6001      4.7712    -40.4400
118.0000        171.9500      0.3197    507.0000     70.5300      7.1619      6.8902      0.4932   2119.5000      8.4223    -40.4400
118.1000        171.9500      0.3118    567.3600     69.1350      7.1619      6.8902      0.4932   2119.5000      8.4223    -40.4400
118.2000        171.0250      0.2988    627.7200     68.3550      7.2549      6.3948      0.5009   2149.8000      8.5947    -39.8000
118.3000        171.0250      0.2869    629.0800     70.4100      7.2549      6.3948      0.5009   2149.8000      8.5947    -39.8000
118.4000        170.5250      0.2779    546.5600     71.8350      8.4068      7.5898      0.4758   2257.3999      5.4781    -37.1000
118.5000        170.5250      0.2677    499.7600     72.9000      8.4068      7.5898      0.4758   2257.3999      5.4781    -37.1000
118.6000        170.7250      0.2595    486.8400     72.8700      9.3806      8.4300      0.4390   2245.7000      4.5481    -37.9100
