~VERSION INFORMATION
 VERS.                 2.0:   CWLS LOG ASCII STANDARD -VERSION 2.0
 WRAP.                  NO:   ONE LINE PER DEPTH STEP
~WELL INFORMATION BLOCK
#MNEM.UNIT           DATA                    DESCRIPTION OF MNEMONIC
#---------    -------------------            -------------------------------
# Generated from Intellog Unique Number	CC_80_83/WELL/2386
NULL.         -999.25                        : NULL_VALUE
WELL.         PEX PECJU HOUSE                : Well_name    - WELL              
LOC .         10-29-081-14W4                 : Location     - LOCATION          
UWI .         AA/10-29-081-14W400            : Uwi          - UNIQUE WELL ID    
ENTR.         RJA                            : Entered      - ENTERED BY        
SRVC.         SCHLUMBERGER                   : Scn          - SERVICE COMPANY   
DATE.         09 JAN 82                      : Date         - LOG DATE
STRT.M        116                            : top_depth    - START DEPTH       
STOP.M        376.996                        : bot_depth    - STOP DEPTH        
STEP.M        0.3                            : increment    - STEP LENGTH       
~CURVE INFORMATION BLOCK
#MNEM UNIT       ERCB CURVE CODE    CURVE DESCRIPTION
#-----------   ------------------   ----------------------------------
DEPT.M        00 001 00 00         : DEPTH        - DEPTH                       
NPHI.V/V      00 330 00 00         : PHIN         - NEUTRON POROSITY (LIMESTONE)
DPHI.V/V      00 890 00 00         : PHID         - DENSITY POROSITY (LIMESTONE)
GR  .API      00 310 00 00         : GR           - GAMMA RAY                   
ILD .OHMM     00 120 00 00         : RESD         - DEEP RESISTIVITY (DIL)      
~PARAMETER INFORMATION       
#MNEM.UNIT           DATA             DESCRIPTION OF MNEMONIC
#---------         -----------     ------------------------------
GL  .M        585                  : gl           - GROUND LEVEL ELEVATION      
EREF.M        588.6                : kb           - ELEVATION OF DEPTH REFERENCE
DATM.M        588.6                : datum        - DATUM ELEVATION             
TDD .M        385                  : tdd          - TOTAL DEPTH DRILLER         
RUN .         ONE                  : Run          - RUN NUMBER                  
ENG .         BILL                 : Engineer     - RECORDING ENGINEER          
WIT .         JIM                  : Witness      - WITNESSED BY                
MUD .         GEL                  : Mud_type     - MUD TYPE                    
MATR.         LIMESTONE            : Logunit      - NEUTRON MATRIX              
TMAX.C        15                   : BHT          - MAXIMUM RECORDED TEMPERATURE
BHTD.M        385                  : BHTDEP       - MAXIMUM RECORDED TEMPERATURE
MATR.         1                    : LOGUNIT      - NEUTRON MATRIX              
RMT .C        25                   : MDTP         - TEMPERATURE OF MUD          
NEUT.         1                    : NEUTRON      - NEUTRON TYPE                
RESI.         0                    : RESIST       - RESISTIVITY TYPE            
RMC .OHMM     0.25                 : RMC          - RESISTIVITY OF MUD CAKE     
RMF .OHMM     0.25                 : RMF          - RESISTIVITY OF MUD FILTRATE 
SUFT.C        4                    : SUFT         - SURFACE TEMPERATURE         
~A  DEPTH     PHIN     PHID       GR     RESD
# ...
  220.401    0.470    0.303   46.696   15.815
  220.701    0.462    0.298   45.445   16.111
  221.001    0.459    0.283   43.568   16.410
  221.301    0.469    0.294   41.692   16.402
  221.601    0.447    0.301   41.071   16.387
  221.901    0.445    0.307   41.077   16.376
  222.201    0.452    0.322   43.593   16.359
  222.501    0.437    0.333   44.229   16.036
  222.801    0.427    0.321   42.981   15.421
  223.101    0.421    0.318   42.357   15.408
  223.401    0.428    0.307   41.108   15.690
  223.701    0.433    0.293   44.252   15.983
  224.001    0.452    0.295   43.630   15.672
  224.301    0.465    0.312   43.636   15.354
  224.601    0.473    0.310   44.898   15.051
  224.901    0.438    0.315   43.022   15.043
  225.201    0.412    0.338   43.654   14.465
  225.501    0.408    0.333   46.798   14.458
  225.801    0.420    0.322   48.060   14.171
  226.101    0.461    0.313   48.066   13.887
  226.401    0.458    0.315   49.329   13.615
  226.701    0.458    0.320   48.707   13.347
  227.001    0.456    0.314   51.224   13.082
  227.301    0.457    0.327   53.111   13.071
  227.601    0.473    0.317   51.862   12.812
  227.901    0.464    0.307   51.241   12.806
  228.201    0.461    0.313   48.737   12.552
  228.501    0.473    0.303   48.116   12.303
  228.801    0.477    0.297   51.889   12.295
  229.101    0.452    0.278   55.032   12.282
  229.401    0.459    0.293   55.038   12.276
  229.701    0.473    0.309   51.278   12.501
  230.001    0.443    0.314   51.912   12.487
  230.301    0.458    0.319   58.823   12.724
  230.601    0.472    0.316   61.339   12.955
  230.901    0.492    0.311   61.344   12.944
  231.201    0.472    0.316   60.096   12.935
  231.501    0.435    0.324   60.105   12.927
  231.801    0.445    0.319   60.107   12.911
  232.101    0.484    0.320   56.350   12.902
  232.401    0.475    0.326   57.609   12.896
  232.701    0.469    0.316   60.753   12.886
  233.001    0.468    0.306   62.642   12.873
  233.301    0.464    0.320   63.904   12.864
  233.601    0.459    0.314   64.538   13.100
  233.901    0.488    0.303   68.311   13.088
  234.201    0.492    0.309   66.433   13.081
  234.501    0.478    0.316   67.067   13.065
  234.801    0.490    0.324   60.797   13.059
  235.101    0.508    0.315   55.781   12.799
  235.401    0.499    0.310   62.067   12.791
  235.701    0.471    0.301   65.209   12.537
  236.001    0.473    0.309   65.843   12.290
  236.301    0.458    0.309   62.082   12.280
  236.601    0.441    0.297   62.716   12.270
  236.901    0.458    0.291   64.605   12.495
  237.201    0.470    0.289   66.495   12.730
  237.501    0.456    0.291   65.874   12.475
  237.801    0.485    0.306   65.251   12.466
  238.101    0.499    0.305   62.119   12.223
  238.401    0.476    0.302   67.777   11.528
  238.701    0.470    0.312   68.408   11.085
  239.001    0.461    0.300   65.904   10.867
  239.301    0.469    0.310   62.772   10.650
  239.601    0.464    0.326   62.778   10.847
  239.901    0.467    0.302   66.549   10.634
  240.201    0.466    0.293   76.597   10.426
  240.501    0.441    0.287   84.136    9.467
  240.801    0.430    0.258   86.652    7.962
  241.101    0.447    0.248   87.287    6.203
  241.401    0.534    0.310   80.389    4.926
  241.701    0.566    0.271   72.862    4.922
  242.001    0.544    0.270   70.358    6.070
  242.301    0.536    0.283   57.812    7.346
  242.601    0.556    0.308   55.935   10.163
  242.901    0.502    0.307   63.473   10.756
  243.201    0.411    0.302   69.754   11.165
  243.501    0.417    0.275   69.763   11.371
  243.801    0.472    0.266   63.491   10.728
  244.101    0.442    0.268   57.848    9.376
  244.401    0.418    0.283   55.973    7.886
  244.701    0.438    0.297   54.095    7.731
  245.001    0.448    0.287   59.122    8.500
  245.301    0.431    0.263   67.916    8.493
  245.601    0.430    0.274   74.200    8.168
  245.901    0.437    0.258   76.716    7.559
  246.201    0.456    0.249   75.466    6.732
  246.501    0.497    0.287   72.963    6.601
  246.801    0.496    0.297   70.457    6.985
  247.101    0.466    0.298   66.697    8.291
  247.401    0.451    0.308   63.565    8.945
  247.701    0.444    0.317   60.433    9.648
  248.001    0.419    0.304   58.557   10.604
  248.301    0.429    0.311   54.796   11.013
  248.601    0.444    0.322   56.058   11.656
  248.901    0.437    0.301   57.946   12.099
  249.201    0.429    0.267   59.208   12.091
  249.501    0.432    0.286   55.449   12.080
  249.801    0.443    0.313   54.199   11.844
  250.101    0.456    0.324   56.717   11.170
  250.401    0.457    0.324   61.115   10.953
  250.701    0.463    0.316   61.750   11.815
  251.001    0.501    0.272   59.244   13.241
  251.301    0.491    0.170   50.466   13.742
  251.601    0.437    0.145   52.354   13.475
  251.901    0.274    0.299   61.148   12.003
  252.201    0.342    0.322   64.290   10.289
  252.501    0.425    0.324   61.786    9.525
  252.801    0.435    0.325   64.304    8.813
  253.101    0.468    0.332   67.448    8.808
  253.401    0.474    0.333   64.315    8.633
  253.701    0.492    0.309   52.397    8.962
  254.001    0.384    0.251   50.519    9.130
  254.301    0.345    0.219   59.312    9.122
  254.601    0.463    0.315   61.201    8.770
  254.901    0.499    0.289   65.603    8.599
  255.201    0.514    0.288   65.607    8.113
  255.501    0.496    0.293   61.848    7.651
  255.801    0.485    0.315   62.481    7.647
  256.101    0.471    0.319   63.743    7.939
  256.401    0.456    0.311   61.865    8.088
  256.701    0.453    0.340   65.638    8.234
  257.001    0.460    0.343   67.527    8.231
  257.301    0.459    0.309   65.649    7.763
  257.601    0.464    0.313   65.028    7.186
  257.901    0.481    0.320   68.172    6.525
  258.201    0.456    0.303   69.434    6.038
  258.501    0.443    0.256   73.833    5.919
  258.801    0.436    0.247   79.488    6.146
  259.101    0.448    0.268   81.377    6.380
  259.401    0.485    0.278   83.266    6.254
  259.701    0.466    0.269   90.806    5.788
  260.001    0.484    0.262   92.065    5.357
  260.301    0.502    0.251   86.425    4.958
  260.601    0.507    0.237   82.036    4.588
  260.901    0.497    0.235   84.552    4.413
  261.201    0.496    0.245   87.069    4.671
  261.501    0.505    0.264   81.427    4.942
  261.801    0.501    0.265   83.319    5.131
  262.101    0.479    0.272   83.321    5.534
  262.401    0.456    0.280   69.519    5.858
  262.701    0.435    0.276   68.272    6.315
  263.001    0.406    0.284   75.183    6.433
  263.301    0.521    0.241   82.720    6.680
  263.601    0.527    0.375   87.746    6.805
  263.901    0.478    0.326   90.889    6.298
  264.201    0.437    0.266   89.641    5.719
  264.501    0.456    0.253   82.742    5.395
  264.801    0.530    0.275   73.964    4.805
  265.101    0.561    0.376   71.459    4.448
  265.401    0.558    0.361   72.719    4.117
  265.701    0.570    0.288   75.864    4.035
  266.001    0.485    0.276   79.007    4.271
  266.301    0.473    0.250   80.897    4.696
  266.601    0.488    0.228   82.785    5.262
  266.901    0.473    0.235   80.910    5.569
  267.201    0.453    0.211   76.522    5.894
  267.501    0.477    0.202   77.155    5.889
  267.801    0.527    0.336   74.023    5.346
  268.101    0.589    0.402   62.105    5.143
  268.401    0.244    0.009   52.068    5.655
  268.701    0.178    0.000   47.054    8.128
  269.001    0.258    0.058   57.729    8.937
  269.301    0.355    0.133   73.426    9.829
  269.601    0.455    0.251   76.571    7.656
  269.901    0.508    0.259   75.323    5.965
  270.201    0.490    0.232   78.467    4.734
  270.501    0.464    0.231   80.982    4.643
  270.801    0.437    0.233   84.756    5.009
  271.101    0.427    0.252   85.387    5.613
  271.401    0.529    0.252   84.139    6.056
  271.701    0.515    0.226   82.889    6.532
  272.001    0.448    0.206   81.641    6.912
  272.301    0.465    0.211   86.042    7.177
