~VERSION INFORMATION
 VERS.                 2.0:   CWLS LOG ASCII STANDARD -VERSION 2.0
 WRAP.                  NO:   ONE LINE PER DEPTH STEP
~WELL INFORMATION BLOCK
#MNEM.UNIT           DATA                    DESCRIPTION OF MNEMONIC
#---------    -------------------            -------------------------------
# Generated from Intellog Unique Number	CC_80_83/WELL/2418
NULL.         -999.25                        : NULL_VALUE
WELL.         PEX PCEJ CHARD OV              : Well_name    - WELL              
LOC .         11-30-080-06W4                 : Location     - LOCATION          
UWI .         00/11-30-080-06W400            : Uwi          - UNIQUE WELL ID    
ENTR.         DW                             : Entered      - ENTERED BY        
SRVC.         SCHLUMBERGER                   : Scn          - SERVICE COMPANY   
DATE.         01 JAN 93                      : Date         - LOG DATE
STRT.M        85                             : top_depth    - START DEPTH       
STOP.M        315.099                        : bot_depth    - STOP DEPTH        
STEP.M        0.3                            : increment    - STEP LENGTH       
~CURVE INFORMATION BLOCK
#MNEM UNIT       ERCB CURVE CODE    CURVE DESCRIPTION
#-----------   ------------------   ----------------------------------
DEPT.M        00 001 00 00         : DEPTH        - DEPTH                       
DPHI.V/V      00 890 00 00         : PHID         - DENSITY POROSITY (LIMESTONE)
NPHI.V/V      00 330 00 00         : PHIN         - NEUTRON POROSITY (LIMESTONE)
GR  .API      00 310 00 00         : GR           - GAMMA RAY                   
ILD .OHMM     00 120 00 00         : RESD         - DEEP RESISTIVITY (DIL)      
~PARAMETER INFORMATION       
#MNEM.UNIT           DATA             DESCRIPTION OF MNEMONIC
#---------         -----------     ------------------------------
GL  .M        515.67               : gl           - GROUND LEVEL ELEVATION      
EREF.M        519.32               : kb           - ELEVATION OF DEPTH REFERENCE
DATM.M        519.32               : datum        - DATUM ELEVATION             
TDD .M        325                  : tdd          - TOTAL DEPTH DRILLER         
RUN .         ONE                  : Run          - RUN NUMBER                  
ENG .         BILL                 : Engineer     - RECORDING ENGINEER          
WIT .         JIM                  : Witness      - WITNESSED BY                
MUD .         GEL                  : Mud_type     - MUD TYPE                    
MATR.         LIMESTONE            : Logunit      - NEUTRON MATRIX              
TMAX.C        16                   : BHT          - MAXIMUM RECORDED TEMPERATURE
BHTD.M        322                  : BHTDEP       - MAXIMUM RECORDED TEMPERATURE
MATR.         1                    : LOGUNIT      - NEUTRON MATRIX              
RMT .C        25                   : MDTP         - TEMPERATURE OF MUD          
NEUT.         1                    : NEUTRON      - NEUTRON TYPE                
RESI.         0                    : RESIST       - RESISTIVITY TYPE            
RMC .OHMM     0.25                 : RMC          - RESISTIVITY OF MUD CAKE     
RMF .OHMM     0.25                 : RMF          - RESISTIVITY OF MUD FILTRATE 
SUFT.C        4                    : SUFT         - SURFACE TEMPERATURE         
~A  DEPTH     PHID     PHIN       GR     RESD
# ...
  189.401    0.264    0.357   84.554   10.690
  189.701    0.257    0.327   87.711   10.697
  190.001    0.253    0.298   92.094   11.118
  190.301    0.253    0.270   93.999   12.462
  190.601    0.120    0.165   97.148   14.230
  190.901    0.016    0.144   76.648   18.203
  191.201    0.020    0.108   64.858   24.639
  191.501    0.026    0.114   60.539   34.636
  191.801    0.042    0.128   61.197   38.095
  192.101    0.063    0.146   64.972   34.046
  192.401    0.117    0.176   77.454   27.685
  192.701    0.191    0.217   83.721   18.289
  193.001    0.233    0.387   94.335   11.859
  193.301    0.236    0.406  110.554   10.015
  193.601    0.247    0.418  103.748    9.473
  193.901    0.256    0.429   96.315    9.480
  194.201    0.259    0.417   91.994    9.485
  194.501    0.262    0.435   99.507    9.495
  194.801    0.262    0.426  106.382    9.682
  195.101    0.260    0.420  102.689    9.874
  195.401    0.259    0.410  102.724   10.074
  195.701    0.254    0.392   96.538   10.273
  196.001    0.253    0.406  105.912   10.279
  196.301    0.255    0.431  104.705   10.290
  196.601    0.259    0.420   91.047   10.295
  196.901    0.262    0.432   79.885   10.115
  197.201    0.261    0.434   88.630   10.120
  197.501    0.266    0.433   99.249   10.125
  197.801    0.271    0.421  101.159   10.326
  198.101    0.270    0.405  102.437   10.142
  198.401    0.261    0.406  104.344    9.773
  198.701    0.250    0.445  101.891    9.069
  199.001    0.247    0.455   98.192    8.259
  199.301    0.256    0.462   99.475    7.381
  199.601    0.309    0.477  102.001    5.779
  199.901    0.352    0.532  110.754    4.041
  200.201    0.331    0.551  117.640    3.477
  200.501    0.308    0.531  117.678    3.415
  200.801    0.331    0.510  124.560    4.128
  201.101    0.422    0.452  117.752    5.084
  201.401    0.434    0.449  113.428    7.146
  201.701    0.300    0.442  110.975    9.857
  202.001    0.287    0.438  101.677    9.682
  202.301    0.272    0.407  107.317    9.159
  202.601    0.241    0.429  113.577    8.824
  202.901    0.231    0.454  106.146    8.503
  203.201    0.229    0.477  114.895    8.041
  203.501    0.226    0.487  124.898    7.463
  203.801    0.223    0.498  118.705    7.057
  204.101    0.215    0.484  116.879    6.931
  204.401    0.214    0.481  120.027    6.938
  204.701    0.226    0.484  127.532    6.685
  205.001    0.284    0.489  128.815    5.752
  205.301    0.349    0.552  123.251    4.857
  205.601    0.357    0.600  122.042    3.594
  205.901    0.318    0.604  125.189    2.710
  206.201    0.344    0.606  132.078    2.377
  206.501    0.330    0.610  121.530    2.334
  206.801    0.322    0.600  117.214    2.380
  207.101    0.334    0.558  122.227    2.521
  207.401    0.323    0.551  118.536    2.721
  207.701    0.326    0.539  126.040    3.167
  208.001    0.313    0.518  118.604    3.686
  208.301    0.299    0.481  118.644    4.805
  208.601    0.241    0.430  116.190    6.030
  208.901    0.255    0.409  119.346    6.632
  209.201    0.249    0.390  116.886    7.294
  209.501    0.241    0.408  105.719    8.175
  209.801    0.231    0.418   99.535    9.163
  210.101    0.215    0.380  105.799   11.287
  210.401    0.221    0.313  100.230   13.386
  210.701    0.313    0.304  103.388   16.803
  211.001    0.300    0.336  104.038   16.814
  211.301    0.257    0.358   93.501   15.312
  211.601    0.300    0.364   96.651   12.454
  211.901    0.298    0.388  105.398   10.716
  212.201    0.282    0.430  112.904    9.398
  212.501    0.249    0.436  110.457    8.887
  212.801    0.244    0.422  109.869    8.567
  213.101    0.244    0.439  117.374    8.734
  213.401    0.238    0.429  115.540    9.426
  213.701    0.233    0.418  123.673   10.767
  214.001    0.229    0.409  118.106   11.404
  214.301    0.229    0.386  107.561   11.197
  214.601    0.240    0.370  111.332   10.199
  214.901    0.252    0.377  116.355    9.464
  215.201    0.251    0.432  121.996    8.782
  215.501    0.243    0.416  125.768    7.997
  215.801    0.238    0.408  118.329    7.284
  216.101    0.231    0.421  115.877    6.888
  216.401    0.220    0.420  122.764    6.638
  216.701    0.223    0.431  127.778    7.301
  217.001    0.229    0.399  129.059    8.183
  217.301    0.236    0.378  129.098    9.172
  217.601    0.238    0.392  102.992   10.086
  217.901    0.239    0.389  112.991   11.742
  218.201    0.292    0.379  113.025   12.672
  218.501    0.297    0.370  103.735   13.168
  218.801    0.307    0.366  105.638   12.931
  219.101    0.296    0.376  106.911   11.339
  219.401    0.242    0.424  116.909    8.880
  219.701    0.245    0.500  129.393    6.953
  220.001    0.268    0.484  120.101    5.873
  220.301    0.325    0.527  120.761    5.347
  220.601    0.349    0.493  115.812    5.057
  220.901    0.365    0.487  118.963    5.061
  221.201    0.322    0.498  132.071    5.067
  221.501    0.241    0.520  130.871    5.070
  221.801    0.252    0.518  127.168    5.170
  222.101    0.263    0.500  124.093    5.579
  222.401    0.269    0.482  109.815    6.372
  222.701    0.302    0.410   94.912    7.279
  223.001    0.287    0.435  101.801    8.311
  223.301    0.276    0.444   93.745    9.675
  223.601    0.280    0.443   97.516    9.868
  223.901    0.276    0.403  102.532    9.509
  224.201    0.299    0.407  105.057    7.587
  224.501    0.373    0.468  111.317    4.310
  224.801    0.364    0.542  110.111    3.926
  225.101    0.353    0.489  109.527    4.003
  225.401    0.351    0.442  100.855    5.419
  225.701    0.327    0.345   94.040    9.028
  226.001    0.182    0.276   82.874   11.767
  226.301    0.273    0.307   99.716   12.000
  226.601    0.285    0.421   99.131   10.929
  226.901    0.289    0.449  104.160    9.057
  227.201    0.285    0.479  105.429    7.942
  227.501    0.284    0.462  101.734    7.371
  227.801    0.298    0.449   99.924    6.970
  228.101    0.420    0.496  100.567    5.997
  228.401    0.365    0.560  100.611    5.162
  228.701    0.371    0.594  100.017    5.070
  229.001    0.410    0.524  100.053    5.269
  229.301    0.386    0.492  106.934    5.686
  229.601    0.218    0.460  117.561    6.254
  229.901    0.225    0.429  122.575    6.878
  230.201    0.277    0.446  123.852    7.285
  230.501    0.294    0.474  115.176    7.428
  230.801    0.292    0.472  112.722    7.577
  231.101    0.296    0.477  105.917    8.025
  231.401    0.410    0.484  108.442    8.499
  231.701    0.463    0.480  115.956    8.999
  232.001    0.460    0.481  120.343    9.008
  232.301    0.308    0.459  115.405    8.681
  232.602    0.301    0.450  121.047    7.905
  232.902    0.300    0.475  121.079    7.198
  233.202    0.266    0.502  116.133    4.756
  233.502    0.292    0.549  109.328    3.454
  233.802    0.335    0.618  108.120    2.916
  234.102    0.314    0.643  110.028    2.462
  234.402    0.303    0.629  106.953    2.243
  234.702    0.329    0.645  102.626    2.203
  235.002    0.360    0.631   95.818    2.289
  235.302    0.351    0.619   98.975    2.424
  235.602    0.352    0.593   98.382    2.667
  235.902    0.359    0.548   89.704    3.046
  236.202    0.369    0.500  106.548    3.413
  236.502    0.364    0.522  104.095    4.125
  236.802    0.359    0.534   93.553    5.178
  237.102    0.359    0.505   94.833    5.914
  237.402    0.378    0.438  105.457    7.284
  237.702    0.422    0.433  104.870    8.640
  238.002    0.391    0.497   94.325    8.646
  238.302    0.215    0.429  106.185    7.441
  238.602    0.355    0.504  103.115    6.648
  238.902    0.316    0.560   99.415    5.407
  239.202    0.352    0.561  105.678    4.566
  239.502    0.347    0.563  110.070    4.004
  239.802    0.344    0.587  115.087    3.787
  240.102    0.350    0.569  115.127    3.582
  240.402    0.368    0.551  108.940    3.516
  240.702    0.347    0.556  105.245    3.454
  241.002    0.331    0.569  105.290    3.522
  241.302    0.342    0.559  106.558    3.660
