~VERSION INFORMATION
 VERS.                 2.0:   CWLS LOG ASCII STANDARD -VERSION 2.0
 WRAP.                  NO:   ONE LINE PER DEPTH STEP
~WELL INFORMATION BLOCK
#MNEM.UNIT           DATA                    DESCRIPTION OF MNEMONIC
#---------    -------------------            -------------------------------
# Generated from Intellog Unique Number	CC_80_83/WELL/2416
NULL.         -999.25                        : NULL_VALUE
WELL.         PEX PCEJ HANGST OV             : Well_name    - WELL              
LOC .         11-29-082-08W4                 : Location     - LOCATION          
UWI .         AA/11-29-082-08W4/0            : Uwi          - UNIQUE WELL ID    
ENTR.         RJA                            : Entered      - ENTERED BY        
SRVC.         DRESSER ATLAS                  : Scn          - SERVICE COMPANY   
DATE.         24 FEB 80                      : Date         - LOG DATE
STRT.M        250                            : top_depth    - START DEPTH       
STOP.M        510.09                         : bot_depth    - STOP DEPTH        
STEP.M        0.3                            : increment    - STEP LENGTH       
~CURVE INFORMATION BLOCK
#MNEM UNIT       ERCB CURVE CODE    CURVE DESCRIPTION
#-----------   ------------------   ----------------------------------
DEPT.M        00 001 00 00         : DEPTH        - DEPTH                       
DPHI.V/V      00 890 00 00         : PHID         - DENSITY POROSITY (LIMESTONE)
NPHI.V/V      00 330 00 00         : PHIN         - NEUTRON POROSITY (LIMESTONE)
GR  .API      00 310 00 00         : GR           - GAMMA RAY                   
ILD .OHMM     00 120 00 00         : RESD         - DEEP RESISTIVITY (DIL)      
~PARAMETER INFORMATION       
#MNEM.UNIT           DATA             DESCRIPTION OF MNEMONIC
#---------         -----------     ------------------------------
GL  .M        735.57               : gl           - GROUND LEVEL ELEVATION      
EREF.M        739.17               : kb           - ELEVATION OF DEPTH REFERENCE
DATM.M        739.17               : datum        - DATUM ELEVATION             
TDD .M        518                  : tdd          - TOTAL DEPTH DRILLER         
RUN .         ONE                  : Run          - RUN NUMBER                  
ENG .         BILL                 : Engineer     - RECORDING ENGINEER          
WIT .         JIM                  : Witness      - WITNESSED BY                
MUD .         GEL                  : Mud_type     - MUD TYPE                    
MATR.         LIMESTONE            : Logunit      - NEUTRON MATRIX              
TMAX.C        15                   : BHT          - MAXIMUM RECORDED TEMPERATURE
BHTD.M        5182                 : BHTDEP       - MAXIMUM RECORDED TEMPERATURE
MATR.         1                    : LOGUNIT      - NEUTRON MATRIX              
RMT .C        25                   : MDTP         - TEMPERATURE OF MUD          
NEUT.         1                    : NEUTRON      - NEUTRON TYPE                
RESI.         0                    : RESIST       - RESISTIVITY TYPE            
RMC .OHMM     0.25                 : RMC          - RESISTIVITY OF MUD CAKE     
RMF .OHMM     0.25                 : RMF          - RESISTIVITY OF MUD FILTRATE 
SUFT.C        15                   : SUFT         - SURFACE TEMPERATURE         
~A  DEPTH     PHID     PHIN       GR     RESD
# ...
  406.594    0.295    0.401   90.954    6.245
  406.894    0.262    0.404   87.259    6.288
  407.194    0.261    0.415   88.426    6.025
  407.494    0.267    0.421   91.464    5.439
  407.794    0.269    0.391   93.067    4.698
  408.094    0.266    0.439   88.937    4.218
  408.394    0.260    0.470   95.213    3.616
  408.694    0.257    0.442   87.904    3.088
  408.994    0.260    0.452   96.362    2.558
  409.294    0.261    0.413   93.044    2.322
  409.594    0.268    0.430   95.270    2.325
  409.894    0.273    0.462   97.868    2.591
  410.194    0.275    0.414   95.486    3.269
  410.494    0.290    0.416   87.864    4.531
  410.794    0.335    0.411   83.611    5.146
  411.094    0.362    0.398   85.338    5.992
  411.394    0.363    0.401   83.515    6.703
  411.694    0.328    0.372   78.760    6.959
  411.994    0.345    0.385   73.379    7.265
  412.294    0.367    0.411   75.672    7.914
  412.594    0.321    0.410   85.691    7.953
  412.894    0.267    0.367   89.038    8.304
  413.194    0.302    0.366   90.705    9.216
  413.494    0.333    0.385   91.621   10.447
  413.794    0.227    0.331   88.177   11.353
  414.094    0.193    0.314   95.701   11.747
  414.394    0.190    0.340   90.882   12.695
  414.694    0.205    0.338   91.367   12.807
  414.994    0.215    0.341   90.788   11.717
  415.294    0.214    0.335   88.403   10.141
  415.594    0.269    0.345   84.335    8.812
  415.894    0.338    0.414   87.808    7.467
  416.194    0.374    0.393   90.593    6.806
  416.494    0.355    0.383   85.468    6.156
  416.794    0.368    0.373   88.008    6.035
  417.094    0.399    0.390   89.861    6.636
  417.393    0.407    0.365   81.616    7.726
  417.693    0.420    0.331   78.733    9.275
  417.993    0.233    0.351   85.198   10.496
  418.293    0.226    0.328   85.738   11.194
  418.593    0.226    0.337   86.534   11.466
  418.893    0.224    0.357   82.713   11.110
  419.193    0.220    0.346   85.877   10.263
  419.493    0.225    0.327   91.532    9.122
  419.793    0.304    0.376   94.130    8.429
  420.093    0.327    0.400   94.613    7.477
  420.393    0.265    0.401   84.313    7.002
  420.693    0.250    0.395   90.963    6.273
  420.993    0.283    0.369   83.096    5.964
  421.293    0.291    0.365   83.140    6.850
  421.593    0.263    0.362   81.316    7.533
  421.893    0.340    0.375   89.027    7.746
  422.193    0.435    0.411   83.838    7.420
  422.493    0.486    0.395   75.344    7.123
  422.793    0.398    0.358   79.378    7.351
  423.093    0.246    0.342   78.053    8.128
  423.393    0.232    0.351   70.244    9.626
  423.693    0.235    0.339   72.345    9.939
  423.993    0.241    0.350   78.563   10.321
  424.293    0.253    0.359   86.087    9.497
  424.593    0.302    0.372   78.403    7.927
  424.893    0.371    0.411   72.839    5.350
  425.193    0.395    0.436   82.421    4.248
  425.493    0.411    0.435   80.098    3.879
  425.793    0.423    0.416   79.520    4.035
  426.093    0.258    0.355   73.023    4.531
  426.393    0.234    0.343   82.041    5.750
  426.693    0.226    0.350   76.228    7.468
  426.993    0.197    0.351   77.956    9.372
  427.293    0.183    0.359   80.245    9.993
  427.593    0.172    0.353   72.439    9.814
  427.893    0.197    0.340   69.181    9.565
  428.193    0.256    0.351   75.646    9.268
  428.493    0.248    0.353   72.575    9.102
  428.793    0.230    0.348   74.926    9.077
  429.093    0.191    0.329   68.677    9.226
  429.393    0.251    0.331   58.563    9.947
  429.693    0.250    0.323   64.281   10.272
  429.993    0.118    0.289   59.961   11.018
  430.293    0.063    0.220   61.318   12.978
  430.593    0.091    0.228   57.873   12.990
  430.893    0.206    0.304   68.385   10.759
  431.193    0.296    0.380   79.339    8.965
  431.493    0.304    0.421   80.445    7.105
  431.793    0.280    0.402   74.070    6.376
  432.093    0.290    0.388   81.032    6.156
  432.393    0.309    0.374   86.563    6.116
  432.693    0.292    0.373   81.995    6.301
  432.993    0.265    0.388   78.424    6.731
  433.293    0.234    0.367   85.453    7.456
  433.593    0.242    0.350   97.088    8.275
  433.893    0.267    0.356   92.336    8.465
  434.193    0.288    0.362   92.438    8.653
  434.493    0.297    0.379   91.865    8.352
  434.793    0.296    0.418   86.926    7.456
  435.093    0.316    0.445   80.302    5.217
  435.393    0.326    0.434   84.894    3.950
  435.693    0.312    0.413   82.636    3.036
  435.993    0.295    0.420   78.755    2.510
  436.293    0.278    0.433   75.060    2.377
  436.593    0.262    0.419   73.174    2.515
  436.893    0.248    0.390   80.761    3.186
  437.193    0.223    0.385   81.243    4.275
  437.493    0.221    0.382   71.876    4.884
  437.793    0.233    0.383   80.648    6.011
  438.093    0.247    0.388   83.681    6.736
  438.393    0.211    0.362   79.803    7.607
  438.693    0.198    0.349   74.614    7.558
  438.993    0.207    0.329   69.238    7.396
  439.293    0.309    0.407   87.105    5.794
  439.593    0.368    0.432   77.491    4.845
  439.893    0.392    0.422   76.166    4.201
  440.193    0.374    0.432   73.717    3.815
  440.493    0.336    0.426   72.830    3.572
  440.793    0.343    0.398   74.308    3.468
  441.093    0.356    0.394   90.680    3.392
  441.393    0.334    0.438   87.234    3.448
  441.693    0.329    0.413   80.490    3.492
  441.992    0.327    0.460   80.657    3.557
  442.292    0.356    0.473   75.904    3.601
  442.592    0.393    0.465   73.582    3.544
  442.892    0.360    0.436   76.931    3.487
  443.192    0.338    0.418   83.391    3.490
  443.492    0.334    0.425   87.804    3.574
  443.792    0.326    0.418   84.107    3.804
  444.092    0.294    0.410   81.472    4.096
  444.392    0.273    0.386   88.251    4.245
  444.692    0.276    0.385   88.980    4.623
  444.992    0.279    0.376   91.645    4.947
  445.292    0.287    0.370   82.091    5.039
  445.592    0.306    0.393   83.320    5.092
  445.892    0.363    0.403   80.561    5.030
  446.192    0.404    0.394   79.612    5.095
  446.492    0.263    0.405   75.606    5.517
  446.792    0.301    0.407   78.142    5.917
  447.092    0.296    0.391   87.972    6.202
  447.392    0.293    0.362   73.559    5.873
  447.692    0.254    0.340   63.945    3.971
  447.992    0.279    0.356   73.090    3.753
  448.292    0.389    0.354   78.246    3.987
  448.592    0.346    0.317   68.631    5.022
  448.892    0.335    0.338   64.562    6.935
  449.192    0.289    0.358   72.648   11.332
  449.492    0.275    0.342   68.641   17.517
  449.792    0.267    0.334   68.501   15.996
  450.092    0.253    0.337   80.287   10.931
  450.392    0.247    0.388   92.710    7.788
  450.692    0.252    0.365   98.728    6.762
  450.992    0.266    0.323   89.697    8.397
  451.292    0.297    0.331   79.359   10.507
  451.592    0.280    0.340   80.464   12.804
  451.892    0.290    0.340   66.830   11.286
  452.192    0.260    0.358   87.587    9.634
  452.492    0.233    0.354   98.019    8.524
  452.792    0.237    0.355  106.339    7.890
  453.092    0.271    0.372  103.590    7.598
  453.392    0.281    0.373   95.615    7.485
  453.692    0.251    0.352  100.825    7.728
  453.992    0.271    0.362   96.892    8.571
  454.292    0.279    0.357  105.710    9.453
  454.592    0.257    0.339   92.448   11.242
  454.892    0.230    0.322   71.539   12.971
  455.192    0.266    0.305   64.684   14.172
  455.492    0.257    0.295   60.503   15.987
  455.792    0.234    0.291   53.647   16.229
  456.092    0.223    0.308   58.918   15.570
  456.392    0.227    0.311   68.791   14.742
  456.692    0.273    0.299   74.812   14.882
  456.992    0.278    0.366   82.945   16.506
  457.292    0.241    0.345   76.461   16.412
  457.592    0.224    0.305   65.253   15.250
  457.892    0.217    0.298   74.691   15.278
  458.192    0.251    0.305   83.197   15.307
  458.492    0.240    0.320   79.452   14.438
