~VERSION INFORMATION
 VERS.                 2.0:   CWLS LOG ASCII STANDARD -VERSION 2.0
 WRAP.                  NO:   ONE LINE PER DEPTH STEP
~WELL INFORMATION BLOCK
#MNEM.UNIT           DATA                    DESCRIPTION OF MNEMONIC
#---------    -------------------            -------------------------------
# Generated from Intellog Unique Number	CN_91_93/WELL/2967
WELL.         10-08-092-15W4                 : Well_name    - WELL
LOC .         AA/10-08-092-15W4/0            : Location     - LOCATION
UWI .         AA/10-08-092-15W400            : Uwi          - UNIQUE WELL ID
ENTR.         JOETTE                         : Entered      - ENTERED BY
SRVC.         SCHLUMBERGER                   : Scn          - SERVICE COMPANY
DATE.         04/07/92                       : Date         - LOG DATE
STRT.F        250                            : top_depth    - START DEPTH
STOP.F        629.757                        : bot_depth    - STOP DEPTH
STEP.F        0.82                           : increment    - STEP LENGTH
 NULL. -999.2500:NULL Value
~CURVE INFORMATION BLOCK
#MNEM UNIT       ERCB CURVE CODE    CURVE DESCRIPTION
#-----------   ------------------   ----------------------------------
DEPT.F        00 001 00 00         : DEPTH        - DEPTH
CALI.IN       00 280 01 00         : CAL          - CALIPER
GR  .API      00 310 00 00         : GR           - GAMMA RAY
NPHI.V/V      00 330 00 00         : PHIN         - NEUTRON POROSITY (SANDSTONE)
DPHI.V/V      00 890 00 00         : PHID         - DENSITY POROSITY (SANDSTONE)
ILD .OHMM     00 120 00 00         : RESD         - DEEP RESISTIVITY (DIL)
~PARAMETER INFORMATION
#MNEM.UNIT           DATA             DESCRIPTION OF MNEMONIC
#---------         -----------     ------------------------------
GL  .M        466.283              : gl           - GROUND LEVEL ELEVATION
EREF.M        468.569              : kb           - ELEVATION OF DEPTH REFERENCE
DATM.M        468.569              : datum        - DATUM ELEVATION
TDD .M        201.168              : tdd          - TOTAL DEPTH DRILLER
RUN .         ONE                  : Run          - RUN NUMBER
ENG .         BILL                 : Engineer     - RECORDING ENGINEER
WIT .         JIM                  : Witness      - WITNESSED BY
MUD .         GEL                  : Mud_type     - MUD TYPE
MATR.         SANDSTONE            : Logunit      - NEUTRON MATRIX
TMAX.F        65                   : BHT          - MAXIMUM RECORDED TEMPERATURE
BHTD.F        660                  : BHTDEP       - MAXIMUM RECORDED TEMPERATURE
RMT .F        59                   : MDTP         - TEMPERATURE OF MUD
MUDD.LB/G     1.15                 : MWT          - MUD DENSITY
NEUT.         1                    : NEUTRON      - NEUTRON TYPE
RESI.         0                    : RESIST       - RESISTIVITY TYPE
RM  .OHMM     0.59                 : RM           - RESISTIVITY OF MUD
RMC .OHMM     0.59                 : RMC          - RESISTIVITY OF MUD CAKE
RMF .OHMM     0.59                 : RMF          - RESISTIVITY OF MUD FILTRATE
SUFT.F        39.2                 : SUFT         - SURFACE TEMPERATURE
~A  DEPTH      CAL       GR     PHIN     PHID     RESD
# ...
  369.751    6.825  113.338    0.484    0.160    6.850
  370.571    7.164  112.484    0.497    0.175    7.126
  371.391    7.306  112.528    0.506    0.189    6.818
  372.211    7.467  112.859    0.466    0.164    6.959
  373.031    7.411  110.225    0.424    0.160    6.959
  373.852    7.492  106.987    0.412    0.163    7.328
  374.672    7.336  104.944    0.419    0.136    7.543
  375.492    7.081  105.582    0.444    0.129    9.454
  376.312    6.885  108.297    0.454    0.172   10.791
  377.133    6.769  108.925    0.453    0.169   10.513
  377.953    6.731  111.649    0.459    0.174    9.337
  378.773    6.814  112.575    0.433    0.180    9.013
  379.593    6.895  111.434    0.429    0.180    9.287
  380.413    6.799  109.083    0.425    0.172    9.309
  381.234    6.702  102.881    0.430    0.165    9.161
  382.054    6.665   99.936    0.437    0.152    9.175
  382.874    6.668   96.406    0.413    0.131    9.280
  383.694    6.630   86.630    0.320    0.106    9.562
  384.514    6.633   86.083    0.334    0.087   10.129
  385.335    6.636   86.112    0.353    0.107   12.691
  386.155    6.559   84.668    0.370    0.101   15.035
  386.975    6.482   81.430    0.345    0.117   17.011
  387.795    6.485   79.684    0.334    0.073   15.972
  388.615    6.527   75.262    0.342    0.047   16.924
  389.436    6.550   73.823    0.337    0.053   18.607
  390.256    6.592   73.261    0.351    0.060   20.101
  391.076    6.654   72.403    0.363    0.123   19.946
  391.896    6.538   73.928    0.369    0.130   18.549
  392.717    6.520   74.571    0.373    0.107   16.785
  393.537    6.602   72.527    0.361    0.123   15.906
  394.357    6.605   70.479    0.361    0.091   15.796
  395.177    6.509   67.543    0.358    0.089   18.363
  395.997    6.492   67.280    0.359    0.117   22.370
  396.818    6.513   67.615    0.360    0.133   23.057
  397.638    6.516   69.141    0.356    0.042   21.047
  398.458    6.499   69.481    0.305    0.037   18.869
  399.278    6.561   69.817    0.268    0.056   24.311
  400.098    6.603   72.537    0.302    0.085   34.048
  400.919    6.605   75.846    0.333    0.159   33.490
  401.739    6.529   76.182    0.376    0.180   23.345
  402.559    6.611   82.758    0.416    0.183   18.369
  403.379    6.573   84.892    0.306    0.166   14.180
  404.199    6.556   82.844    0.286    0.125   13.190
  405.020    6.638   80.499    0.279    0.079   11.712
  405.840    6.661   76.374    0.319    0.039   10.595
  406.660    6.585   73.438    0.343    0.060   15.841
  407.480    6.666   73.481    0.339    0.111   20.794
  408.301    6.649   74.699    0.364    0.158   23.956
  409.121    6.532   74.153    0.349    0.129   18.850
  409.941    6.476   73.299    0.358    0.002   16.578
  410.761    6.479   72.747    0.371    0.001   16.156
  411.581    6.480   75.155    0.384    0.061   28.299
  412.402    6.483   81.736    0.414    0.125   24.672
  413.222    6.485   95.162    0.433    0.178   20.327
  414.042    6.547   99.071    0.445    0.182   16.907
  414.862    6.709   99.104    0.424    0.168   13.557
  415.682    6.692   94.979    0.423    0.116   11.816
  416.503    6.695   86.096    0.407    0.069   10.588
  417.323    6.776   79.294    0.445    0.028   10.034
  418.143    6.640   79.927    0.470    0.058   10.629
  418.963    6.702  100.788    0.475    0.148   14.615
  419.783    6.883  109.450    0.477    0.180   14.376
  420.604    7.064  110.391    0.469    0.188    9.748
  421.424    6.967  109.834    0.468    0.146    8.415
  422.244    7.109  110.165    0.443    0.158    7.474
  423.064    7.052  112.592    0.440    0.140    7.630
  423.885    6.876  115.005    0.444    0.169    8.085
  424.705    6.819  113.849    0.451    0.171    8.407
  425.525    6.802  110.913    0.459    0.139    8.829
  426.345    6.844  108.870    0.440    0.125    8.525
  427.165    6.788  106.826    0.424    0.101    8.077
  427.986    6.632  105.080    0.443    0.082    7.871
  428.806    6.733  109.877    0.469    0.173    8.653
  429.626    7.132  113.786    0.470    0.152    9.521
  430.446    7.353  112.045    0.484    0.162    8.855
  431.266    7.514  109.699    0.480    0.160    7.644
  432.087    7.457  110.337    0.470    0.158    6.980
  432.907    7.242  112.160    0.459    0.128    6.677
  433.727    7.026  110.706    0.448    0.136    7.142
  434.547    7.108  111.047    0.436    0.126    7.426
  435.367    6.833  114.352    0.427    0.184    7.871
  436.188    6.875  120.050    0.421    0.188    8.263
  437.008    7.076  120.688    0.424    0.207    8.596
  437.828    7.019  118.937    0.421    0.188    8.144
  438.648    6.922  116.894    0.440    0.167    7.867
  439.469    6.985  119.609    0.457    0.174    8.492
  440.289    6.908  119.647    0.444    0.150    8.748
  441.109    6.911  118.798    0.448    0.132    8.602
  441.929    6.973  118.827    0.449    0.090    8.308
  442.749    6.856  108.754    0.406    0.054    8.721
  443.570    6.740  117.714    0.433    0.156    9.500
  444.390    6.881  126.089    0.448    0.170   11.575
  445.210    6.944  121.959    0.453    0.205   10.970
  446.030    6.946  119.018    0.462    0.185    9.385
  446.850    7.087  119.661    0.469    0.166    8.254
  447.671    7.050  120.294    0.477    0.125    8.046
  448.491    7.072  118.841    0.488    0.095    8.140
  449.311    6.837  113.531    0.488    0.096    8.077
  450.131    6.780  119.512    0.485    0.184    8.405
  450.951    7.100  122.822    0.493    0.166    8.347
  451.772    7.261  123.455    0.512    0.172    7.615
  452.592    7.066  125.872    0.523    0.155    6.397
  453.412    7.187  118.179    0.495    0.104    5.574
  454.232    6.793  121.488    0.488    0.189    5.330
  455.052    6.875  130.156    0.493    0.205    5.755
  455.873    7.096  128.415    0.493    0.214    6.272
  456.693    7.158  126.961    0.493    0.205    6.583
  457.513    7.101  127.004    0.506    0.211    6.240
  458.333    7.262  127.340    0.520    0.169    5.859
  459.154    7.582  127.968    0.533    0.191    5.924
  459.974    7.208  125.925    0.539    0.169    6.339
  460.794    7.429  118.826    0.517    0.165    6.117
  461.614    7.530  118.567    0.480    0.156    5.535
  462.434    6.918  120.394    0.438    0.110    5.494
  463.255    6.643  128.169    0.462    0.157    6.042
  464.075    6.764  129.690    0.494    0.166    7.857
  464.895    6.866  124.375    0.475    0.194    8.561
  465.715    6.849  120.840    0.420    0.164    7.890
  466.535    7.288  115.525    0.375    0.194    7.071
  467.356    6.953  109.021    0.360    0.120    6.827
  468.176    6.718  105.788    0.390    0.075    7.035
  468.996    6.582  113.856    0.415    0.133    7.882
  469.816    6.684  120.149    0.441    0.180   10.442
  470.636    6.765  121.075    0.460    0.190    9.187
  471.457    6.669  122.308    0.470    0.162    8.082
  472.277    6.751  125.617    0.451    0.214    7.590
  473.097    6.833  123.272    0.439    0.160    7.326
  473.917    6.696  119.449    0.451    0.148    7.139
  474.738    6.620  119.487    0.451    0.160    7.152
  475.558    6.603  119.828    0.444    0.170    7.307
  476.378    6.625  119.564    0.447    0.179    7.526
  477.198    6.667  118.705    0.460    0.164    7.904
  478.018    6.749  117.856    0.474    0.147    7.630
  478.839    6.732  117.899    0.465    0.162    7.229
  479.659    6.715  118.240    0.475    0.181    6.787
  480.479    6.797  118.566    0.485    0.199    6.313
  481.299    6.760  118.906    0.494    0.216    5.013
  482.119    6.762  115.371    0.500    0.183    4.170
  482.940    6.725  105.293    0.495    0.175    3.668
  483.760    6.767   95.220    0.467    0.222    3.710
  484.580    7.127   86.332    0.448    0.223    4.159
  485.400    6.911   74.772    0.419    0.240    4.703
  486.220    6.696   65.587    0.382    0.261    5.269
  487.041    6.579   60.871    0.382    0.272    6.482
  487.861    6.562   62.987    0.398    0.265    7.683
  488.681    6.564   66.306    0.427    0.279    8.211
