~VERSION INFORMATION
 VERS.                 2.0:   CWLS LOG ASCII STANDARD -VERSION 2.0
 WRAP.                  NO:   ONE LINE PER DEPTH STEP
~WELL INFORMATION BLOCK
#MNEM.UNIT           DATA                    DESCRIPTION OF MNEMONIC
#---------    -------------------            -------------------------------
# Generated from Intellog Unique Number	CN_94_101/WELL/5018
WELL.         11-16-099-13W4                 : Well_name    - WELL
LOC .         AA/11-16-099-13W4/0            : Location     - LOCATION
UWI .         AA/11-16-099-13W400            : Uwi          - UNIQUE WELL ID
ENTR.         TIM                            : Entered      - ENTERED BY
SRVC.         SCHLUMBERGER                   : Scn          - SERVICE COMPANY
DATE.         08/13/92                       : Date         - LOG DATE
STRT.M        393.192                        : top_depth    - START DEPTH
STOP.M        594.442                        : bot_depth    - STOP DEPTH
STEP.M        0.25                           : increment    - STEP LENGTH
 NULL. -999.2500:NULL Value
~CURVE INFORMATION BLOCK
#MNEM UNIT       ERCB CURVE CODE    CURVE DESCRIPTION
#-----------   ------------------   ----------------------------------
DEPT.M        00 001 00 00         : DEPTH        - DEPTH
GR  .API      00 310 00 00         : GR           - GAMMA RAY
ILD .OHMM     00 120 00 00         : RESD         - DEEP RESISTIVITY (DIL)
NPHI.V/V      00 330 00 00         : PHIN         - NEUTRON POROSITY (SANDSTONE)
~PARAMETER INFORMATION
#MNEM.UNIT           DATA             DESCRIPTION OF MNEMONIC
#---------         -----------     ------------------------------
GL  .M        829.97               : gl           - GROUND LEVEL ELEVATION
EREF.M        833.323              : kb           - ELEVATION OF DEPTH REFERENCE
DATM.M        833.323              : datum        - DATUM ELEVATION
TDD .M        596.189              : tdd          - TOTAL DEPTH DRILLER
RUN .         ONE                  : Run          - RUN NUMBER
ENG .         BILL                 : Engineer     - RECORDING ENGINEER
WIT .         JIM                  : Witness      - WITNESSED BY
MUD .         GEL                  : Mud_type     - MUD TYPE
MATR.         SANDSTONE            : Logunit      - NEUTRON MATRIX
TMAX.C        33.3333              : BHT          - MAXIMUM RECORDED TEMPERATURE
BHTD.M        596.189              : BHTDEP       - MAXIMUM RECORDED TEMPERATURE
RMT .C        21.1111              : MDTP         - TEMPERATURE OF MUD
MUDD.KG/M     1090                 : MWT          - MUD DENSITY
NEUT.         1                    : NEUTRON      - NEUTRON TYPE
RESI.         0                    : RESIST       - RESISTIVITY TYPE
RM  .OHMM     6                    : RM           - RESISTIVITY OF MUD
RMC .OHMM     6                    : RMC          - RESISTIVITY OF MUD CAKE
RMF .OHMM     6                    : RMF          - RESISTIVITY OF MUD FILTRATE
SUFT.C        4                    : SUFT         - SURFACE TEMPERATURE
~A  DEPTH       GR     RESD     PHIN
# ...
  501.692  111.822    5.816    0.215
  501.942  115.420    5.725    0.202
  502.192  119.641    5.514    0.193
  502.442  120.871    4.831    0.182
  502.692  122.706    4.394    0.247
  502.942  123.953    3.999    0.304
  503.192  124.613    3.503    0.358
  503.442  124.685    3.248    0.354
  503.692  125.363    2.900    0.346
  503.942  126.611    2.539    0.344
  504.192  128.464    2.266    0.354
  504.442  128.518    2.104    0.370
  504.692  129.196    2.029    0.380
  504.942  128.681    1.919    0.368
  505.192  125.246    1.887    0.359
  505.442  122.380    2.045    0.351
  505.692  118.322    2.214    0.333
  505.942  118.394    2.493    0.312
  506.192  119.072    2.804    0.277
  506.442  122.688    3.686    0.267
  506.692  125.698    4.484    0.290
  506.942  126.358    4.765    0.331
  507.192  126.412    4.867    0.327
  507.442  125.915    4.973    0.305
  507.692  125.436    4.988    0.298
  507.942  125.490    4.910    0.290
  508.192  125.562    4.827    0.288
  508.442  125.617    4.743    0.294
  508.692  126.295    4.751    0.301
  508.942  126.991    4.768    0.305
  509.192  127.614    4.779    0.295
  509.442  128.274    4.883    0.295
  509.692  128.365    4.990    0.299
  509.942  127.280    5.202    0.300
  510.192  126.765    5.423    0.287
  510.442  126.232    5.538    0.281
  510.692  125.734    5.551    0.279
  510.942  125.825    5.567    0.280
  511.192  127.072    5.686    0.279
  511.442  128.320    5.709    0.278
  511.692  129.585    5.712    0.280
  511.942  129.621    5.736    0.285
  512.192  129.712    5.746    0.287
  512.442  129.251    5.652    0.287
  512.692  128.699    5.659    0.286
  512.942  128.772    5.679    0.286
  513.192  128.238    5.689    0.286
  513.442  127.172    5.705    0.287
  513.692  125.499    5.722    0.288
  513.942  124.361    5.732    0.289
  514.192  122.101    5.745    0.284
  514.442  119.823    5.762    0.280
  514.692  117.563    5.772    0.273
  514.942  115.836    5.899    0.271
  515.192  113.577    5.916    0.268
  515.442  110.711    6.052    0.264
  515.692  109.590    6.059    0.263
  515.942  107.312    6.073    0.260
  516.192  103.290    6.095    0.255
  516.442   99.231    6.105    0.248
  516.692   94.621    6.364    0.210
  516.942   92.325    6.627    0.192
  517.192   95.353    7.047    0.171
  517.442  108.370    7.775    0.186
  517.692  116.081    8.419    0.231
  517.942  123.222    7.973    0.235
  518.192  126.232    7.256    0.264
  518.442  128.067    6.473    0.285
  518.692  128.193    5.450    0.315
  518.942  127.054    4.503    0.327
  519.192  125.970    4.100    0.338
  519.442  124.849    3.878    0.346
  519.692  124.957    3.887    0.352
  519.942  125.030    3.975    0.351
  520.192  123.927    4.141    0.346
  520.442  122.218    4.232    0.326
  520.692  121.721    4.083    0.295
  520.942  124.713    3.791    0.314
  521.192  130.697    3.583    0.343
  521.442  130.770    3.323    0.373
  521.692  130.824    2.968    0.391
  521.942  131.484    2.699    0.428
  522.192  132.162    2.457    0.438
  522.442  132.252    2.324    0.415
  522.692  131.719    2.377    0.410
  522.942  129.441    2.576    0.387
  523.192  127.751    2.733    0.370
  523.442  132.542    3.077    0.332
  523.692  134.964    3.464    0.328
  523.942  134.449    4.136    0.323
  524.192  133.952    4.476    0.315
  524.442  133.455    4.950    0.309
  524.692  132.352    5.154    0.293
  524.942  131.249    5.266    0.299
  525.192  130.734    5.276    0.323
  525.442  129.613    5.294    0.330
  525.692  127.941    5.303    0.335
  525.942  127.995    5.217    0.338
  526.192  129.866    5.126    0.341
  526.442  131.095    4.854    0.343
  526.692  132.949    4.770    0.345
  526.942  135.995    4.603    0.349
  527.192  136.619    4.525    0.351
  527.442  137.866    4.446    0.355
  527.692  138.526    4.377    0.359
  527.942  130.960    4.300    0.375
  528.192  122.806    4.308    0.382
  528.442  125.229    4.320    0.387
  528.692  130.020    4.330    0.413
  528.942  129.505    4.343    0.439
  529.192  128.420    4.441    0.454
  529.442  127.317    4.366    0.469
  529.692  125.627    4.130    0.483
  529.942  126.287    3.832    0.494
  530.192  128.709    3.769    0.501
  530.442  130.544    3.774    0.506
  530.692  129.460    3.710    0.498
  530.942  129.532    3.250    0.483
  531.192  128.429    2.960    0.473
  531.442  124.976    2.965    0.460
  531.692  123.304    2.918    0.450
  531.942  125.708    2.922    0.448
  532.192  127.561    2.932    0.447
  532.442  127.670    2.994    0.446
  532.692  127.724    3.060    0.442
  532.942  127.796    3.069    0.434
  533.192  127.869    3.136    0.432
  533.442  128.529    3.145    0.424
  533.692  132.126    3.154    0.385
  533.942  137.505    3.158    0.375
  534.192  141.102    3.165    0.361
  534.442  144.131    3.114    0.351
  534.692  145.966    3.123    0.344
  534.942  143.706    3.129    0.320
  535.192  138.454    3.076    0.314
  535.442  129.125    2.799    0.313
  535.692  118.622    2.499    0.337
  535.942  110.468    2.188    0.364
  536.192  104.077    1.880    0.359
  536.442   98.256    1.710    0.332
  536.692   89.515    1.527    0.329
  536.942   79.599    1.592    0.317
  537.192   70.270    1.757    0.297
  537.442   63.273    2.400    0.262
  537.692   56.883    3.092    0.248
  537.942   53.430    3.986    0.262
  538.192   52.914    5.660    0.275
  538.442   58.293    7.727    0.301
  538.692   63.653    9.227    0.307
  538.942   69.032    8.566    0.298
  539.192   72.629    8.093    0.292
  539.442   74.501    7.224    0.297
  539.692   72.223    6.085    0.303
  539.942   69.927    5.328    0.306
  540.192   73.524    4.852    0.311
  540.442   77.710    4.860    0.322
  540.692   93.094    4.787    0.339
  540.942   95.553    4.701    0.336
  541.192   97.940    4.538    0.327
  541.442  102.143    4.459    0.321
  541.692  113.379    4.382    0.323
  541.942  116.407    4.228    0.329
  542.192  120.023    4.080    0.335
  542.442  122.446    3.787    0.340
  542.692  124.281    3.648    0.347
  542.942  124.958    3.387    0.352
  543.192  125.031    3.202    0.351
  543.442  125.103    2.914    0.350
  543.692  125.175    2.602    0.353
  543.942  122.328    2.414    0.362
  544.192  120.620    2.374    0.382
  544.442  117.167    2.473    0.384
  544.692  113.126    2.680    0.372
  544.942  106.166    3.136    0.357
  545.192  100.344    3.599    0.335
  545.442   93.348    4.213    0.329
  545.692   83.432    4.648    0.339
  545.942   76.453    5.333    0.344
  546.192   71.238    6.488    0.316
  546.442   68.390    7.445    0.277
  546.692   66.094    9.976    0.215
  546.942   50.890   13.368    0.194
  547.192   48.594   16.895    0.206
  547.442   41.028   22.638    0.218
  547.692   34.050   25.494    0.229
  547.942   31.202   28.694    0.236
  548.192   31.256   31.089    0.246
  548.442   30.759   36.369    0.253
  548.692   30.832   44.221    0.259
  548.942   32.079   47.913    0.262
  549.192   33.327   48.025    0.265
  549.442   35.161   44.584    0.270
  549.692   39.365   40.550    0.278
  549.942   44.156   32.236    0.285
  550.192   50.104   20.313    0.290
  550.442   60.770   11.187    0.296
  550.692   71.419    9.244    0.313
  550.942   76.815    8.417    0.326
  551.192   72.169    8.271    0.322
  551.442   56.359    8.141    0.302
  551.692   48.206    8.309    0.307
  551.942   43.577    9.179    0.315
  552.192   44.255   11.160    0.320
  552.442   45.503   15.847    0.324
  552.692   46.750   28.924    0.331
  552.942   48.016   52.794    0.349
  553.192   48.657   54.012    0.353
  553.442   48.730   54.138    0.343
  553.692   48.838   52.208    0.342
  553.942   49.480   47.540    0.342
  554.192   51.333   44.942    0.343
  554.442   51.975   41.722    0.343
  554.692   53.241   40.188    0.342
  554.942   53.349   37.352    0.340
  555.192   53.385   36.680    0.339
  555.442   52.319   34.696    0.338
  555.692   51.785   32.228    0.338
