~VERSION INFORMATION
 VERS.                 2.0:   CWLS LOG ASCII STANDARD -VERSION 2.0
 WRAP.                  NO:   ONE LINE PER DEPTH STEP
~WELL INFORMATION BLOCK
#MNEM.UNIT           DATA                    DESCRIPTION OF MNEMONIC
#---------    -------------------            -------------------------------
# Generated from Intellog Unique Number	CN_94_101/WELL/3230
WELL.         16-20-096-08W4                 : Well_name    - WELL
LOC .         AA/16-20-096-08W4/0            : Location     - LOCATION
UWI .         AA/16-20-096-08W400            : Uwi          - UNIQUE WELL ID
ENTR.         JOETTE                         : Entered      - ENTERED BY
SRVC.         SCHLUMBERGER                   : Scn          - SERVICE COMPANY
DATE.         07/20/92                       : Date         - LOG DATE
STRT.M        0                              : top_depth    - START DEPTH
STOP.M        40                             : bot_depth    - STOP DEPTH
STEP.M        0.25                           : increment    - STEP LENGTH
 NULL. -999.2500:NULL Value
~CURVE INFORMATION BLOCK
#MNEM UNIT       ERCB CURVE CODE    CURVE DESCRIPTION
#-----------   ------------------   ----------------------------------
DEPT.M        00 001 00 00         : DEPTH        - DEPTH
ILD .OHMM     00 120 00 00         : RESD         - DEEP RESISTIVITY (DIL)
GR  .API      00 310 00 00         : GR           - GAMMA RAY
RHOB.KG/M3    00 350 00 00         : DENS         - BULK DENSITY
NPHI.V/V      00 330 00 00         : PHIN         - NEUTRON POROSITY (SANDSTONE)
~PARAMETER INFORMATION
#MNEM.UNIT           DATA             DESCRIPTION OF MNEMONIC
#---------         -----------     ------------------------------
GL  .M        297.57               : gl           - GROUND LEVEL ELEVATION
EREF.M        297.57               : kb           - ELEVATION OF DEPTH REFERENCE
DATM.M        297.57               : datum        - DATUM ELEVATION
TDD .M        45                   : tdd          - TOTAL DEPTH DRILLER
RUN .         ONE                  : Run          - RUN NUMBER
ENG .         BILL                 : Engineer     - RECORDING ENGINEER
WIT .         JIM                  : Witness      - WITNESSED BY
MUD .         GEL                  : Mud_type     - MUD TYPE
MATR.         SANDSTONE            : Logunit      - NEUTRON MATRIX
TMAX.C        5                    : BHT          - MAXIMUM RECORDED TEMPERATURE
BHTD.M        45                   : BHTDEP       - MAXIMUM RECORDED TEMPERATURE
RMT .C        5                    : MDTP         - TEMPERATURE OF MUD
MUDD.KG/M     1                    : MWT          - MUD DENSITY
NEUT.         1                    : NEUTRON      - NEUTRON TYPE
RESI.         0                    : RESIST       - RESISTIVITY TYPE
RM  .OHMM     7.8                  : RM           - RESISTIVITY OF MUD
RMC .OHMM     7.8                  : RMC          - RESISTIVITY OF MUD CAKE
RMF .OHMM     7.8                  : RMF          - RESISTIVITY OF MUD FILTRATE
SUFT.C        4                    : SUFT         - SURFACE TEMPERATURE
~A  DEPTH     RESD       GR     DENS     PHIN
    0.000    3.672    2.449 1346.440    0.590
    0.250    3.694    2.004 1344.760    0.586
    0.500    3.712   44.818 1345.050    0.585
    0.750    3.730   94.433 1580.590    0.586
    1.000    3.751    3.144 1846.330    0.587
    1.250    3.774    4.169 1824.500    0.587
    1.500    3.800    5.674 1814.740    0.586
    1.750    3.863    8.164 1800.960    0.578
    2.000    3.887   16.477 1829.400    0.577
    2.250    3.911   35.478 2137.390    0.567
    2.500    3.882   36.024 2618.310    0.554
    2.750    3.858   23.440 2674.920    0.543
    3.000    3.779   21.557 2753.660    0.535
    3.250    3.779   22.097 2778.070    0.533
    3.500    3.738   22.151 2720.020    0.537
    3.750    3.657   27.555 2756.580    0.541
    4.000    3.587   28.574 2746.810    0.532
    4.250    3.522   23.770 2728.980    0.527
    4.500    3.544   17.994 2747.400    0.527
    4.750    3.558   23.878 2759.710    0.522
    5.000    3.637   21.988 2774.080    0.526
    5.250    3.741   21.070 2798.490    0.524
    5.500    3.806   21.610 2772.680    0.528
    5.750    3.827   19.235 2758.870    0.524
    6.000    3.845   17.831 2775.240    0.511
    6.250   14.367   22.757 2747.380    0.505
    6.500  303.909   26.204 2560.670    0.495
    6.750  626.567   26.758 2206.990    0.482
    7.000  758.698   26.319 2092.690    0.473
    7.250  416.069   27.338 2098.970    0.466
    7.500  217.030   25.448 2101.350    0.461
    7.750   98.765   23.566 2065.380    0.472
    8.000   53.461   28.957 2067.680    0.482
    8.250   27.906   40.677 2063.950    0.488
    8.500   16.880   57.735 2080.360    0.497
    8.750   22.300   60.711 2151.010    0.506
    9.000   27.678   53.963 2163.370    0.504
    9.250   22.270   48.666 2155.620    0.502
    9.500   15.065   52.613 2123.780    0.498
    9.750   25.492   59.961 2099.910    0.499
   10.000   44.185   51.749 2164.530    0.499
   10.250   63.639   34.307 2184.960    0.490
   10.500   34.025   26.115 2094.750    0.478
   10.750   65.951   31.992 2076.950    0.478
   11.000   78.879   37.876 2097.380    0.483
   11.250   70.103   29.670 2190.180    0.486
   11.500  217.507   34.589 2114.010    0.478
   11.750  244.405   28.813 2086.150    0.467
   12.000   69.530   35.662 2114.590    0.463
   12.250   29.748   47.875 2171.240    0.472
   12.500   38.314   52.787 2153.400    0.481
   12.750   44.738   46.033 2207.970    0.481
   13.000   31.817   38.313 2224.380    0.476
   13.250   41.974   38.367 2200.550    0.477
   13.500   55.413   39.393 2182.710    0.480
   13.750   65.462   32.166 2118.670    0.478
   14.000   65.823   28.326 2153.170    0.470
   14.250   74.933   23.522 2179.560    0.462
   14.500   83.223   23.582 2151.710    0.471
   14.750   75.761   22.658 2049.430    0.469
   15.000   60.252   27.091 2031.630    0.467
   15.250   64.441   34.911 2092.270    0.471
   15.500   36.648   35.944 2126.740    0.472
   15.750   23.306   49.115 2102.900    0.477
   16.000   21.509   55.484 2195.780    0.483
   16.250   32.930   51.658 2187.990    0.484
   16.500   45.674   48.312 2230.470    0.482
   16.750   42.123   41.071 2232.770    0.480
   17.000   36.051   41.611 2204.910    0.472
   17.250   18.359   36.820 2171.030    0.460
   17.500   20.376   44.154 2177.350    0.460
   17.750   20.488   46.644 2292.270    0.453
   18.000   23.324   35.517 2264.410    0.461
   18.250   30.041   30.220 2250.600    0.469
   18.500   40.151   32.710 2160.420    0.477
   18.750   65.474   36.650 2114.430    0.478
   19.000   24.742   30.389 2080.550    0.480
   19.250   20.169   34.329 2052.690    0.474
   19.500   17.476   44.106 2097.210    0.468
   19.750   26.773   44.639 2177.960    0.465
   20.000   29.735   50.044 2212.420    0.473
   20.250   34.248   32.601 2248.940    0.470
   20.500   61.643   24.396 2202.950    0.460
   20.750   69.313   19.106 2193.190    0.457
   21.000   88.178   17.216 2139.200    0.447
   21.250  154.737   15.327 2101.300    0.449
   21.500  268.388   14.409 2091.530    0.450
   21.750  448.281   13.005 2103.890    0.454
   22.000  285.089   15.981 2124.280    0.443
   22.250   87.340   20.900 2110.500    0.441
   22.500   21.149   22.897 2165.070    0.428
   22.750   15.406   27.802 2171.430    0.428
   23.000    8.660   57.013 2199.870    0.444
   23.250    9.042   75.535 2178.080    0.462
   23.500    8.334   80.933 2288.940    0.487
   23.750    8.595   80.015 2407.880    0.503
   24.000    8.426   80.555 2359.890    0.503
   24.250    9.011   84.502 2346.140    0.498
   24.500    8.846   72.403 2344.390    0.499
   24.750    8.357   80.230 2449.250    0.505
   25.000    7.713   85.149 2395.260    0.507
   25.250    7.473   82.781 2363.390    0.508
   25.500    7.065   86.235 2383.820    0.507
   25.750    6.930   94.542 2380.050    0.505
   26.000    6.888  102.868 2406.480    0.504
   26.250    6.916   96.593 2386.700    0.509
   26.500    6.964   95.682 2362.870    0.510
   26.750    7.256   91.849 2383.230    0.507
   27.000    7.484   91.417 2389.550    0.504
   27.250    7.530   81.261 2409.940    0.501
   27.500    7.291   80.836 2410.230    0.503
   27.750    7.608   82.354 2406.500    0.500
   28.000    8.444   87.746 2364.580    0.501
   28.250    6.969   80.998 2352.800    0.505
   28.500    7.453   73.278 2401.340    0.506
   28.750    8.381   60.701 2401.640    0.499
   29.000    9.534   64.155 2331.560    0.486
   29.250   14.607   30.194 2251.400    0.482
   29.500   20.780   20.532 2100.880    0.466
   29.750   35.576   12.320 2097.150    0.441
   30.000   37.608   12.866 2123.570    0.437
   30.250   25.128   18.264 2133.920    0.440
   30.500   12.631   31.921 2164.400    0.448
   30.750   13.018   41.212 2148.570    0.463
   31.000   19.457   26.199 2283.630    0.462
   31.250   26.023   23.345 2209.500    0.450
   31.500   21.199   22.906 2195.720    0.458
   31.750   19.551   23.951 2169.870    0.453
   32.000   20.910   24.478 2136.020    0.459
   32.250   21.566   24.052 2154.370    0.470
   32.500   22.503   20.706 2154.660    0.472
   32.750   22.908   26.583 2110.690    0.471
   33.000   19.128   28.580 2084.840    0.469
   33.250   14.107   26.690 2028.840    0.472
   33.500   11.499   35.010 2075.370    0.483
   33.750   12.299   23.890 2045.510    0.482
   34.000   12.065   17.135 2023.690    0.477
   34.250   11.836   19.139 1975.690    0.466
   34.500   11.901   15.792 2257.540    0.465
   34.750   13.373   15.853 2332.260    0.464
   35.000   13.632   17.843 2073.100    0.461
   35.250   14.214   19.840 2021.150    0.463
   35.500   12.633   21.838 2198.400    0.466
   35.750   14.550   23.835 2259.000    0.458
   36.000   13.754   17.580 2158.730    0.457
   36.250   12.384   18.605 2229.420    0.445
   36.500   11.699   18.173 2165.350    0.439
   36.750    9.065   22.114 2185.780    0.454
   37.000    7.209   46.459 2222.260    0.470
   37.250    6.247   59.151 2264.760    0.506
   37.500    6.764   40.737 2715.560    0.484
   37.750    6.635   33.503 2583.130    0.457
   38.000    8.338   35.014 2625.640    0.416
   38.250   12.009   27.781 2633.970    0.370
   38.500   27.347   22.504 2688.550    0.312
   38.750   24.929   24.009 2650.640    0.238
   39.000   19.799   21.141 2693.220    0.192
   39.250   21.439   19.744 2713.580    0.220
   39.500   22.111   21.741 2671.650    0.220
   39.750   22.773   24.224 2667.920    0.199
   40.000   25.942   24.278 2706.410    0.183
