~VERSION INFORMATION
 VERS.                 2.0:   CWLS LOG ASCII STANDARD -VERSION 2.0
 WRAP.                  NO:   ONE LINE PER DEPTH STEP
~WELL INFORMATION BLOCK
#MNEM.UNIT           DATA                    DESCRIPTION OF MNEMONIC
#---------    -------------------            -------------------------------
# Generated from Intellog Unique Number	CN_94_101/WELL/5047
WELL.         15-14-101-13W4                 : Well_name    - WELL
LOC .         AA/15-14-101-13W4/0            : Location     - LOCATION
UWI .         AA/15-14-101-13W400            : Uwi          - UNIQUE WELL ID
ENTR.         TIM                            : Entered      - ENTERED BY
SRVC.         SCHLUMBERGER                   : Scn          - SERVICE COMPANY
DATE.         08/14/92                       : Date         - LOG DATE
STRT.M        370                            : top_depth    - START DEPTH
STOP.M        585                            : bot_depth    - STOP DEPTH
STEP.M        0.25                           : increment    - STEP LENGTH
NULL. -999.2500:NULL Value
~CURVE INFORMATION BLOCK
#MNEM UNIT       ERCB CURVE CODE    CURVE DESCRIPTION
#-----------   ------------------   ----------------------------------
DEPT.M        00 001 00 00         : DEPTH        - DEPTH
GR  .API      00 310 00 00         : GR           - GAMMA RAY
ILD .OHMM     00 120 00 00         : RESD         - DEEP RESISTIVITY (DIL)
NPHI.V/V      00 330 00 00         : PHIN         - NEUTRON POROSITY (SANDSTONE)
DPHI.V/V      00 890 00 00         : PHID         - DENSITY POROSITY (SANDSTONE)
~PARAMETER INFORMATION
#MNEM.UNIT           DATA             DESCRIPTION OF MNEMONIC
#---------         -----------     ------------------------------
GL  .M        804                  : gl           - GROUND LEVEL ELEVATION
EREF.M        809                  : kb           - ELEVATION OF DEPTH REFERENCE
DATM.M        809                  : datum        - DATUM ELEVATION
TDD .M        590                  : tdd          - TOTAL DEPTH DRILLER
RUN .         ONE                  : Run          - RUN NUMBER
ENG .         BILL                 : Engineer     - RECORDING ENGINEER
WIT .         JIM                  : Witness      - WITNESSED BY
MUD .         GEL                  : Mud_type     - MUD TYPE
MATR.         SANDSTONE            : Logunit      - NEUTRON MATRIX
TMAX.C        25                   : BHT          - MAXIMUM RECORDED TEMPERATURE
BHTD.M        590                  : BHTDEP       - MAXIMUM RECORDED TEMPERATURE
RMT .C        10                   : MDTP         - TEMPERATURE OF MUD
MUDD.KG/M     1090                 : MWT          - MUD DENSITY
NEUT.         1                    : NEUTRON      - NEUTRON TYPE
RESI.         0                    : RESIST       - RESISTIVITY TYPE
RM  .OHMM     5.7                  : RM           - RESISTIVITY OF MUD
RMC .OHMM     5.7                  : RMC          - RESISTIVITY OF MUD CAKE
RMF .OHMM     5.7                  : RMF          - RESISTIVITY OF MUD FILTRATE
SUFT.C        4                    : SUFT         - SURFACE TEMPERATURE
~A  DEPTH       GR     RESD     PHIN     PHID
# ...
  544.000  100.731   11.771    0.415    0.254
  544.250  100.114   11.778    0.416    0.250
  544.500  100.117   11.783    0.416    0.252
  544.750  100.738   12.201    0.416    0.256
  545.000  102.596   12.617    0.415    0.259
  545.250  105.072   13.241    0.410    0.259
  545.500  106.310   14.071    0.405    0.258
  545.750  108.168   14.489    0.400    0.257
  546.000  108.789   15.938    0.395    0.256
  546.250  108.173   16.973    0.392    0.259
  546.500  106.939   18.630    0.398    0.262
  546.750  106.323   19.459    0.407    0.264
  547.000  106.945   20.495    0.414    0.263
  547.250  108.183   20.912    0.418    0.259
  547.500  109.423   20.712    0.419    0.254
  547.750  110.045   20.307    0.420    0.247
  548.000  110.046   19.695    0.421    0.245
  548.250  108.195   18.875    0.423    0.252
  548.500  106.960   18.055    0.423    0.257
  548.750  106.344   16.826    0.423    0.262
  549.000  105.110   16.213    0.423    0.269
  549.250  103.876   16.219    0.423    0.275
  549.500  102.024   16.636    0.421    0.274
  549.750  100.172   17.054    0.419    0.269
  550.000   98.938   17.060    0.415    0.265
  550.250   98.321   17.067    0.415    0.263
  550.500   96.469   17.070    0.418    0.263
  550.750   95.236   17.075    0.419    0.263
  551.000   93.383   17.700    0.420    0.264
  551.250   91.531   18.117    0.421    0.269
  551.500   90.915   19.566    0.422    0.274
  551.750   90.299   20.604    0.425    0.274
  552.000   90.920   21.640    0.426    0.273
  552.250   93.396   22.676    0.426    0.273
  552.500   94.017   23.504    0.421    0.270
  552.750   93.400   24.748    0.418    0.270
  553.000   92.786   26.401    0.413    0.277
  553.250   92.788   27.643    0.406    0.284
  553.500   92.791   27.648    0.404    0.294
  553.750   94.649   26.005    0.399    0.298
  554.000   98.362   21.477    0.396    0.300
  554.250   99.600   19.010    0.411    0.298
  554.500  102.694   18.192    0.410    0.296
  554.750   99.605   18.198    0.409    0.295
  555.000   97.134   18.203    0.408    0.294
  555.250   97.755   18.003    0.409    0.289
  555.500   98.376   17.595    0.415    0.286
  555.750   94.669   16.985    0.415    0.283
  556.000   92.198   16.782    0.414    0.284
  556.250   93.439   16.169    0.411    0.293
  556.500   94.058   15.767    0.409    0.294
  556.750   95.297   15.564    0.404    0.288
  557.000   96.537   15.568    0.399    0.280
  557.250   95.921   15.576    0.398    0.273
  557.500   95.305   15.787    0.401    0.271
  557.750   94.072   16.204    0.406    0.279
  558.000   92.837   17.034    0.406    0.286
  558.250   90.366   17.866    0.404    0.290
  558.500   87.277   18.695    0.401    0.290
  558.750   79.860   19.319    0.396    0.290
  559.000   66.261   20.151    0.390    0.291
  559.250   61.316   20.773    0.386    0.292
  559.500   53.281   21.398    0.380    0.295
  559.750   47.100   22.022    0.372    0.297
  560.000   42.775   22.231    0.363    0.300
  560.250   40.305   22.443    0.353    0.301
  560.500   42.780   21.212    0.349    0.301
  560.750   47.730   19.981    0.354    0.295
  561.000   55.770   19.162    0.360    0.291
  561.250   71.848   18.962    0.377    0.290
  561.500   82.362   19.585    0.385    0.292
  561.750   91.021   20.417    0.385    0.297
  562.000   96.588   21.039    0.384    0.301
  562.250  103.392   22.696    0.388    0.301
  562.500  109.577   23.525    0.396    0.301
  562.750  117.000   22.912    0.405    0.301
  563.000  123.185   21.064    0.409    0.301
  563.250  130.608   20.038    0.410    0.301
  563.500  125.045   18.189    0.412    0.299
  563.750  107.117   16.958    0.414    0.297
  564.000   93.517   16.347    0.414    0.295
  564.250   80.535   16.353    0.412    0.296
  564.500   70.645   16.357    0.411    0.299
  564.750   70.029   16.569    0.409    0.297
  565.000   81.162   16.780    0.407    0.292
  565.250   90.439   17.198    0.405    0.286
  565.500   98.480   17.825    0.404    0.281
  565.750  102.193   18.239    0.404    0.275
  566.000   98.485   18.657    0.402    0.273
  566.250   95.396   19.076    0.402    0.273
  566.500   94.781   19.081    0.402    0.271
  566.750   96.637   18.881    0.402    0.266
  567.000   99.732   18.270    0.400    0.264
  567.250  102.826   18.067    0.397    0.263
  567.500  105.920   17.868    0.396    0.261
  567.750  107.778   17.875    0.402    0.260
  568.000  105.926   17.878    0.415    0.258
  568.250  103.454   18.092    0.415    0.251
  568.500   98.510   18.510    0.413    0.248
  568.750   92.948   19.134    0.411    0.255
  569.000   78.112   19.552    0.410    0.267
  569.250   65.130   19.145    0.416    0.286
  569.500   58.949   18.326    0.420    0.303
  569.750   54.006   17.506    0.418    0.311
  570.000   51.535   16.483    0.413    0.313
  570.250   51.538   16.076    0.411    0.314
  570.500   52.159   15.874    0.401    0.313
  570.750   53.397   15.880    0.394    0.312
  571.000   55.255   15.885    0.391    0.311
  571.250   59.586   15.894    0.386    0.307
  571.500   68.863   15.897    0.381    0.301
  571.750   79.376   15.697    0.380    0.296
  572.000   84.326   14.673    0.389    0.292
  572.250   82.474   13.649    0.396    0.288
  572.500   81.240   13.446    0.384    0.285
  572.750   83.097   12.833    0.374    0.279
  573.000   85.572   12.427    0.380    0.272
  573.250   84.957   12.432    0.397    0.272
  573.500   81.250   12.440    0.392    0.272
  573.750   78.160   12.650    0.387    0.276
  574.000   71.362   13.274    0.382    0.286
  574.250   57.143   14.105    0.376    0.297
  574.500   51.581   14.933    0.370    0.306
  574.750   49.110   15.560    0.368    0.309
  575.000   50.349   13.916    0.365    0.309
  575.250   49.734   11.862    0.361    0.308
  575.500   47.264   11.867    0.363    0.306
  575.750   46.029   12.285    0.371    0.304
  576.000   43.560   13.321    0.381    0.306
  576.250   42.944   13.738    0.380    0.311
  576.500   43.565   14.567    0.377    0.312
  576.750   43.568   14.985    0.374    0.313
  577.000   44.188   14.166    0.374    0.314
  577.250   45.428   13.142    0.375    0.314
  577.500   46.048    9.853    0.375    0.313
  577.750   47.287    9.443    0.372    0.309
  578.000   49.763    8.831    0.369    0.293
  578.250   52.858    8.012    0.364    0.273
  578.500   54.097    7.193    0.360    0.267
  578.750   54.718    6.582    0.360    0.268
  579.000   55.338    5.971    0.358    0.270
  579.250   55.340    5.974    0.351    0.270
  579.500   55.343    5.568    0.341    0.270
  579.750   54.109    5.368    0.335    0.270
  580.000   52.257    5.169    0.328    0.268
  580.250   51.023    4.966    0.322    0.265
  580.500   49.170    4.767    0.317    0.260
  580.750   47.318    4.772    0.313    0.252
  581.000   46.084    4.779    0.312    0.231
  581.250   46.087    4.782    0.309    0.214
  581.500   46.709    4.788    0.308    0.199
  581.750   46.710    4.795    0.307    0.184
  582.000   47.331    4.802    0.307    0.172
  582.250   47.334    5.013    0.307    0.162
  582.500   47.337    5.017    0.307    0.092
  582.750   47.338    5.437    0.307    0.080
  583.000   47.341    5.647    0.307    0.073
  583.250   47.345    6.067    0.307    0.069
  583.500   47.347    6.278    0.307    0.067
  583.750   47.349    6.489    0.307    0.063
  584.000   47.351    6.700    0.307    0.061
  584.250   47.354    6.914    0.305    0.057
  584.500   47.356    6.917    0.304    0.056
  584.750   47.359    7.130    0.304    0.054
  585.000   47.362    7.134    0.293    0.052
