~VERSION INFORMATION
 VERS.                 2.0:   CWLS LOG ASCII STANDARD -VERSION 2.0
 WRAP.                  NO:   ONE LINE PER DEPTH STEP
~WELL INFORMATION BLOCK
#MNEM.UNIT           DATA                    DESCRIPTION OF MNEMONIC
#---------    -------------------            -------------------------------
# Generated from Intellog Unique Number	CC_80_83/WELL/2433
NULL.         -999.25                        : NULL_VALUE
WELL.         ARCO ACI McMUURAY              : Well_name    - WELL              
LOC .         12-29-083-10W4                 : Location     - LOCATION          
UWI .         AA/12-29-083-10W400            : Uwi          - UNIQUE WELL ID    
ENTR.         DW                             : Entered      - ENTERED BY        
SRVC.         SCHLUMBERGER                   : Scn          - SERVICE COMPANY   
DATE.         26 JAN 74                      : Date         - LOG DATE
STRT.M        259.08                         : top_depth    - START DEPTH       
STOP.M        502.928                        : bot_depth    - STOP DEPTH        
STEP.M        0.305                          : increment    - STEP LENGTH       
~CURVE INFORMATION BLOCK
#MNEM UNIT       ERCB CURVE CODE    CURVE DESCRIPTION
#-----------   ------------------   ----------------------------------
DEPT.M        00 001 00 00         : DEPTH        - DEPTH                       
NPHI.V/V      00 330 00 00         : PHIN         - NEUTRON POROSITY (LIMESTONE)
GR  .API      00 310 00 00         : GR           - GAMMA RAY                   
DPHI.V/V      00 890 00 00         : PHID         - DENSITY POROSITY (LIMESTONE)
ILD .OHMM     00 120 00 00         : RESD         - DEEP RESISTIVITY (DLL)      
~PARAMETER INFORMATION       
#MNEM.UNIT           DATA             DESCRIPTION OF MNEMONIC
#---------         -----------     ------------------------------
GL  .M        740.359              : gl           - GROUND LEVEL ELEVATION      
EREF.M        743.407              : kb           - ELEVATION OF DEPTH REFERENCE
DATM.M        743.407              : datum        - DATUM ELEVATION             
TDD .M        505.968              : tdd          - TOTAL DEPTH DRILLER         
RUN .         ONE                  : Run          - RUN NUMBER                  
ENG .         BILL                 : Engineer     - RECORDING ENGINEER          
WIT .         JIM                  : Witness      - WITNESSED BY                
MUD .         GEL                  : Mud_type     - MUD TYPE                    
MATR.         LIMESTONE            : Logunit      - NEUTRON MATRIX              
TMAX.C        23.3333              : BHT          - MAXIMUM RECORDED TEMPERATURE
BHTD.M        505.968              : BHTDEP       - MAXIMUM RECORDED TEMPERATURE
MATR.         1                    : LOGUNIT      - NEUTRON MATRIX              
RMT .C        25                   : MDTP         - TEMPERATURE OF MUD          
NEUT.         0                    : NEUTRON      - NEUTRON TYPE                
RESI.         1                    : RESIST       - RESISTIVITY TYPE            
RMC .OHMM     0.25                 : RMC          - RESISTIVITY OF MUD CAKE     
RMF .OHMM     0.25                 : RMF          - RESISTIVITY OF MUD FILTRATE 
SUFT.C        4                    : SUFT         - SURFACE TEMPERATURE         
~A  DEPTH     PHIN       GR     PHID     RESD
# ...
  312.117    0.397   83.818    0.231    3.860
  312.422    0.394   88.222    0.224    3.650
  312.726    0.431   84.163    0.248    3.788
  313.031    0.458   85.753    0.275    4.314
  313.336    0.467   92.977    0.314    6.139
  313.641    0.475   94.965    0.329   10.136
  313.946    0.442   92.920    0.341   15.535
  314.251    0.405   88.461    0.302   18.023
  314.555    0.400   66.270    0.309   18.022
  314.860    0.393   58.587    0.322   17.690
  315.165    0.386   61.780    0.335   17.689
  315.470    0.364   65.383    0.343   18.020
  315.775    0.359   64.144    0.317   18.358
  316.079    0.369   62.105    0.293   18.020
  316.384    0.380   61.270    0.259   16.729
  316.689    0.380   58.416    0.242   14.419
  316.994    0.363   59.594    0.239    9.583
  317.299    0.355   61.182    0.254    8.733
  317.603    0.357   63.977    0.303   10.132
  317.908    0.367   71.609    0.314   12.199
  318.213    0.394   76.412    0.312   15.820
  318.518    0.400   73.564    0.302   17.684
  318.823    0.350   67.899    0.326   18.352
  319.127    0.320   66.661    0.362   18.696
  319.432    0.327   69.856    0.345   18.351
  319.737    0.348   80.711    0.332   18.351
  320.042    0.381   76.249    0.306   17.356
  320.347    0.386   54.865    0.293   15.240
  320.652    0.365   51.610    0.281   13.136
  320.956    0.375   54.802    0.259   11.534
  321.261    0.373   58.003    0.291   10.909
  321.566    0.368   59.586    0.264   10.511
  321.871    0.374   62.378    0.274   11.321
  322.176    0.373   63.564    0.310   12.194
  322.480    0.383   61.114    0.351   15.237
  322.785    0.390   55.445    0.335   16.110
  323.090    0.401   47.362    0.309   15.236
  323.395    0.394   38.063    0.264   14.410
  323.700    0.392   37.230    0.272   13.378
  324.004    0.383   40.026    0.279   12.890
  324.309    0.381   42.413    0.294   12.653
  324.614    0.376   45.204    0.310   12.889
  324.919    0.377   50.822    0.310   12.191
  325.224    0.386   54.822    0.299   11.530
  325.528    0.394   59.629    0.278   10.507
  325.833    0.401   62.424    0.261    9.575
  326.138    0.405   66.422    0.238    8.253
  326.443    0.402   70.830    0.229    7.806
  326.748    0.394   76.042    0.226    7.114
  327.053    0.396   87.297    0.226    6.854
  327.357    0.389   93.311    0.233    6.728
  327.662    0.377   90.867    0.251    6.728
  327.967    0.360   89.632    0.275    7.246
  328.272    0.379   84.766    0.296    8.252
  328.577    0.390   83.530    0.282    8.888
  328.881    0.395   78.666    0.277    8.563
  329.186    0.406   70.177    0.282    8.406
  329.491    0.416   69.342    0.306    8.405
  329.796    0.415   72.943    0.327    8.887
  330.101    0.424   76.134    0.278    9.223
  330.405    0.422   76.512    0.278    9.933
  330.710    0.414   72.051    0.282   10.119
  331.015    0.439   67.186    0.302   10.309
  331.320    0.436   63.134    0.313   10.698
  331.625    0.397   61.090    0.320   11.311
  331.929    0.417   63.478    0.328   11.959
  332.234    0.402   65.468    0.318   12.880
  332.539    0.387   63.426    0.314   13.873
  332.844    0.382   64.602    0.329   15.798
  333.149    0.398   64.175    0.344   17.335
  333.454    0.382   56.088    0.378   19.741
  333.758    0.356   47.994    0.380   22.480
  334.063    0.383   42.733    0.381   23.767
  334.368    0.402   34.647    0.379   24.212
  334.673    0.422   30.187    0.379   24.665
  334.978    0.433   28.946    0.381   24.665
  335.282    0.423   28.925    0.380   24.664
  335.587    0.392   28.885    0.378   24.663
  335.892    0.412   29.668    0.379   24.662
  336.197    0.428   30.448    0.376   24.662
  336.502    0.412   30.822    0.373   25.123
  336.806    0.382   30.394    0.367   25.122
  337.111    0.386   30.370    0.364   25.593
  337.416    0.403   29.537    0.372   25.592
  337.721    0.393   28.702    0.372   25.120
  338.026    0.381   29.481    0.369   25.119
  338.330    0.391   29.453    0.361   25.119
  338.635    0.396   27.808    0.351   25.118
  338.940    0.401   29.389    0.349   24.655
  339.245    0.403   29.364    0.358   24.654
  339.550    0.392   27.728    0.361   24.654
  339.855    0.395   28.506    0.359   24.200
  340.159    0.390   32.910    0.354   24.199
  340.464    0.373   36.108    0.351   24.198
  340.769    0.379   37.691    0.346   23.315
  341.074    0.388   36.451    0.353   23.315
  341.379    0.393   33.604    0.363   22.885
  341.683    0.389   28.338    0.370   22.884
  341.988    0.378   28.308    0.360   22.884
  342.293    0.392   29.485    0.354   22.462
  342.598    0.402   29.467    0.356   22.462
  342.903    0.400   29.842    0.363   22.461
  343.207    0.415   31.421    0.361   22.460
  343.512    0.404   31.801    0.359   22.460
  343.817    0.409   28.941    0.360   22.459
  344.122    0.420   28.515    0.364   22.459
  344.427    0.420   29.698    0.366   22.457
  344.731    0.429   30.881    0.366   22.044
  345.036    0.431   28.836    0.364   22.043
  345.341    0.433   27.202    0.360   22.043
  345.646    0.421   25.964    0.357   22.042
  345.951    0.419   27.145    0.362   22.041
  346.256    0.411   28.727    0.367   21.635
  346.560    0.401   25.874    0.366   21.635
  346.865    0.403   25.049    0.368   21.634
  347.170    0.411   28.642    0.360   21.634
  347.475    0.377   31.037    0.357   21.633
  347.780    0.378   31.413    0.360   21.632
  348.084    0.413   26.550    0.364   21.632
  348.389    0.413   27.326    0.371   22.036
  348.694    0.415   28.098    0.367   22.036
  348.999    0.389   26.863    0.360   22.035
  349.304    0.394   25.229    0.358   21.629
  349.608    0.417   24.395    0.352   21.629
  349.913    0.395   26.785    0.356   21.230
  350.218    0.393   31.188    0.363   21.627
  350.523    0.396   32.367    0.361   21.627
  350.828    0.406   29.518    0.359   22.031
  351.132    0.423   27.478    0.360   22.031
  351.437    0.406   30.670    0.363   22.030
  351.742    0.405   31.859    0.366   22.030
  352.047    0.410   28.202    0.363   22.029
  352.352    0.413   28.576    0.359   22.028
  352.657    0.419   28.951    0.354   22.028
  352.961    0.397   26.508    0.352   21.622
  353.266    0.409   26.481    0.350   21.621
  353.571    0.423   30.482    0.350   21.223
  353.876    0.414   36.498    0.351   21.222
  354.181    0.412   37.274    0.352   21.222
  354.485    0.408   37.652    0.353   21.221
  354.790    0.398   33.995    0.354   21.220
  355.095    0.395   33.163    0.356   20.829
  355.400    0.409   32.327    0.355   20.829
  355.705    0.399   33.505    0.344   20.828
  356.009    0.382   32.271    0.338   20.444
  356.314    0.386   31.442    0.338   20.444
  356.619    0.393   37.862    0.334   20.443
  356.924    0.410   41.054    0.327   21.216
  357.229    0.409   38.207    0.316   23.716
  357.533    0.407   35.764    0.179   29.635
  357.838    0.378   30.901    0.178   30.755
  358.143    0.193   28.449    0.247   29.633
  358.448    0.181   33.664    0.312   25.542
  358.753    0.274   38.067    0.331   21.213
  359.058    0.340   40.054    0.333   20.822
  359.362    0.371   40.028    0.333   20.062
  359.667    0.390   39.191    0.336   18.283
  359.972    0.405   39.168    0.338   16.355
  360.277    0.402   41.957    0.318   10.670
  360.582    0.392   47.172    0.300    7.359
  360.886    0.411   56.410    0.307    6.462
  361.191    0.432   57.588    0.307    6.462
  361.496    0.453   52.327    0.312    6.960
  361.801    0.416   47.862    0.323    8.075
  362.106    0.412   47.434    0.325    9.026
  362.410    0.405   47.801    0.311    9.904
  362.715    0.432   48.181    0.313   10.278
  363.020    0.410   47.754    0.318   10.278
  363.325    0.396   44.505    0.306   10.470
  363.630    0.417   41.252    0.290   10.866
  363.934    0.407   45.253    0.308   10.866
  364.239    0.405   51.675    0.307   10.866
  364.544    0.403   42.780    0.305   10.665
  364.849    0.404   40.736    0.301    9.902
