~VERSION INFORMATION
 VERS.                 2.0:   CWLS LOG ASCII STANDARD -VERSION 2.0
 WRAP.                  NO:   ONE LINE PER DEPTH STEP
~WELL INFORMATION BLOCK
#MNEM.UNIT           DATA                    DESCRIPTION OF MNEMONIC
#---------    -------------------            -------------------------------
# Generated from Intellog Unique Number	CX_WELLS/WELL/2301
WELL.         10-35-089-09W4                 : Well_name    - WELL
LOC .         AA/10-35-089-09W4/0            : Location     - LOCATION
UWI .         AA/10-35-089-09W400            : Uwi          - UNIQUE WELL ID
ENTR.         JHS                            : Entered      - ENTERED BY
SRVC.         SCHLUMBERGER                   : Scn          - SERVICE COMPANY
STRT.F        50                             : top_depth    - START DEPTH
STOP.F        489.633                        : bot_depth    - STOP DEPTH
STEP.F        0.8202                         : increment    - STEP LENGTH
 NULL. -999.2500:NULL Value
~CURVE INFORMATION BLOCK
#MNEM UNIT       ERCB CURVE CODE    CURVE DESCRIPTION
#-----------   ------------------   ----------------------------------
DEPT.F        00 001 00 00         : DEPTH        - DEPTH
GR  .API      00 310 00 00         : GR           - GAMMA RAY
DPHI.V/V      00 890 00 00         : PHID         - DENSITY POROSITY (SANDSTONE)
ILD .OHMM     00 120 00 00         : RESD         - DEEP RESISTIVITY (DIL)
~PARAMETER INFORMATION
#MNEM.UNIT           DATA             DESCRIPTION OF MNEMONIC
#---------         -----------     ------------------------------
GL  .M        362.773              : gl           - GROUND LEVEL ELEVATION
EREF.M        363.992              : kb           - ELEVATION OF DEPTH REFERENCE
DATM.M        363.992              : datum        - DATUM ELEVATION
TDD .M        149.657              : tdd          - TOTAL DEPTH DRILLER
RUN .         ONE                  : Run          - RUN NUMBER
ENG .         BILL                 : Engineer     - RECORDING ENGINEER
WIT .         JIM                  : Witness      - WITNESSED BY
MUD .         GEL                  : Mud_type     - MUD TYPE
MATR.         SANDSTONE            : Logunit      - NEUTRON MATRIX
TMAX.F        140                  : BHT          - MAXIMUM RECORDED TEMPERATURE
BHTD.F        491.001              : BHTDEP       - MAXIMUM RECORDED TEMPERATURE
MATR.         1                    : LOGUNIT      - NEUTRON MATRIX
RMT .F        77                   : MDTP         - TEMPERATURE OF MUD
NEUT.         1                    : NEUTRON      - NEUTRON TYPE
RESI.         0                    : RESIST       - RESISTIVITY TYPE
RMC .OHMM     0.25                 : RMC          - RESISTIVITY OF MUD CAKE
RMF .OHMM     0.25                 : RMF          - RESISTIVITY OF MUD FILTRATE
SUFT.F        59                   : SUFT         - SURFACE TEMPERATURE
~A  DEPTH       GR     PHID     RESD
# ...
  227.986   65.408    0.296    5.125
  228.806   65.428    0.297    5.421
  229.626   65.838    0.297    5.736
  230.446   68.630    0.296    6.178
  231.266   68.258    0.294    6.778
  232.087   67.089    0.290    7.998
  232.907   71.069    0.283    7.866
  233.727   75.048    0.276    8.026
  234.547   78.636    0.268    8.805
  235.367   78.656    0.260    9.837
  236.188   77.883    0.265   10.594
  237.008   75.932    0.268   10.047
  237.828   75.546    0.274    8.387
  238.648   73.189    0.282    7.128
  239.469   70.437    0.281    6.400
  240.289   69.273    0.270    6.294
  241.109   71.674    0.257    6.304
  241.929   72.089    0.239    6.202
  242.749   70.124    0.244    6.214
  243.570   68.559    0.265    6.334
  244.390   70.167    0.276    6.463
  245.210   73.751    0.285    6.713
  246.030   74.166    0.296    7.232
  246.850   69.434    0.307    7.510
  247.671   64.701    0.299    7.522
  248.491   58.781    0.277    7.539
  249.311   58.800    0.284    8.119
  250.131   63.972    0.290    9.577
  250.951   61.220    0.300   13.808
  251.772   59.656    0.309   21.821
  252.592   61.259    0.316   19.947
  253.412   60.486    0.319   18.916
  254.232   52.982    0.327   19.642
  255.052   49.438    0.333   19.680
  255.873   45.893    0.345   19.711
  256.693   42.349    0.352   19.742
  257.513   40.388    0.357   18.728
  258.333   40.413    0.366   18.075
  259.154   39.645    0.373   17.782
  259.974   39.268    0.374   18.805
  260.794   38.892    0.377   17.195
  261.614   37.723    0.378   13.105
  262.434   36.154    0.370   10.545
  263.255   32.614    0.362   13.146
  264.075   33.426    0.349   13.409
  264.895   35.029    0.327   13.426
  265.715   35.444    0.311   19.370
  266.535   35.073    0.306   23.697
  267.356   36.285    0.306   30.077
  268.176   39.072    0.307   26.056
  268.996   41.467    0.308   24.701
  269.816   41.486    0.309   28.096
  270.636   39.135    0.311   26.661
  271.457   38.362    0.312   29.240
  272.277   37.590    0.314   27.720
  273.097   36.426    0.314   24.440
  273.917   35.257    0.316   22.341
  274.738   34.480    0.319   20.804
  275.558   34.103    0.321   22.014
  276.378   33.727    0.323   23.280
  277.198   33.751    0.323   24.634
  278.018   33.380    0.323   29.060
  278.839   33.394    0.319   27.077
  279.659   34.206    0.312   24.312
  280.479   36.205    0.304   23.465
  281.299   40.986    0.291   25.286
  282.119   46.148    0.275   23.122
  282.940   59.636    0.256   28.807
  283.760   64.011    0.239   36.562
  284.580   67.199    0.233   38.003
  285.400   73.559    0.243   36.678
  286.220   71.202    0.288   32.943
  287.041   60.530    0.319   41.044
  287.861   45.893    0.345   59.233
  288.681   40.765    0.378   66.137
  289.501   31.677    0.414   76.634
  290.322   30.508    0.415   92.120
  291.142   31.334    0.413  106.741
  291.962   32.136    0.409  121.411
  292.782   34.135    0.392  143.267
  293.602   34.550    0.373  175.329
  294.423   35.362    0.355  230.785
  295.243   36.975    0.344  653.073
  296.063   37.390    0.337 1150.880
  296.883   35.821    0.342 1052.350
  297.703   33.465    0.345  878.768
  298.524   32.692    0.349 1075.090
  299.344   32.716    0.347 1116.750
  300.164   33.132    0.320  529.848
  300.984   40.279    0.272  301.618
  301.804   62.082    0.252  242.779
  302.625   72.793    0.244  376.618
  303.445   83.905    0.275  320.176
  304.265   80.762    0.303  292.673
  305.085   74.837    0.310  309.798
  305.906   64.956    0.337  333.530
  306.726   53.888    0.375  365.912
  307.546   44.404    0.392  322.616
  308.366   37.296    0.357  306.040
  309.186   33.751    0.348  323.741
  310.007   32.979    0.355  285.345
  310.827   33.790    0.363  191.371
  311.647   35.393    0.393  135.598
  312.467   39.774    0.424   87.687
  313.287   40.986    0.422   49.031
  314.108   41.396    0.394   37.379
  314.928   46.168    0.318   32.946
  315.748   56.884    0.272   29.572
  316.568   66.011    0.243   29.084
  317.388   77.519    0.227   59.295
  318.209   79.914    0.223  137.325
  319.029   77.558    0.250  367.818
  319.849   67.677    0.296  806.554
  320.669   51.857    0.316 1228.990
  321.490   45.541    0.306 1123.070
  322.310   38.433    0.279  651.271
  323.130   38.056    0.256  428.901
  323.950   51.143    0.241  641.744
  324.770   70.175    0.265  535.382
  325.591   54.751    0.286  293.958
  326.411   49.627    0.257  289.109
  327.231   57.957    0.246  347.423
  328.051   59.170    0.252  290.025
  328.871   48.097    0.278  194.510
  329.692   48.121    0.294   87.378
  330.512   51.308    0.288   60.795
  331.332   44.200    0.282   40.799
  332.152   41.056    0.290   49.013
  332.972   45.823    0.286   99.892
  333.793   56.143    0.278  223.070
  334.613   52.999    0.274  315.819
  335.433   51.034    0.277  352.851
  336.253   47.890    0.283  284.018
  337.073   46.717    0.287  129.933
  337.894   47.929    0.281   71.341
  338.714   50.324    0.274  162.242
  339.534   61.035    0.266  209.770
  340.354   54.323    0.293  195.276
  341.175   46.819    0.321  146.090
  341.995   40.111    0.336   65.648
  342.815   37.354    0.352   36.033
  343.635   35.794    0.357   26.479
  344.455   38.982    0.356   29.584
  345.276   42.961    0.346   42.668
  346.096   49.712    0.325   60.390
  346.916   54.092    0.311  132.423
  347.736   57.285    0.291  216.895
  348.556   58.883    0.274  130.445
  349.377   60.882    0.268   70.307
  350.197   63.283    0.278   78.551
  351.017   53.002    0.310  119.655
  351.837   38.374    0.339   40.888
  352.657   39.181    0.347   72.054
  353.478   41.977    0.299  107.743
  354.298   44.768    0.283  227.807
  355.118   47.956    0.277  122.784
  355.938   49.163    0.298   28.629
  356.759   44.431    0.318   33.782
  357.579   40.099    0.325   40.609
  358.399   38.931    0.334   45.357
  359.219   39.742    0.341   56.528
  360.039   40.553    0.339   58.718
  360.860   40.187    0.333   27.877
  361.680   40.196    0.333   31.136
  362.500   40.225    0.336   37.416
  363.320   39.849    0.339   52.017
  364.140   38.675    0.338   72.315
  364.961   35.923    0.338   64.930
  365.781   34.358    0.339   31.950
  366.601   35.170    0.339   27.162
  367.421   38.367    0.338   24.836
  368.241   39.574    0.338   24.434
  369.062   39.589    0.338   33.346
  369.882   38.816    0.339   49.877
  370.702   37.252    0.340   69.341
  371.522   35.291    0.341   77.472
  372.343   33.341    0.343   49.195
  373.163   34.548    0.344   20.182
  373.983   35.755    0.344   17.152
  374.803   36.171    0.343   16.570
  375.623   36.190    0.343   16.591
  376.444   35.027    0.345   16.322
  377.264   34.259    0.346   20.710
  378.084   33.873    0.348   58.604
  378.904   33.105    0.350  109.075
  379.724   33.120    0.350   80.129
  380.545   33.535    0.348   58.883
  381.365   36.341    0.341   46.540
  382.185   36.351    0.332   60.155
  383.005   37.558    0.327   60.269
  383.825   39.953    0.324   42.691
  384.646   44.334    0.288   37.628
  385.466   49.501    0.267   43.614
  386.286   56.648    0.258   50.535
  387.106   54.291    0.264   44.556
  387.927   44.416    0.281   35.206
  388.747   38.491    0.313   30.489
  389.567   30.991    0.327   31.089
  390.387   31.011    0.336   31.711
  391.207   30.238    0.335   31.188
  392.028   28.674    0.334   30.119
  392.848   28.297    0.332   28.065
  393.668   29.109    0.334   28.608
  394.488   29.920    0.335   34.378
  395.308   30.340    0.336   36.367
  396.129   30.761    0.341   42.913
  396.949   30.379    0.343   56.486
  397.769   30.003    0.348   63.110
  398.589   28.834    0.350   78.653
  399.409   28.067    0.347   31.103
  400.230   27.294    0.338   12.078
  401.050   26.917    0.341    9.900
  401.870   27.333    0.346    8.574
  402.690   29.733    0.345    8.743
  403.510   30.148    0.338    9.248
  404.331   28.584    0.323   10.716
  405.151   27.811    0.320   10.169
