~VERSION INFORMATION
 VERS.                 2.0:   CWLS LOG ASCII STANDARD -VERSION 2.0
 WRAP.                  NO:   ONE LINE PER DEPTH STEP
~WELL INFORMATION BLOCK
#MNEM.UNIT           DATA                    DESCRIPTION OF MNEMONIC
#---------    -------------------            -------------------------------
# Generated from Intellog Unique Number	CW_79_81/WELL/924
WELL.         12-29-079-22W4                 : Well_name    - WELL
LOC .         AA/12-29-079-22W4/0            : Location     - LOCATION
UWI .         AA/12-29-079-22W4/0            : Uwi          - UNIQUE WELL ID
ENTR.         MAX                            : Entered      - ENTERED BY
SRVC.         SCHLUMBERGER                   : Scn          - SERVICE COMPANY
STRT.M        215                            : top_depth    - START DEPTH
STOP.M        450                            : bot_depth    - STOP DEPTH
STEP.M        0.25                           : increment    - STEP LENGTH
 NULL. -999.2500:NULL Value
~CURVE INFORMATION BLOCK
#MNEM UNIT       ERCB CURVE CODE    CURVE DESCRIPTION
#-----------   ------------------   ----------------------------------
DEPT.M        00 001 00 00         : DEPTH        - DEPTH
ILD .OHMM     00 120 00 00         : RESD         - DEEP RESISTIVITY (DIL)
NPHI.V/V      00 330 00 00         : PHIN         - NEUTRON POROSITY (SANDSTONE)
DPHI.V/V      00 890 00 00         : PHID         - DENSITY POROSITY (SANDSTONE)
CALI.MM       00 280 01 00         : CAL          - CALIPER
GR  .API      00 310 00 00         : GR           - GAMMA RAY
~PARAMETER INFORMATION
#MNEM.UNIT           DATA             DESCRIPTION OF MNEMONIC
#---------         -----------     ------------------------------
GL  .M        568.6                : gl           - GROUND LEVEL ELEVATION
EREF.M        573.2                : kb           - ELEVATION OF DEPTH REFERENCE
DATM.M        568.6                : datum        - DATUM ELEVATION
TDD .M        458                  : tdd          - TOTAL DEPTH DRILLER
RUN .         ONE                  : Run          - RUN NUMBER
ENG .         BILL                 : Engineer     - RECORDING ENGINEER
WIT .         JIM                  : Witness      - WITNESSED BY
MUD .         GEL                  : Mud_type     - MUD TYPE
MATR.         SANDSTONE            : Logunit      - NEUTRON MATRIX
TMAX.C        21                   : BHT          - MAXIMUM RECORDED TEMPERATURE
BHTD.M        458                  : BHTDEP       - MAXIMUM RECORDED TEMPERATURE
RMT .C        14.4                 : MDTP         - TEMPERATURE OF MUD
MUDD.KG/M     1070                 : MWT          - MUD DENSITY
NEUT.         1                    : NEUTRON      - NEUTRON TYPE
RESI.         0                    : RESIST       - RESISTIVITY TYPE
RM  .OHMM     0.89                 : RM           - RESISTIVITY OF MUD
RMC .OHMM     0                    : RMC          - RESISTIVITY OF MUD CAKE
RMF .OHMM     0.77                 : RMF          - RESISTIVITY OF MUD FILTRATE
SUFT.C        -20                  : SUFT         - SURFACE TEMPERATURE
~A  DEPTH     RESD     PHIN     PHID      CAL       GR
# ...
  397.500   48.732    0.399    0.256  253.542   44.714
  397.750   44.093    0.408    0.275  254.077   47.145
  398.000   39.532    0.408    0.286  255.135   55.572
  398.250   39.203    0.418    0.261  255.170   59.500
  398.500   38.168    0.418    0.260  256.723   58.632
  398.750   32.387    0.410    0.268  257.275   57.760
  399.000   31.247    0.409    0.271  257.816   58.088
  399.250   29.057    0.412    0.249  257.868   60.215
  399.500   21.890    0.407    0.166  258.421   65.043
  399.750   20.172    0.390    0.097  257.956   72.874
  400.000   16.502    0.375    0.144  255.508   80.101
  400.250   12.432    0.401    0.179  254.049   86.436
  400.500   10.649    0.408    0.182  254.602   84.061
  400.750   10.461    0.414    0.182  254.654   76.589
  401.000   12.461    0.397    0.264  254.201   68.214
  401.250   12.933    0.372    0.293  253.742   57.743
  401.500   17.839    0.334    0.282  252.794   51.475
  401.750   21.244    0.327    0.250  252.347   50.903
  402.000   26.974    0.314    0.211  252.893   57.830
  402.250   36.860    0.298    0.131  252.928   64.761
  402.500   51.768    0.298    0.117  252.981   71.385
  402.750   42.350    0.345    0.096  254.033   82.816
  403.000   23.798    0.368    0.110  254.580   88.247
  403.250   17.125    0.380    0.172  254.620   86.772
  403.500   21.352    0.372    0.188  255.179   64.601
  403.750   25.899    0.347    0.240  255.714   50.527
  404.000   45.322    0.303    0.299  255.760   44.555
  404.250   63.072    0.299    0.322  255.318   42.490
  404.500   81.579    0.300    0.306  254.865   42.511
  404.750   91.962    0.311    0.298  254.406   41.643
  405.000   99.035    0.339    0.281  254.464   40.771
  405.250   95.549    0.367    0.271  254.499   41.699
  405.500   87.241    0.373    0.270  254.046   42.926
  405.750   78.209    0.373    0.265  254.098   44.761
  406.000   70.118    0.391    0.262  254.145   46.582
  406.250   65.211    0.399    0.262  254.692   50.813
  406.500   60.658    0.401    0.261  254.738   51.745
  406.750   58.512    0.396    0.253  254.291   52.976
  407.000   55.428    0.404    0.243  253.831   54.501
  407.250   52.023    0.403    0.239  253.378   57.528
  407.500   49.272    0.397    0.233  252.437   59.963
  407.750   46.250    0.382    0.224  251.972   60.284
  408.000   44.614    0.374    0.206  251.524   60.919
  408.250   43.436    0.390    0.198  251.571   60.940
  408.500   42.297    0.391    0.211  251.117   61.268
  408.750   42.324    0.385    0.231  251.170   61.899
  409.000   43.935    0.376    0.229  251.710   63.134
  409.250   44.783    0.393    0.214  253.757   64.655
  409.500   44.812    0.391    0.218  257.321   64.687
  409.750   44.439    0.366    0.220  257.373   65.011
  410.000   44.471    0.364    0.195  257.408   66.239
  410.250   33.505    0.396    0.158  257.449   68.370
  410.500   32.914    0.443    0.128  256.496   68.698
  410.750   31.180    0.429    0.143  256.542   66.626
  411.000   30.077    0.406    0.176  256.095   66.058
  411.250   29.560    0.378    0.199  256.141   67.586
  411.500   29.304    0.370    0.201  256.200   70.013
  411.750   27.757    0.404    0.188  256.241   73.945
  412.000   13.227    0.417    0.182  255.287   78.169
  412.250   11.022    0.422    0.174  254.828   84.196
  412.500   11.130    0.426    0.175  254.375   83.924
  412.750   11.345    0.444    0.181  254.421   80.353
  413.000   11.778    0.460    0.205  253.980   74.681
  413.250   12.453    0.490    0.232  253.532   69.909
  413.500   13.043    0.571    0.325  253.067   71.144
  413.750   13.542    0.597    0.364  252.620   69.672
  414.000   12.944    0.603    0.382  252.660   71.800
  414.250    9.661    0.587    0.353  252.219   79.024
  414.500    9.848    0.557    0.303  252.265   82.055
  414.750   10.901    0.533    0.290  251.812   81.783
  415.000   11.315    0.503    0.282  251.353   83.318
  415.250   11.427    0.487    0.282  251.411   86.339
  415.500   11.126    0.480    0.265  251.446   92.070
  415.750    8.305    0.475    0.227  251.504   96.301
  416.000    7.446    0.468    0.154  251.051   91.526
  416.250    9.369    0.442    0.142  251.086   80.455
  416.500   10.856    0.451    0.177  252.138   80.486
  416.750   13.290    0.465    0.231  254.185   92.810
  417.000   13.922    0.451    0.236  256.231   95.245
  417.250   14.191    0.416    0.210  255.778   88.066
  417.500   12.153    0.286    0.220  255.325   74.599
  417.750   15.015    0.233    0.234  254.877   59.624
  418.000   27.253    0.211    0.258  254.930   48.549
  418.250   46.826    0.211    0.386  255.970   44.678
  418.500   61.128    0.220    0.381  256.023   43.509
  418.750   65.218    0.211    0.385  256.075   43.534
  419.000   65.265    0.190    0.394  255.122   45.669
  419.250   51.944    0.190    0.391  254.669   47.493
  419.500   42.107    0.228    0.376  254.709   54.720
  419.750   34.450    0.297    0.355  254.250   61.955
  420.000   28.177    0.379    0.316  253.309   64.979
  420.250   25.500    0.381    0.268  253.349   69.810
  420.500   25.990    0.382    0.240  253.408   73.741
  420.750   27.225    0.400    0.232  253.448   69.266
  421.000   29.586    0.428    0.269  253.489   60.891
  421.250   31.858    0.434    0.285  253.542   56.430
  421.500   35.261    0.424    0.289  253.088   55.851
  421.750   38.675    0.429    0.265  253.141   56.779
  422.000   35.315    0.430    0.242  253.193   61.610
  422.250   26.362    0.417    0.218  253.240   67.034
  422.500   22.169    0.409    0.188  253.281   71.869
  422.750   20.241    0.390    0.185  253.327   76.693
  423.000   18.484    0.392    0.206  253.368   77.921
  423.250   16.725    0.433    0.229  253.915   71.653
  423.500   15.840    0.439    0.256  253.973   76.477
  423.750   16.295    0.459    0.282  254.025   79.208
  424.000   20.131    0.474    0.282  253.560   75.336
  424.250   35.225    0.459    0.262  253.619   66.965
  424.500   84.939    0.440    0.235  253.154   49.891
  424.750  119.293    0.401    0.226  252.200   28.617
  425.000  170.670    0.393    0.227  250.753   20.845
  425.250  192.375    0.381    0.207  250.794   16.977
  425.500  246.554    0.348    0.207  251.852   16.405
  425.750  290.986    0.365    0.217  253.393   16.433
  426.000  291.170    0.377    0.227  257.445   16.461
  426.250  278.336    0.376    0.239  257.991   17.092
  426.500  569.144    0.426    0.238  258.038   20.420
  426.750  529.310    0.434    0.173  257.585   23.744
  427.000   50.761    0.430    0.160  257.631   28.575
  427.250   65.655    0.418    0.139  257.178   26.507
  427.500  108.748    0.413    0.146  256.236   23.832
  427.750  185.111    0.427    0.161  256.271   18.160
  428.000  626.506    0.458    0.156  256.824   15.792
  428.250  817.724    0.444    0.148  256.865   14.920
  428.500 1270.320    0.406    0.131  257.411   13.151
  428.750 1499.110    0.385    0.140  256.964   11.672
  429.000 1818.570    0.415    0.134  256.516   13.807
  429.250 1976.270    0.411    0.119  256.569   22.238
  429.500 2051.700    0.406    0.114  256.609   33.058
  429.750 1979.310    0.399    0.117  256.650   42.089
  430.000 1091.860    0.425    0.132  256.703   51.117
  430.250   93.809    0.434    0.154  256.749   55.048
  430.500   75.356    0.432    0.210  256.302   53.886
  430.750   64.530    0.417    0.206  256.342   48.208
  431.000   56.805    0.414    0.181  256.389   45.839
  431.250   50.004    0.407    0.175  256.947   44.060
  431.500   43.218    0.382    0.159  256.982   43.788
  431.750   34.084    0.361    0.123  257.041   45.620
  432.000   30.842    0.351    0.101  257.087   47.748
  432.250   30.867    0.368    0.090  257.134   53.175
  432.500   31.747    0.393    0.184  257.186   58.603
  432.750   33.256    0.431    0.218  257.221   56.231
  433.000   36.811    0.417    0.192  257.280   49.663
  433.250   44.248    0.411    0.254  257.280   48.787
  433.500   54.665    0.425    0.311  257.861   49.119
  433.750   66.302    0.451    0.332  257.908   47.947
