~VERSION INFORMATION
 VERS.                 2.0:   CWLS LOG ASCII STANDARD -VERSION 2.0
 WRAP.                  NO:   ONE LINE PER DEPTH STEP
~WELL INFORMATION BLOCK
#MNEM.UNIT           DATA                    DESCRIPTION OF MNEMONIC
#---------    -------------------            -------------------------------
# Generated from Intellog Unique Number	CN_91_93/WELL/2636
WELL.         10-08-091-17W4                 : Well_name    - WELL
LOC .         AA/10-08-091-17W4/0            : Location     - LOCATION
UWI .         AA/10-08-091-17W400            : Uwi          - UNIQUE WELL ID
ENTR.         JOETTE                         : Entered      - ENTERED BY
SRVC.         SCHLUMBERGER                   : Scn          - SERVICE COMPANY
DATE.         02/05/92                       : Date         - LOG DATE
STRT.M        100                            : top_depth    - START DEPTH
STOP.M        240                            : bot_depth    - STOP DEPTH
STEP.M        0.25                           : increment    - STEP LENGTH
 NULL. -999.2500:NULL Value
~CURVE INFORMATION BLOCK
#MNEM UNIT       ERCB CURVE CODE    CURVE DESCRIPTION
#-----------   ------------------   ----------------------------------
DEPT.M        00 001 00 00         : DEPTH        - DEPTH
GR  .API      00 310 00 00         : GR           - GAMMA RAY
CALI.MM       00 280 01 00         : CAL          - CALIPER
NPHI.V/V      00 330 00 00         : PHIN         - NEUTRON POROSITY (SANDSTONE)
DPHI.V/V      00 890 00 00         : PHID         - DENSITY POROSITY (SANDSTONE)
ILD .OHMM     00 120 00 00         : RESD         - DEEP RESISTIVITY (DIL)
~PARAMETER INFORMATION
#MNEM.UNIT           DATA             DESCRIPTION OF MNEMONIC
#---------         -----------     ------------------------------
GL  .M        505.57               : gl           - GROUND LEVEL ELEVATION
EREF.M        509.22               : kb           - ELEVATION OF DEPTH REFERENCE
DATM.M        509.22               : datum        - DATUM ELEVATION
TDD .M        246                  : tdd          - TOTAL DEPTH DRILLER
RUN .         ONE                  : Run          - RUN NUMBER
ENG .         BILL                 : Engineer     - RECORDING ENGINEER
WIT .         JIM                  : Witness      - WITNESSED BY
MUD .         GEL                  : Mud_type     - MUD TYPE
MATR.         SANDSTONE            : Logunit      - NEUTRON MATRIX
TMAX.C        25                   : BHT          - MAXIMUM RECORDED TEMPERATURE
BHTD.M        246                  : BHTDEP       - MAXIMUM RECORDED TEMPERATURE
RMT .C        24                   : MDTP         - TEMPERATURE OF MUD
MUDD.KG/M     1150                 : MWT          - MUD DENSITY
NEUT.         1                    : NEUTRON      - NEUTRON TYPE
RESI.         0                    : RESIST       - RESISTIVITY TYPE
RM  .OHMM     9.7                  : RM           - RESISTIVITY OF MUD
RMC .OHMM     2.6                  : RMC          - RESISTIVITY OF MUD CAKE
RMF .OHMM     13.4                 : RMF          - RESISTIVITY OF MUD FILTRATE
SUFT.C        4                    : SUFT         - SURFACE TEMPERATURE
~A  DEPTH       GR      CAL     PHIN     PHID     RESD
  100.000   40.743  193.884    0.432    0.366   56.920
  100.250   35.454  190.485    0.411    0.347   54.005
  100.500   30.466  185.118    0.402    0.353   52.161
  100.750   32.556  179.271    0.402    0.361   51.353
  101.000   35.535  178.819    0.408    0.358   50.541
  101.250   37.930  178.366    0.411    0.373   47.937
  101.500   39.134  178.428    0.406    0.386   45.875
  101.750   40.932  179.937    0.413    0.389   43.498
  102.000   45.977  184.902    0.457    0.393   40.515
  102.250   51.025  192.326    0.487    0.408   37.377
  102.500   54.004  203.691    0.507    0.359   36.102
  102.750   55.211  246.541    0.528    0.389   38.969
  103.000   54.946  278.076    0.506    0.363   43.273
  103.250   53.199  290.420    0.493    0.387   42.971
  103.500   54.118  303.753    0.485    0.387   41.902
  103.750   57.982  298.386    0.461    0.354   38.657
  104.000   58.892  246.280    0.498    0.353   37.696
  104.250   54.786  209.915    0.486    0.374   40.329
  104.500   50.090  200.619    0.468    0.385   46.013
  104.750   44.214  189.349    0.457    0.384   47.425
  105.000   41.001  184.961    0.420    0.374   48.897
  105.250   40.139  182.557    0.420    0.377   50.399
  105.500   42.229  184.078    0.448    0.381   48.709
  105.750   46.982  188.047    0.441    0.384   45.354
  106.000   50.849  200.402    0.480    0.393   41.444
  106.250   53.234  205.366    0.505    0.375   39.674
  106.500   52.671  204.914    0.520    0.401   40.516
  106.750   48.861  199.055    0.446    0.377   41.773
  107.000   42.397  201.068    0.458    0.367   40.748
  107.250   39.768  199.151    0.423    0.373   41.217
  107.500   38.611  191.319    0.400    0.376   44.491
  107.750   37.165  189.894    0.408    0.366   46.712
  108.000   40.738  196.334    0.412    0.369   48.624
  108.250   45.782  192.443    0.417    0.374   48.732
  108.500   47.282  191.996    0.440    0.368   47.961
  108.750   40.815  194.015    0.444    0.384   46.339
  109.000   41.728  196.027    0.444    0.375   45.186
  109.250   42.647  188.207    0.437    0.381   45.707
  109.500   39.719  187.274    0.423    0.383   46.263
  109.750   36.499  189.767    0.423    0.380   45.112
  110.000   39.773  195.721    0.430    0.374   43.600
  110.250   45.703  200.188    0.432    0.368   42.502
  110.500   48.987  206.147    0.428    0.362   41.843
  110.750   47.239  207.668    0.448    0.351   42.325
  111.000   64.386  207.719    0.457    0.361   44.865
  111.250   43.748  207.752    0.467    0.384   46.672
  111.500   39.941  207.305    0.437    0.393   44.664
  111.750   39.670  206.366    0.425    0.375   42.377
  112.000   40.582  202.476    0.439    0.358   45.336
  112.250   41.203  199.575    0.421    0.366   48.472
  112.500   38.275  199.139    0.428    0.349   46.401
  112.750   37.135  199.665    0.419    0.349   45.248
  113.000   38.634  201.677    0.401    0.355   47.100
  113.250   40.130  205.664    0.403    0.337   47.672
  113.500   42.813  208.168    0.389    0.327   45.174
  113.750   45.202  210.673    0.390    0.328   42.062
  114.000   48.774  216.129    0.418    0.336   39.529
  114.250   52.642  224.537    0.454    0.365   37.840
  114.500   52.967  234.427    0.474    0.366   37.254
  114.750   50.626  242.835    0.456    0.348   37.683
  115.000   51.834  250.756    0.451    0.365   39.589
  115.250   59.247  256.705    0.445    0.351   37.204
  115.500   63.403  264.626    0.454    0.331   35.946
  115.750   63.134  272.537    0.483    0.364   33.459
  116.000   59.029  281.454    0.491    0.373   39.637
  116.250   56.990  286.407    0.486    0.361   40.841
  116.500   62.038  289.901    0.458    0.341   40.568
  116.750   66.197  292.400    0.443    0.323   37.083
  117.000   66.818  293.932    0.461    0.317   35.161
  117.250   56.806  294.469    0.471    0.330   35.577
  117.500   49.165  294.514    0.466    0.367   38.062
  117.750   46.234  294.067    0.483    0.364   39.595
  118.000   43.903  292.150    0.516    0.383   39.708
  118.250   48.649  291.200    0.507    0.404   39.430
  118.500   48.975  290.753    0.470    0.389   39.430
  118.750   47.526  293.269    0.501    0.380   39.643
  119.000   44.014  300.195    0.541    0.387   40.873
  119.250   41.089  330.746    0.605    0.375   40.977
  119.500   42.005  360.806    0.654    0.381   37.456
  119.750   43.797  368.722    0.646    0.390   35.200
  120.000   43.797  377.622    0.627    0.388   36.281
  120.250   45.625  387.019    0.612    0.405   36.384
  120.500   48.902  393.465    0.623    0.404   35.131
  120.750   49.811  396.467    0.659    0.411   32.410
  121.000   47.181  396.009    0.657    0.452   30.468
  121.250   50.751  387.199    0.633    0.502   31.105
  121.500   56.386  326.237    0.519    0.497   38.222
  121.750   61.732  267.243    0.384    0.208   40.879
  122.000   61.176  254.509    0.407    0.241   39.145
  122.250   60.019  253.066    0.395    0.233   43.056
  122.500   58.865  255.577    0.363    0.215   46.907
  122.750   58.593  259.060    0.376    0.219   47.477
  123.000   60.982  259.597    0.390    0.216   47.568
  123.250   65.436  250.786    0.404    0.268   49.990
  123.500   69.300  241.976    0.363    0.213   50.550
  123.750   71.394  234.150    0.363    0.208   49.308
  124.000   72.014  230.752    0.380    0.183   47.202
  124.250   74.107  236.214    0.394    0.198   42.736
  124.500   72.662  231.345    0.404    0.148   35.948
  124.750   71.210  226.962    0.413    0.112   29.393
  125.000   73.893  228.969    0.427    0.136   24.272
  125.250   78.351  230.009    0.451    0.243   20.997
  125.500   75.131  230.054    0.486    0.274   20.274
  125.750   69.251  227.136    0.418    0.326   22.926
  126.000   65.146  223.246    0.412    0.321   28.172
  126.250   61.634  224.772    0.419    0.345   35.591
  126.500   64.908  230.720    0.415    0.380   44.141
  126.750   71.429  227.814    0.413    0.388   41.881
  127.000   79.724  221.961    0.441    0.334   28.732
  127.250   88.311  218.562    0.525    0.283   21.625
  127.500   93.359  217.618    0.554    0.272   17.525
  127.750   87.184  213.727    0.544    0.271   14.742
  128.000   78.356  208.864    0.520    0.260   15.912
  128.250   69.823  205.951    0.496    0.267   19.025
  128.500   65.718  205.013    0.488    0.267   21.700
  128.750   67.224  204.560    0.475    0.275   25.945
  129.000   69.018  205.108    0.437    0.286   30.163
  129.250   73.184  206.623    0.425    0.268   29.676
  129.500   79.702  210.609    0.443    0.228   25.420
  129.750   87.111  214.092    0.503    0.199   17.131
  130.000   94.816  220.046    0.524    0.205   14.137
  130.250   93.957  226.978    0.518    0.266   11.460
  130.500   91.331  237.846    0.512    0.269   10.379
  130.750   91.056  244.292    0.513    0.247   10.705
  131.000   94.632  248.764    0.531    0.240   11.336
  131.250   94.364  251.761    0.550    0.219   11.264
  131.500   92.620  253.287    0.535    0.208   10.780
  131.750   93.532  254.316    0.562    0.197   10.612
  132.000   94.146  254.316    0.575    0.237   11.142
  132.250   96.830  254.429    0.554    0.229   10.973
  132.500   94.790  254.451    0.546    0.233   10.796
  132.750   90.390  253.512    0.546    0.229   10.720
  133.000   84.513  252.081    0.504    0.187   12.345
  133.250   80.710  249.678    0.475    0.172   17.430
  133.500   82.216  248.236    0.454    0.221   23.061
  133.750   84.601  247.302    0.469    0.233   30.511
  134.000   86.691  249.321    0.469    0.267   38.547
  134.250   85.245  250.350    0.459    0.219   40.860
  134.500   89.106  251.378    0.457    0.164   37.684
  134.750  101.534  252.402    0.481    0.162   22.301
  135.000  108.651  252.939    0.508    0.237   10.671
  135.250  109.564  253.017    0.561    0.234    9.141
  135.500  112.838  252.548    0.552    0.227    8.057
  135.750  116.702  251.117    0.528    0.214    7.780
  136.000  118.496  251.162    0.519    0.207    7.659
  136.250  116.756  251.162    0.542    0.205    7.606
