~VERSION INFORMATION
 VERS.                 2.0:   CWLS LOG ASCII STANDARD -VERSION 2.0
 WRAP.                  NO:   ONE LINE PER DEPTH STEP
~WELL INFORMATION BLOCK
#MNEM.UNIT           DATA                    DESCRIPTION OF MNEMONIC
#---------    -------------------            -------------------------------
# Generated from Intellog Unique Number	CN_94_101/WELL/2560
WELL.         PETRO-CANADA EXPLORATION INC.  : Well_name    - WELL
LOC .         AA/10-11-094-16W4/0            : Location     - LOCATION
UWI .         AA/10-11-094-16W400            : Uwi          - UNIQUE WELL ID
ENTR.         JOETTE                         : Entered      - ENTERED BY
SRVC.         SCHLUMBERGER                   : Scn          - SERVICE COMPANY
DATE.         05/17/92                       : Date         - LOG DATE
STRT.F        300                            : top_depth    - START DEPTH
STOP.F        820.013                        : bot_depth    - STOP DEPTH
STEP.F        0.82                           : increment    - STEP LENGTH
 NULL. -999.2500:NULL Value
~CURVE INFORMATION BLOCK
#MNEM UNIT       ERCB CURVE CODE    CURVE DESCRIPTION
#-----------   ------------------   ----------------------------------
DEPT.F        00 001 00 00         : DEPTH        - DEPTH
CALI.IN       00 280 01 00         : CAL          - CALIPER
GR  .API      00 310 00 00         : GR           - GAMMA RAY
NPHI.V/V      00 330 00 00         : PHIN         - NEUTRON POROSITY (SANDSTONE)
DPHI.V/V      00 890 00 00         : PHID         - DENSITY POROSITY (SANDSTONE)
ILD .OHMM     00 120 00 00         : RESD         - DEEP RESISTIVITY (DIL)
~PARAMETER INFORMATION
#MNEM.UNIT           DATA             DESCRIPTION OF MNEMONIC
#---------         -----------     ------------------------------
GL  .F        1644.4               : gl           - GROUND LEVEL ELEVATION
EREF.F        1655.8               : kb           - ELEVATION OF DEPTH REFERENCE
DATM.F        1655.8               : datum        - DATUM ELEVATION
TDD .F        859                  : tdd          - TOTAL DEPTH DRILLER
RUN .         ONE                  : Run          - RUN NUMBER
ENG .         BILL                 : Engineer     - RECORDING ENGINEER
WIT .         JIM                  : Witness      - WITNESSED BY
MUD .         GEL                  : Mud_type     - MUD TYPE
MATR.         SANDSTONE            : Logunit      - NEUTRON MATRIX
TMAX.F        84                   : BHT          - MAXIMUM RECORDED TEMPERATURE
BHTD.F        859                  : BHTDEP       - MAXIMUM RECORDED TEMPERATURE
RMT .F        75                   : MDTP         - TEMPERATURE OF MUD
MUDD.LB/G     3                    : MWT          - MUD DENSITY
NEUT.         1                    : NEUTRON      - NEUTRON TYPE
RESI.         0                    : RESIST       - RESISTIVITY TYPE
RM  .OHMM     0.84                 : RM           - RESISTIVITY OF MUD
RMC .OHMM     0.84                 : RMC          - RESISTIVITY OF MUD CAKE
RMF .OHMM     0.7                  : RMF          - RESISTIVITY OF MUD FILTRATE
SUFT.F        39.2                 : SUFT         - SURFACE TEMPERATURE
~A  DEPTH      CAL       GR     PHIN     PHID     RESD
# ...
  659.252    6.276   45.664    0.455    0.281   50.932
  660.072    6.316   45.098    0.461    0.286   52.883
  660.892    6.239   45.111    0.462    0.287   59.192
  661.713    6.083   46.308    0.457    0.285   62.622
  662.533    6.045   48.688    0.455    0.281   70.093
  663.353    6.046   50.466    0.443    0.276   71.422
  664.173    6.165   51.663    0.418    0.274   72.780
  664.993    6.324   49.913    0.423    0.282   74.163
  665.814    6.403   47.578    0.435    0.285   77.006
  666.634    6.562   47.007    0.440    0.281   72.795
  667.454    6.642   48.204    0.446    0.275   65.046
  668.274    6.683   48.811    0.451    0.286   55.981
  669.094    6.683   47.061    0.451    0.288   48.180
  669.915    6.685   45.312    0.453    0.294   47.287
  670.735    6.686   44.151    0.452    0.292   51.942
  671.555    6.687   43.575    0.446    0.280   59.239
  672.375    6.727   41.236    0.437    0.294   66.304
  673.196    6.729   37.133    0.432    0.302   72.831
  674.016    6.730   39.509    0.441    0.307   81.516
  674.836    6.731   41.885    0.454    0.314   89.541
  675.656    6.733   41.313    0.450    0.319   94.733
  676.476    6.734   43.689    0.439    0.309   96.532
  677.297    6.696   44.886    0.433    0.294   98.368
  678.117    6.657   44.900    0.440    0.294   96.546
  678.937    6.541   43.744    0.441    0.308   87.904
  679.757    6.463   43.172    0.446    0.315   78.546
  680.577    6.308   42.012    0.479    0.315   62.711
  681.398    6.191   40.851    0.498    0.307   58.180
  682.218    6.074   42.647    0.493    0.293   62.719
  683.038    6.076   43.835    0.466    0.286   63.911
  683.858    6.116   44.442    0.459    0.296   56.047
  684.678    5.960   44.465    0.444    0.292   49.150
  685.499    5.647   44.478    0.441    0.285   35.062
  686.319    5.490   44.492    0.437    0.277   32.529
  687.139    5.374   44.515    0.426    0.282   27.996
  687.959    5.375   44.533    0.423    0.275   23.646
  688.780    5.377   46.913    0.425    0.265   20.351
  689.600    5.377   47.512    0.436    0.295   18.529
  690.420    5.418   49.892    0.445    0.297   16.871
  691.240    5.420   52.268    0.439    0.287   16.250
  692.060    5.421   56.411    0.431    0.276   15.362
  692.881    5.383   60.551    0.430    0.263   14.797
  693.701    5.344   62.926    0.426    0.252   14.253
  694.521    5.228   64.123    0.417    0.242   14.254
  695.341    5.150   67.682    0.428    0.232   14.799
  696.161    5.230   71.232    0.434    0.230   15.954
  696.982    5.546   69.482    0.437    0.228   16.879
  697.802    5.861   64.786    0.441    0.231   18.196
  698.622    6.098   52.427    0.450    0.239   20.366
  699.442    6.060   41.837    0.450    0.252   26.989
  700.262    5.983   33.599    0.436    0.262   31.957
  701.083    5.906   25.956    0.422    0.276   42.350
  701.903    5.986   25.974    0.386    0.289   46.519
  702.723    6.026   25.996    0.373    0.296   56.126
  703.543    6.067   26.015    0.378    0.292   65.222
  704.364    6.067   26.622    0.380    0.288   73.000
  705.184    6.029   27.824    0.385    0.283   80.186
  706.004    5.991   29.016    0.390    0.280   81.710
  706.824    5.992   30.802    0.393    0.276   80.199
  707.644    6.072   31.999    0.394    0.279   77.250
  708.465    6.191   31.433    0.378    0.286   73.023
  709.285    6.193   31.446    0.418    0.291   69.030
  710.105    6.115   32.049    0.422    0.290   64.041
  710.925    5.881   34.425    0.422    0.284   58.309
  711.745    5.725   35.033    0.416    0.277   54.095
  712.566    5.647   32.698    0.408    0.293   51.137
  713.386    5.609   32.127    0.404    0.299   47.442
  714.206    5.571   34.498    0.406    0.308   44.847
  715.026    5.573   38.646    0.405    0.295   42.395
  715.846    5.534   39.848    0.402    0.282   40.835
  716.667    5.536   39.267    0.404    0.287   37.181
  717.487    5.537   40.464    0.411    0.283   36.491
  718.307    5.577   43.434    0.426    0.282   35.149
  719.127    5.735   46.988    0.427    0.283   33.228
  719.948    6.051   48.775    0.420    0.282   32.005
  720.768    6.170   48.793    0.413    0.272   29.692
  721.588    6.211   48.806    0.393    0.262   28.600
  722.408    6.212   48.825    0.389    0.255   26.533
  723.228    6.135   47.664    0.419    0.241   25.083
  724.049    6.136   45.325    0.417    0.220   24.160
  724.869    6.099   44.164    0.416    0.210   23.271
  725.689    6.099   48.902    0.408    0.201   22.415
  726.509    6.100   52.456    0.396    0.234   23.715
  727.329    6.101   55.422    0.395    0.241   23.276
  728.150    6.102   56.034    0.407    0.238   22.844
  728.970    6.104   56.632    0.402    0.230   21.193
  729.790    6.105   57.829    0.393    0.222   19.662
  730.610    6.145   59.615    0.393    0.220   17.902
  731.430    6.147   61.402    0.427    0.254   15.699
  732.251    6.070   62.599    0.434    0.271   14.565
  733.071    5.953   60.853    0.434    0.267   12.773
  733.891    5.797   56.152    0.435    0.260   12.074
  734.711    5.680   50.866    0.443    0.271   12.536
  735.531    5.642   47.942    0.450    0.285   13.771
  736.352    5.643   49.139    0.444    0.282   14.569
  737.172    5.683   49.751    0.442    0.275   15.706
  737.992    5.999   49.760    0.433    0.279   17.579
  738.812    6.157   48.599    0.423    0.285   19.309
  739.633    5.766   44.492    0.431    0.285   21.612
  740.453    5.571   39.800    0.427    0.299   25.590
  741.273    5.532   38.635    0.424    0.318   33.282
  742.093    5.574   37.479    0.443    0.314   43.285
  742.913    5.614   36.903    0.458    0.300   48.447
  743.734    5.614   36.336    0.460    0.289   46.666
  744.554    5.616   36.355    0.458    0.286   42.488
  745.374    5.617   36.958    0.453    0.281   37.260
  746.194    5.657   38.748    0.446    0.281   31.471
  747.014    5.659   39.941    0.420    0.288   27.599
  747.835    5.582   41.142    0.407    0.290   26.090
  748.655    5.504   40.571    0.409    0.294   26.586
  749.475    5.427   39.995    0.415    0.298   27.604
  750.295    5.546   38.835    0.420    0.303   29.204
  751.115    5.626   38.264    0.423    0.297   38.702
  751.936    5.666   40.050    0.426    0.290   39.438
  752.756    5.707   40.653    0.430    0.285   43.320
  753.576    5.708   40.671    0.440    0.276   41.726
  754.396    5.709   41.868    0.447    0.285   27.614
  755.217    5.710   48.374    0.458    0.295   22.465
  756.037    5.672   55.465    0.450    0.276   16.329
  756.857    5.673   64.323    0.409    0.242   13.793
  757.677    5.674   79.076    0.407    0.250   12.324
  758.497    5.794   86.756    0.437    0.281   14.322
  759.318    5.795   93.257    0.443    0.287   16.958
  760.138    5.914   96.227    0.449    0.265   18.980
  760.958    5.994  101.545    0.441    0.253   22.474
  761.778    6.034  103.331    0.431    0.224   27.116
  762.598    6.232   88.615    0.422    0.224   26.613
  763.419    6.390   77.435    0.424    0.236   25.158
  764.239    6.352   78.632    0.431    0.229   22.906
  765.059    5.961   85.723    0.423    0.227   19.714
  765.879    5.883   91.635    0.388    0.245   17.949
  766.699    5.924   96.368    0.382    0.238   18.291
  767.520    6.121   99.927    0.388    0.214   17.291
  768.340    6.240   79.312    0.399    0.206   16.345
  769.160    6.360   64.002    0.430    0.184   15.164
  769.980    6.360   68.745    0.443    0.212   15.452
  770.801    6.166   74.652    0.450    0.281   16.657
  771.621    6.009   85.279    0.440    0.276   18.297
  772.441    5.932   89.423    0.426    0.247   20.867
  773.261    6.090   97.103    0.414    0.221   22.077
  774.081    6.288  102.425    0.401    0.203   20.101
  774.902    6.211   98.912    0.426    0.197   16.352
  775.722    6.133  102.462    0.433    0.202   13.555
  776.542    6.095  106.605    0.427    0.206   11.887
  777.362    6.097  107.213    0.420    0.201   10.622
  778.182    6.098   97.801    0.421    0.185   10.041
