~VERSION INFORMATION
 VERS.                 2.0:   CWLS LOG ASCII STANDARD -VERSION 2.0
 WRAP.                  NO:   ONE LINE PER DEPTH STEP
~WELL INFORMATION BLOCK
#MNEM.UNIT           DATA                    DESCRIPTION OF MNEMONIC
#---------    -------------------            -------------------------------
# Generated from Intellog Unique Number	CW_79_81/WELL/2480
WELL.         11-02-081-22W4                 : Well_name    - WELL
LOC .         AA/11-02-081-22W4/0            : Location     - LOCATION
UWI .         AA/11-02-081-22W4/0            : Uwi          - UNIQUE WELL ID
ENTR.         MAX                            : Entered      - ENTERED BY
SRVC.         SCHLUMBERGER                   : Scn          - SERVICE COMPANY
STRT.M        190                            : top_depth    - START DEPTH
STOP.M        430                            : bot_depth    - STOP DEPTH
STEP.M        0.25                           : increment    - STEP LENGTH
 NULL. -999.2500:NULL Value
~CURVE INFORMATION BLOCK
#MNEM UNIT       ERCB CURVE CODE    CURVE DESCRIPTION
#-----------   ------------------   ----------------------------------
DEPT.M        00 001 00 00         : DEPTH        - DEPTH
ILD .OHMM     00 120 00 00         : RESD         - DEEP RESISTIVITY (DIL)
NPHI.V/V      00 330 00 00         : PHIN         - NEUTRON POROSITY (SANDSTONE)
DPHI.V/V      00 890 00 00         : PHID         - DENSITY POROSITY (SANDSTONE)
GR  .API      00 310 00 00         : GR           - GAMMA RAY
CALI.MM       00 280 01 00         : CAL          - CALIPER
~PARAMETER INFORMATION
#MNEM.UNIT           DATA             DESCRIPTION OF MNEMONIC
#---------         -----------     ------------------------------
GL  .M        607                  : gl           - GROUND LEVEL ELEVATION
EREF.M        610.7                : kb           - ELEVATION OF DEPTH REFERENCE
DATM.M        607                  : datum        - DATUM ELEVATION
TDD .M        435                  : tdd          - TOTAL DEPTH DRILLER
RUN .         ONE                  : Run          - RUN NUMBER
ENG .         BILL                 : Engineer     - RECORDING ENGINEER
WIT .         JIM                  : Witness      - WITNESSED BY
MUD .         GEL                  : Mud_type     - MUD TYPE
MATR.         SANDSTONE            : Logunit      - NEUTRON MATRIX
TMAX.C        29                   : BHT          - MAXIMUM RECORDED TEMPERATURE
BHTD.M        435                  : BHTDEP       - MAXIMUM RECORDED TEMPERATURE
MATR.         1                    : LOGUNIT      - NEUTRON MATRIX
RMT .C        20                   : MDTP         - TEMPERATURE OF MUD
NEUT.         1                    : NEUTRON      - NEUTRON TYPE
RESI.         0                    : RESIST       - RESISTIVITY TYPE
RMC .OHMM     1.22                 : RMC          - RESISTIVITY OF MUD CAKE
RMF .OHMM     2.93                 : RMF          - RESISTIVITY OF MUD FILTRATE
SUFT.C        -20                  : SUFT         - SURFACE TEMPERATURE
~A  DEPTH     RESD     PHIN     PHID       GR      CAL
# ...
  299.500    9.221    0.451    0.369   62.197  194.520
  299.750    9.154    0.446    0.368   61.273  194.931
  300.000    9.137    0.441    0.366   62.985  196.220
  300.250    9.136    0.442    0.363   63.585  197.608
  300.500    9.152    0.448    0.360   63.014  198.509
  300.750    9.246    0.443    0.357   65.050  198.538
  301.000    9.387    0.438    0.356   65.796  198.565
  301.250    9.524    0.440    0.355   63.703  198.973
  301.500    9.611    0.445    0.352   62.312  199.387
  301.750    9.958    0.450    0.344   60.100  199.607
  302.000   10.776    0.453    0.327   57.712  199.727
  302.250   12.613    0.405    0.272   57.134  200.307
  302.500   15.057    0.181    0.175   53.002  201.149
  302.750   18.106    0.157    0.035   48.571  201.560
  303.000   21.184    0.148   -0.000   46.243  201.387
  303.250   23.779    0.146   -0.001   44.616  200.824
  303.500   24.854    0.143   -0.000   43.049  200.163
  303.750   22.581    0.136    0.007   42.051  199.557
  304.000   19.594    0.137    0.040   44.015  198.361
  304.250   16.395    0.219    0.120   49.648  194.873
  304.500   13.659    0.297    0.172   54.053  193.138
  304.750   11.667    0.365    0.222   57.697  191.989
  305.000   10.297    0.412    0.271   60.754  190.940
  305.250    9.306    0.422    0.307   63.503  190.109
  305.500    8.961    0.432    0.322   65.469  189.726
  305.750    9.026    0.431    0.340   65.715  191.698
  306.000    9.141    0.441    0.344   64.208  196.308
  306.250    9.407    0.457    0.343   61.412  199.259
  306.500    9.912    0.469    0.342   58.206  199.379
  306.750   10.825    0.466    0.344   55.687  198.461
  307.000   11.245    0.460    0.346   54.727  197.670
  307.250   11.491    0.454    0.353   55.910  195.355
  307.500   11.491    0.471    0.355   57.094  195.084
  307.750   11.366    0.484    0.353   58.396  195.302
  308.000   11.159    0.481    0.349   59.873  195.230
  308.250   10.739    0.461    0.342   62.114  194.704
  308.500   10.264    0.454    0.335   65.056  193.913
  308.750   10.041    0.438    0.327   63.665  193.548
  309.000    9.823    0.445    0.325   60.342  193.475
  309.250    9.646    0.452    0.323   57.898  193.497
  309.500    9.507    0.453    0.317   57.677  193.713
  309.750    9.425    0.461    0.309   60.054  194.356
  310.000    9.715    0.469    0.299   62.509  193.568
  310.250   10.219    0.465    0.276   63.459  192.817
  310.500   10.751    0.448    0.262   61.950  192.349
  310.750   11.351    0.418    0.284   60.559  191.589
  311.000   12.054    0.393    0.330   60.514  190.442
  311.250   12.895    0.408    0.347   61.897  189.302
  311.500   12.992    0.416    0.359   62.888  189.329
  311.750   12.526    0.418    0.354   61.729  189.740
  312.000   11.217    0.433    0.348   63.205  189.858
  312.250    9.839    0.440    0.338   65.678  190.074
  312.500    8.586    0.438    0.327   68.618  190.583
  312.750    7.252    0.445    0.317   73.933  191.880
  313.000    6.627    0.472    0.306   80.534  194.346
  313.250    6.296    0.501    0.307   76.098  195.927
  313.500    6.252    0.516    0.323   68.678  195.464
  313.750    6.365    0.521    0.333   63.072  194.902
  314.000    6.610    0.503    0.322   62.441  195.314
  314.250    7.214    0.428    0.273   69.581  196.903
  314.500    8.092    0.415    0.243   75.938  196.927
  314.750    9.203    0.420    0.255   80.399  195.782
  315.000    9.791    0.447    0.274   82.402  196.096
  315.250    9.936    0.462    0.278   84.405  196.511
  315.500    9.772    0.460    0.265   86.644  196.634
  315.750    9.225    0.461    0.258   86.254  197.128
  316.000    8.621    0.457    0.258   81.877  197.557
  316.250    8.434    0.446    0.259   83.762  196.409
  316.500    8.342    0.443    0.259   84.070  195.849
  316.750    8.312    0.443    0.252   83.500  196.262
  317.000    8.356    0.444    0.242   82.753  197.553
  317.250    8.579    0.448    0.239   82.436  199.144
  317.500    8.776    0.457    0.237   81.966  199.171
  317.750    9.034    0.450    0.238   80.806  199.580
  318.000    9.249    0.433    0.241   81.406  200.285
  318.250    9.215    0.427    0.240   82.707  201.091
  318.500    8.883    0.438    0.236   84.182  201.800
  318.750    8.345    0.454    0.235   86.423  202.380
  319.000    8.158    0.439    0.229   89.366  203.213
  319.250    8.098    0.443    0.230   87.740  204.406
  319.500    8.127    0.442    0.229   88.047  205.015
  319.750    8.245    0.442    0.226   88.179  204.843
  320.000    8.442    0.447    0.227   87.725  203.793
  320.250    8.730    0.460    0.237   87.876  201.217
  320.500    8.931    0.457    0.265   87.404  197.989
  320.750    8.996    0.427    0.267   87.652  199.576
  321.000    8.816    0.419    0.258   89.304  201.453
  321.250    8.531    0.427    0.249   90.020  202.256
  321.500    8.272    0.442    0.245   88.863  201.985
  321.750    8.165    0.450    0.249   86.109  202.015
  322.000    8.227    0.437    0.251   85.148  202.037
  322.250    8.346    0.426    0.255   85.865  202.450
  322.500    8.606    0.422    0.256   86.932  202.569
  322.750    8.893    0.424    0.258   87.531  202.202
  323.000    9.155    0.432    0.264   86.843  201.641
  323.250    9.455    0.451    0.276   84.147  201.667
  323.500    9.599    0.462    0.278   84.648  201.694
  323.750    9.459    0.453    0.271   85.836  201.325
  324.000    9.169    0.443    0.264   86.493  200.959
  324.250    8.874    0.438    0.261   87.208  200.787
  324.500    8.635    0.438    0.259   88.216  200.905
  324.750    8.371    0.441    0.258   89.102  200.805
  325.000    8.002    0.466    0.262   87.610  198.247
  325.250    7.828    0.483    0.260   88.992  200.165
  325.500    7.701    0.470    0.258   91.762  201.794
  325.750    7.561    0.452    0.255   94.532  202.941
  326.000    7.425    0.441    0.255   95.162  202.642
  326.250    7.382    0.434    0.268   89.314  198.998
  326.500    7.438    0.425    0.282   82.079  198.185
  326.750    7.711    0.414    0.291   69.814  197.789
  327.000    8.167    0.429    0.291   63.272  197.394
  327.250    8.748    0.439    0.289   62.109  197.191
  327.500    9.394    0.435    0.280   64.184  197.180
  327.750   10.251    0.432    0.237   65.132  197.327
  328.000   11.497    0.419    0.158   62.957  198.121
  328.250   12.354    0.314    0.140   60.868  197.726
  328.500   12.451    0.279    0.169   61.903  197.041
  328.750   12.135    0.316    0.232   65.251  196.646
  329.000   11.499    0.386    0.293   69.177  196.539
  329.250   10.254    0.407    0.296   70.828  196.140
  329.500    9.583    0.419    0.309   69.858  196.130
  329.750    9.582    0.418    0.308   71.008  196.506
  330.000    9.582    0.430    0.293   72.679  196.592
  330.250    9.650    0.438    0.276   74.408  196.774
  330.500    9.592    0.434    0.264   76.310  197.150
  330.750    8.820    0.417    0.265   79.801  197.363
  331.000    8.061    0.421    0.294   83.409  196.549
  331.250    7.218    0.434    0.307   85.947  195.380
  331.500    6.729    0.452    0.315   89.527  195.660
  331.750    6.300    0.468    0.309   92.066  196.229
  332.000    5.928    0.485    0.283   89.979  196.989
  332.250    5.767    0.489    0.220   75.764  198.907
  332.500    5.810    0.386    0.153   63.709  198.896
  332.750    6.378    0.333    0.233   69.255  195.416
  333.000    7.851    0.394    0.274   73.066  192.803
  333.250    9.455    0.450    0.290   76.298  188.937
  333.500   10.181    0.459    0.293   78.951  184.975
  333.750   10.417    0.456    0.287   80.062  186.070
  334.000   10.106    0.451    0.282   81.021  189.674
  334.250    9.391    0.450    0.279   82.634  196.218
  334.500    8.680    0.449    0.278   84.247  198.715
  334.750    8.228    0.448    0.277   85.859  199.282
  335.000    8.037    0.449    0.274   87.240  199.464
  335.250    7.954    0.454    0.271   87.880  200.385
  335.500    7.834    0.458    0.267   87.632  201.178
  335.750    7.776    0.457    0.259   86.932  201.938
