~VERSION INFORMATION
 VERS.                 2.0:   CWLS LOG ASCII STANDARD -VERSION 2.0
 WRAP.                  NO:   ONE LINE PER DEPTH STEP
~WELL INFORMATION BLOCK
#MNEM.UNIT           DATA                    DESCRIPTION OF MNEMONIC
#---------    -------------------            -------------------------------
# Generated from Intellog Unique Number	CC_88_90/WELL/1173
WELL.         10-11-089-16W4                 : Well_name    - WELL
LOC .         AA/10-11-089-16W4/0            : Location     - LOCATION
UWI .         AA/10-11-089-16W400            : Uwi          - UNIQUE WELL ID
ENTR.         DW                             : Entered      - ENTERED BY
SRVC.         SCHLUMBERGER                   : Scn          - SERVICE COMPANY
STRT.M        65                             : top_depth    - START DEPTH
STOP.M        249.75                         : bot_depth    - STOP DEPTH
STEP.M        0.25                           : increment    - STEP LENGTH
 NULL. -999.2500:NULL Value
~CURVE INFORMATION BLOCK
#MNEM UNIT       ERCB CURVE CODE    CURVE DESCRIPTION
#-----------   ------------------   ----------------------------------
DEPT.M        00 001 00 00         : DEPTH        - DEPTH
GR  .API      00 310 00 00         : GR           - GAMMA RAY
DPHI.V/V      00 890 00 00         : PHID         - DENSITY POROSITY (SANDSTONE)
NPHI.V/V      00 330 00 00         : PHIN         - NEUTRON POROSITY (SANDSTONE)
ILD .OHMM     00 120 00 00         : RESD         - DEEP RESISTIVITY (DIL)
~PARAMETER INFORMATION
#MNEM.UNIT           DATA             DESCRIPTION OF MNEMONIC
#---------         -----------     ------------------------------
GL  .M        509.6                : gl           - GROUND LEVEL ELEVATION
EREF.M        512.8                : kb           - ELEVATION OF DEPTH REFERENCE
DATM.M        512.8                : datum        - DATUM ELEVATION
TDD .M        258                  : tdd          - TOTAL DEPTH DRILLER
RUN .         ONE                  : Run          - RUN NUMBER
ENG .         BILL                 : Engineer     - RECORDING ENGINEER
WIT .         JIM                  : Witness      - WITNESSED BY
MUD .         GEL                  : Mud_type     - MUD TYPE
MATR.         SANDSTONE            : Logunit      - NEUTRON MATRIX
TMAX.C        25                   : BHT          - MAXIMUM RECORDED TEMPERATURE
BHTD.M        258                  : BHTDEP       - MAXIMUM RECORDED TEMPERATURE
MATR.         1                    : LOGUNIT      - NEUTRON MATRIX
RMT .C        25                   : MDTP         - TEMPERATURE OF MUD
NEUT.         1                    : NEUTRON      - NEUTRON TYPE
RESI.         0                    : RESIST       - RESISTIVITY TYPE
RMC .OHMM     0.25                 : RMC          - RESISTIVITY OF MUD CAKE
RMF .OHMM     0.25                 : RMF          - RESISTIVITY OF MUD FILTRATE
SUFT.C        15                   : SUFT         - SURFACE TEMPERATURE
~A  DEPTH       GR     PHID     PHIN     RESD
# ...
  195.500   94.112    0.149    0.371   13.180
  195.750   99.955    0.183    0.395   12.544
  196.000   98.894    0.189    0.415   11.950
  196.250   96.867    0.183    0.429   11.738
  196.500   91.673    0.092    0.432   12.234
  196.750   85.873   -0.001    0.441   12.709
  197.000   90.362    0.085    0.442   11.544
  197.250   96.292    0.145    0.393    7.964
  197.500  102.164    0.194    0.411    7.435
  197.750   86.410    0.226    0.462    8.460
  198.000   62.513    0.262    0.460   10.019
  198.250   52.657    0.308    0.399   13.100
  198.500   46.699    0.323    0.346   17.400
  198.750   42.257    0.340    0.363   23.545
  199.000   41.162    0.306    0.389   30.569
  199.250   40.536    0.275    0.411   41.172
  199.500   38.131    0.276    0.426   51.700
  199.750   36.944    0.283    0.421   63.291
  200.000   39.218    0.285    0.403   74.089
  200.250   40.095    0.283    0.390   59.756
  200.500   43.379    0.282    0.382   53.887
  200.750   48.195    0.282    0.380   50.997
  201.000   52.473    0.275    0.378   45.423
  201.250   55.648    0.257    0.377   43.358
  201.500   56.985    0.240    0.384   42.061
  201.750   55.793    0.239    0.396   42.036
  202.000   51.425    0.262    0.407   43.381
  202.250   47.796    0.277    0.406   57.394
  202.500   47.102    0.275    0.394   66.498
  202.750   45.903    0.276    0.393   58.487
  203.000   43.391    0.254    0.399   52.657
  203.250   47.794    0.156    0.358   46.497
  203.500   51.761    0.168    0.357   40.982
  203.750   53.361    0.227    0.392   35.829
  204.000   52.386    0.259    0.420   31.123
  204.250   51.641    0.281    0.422   26.822
  204.500   56.209    0.286    0.405   21.724
  204.750   61.148    0.259    0.396   16.651
  205.000   62.417    0.243    0.397   12.957
  205.250   62.375    0.240    0.423   10.616
  205.500   60.516    0.243    0.448    9.670
  205.750   57.809    0.261    0.463   10.841
  206.000   58.611    0.284    0.478   14.577
  206.250   59.492    0.286    0.444   20.101
  206.500   61.969    0.278    0.433   25.225
  206.750   63.379    0.279    0.432   27.499
  207.000   63.816    0.276    0.428   23.724
  207.250   65.869    0.256    0.442   15.827
  207.500   69.599    0.215    0.456   10.597
  207.750   76.016    0.143    0.434    8.422
  208.000   89.675    0.148    0.399    6.874
  208.250  101.402    0.206    0.476    4.935
  208.500  105.410    0.247    0.578    3.662
  208.750  103.026    0.252    0.600    3.448
  209.000   97.224    0.244    0.619    3.230
  209.250   95.259    0.247    0.602    3.218
  209.500   96.511    0.250    0.562    3.275
  209.750   97.758    0.248    0.529    3.577
  210.000   97.505    0.241    0.527    4.120
  210.250   96.273    0.223    0.550    4.740
  210.500   94.080    0.197    0.553    5.259
  210.750   89.849    0.172    0.496    5.216
  211.000   88.196    0.172    0.466    4.902
  211.250   92.357    0.187    0.455    4.674
  211.500  100.390    0.217    0.447    4.807
  211.750  103.404    0.240    0.456    5.560
  212.000   95.266    0.230    0.487    6.829
  212.250   85.080    0.245    0.521    8.083
  212.500   74.564    0.260    0.465    9.949
  212.750   68.643    0.256    0.377   11.583
  213.000   70.105    0.257    0.344   12.020
  213.250   74.211    0.258    0.361   11.747
  213.500   76.082    0.232    0.381   11.996
  213.750   78.601    0.232    0.412   12.936
  214.000   75.153    0.261    0.432   14.261
  214.250   68.457    0.256    0.443   16.466
  214.500   63.217    0.219    0.429   18.326
  214.750   60.276    0.213    0.400   19.486
  215.000   59.433    0.255    0.400   19.933
  215.250   60.725    0.280    0.406   15.351
  215.500   64.343    0.277    0.436   10.534
  215.750   71.436    0.248    0.469    7.200
  216.000   79.495    0.225    0.487    5.635
  216.250   80.764    0.240    0.517    6.026
  216.500   72.947    0.278    0.526    7.323
  216.750   67.039    0.293    0.381    9.184
  217.000   57.344    0.312    0.336   12.221
  217.250   49.148    0.324    0.374   14.505
  217.500   47.959    0.327    0.394   15.767
  217.750   49.582    0.317    0.397   17.481
  218.000   48.852    0.292    0.398   19.838
  218.250   49.516    0.299    0.395   23.166
  218.500   53.248    0.289    0.393   31.061
  218.750   56.883    0.256    0.381   36.997
  219.000   59.965    0.247    0.370   38.938
  219.250   63.592    0.253    0.375   38.690
  219.500   66.580    0.231    0.382   34.904
  219.750   69.414    0.244    0.367   30.274
  220.000   74.511    0.262    0.357   27.120
  220.250   77.823    0.254    0.368   27.540
  220.500   78.304    0.243    0.393   30.925
  220.750   76.187    0.251    0.406   35.933
  221.000   70.266    0.262    0.395   41.978
  221.250   65.514    0.258    0.387   46.413
  221.500   61.655    0.259    0.384   48.473
  221.750   59.022    0.268    0.386   48.934
  222.000   58.690    0.287    0.392   46.281
  222.250   60.950    0.294    0.391   39.793
  222.500   66.400    0.260    0.371   32.902
  222.750   75.743    0.232    0.345   28.770
  223.000   80.759    0.211    0.326   27.034
  223.250   70.728    0.202    0.351   26.407
  223.500   61.080    0.221    0.392   27.337
  223.750   64.007    0.264    0.412   29.785
  224.000   66.981    0.289    0.428   31.583
  224.250   70.173    0.278    0.432   31.706
  224.500   66.246    0.270    0.421   30.716
  224.750   62.268    0.276    0.404   27.971
  225.000   63.685    0.277    0.402   25.491
  225.250   63.875    0.269    0.413   25.991
  225.500   55.958    0.263    0.426   30.326
  225.750   45.490    0.284    0.442   39.204
  226.000   38.560    0.300    0.417   51.450
  226.250   39.975    0.315    0.376  101.196
  226.500   43.995    0.320    0.363  141.826
  226.750   43.924    0.299    0.381  119.315
  227.000   43.497    0.282    0.393   75.166
  227.250   46.938    0.304    0.382   48.871
  227.500   50.749    0.299    0.380   38.978
  227.750   56.544    0.275    0.384   32.693
  228.000   61.221    0.270    0.380   26.438
  228.250   62.014    0.284    0.370   22.830
  228.500   62.500    0.288    0.367   22.822
  228.750   61.480    0.272    0.376   26.655
  229.000   60.782    0.253    0.394   30.195
  229.250   60.082    0.249    0.407   30.770
  229.500   55.809    0.263    0.403   28.640
  229.750   51.045    0.288    0.389   25.382
  230.000   55.588    0.298    0.379   22.815
  230.250   67.606    0.278    0.375   22.398
  230.500   74.659    0.257    0.377   22.393
  230.750   76.967    0.239    0.397   26.100
  231.000   70.292    0.217    0.417   31.432
  231.250   57.443    0.216    0.424   34.221
  231.500   54.961    0.254    0.427   33.839
  231.750   61.233    0.279    0.399   28.266
  232.000   69.046    0.283    0.378   27.665
  232.250   74.186    0.262    0.383   29.256
  232.500   77.906    0.229    0.396   31.319
  232.750   73.384    0.224    0.412   34.059
  233.000   57.450    0.258    0.426   33.767
  233.250   58.755    0.282    0.405   31.943
  233.500   72.128    0.288    0.360   27.918
  233.750   83.615    0.252    0.339   23.172
  234.000   92.190    0.211    0.349   19.299
  234.250  100.422    0.195    0.361   16.752
  234.500  104.013    0.177    0.364   15.303
  234.750  103.681    0.181    0.364   13.918
  235.000  107.644    0.175    0.370   12.953
  235.250  110.421    0.174    0.379   13.289
  235.500  108.298    0.181    0.393   14.259
  235.750  103.474    0.188    0.402   16.131
  236.000   99.043    0.204    0.384   19.479
  236.250   99.778    0.214    0.363   20.775
  236.500   95.179    0.204    0.373   22.457
  236.750   81.615    0.218    0.402   23.301
  237.000   77.602    0.253    0.402   21.820
  237.250   88.660    0.251    0.380   19.456
  237.500   94.032    0.192    0.382   18.066
  237.750   92.879    0.160    0.373   17.583
  238.000   88.513    0.161    0.366   19.149
  238.250   79.196    0.190    0.363   21.858
  238.500   70.650    0.241    0.376   25.631
  238.750   69.721    0.294    0.410   32.075
