~Version : LASO    vs 4.00 
VERS.                2.00:   CWLS Log ASCII Standard -VERSION 2.0
WRAP.                  NO:
~Well Information Block
#MNEM.UNIT       Data                        Description of Mnemonic
#----.----      -------------------------- : -----------------------------
STRT.M             1.0000:
STOP.M           202.5000:
STEP.M             0.1000:
NULL.           -999.2500:
COMP.  MOBIL OIL CANADA                    :COMPANY
WELL.  MOBIL 90 CLARKE CREEK 16-31         :WELL
FLD.   CLARKE CREEK                        :FIELD
LOC.   16-31-089-07W4                      :LOCATION
CTRY.  CANADA                              :COUNTRY
PROV.  ALBERTA                             :PROVINCE
SRVC.  BRITISH PLASTERBOARD                :SERVICE COMPANY
DATE.  22-JAN-90                           :LOG DATE
UWI.   AA/16-31-089-07W400                 :UNIQUE WELL ID
~Parameter Information Block
#MNEM.UNIT       Data                        Description of Mnemonic
#----.----      -------------------------- : -----------------------------
RUN .                   1                 : Run Number
GL  .M           453.6000                 : Ground Level Elevation
DREF.                  GD                 : Depth Reference
EREF.M           453.6000                 : Elevation of Depth Reference
TDL .M           204.5000                 : Total Depth Logger
TDD .M           204.5000                 : Total Depth Driller
~Curve Information Block
#MNEM.UNIT        API CODE    Curve Description
#---------    ------------    -------------------------------------------
DEPT.M                    :   DEPTH
CALI.mm                   :   CALI
DPHI.V/V                  :   DPHI
DT  .US/M     60 520  0  1:   2 SONIC INTERVAL TRANSIT TIME (COMPENSATED)
GR  .API                  :   GR
ILD .Ohmm                 :   ILD
NPHI.V/V                  :   NPHI
RHOB.K/M3     45 350  1  1:   3 BULK DENSITY
~A  Depth           CALI        DPHI          DT          GR         ILD        NPHI        RHOB
# ...
75.7000         161.1530      0.2376    410.4000    118.1606     25.1792      0.3784   1349.4000
75.8000         161.2175      0.2269    374.7200    115.5383     24.3048      0.3989   1305.7000
75.9000         161.2525      0.2230    412.0400    111.6810     23.4890      0.4085   1255.1001
76.0000         160.9495      0.2459    399.2000    108.0447     22.3478      0.4168   1209.2000
76.1000         161.2486      0.2711    447.0000    105.7652     20.5407      0.4258   1194.6001
76.2000         161.3336      0.2971    455.2400    105.8132     19.4989      0.4284   1216.3000
76.3000         160.6518      0.3168    466.0800    106.4089     18.5134      0.4359   1238.1001
76.4000         159.9244      0.3266    490.6400    103.3918     18.4332      0.4541   1235.6001
76.5000         160.1849      0.3297    499.2400    101.5378     17.8980      0.4763   1197.9000
76.6000         159.8684      0.3280    504.9600    100.5706     17.4748      0.5067   1189.9000
76.7000         159.2918      0.3252    511.2800    101.1679     17.4844      0.5303   1186.9000
76.8000         158.4269      0.3232    518.1600    102.3268     17.5133      0.5324   1183.4000
76.9000         156.9999      0.3214    549.3600    103.5202     17.8187      0.5245   1199.7000
77.0000         155.8394      0.3220    578.0000    103.2485     18.2502      0.5447   1224.1001
77.1000         154.0345      0.3251    577.7600    101.4627     18.6160      0.5355   1198.6001
77.2000         152.1612      0.3293    577.4400     98.1266     18.9232      0.5174   1215.9000
77.3000         152.7358      0.3294    561.5600     92.6509     19.3573      0.4988   1215.8000
77.4000         154.8494      0.3267    568.9600     88.5040     19.4517      0.4723   1245.5000
77.5000         154.2582      0.3247    577.6800     88.8683     19.1459      0.4517   1208.5000
77.6000         152.9876      0.3266    569.6800     91.2106     17.8921      0.4330   1155.7000
77.7000         152.2287      0.3312    572.1200     92.4665     15.9092      0.4696   1104.3000
77.8000         153.2232      0.3379    574.2400     95.7508     14.7384      0.4915   1075.9000
77.9000         154.0484      0.3427    560.7600    100.7214     13.7257      0.4979   1062.5000
78.0000         154.2186      0.3463    561.4400    101.2294     13.7086      0.5159   1033.9000
78.1000         154.6646      0.3482    562.6000    100.1464     13.2884      0.5356   1115.5000
78.2000         154.7226      0.3493    563.6400     98.5110     12.8485      0.5425   1162.6001
78.3000         154.4161      0.3472    555.4400     95.8216     13.0099      0.5292   1169.8000
78.4000         154.7249      0.3397    568.4800     95.1333     13.2680      0.5190   1172.0000
78.5000         155.2137      0.3368    566.7200     93.0637     13.4869      0.5095   1034.9000
78.6000         157.4984      0.3449    569.9200     88.0638     14.0197      0.4936   1130.2000
78.7000         160.9023      0.3595    573.1200     85.5953     14.3405      0.4804   1158.2000
78.8000         164.3838      0.3756    572.7200     85.3259     14.4360      0.5322   1032.5000
78.9000         165.9087      0.4027    567.3600     90.6169     14.6678      0.5620    907.9000
79.0000         166.6796      0.4220    560.4400     96.0127     14.7583      0.5694    783.5000
79.1000         163.7706      0.4439    576.4000    101.8111     14.7924      0.5557    967.3000
79.2000         162.1635      0.4335    574.8000    105.5092     14.5418      0.5489    892.1000
79.3000         157.9928      0.4054    563.7600    107.5231     14.5668      0.5438    816.9000
79.4000         153.5374      0.3980    554.8400    105.4939     14.8429      0.5472    916.6000
79.5000         151.2635      0.3997    562.8400     99.3160     15.1380      0.5383    854.0000
79.6000         147.5794      0.4008    554.4800     92.5532     15.9284      0.5142    972.6000
79.7000         144.8292      0.3965    541.7600     87.2855     16.7482      0.4988   1012.5000
79.8000         143.7910      0.3979    545.3600     83.1361     17.7766      0.5051    917.8000
79.9000         142.4043      0.3952    552.8000     79.8625     18.7407      0.5143   1032.2000
80.0000         141.2807      0.3944    566.4000     77.0327     20.1424      0.4908   1049.6000
80.1000         140.5157      0.3855    580.0000     75.2644     21.3507      0.4522   1110.0000
80.2000         141.1143      0.3824    583.6400     74.0807     22.9174      0.3965   1106.9000
80.3000         143.4820      0.3799    586.2000     72.6635     24.2406      0.3836    902.6000
80.4000         146.0178      0.3733    587.7200     70.4253     26.0857      0.3994   1132.6000
80.5000         150.2017      0.3515    555.3200     68.6197     26.9835      0.4125   1526.9000
80.6000         152.3482      0.3239    531.1200     68.0610     28.2067      0.4162   1351.4000
80.7000         152.6511      0.2939    510.4000     69.9902     28.5135      0.4230   1088.2000
80.8000         152.7404      0.2773    511.5200     72.2438     25.6983      0.4322   1097.4000
80.9000         148.5995      0.2978    528.5600     76.8525     23.1425      0.4294   1142.8000
81.0000         145.1612      0.3264    571.2000     83.6737     20.8397      0.4248   1118.6000
81.1000         143.1195      0.3405    570.2800     90.1150     18.2586      0.4211   1121.8000
81.2000         143.1692      0.3393    562.7600     95.0262     15.8801      0.4393   1141.2000
81.3000         144.3819      0.3400    569.6000     97.9441     13.5920      0.4568   1158.8000
81.4000         146.6852      0.3481    573.6400     96.9064     11.7920      0.4720   1004.7000
81.5000         148.6613      0.3638    548.4000     98.4968      9.5576      0.4976    883.6000
81.6000         149.9344      0.3768    549.9200    104.3723      8.5487      0.5282    888.5000
81.7000         150.4812      0.3816    551.4000    108.7120      8.4481      0.5520    946.9000
81.8000         151.4146      0.3827    571.1200    111.5099      8.4445      0.5581    985.1000
81.9000         153.7011      0.3838    573.7600    113.8657      8.6092      0.5650    960.4000
82.0000         155.6779      0.3902    568.2400    114.6045      9.0897      0.5812    925.2000
82.1000         158.6475      0.3909    556.8400    113.7079      9.6123      0.5955    903.7000
82.2000         159.5930      0.3919    584.2800    118.5089     10.1663      0.5880    893.0000
82.3000         160.0762      0.3932    552.2000    115.5479     10.5903      0.5764    979.5000
82.4000         160.1262      0.3943    553.8000    111.6242     10.9078      0.5775    889.6000
82.5000         160.5101      0.3975    556.4800    108.1961     10.5741      0.5930    922.6000
82.6000         160.2537      0.3858    570.8800    105.3050     10.2230      0.5955    977.6000
82.7000         160.2254      0.3723    593.0400    104.1307     10.0336      0.5980   1038.7000
82.8000         161.0214      0.3628    593.2400    105.5503      9.6433      0.5949   1087.8000
82.9000         162.1832      0.3523    593.4400    107.0845      9.0038      0.5818   1123.8000
83.0000         163.3631      0.3438    561.7200    102.6324      8.8184      0.5729   1133.0000
83.1000         163.5522      0.3385    579.8800     98.6076      9.0415      0.5721   1111.0000
83.2000         163.6191      0.3383    559.0800     96.5477      9.8823      0.5812   1097.2000
83.3000         162.8983      0.3438    559.8800     93.7531     10.6447      0.5871   1169.8000
83.4000         162.8826      0.3410    550.7600     93.5875     11.4657      0.5618   1204.0000
83.5000         163.5927      0.3325    551.5600     99.7130     12.3501      0.5101   1195.1001
83.6000         164.0515      0.3208    555.0400    106.0677     13.1294      0.4567   1172.4000
83.7000         163.3995      0.3148    557.9600    111.7150     14.2913      0.4625   1127.4000
83.8000         162.5203      0.3100    538.1200    116.4010     15.1497      0.4862   1171.4000
83.9000         161.9190      0.3053    532.5200    117.3171     16.0244      0.4974   1232.7000
