~VERSION INFORMATION
 VERS.                 2.0:   CWLS LOG ASCII STANDARD -VERSION 2.0
 WRAP.                  NO:   ONE LINE PER DEPTH STEP
~WELL INFORMATION BLOCK
#MNEM.UNIT           DATA                    DESCRIPTION OF MNEMONIC
#---------    -------------------            -------------------------------
# Generated from Intellog Unique Number	CC_88_90/WELL/1179
WELL.         10-11-090-07W4                 : Well_name    - WELL
LOC .         AA/10-11-090-07W4/0            : Location     - LOCATION
UWI .         AA/10-11-090-07W400            : Uwi          - UNIQUE WELL ID
ENTR.         DW                             : Entered      - ENTERED BY
SRVC.         SCHLUMBERGER                   : Scn          - SERVICE COMPANY
STRT.M        15                             : top_depth    - START DEPTH
STOP.M        194.75                         : bot_depth    - STOP DEPTH
STEP.M        0.25                           : increment    - STEP LENGTH
 NULL. -999.2500:NULL Value
~CURVE INFORMATION BLOCK
#MNEM UNIT       ERCB CURVE CODE    CURVE DESCRIPTION
#-----------   ------------------   ----------------------------------
DEPT.M        00 001 00 00         : DEPTH        - DEPTH
GR  .API      00 310 00 00         : GR           - GAMMA RAY
DPHI.V/V      00 890 00 00         : PHID         - DENSITY POROSITY (SANDSTONE)
NPHI.V/V      00 330 00 00         : PHIN         - NEUTRON POROSITY (SANDSTONE)
ILD .OHMM     00 120 00 00         : RESD         - DEEP RESISTIVITY (DIL)
~PARAMETER INFORMATION
#MNEM.UNIT           DATA             DESCRIPTION OF MNEMONIC
#---------         -----------     ------------------------------
GL  .M        460.1                : gl           - GROUND LEVEL ELEVATION
EREF.M        461.1                : kb           - ELEVATION OF DEPTH REFERENCE
DATM.M        461.1                : datum        - DATUM ELEVATION
TDD .M        200                  : tdd          - TOTAL DEPTH DRILLER
RUN .         ONE                  : Run          - RUN NUMBER
ENG .         BILL                 : Engineer     - RECORDING ENGINEER
WIT .         JIM                  : Witness      - WITNESSED BY
MUD .         GEL                  : Mud_type     - MUD TYPE
MATR.         SANDSTONE            : Logunit      - NEUTRON MATRIX
TMAX.C        10                   : BHT          - MAXIMUM RECORDED TEMPERATURE
BHTD.M        200                  : BHTDEP       - MAXIMUM RECORDED TEMPERATURE
MATR.         1                    : LOGUNIT      - NEUTRON MATRIX
RMT .C        25                   : MDTP         - TEMPERATURE OF MUD
NEUT.         1                    : NEUTRON      - NEUTRON TYPE
RESI.         0                    : RESIST       - RESISTIVITY TYPE
RMC .OHMM     0.25                 : RMC          - RESISTIVITY OF MUD CAKE
RMF .OHMM     0.25                 : RMF          - RESISTIVITY OF MUD FILTRATE
SUFT.C        4                    : SUFT         - SURFACE TEMPERATURE
~A  DEPTH       GR     PHID     PHIN     RESD
# ...
  102.000   82.378    0.254    0.397    7.823
  102.250   79.854    0.257    0.395    8.009
  102.500   82.033    0.261    0.404    8.043
  102.750   87.850    0.262    0.413    8.043
  103.000   92.078    0.260    0.414    8.010
  103.250   92.831    0.256    0.411    8.095
  103.500   90.858    0.251    0.404    8.663
  103.750   83.370    0.257    0.392    9.390
  104.000   79.191    0.264    0.387    9.670
  104.250   73.798    0.262    0.383    9.809
  104.500   69.080    0.258    0.378   10.481
  104.750   71.793    0.248    0.372   11.556
  105.000   79.391    0.212    0.360   12.189
  105.250   86.083    0.156    0.338   12.096
  105.500   86.041    0.139    0.318   11.313
  105.750   72.856    0.190    0.312   10.492
  106.000   62.360    0.250    0.343    9.386
  106.250   70.944    0.268    0.400    8.070
  106.500   86.004    0.273    0.433    7.243
  106.750   87.608    0.275    0.435    6.016
  107.000   86.733    0.283    0.430    5.285
  107.250   88.225    0.290    0.428    5.141
  107.500   90.552    0.293    0.431    5.245
  107.750   94.283    0.294    0.434    5.435
  108.000   98.844    0.293    0.429    5.605
  108.250   98.503    0.288    0.427    5.639
  108.500   96.742    0.278    0.431    5.348
  108.750   90.561    0.267    0.429    5.007
  109.000   86.400    0.260    0.423    4.584
  109.250   89.379    0.260    0.420    4.094
  109.500   94.239    0.269    0.421    3.759
  109.750  102.193    0.276    0.440    3.225
  110.000  100.768    0.279    0.456    2.986
  110.250   96.237    0.280    0.468    2.818
  110.500   96.986    0.281    0.471    2.746
  110.750  101.030    0.283    0.472    2.684
  111.000  104.589    0.286    0.488    2.327
  111.250  109.381    0.289    0.493    2.332
  111.500  111.436    0.293    0.486    2.189
  111.750  107.997    0.298    0.479    2.156
  112.000  102.303    0.299    0.467    2.522
  112.250   98.014    0.297    0.454    3.060
  112.500   94.372    0.292    0.450    3.579
  112.750   90.597    0.283    0.439    4.265
  113.000   88.259    0.273    0.427    4.962
  113.250   88.436    0.273    0.419    5.664
  113.500   89.645    0.277    0.415    6.302
  113.750   88.666    0.276    0.416    6.773
  114.000   87.260    0.268    0.424    7.106
  114.250   93.060    0.261    0.426    7.294
  114.500   94.651    0.259    0.423    7.343
  114.750   90.855    0.259    0.419    7.233
  115.000   90.499    0.255    0.415    7.033
  115.250   95.540    0.250    0.413    6.894
  115.500   98.862    0.245    0.412    6.913
  115.750   99.201    0.237    0.410    7.075
  116.000   96.020    0.232    0.398    7.430
  116.250   92.466    0.194    0.381    8.550
  116.500   90.838    0.142    0.364   10.899
  116.750   91.485    0.120    0.342   13.241
  117.000   90.512    0.126    0.317   13.745
  117.250   81.220    0.142    0.318   13.268
  117.500   79.423    0.165    0.352   12.501
  117.750   81.273    0.224    0.399   11.358
  118.000   83.655    0.272    0.418   10.304
  118.250   88.978    0.275    0.409    9.393
  118.500   93.388    0.281    0.407    8.180
  118.750   93.087    0.289    0.406    7.765
  119.000   91.229    0.296    0.404    7.971
  119.250   90.665    0.298    0.400    8.621
  119.500   90.622    0.297    0.392    9.152
  119.750   89.894    0.294    0.389    8.892
  120.000   88.767    0.285    0.396    8.194
  120.250   87.020    0.274    0.399    8.067
  120.500   87.310    0.274    0.402    7.232
  120.750   89.238    0.276    0.406    6.149
  121.000   88.020    0.275    0.410    5.540
  121.250   84.396    0.270    0.413    5.263
  121.500   86.657    0.261    0.418    5.109
  121.750   95.507    0.258    0.427    5.261
  122.000  101.279    0.258    0.434    5.584
  122.250   99.826    0.256    0.441    5.965
  122.500   95.570    0.257    0.442    6.227
  122.750   93.897    0.259    0.435    6.410
  123.000   95.137    0.256    0.424    6.775
  123.250   96.772    0.252    0.419    7.147
  123.500   97.084    0.250    0.415    7.221
  123.750   96.664    0.256    0.410    7.142
  124.000   97.431    0.264    0.420    6.784
  124.250   98.811    0.264    0.439    5.985
  124.500   98.636    0.261    0.434    5.136
  124.750   98.945    0.260    0.429    4.619
  125.000  100.801    0.264    0.432    4.067
  125.250  102.619    0.267    0.445    3.838
  125.500  104.115    0.262    0.457    3.962
  125.750  105.471    0.250    0.458    4.165
  126.000  105.250    0.250    0.458    4.528
  126.250  102.420    0.259    0.457    5.043
  126.500   97.000    0.265    0.446    5.505
  126.750   93.954    0.269    0.433    5.449
  127.000   93.968    0.273    0.423    4.927
  127.250   94.621    0.276    0.430    4.154
  127.500   95.646    0.279    0.456    3.307
  127.750   96.164    0.272    0.460    3.104
  128.000   96.513    0.263    0.453    3.076
  128.250   97.485    0.257    0.445    3.253
  128.500   99.595    0.253    0.439    3.741
  128.750  102.112    0.248    0.435    4.535
  129.000  103.502    0.237    0.428    5.587
  129.250  103.544    0.225    0.416    6.590
  129.500  102.814    0.192    0.410    7.951
  129.750  100.619    0.149    0.404    9.086
  130.000   96.505    0.134    0.377    9.768
  130.250   87.915    0.156    0.339   10.208
  130.500   77.709    0.187    0.339   10.151
  130.750   81.257    0.226    0.389    9.330
  131.000   86.114    0.247    0.400    8.363
  131.250   87.448    0.254    0.398    7.895
  131.500   87.565    0.254    0.406    7.937
  131.750   88.359    0.248    0.410    8.133
  132.000   89.905    0.247    0.412    8.303
  132.250   90.371    0.253    0.414    8.474
  132.500   91.543    0.259    0.416    8.667
  132.750   93.432    0.266    0.419    8.750
  133.000   94.156    0.258    0.421    8.683
  133.250   93.239    0.242    0.423    8.126
  133.500   92.791    0.246    0.424    6.671
  133.750   94.632    0.250    0.423    4.946
  134.000   97.611    0.258    0.425    3.396
  134.250   98.049    0.281    0.435    2.566
  134.500   94.640    0.320    0.444    2.175
  134.750   87.871    0.346    0.446    1.905
  135.000   79.478    0.330    0.456    1.926
  135.250   75.167    0.308    0.474    1.758
  135.500   77.007    0.309    0.483    1.687
  135.750   83.875    0.317    0.482    1.828
  136.000   89.643    0.317    0.478    1.982
  136.250   90.346    0.304    0.471    2.223
  136.500   89.801    0.282    0.464    2.764
  136.750   92.881    0.283    0.460    3.262
  137.000   98.894    0.288    0.451    3.984
  137.250   91.939    0.278    0.441    4.358
  137.500   83.048    0.255    0.433    4.537
  137.750   85.015    0.241    0.423    4.907
  138.000   88.898    0.246    0.413    5.053
  138.250   99.787    0.251    0.416    5.014
  138.500   96.405    0.253    0.401    5.524
  138.750   89.160    0.254    0.392    6.454
  139.000   88.301    0.250    0.402    7.083
  139.250   88.578    0.237    0.417    6.770
  139.500   87.433    0.220    0.433    5.690
  139.750   89.298    0.227    0.453    4.974
  140.000   91.983    0.252    0.460    4.440
  140.250   94.259    0.272    0.463    4.007
  140.500   95.980    0.280    0.472    3.763
  140.750   96.599    0.279    0.484    3.589
  141.000   96.546    0.280    0.490    3.428
  141.250   98.348    0.282    0.475    3.610
  141.500  101.641    0.281    0.468    3.625
  141.750  100.866    0.275    0.471    3.774
  142.000  101.330    0.272    0.474    3.760
  142.250  104.564    0.273    0.468    3.384
  142.500  103.163    0.273    0.454    3.236
  142.750  105.740    0.272    0.451    3.056
  143.000  106.211    0.271    0.454    3.018
  143.250  104.629    0.266    0.465    3.045
  143.500  104.413    0.260    0.471    3.025
  143.750  101.723    0.258    0.471    3.061
  144.000   93.586    0.256    0.482    3.248
  144.250   92.008    0.249    0.479    3.428
  144.500   93.223    0.246    0.448    3.570
  144.750   93.299    0.247    0.427    3.885
  145.000   92.488    0.249    0.421    4.137
  145.250   93.105    0.251    0.414    4.055
