~VERSION INFORMATION
 VERS.                 2.0:   CWLS LOG ASCII STANDARD -VERSION 2.0
 WRAP.                  NO:   ONE LINE PER DEPTH STEP
~WELL INFORMATION BLOCK
#MNEM.UNIT           DATA                    DESCRIPTION OF MNEMONIC
#---------    -------------------            -------------------------------
# Generated from Intellog Unique Number	CN_94_101/WELL/5034
WELL.         FRENCH PETROLEUM               : Well_name    - WELL
LOC .         AA/13-16-099-08W4/0            : Location     - LOCATION
UWI .         AA/13-16-099-08W400            : Uwi          - UNIQUE WELL ID
ENTR.         T                              : Entered      - ENTERED BY
SRVC.         SCHLUMBERGER                   : Scn          - SERVICE COMPANY
DATE.         08/17/92                       : Date         - LOG DATE
STRT.M        3.048                          : top_depth    - START DEPTH
STOP.M        91.548                         : bot_depth    - STOP DEPTH
STEP.M        0.25                           : increment    - STEP LENGTH
 NULL. -999.2500:NULL Value
~CURVE INFORMATION BLOCK
#MNEM UNIT       ERCB CURVE CODE    CURVE DESCRIPTION
#-----------   ------------------   ----------------------------------
DEPT.M        00 001 00 00         : DEPTH        - DEPTH
GR  .API      00 310 00 00         : GR           - GAMMA RAY
NPHI.V/V      00 330 00 00         : PHIN         - NEUTRON POROSITY (SANDSTONE)
ILD .OHMM     00 120 00 00         : RESD         - DEEP RESISTIVITY (DIL)
~PARAMETER INFORMATION
#MNEM.UNIT           DATA             DESCRIPTION OF MNEMONIC
#---------         -----------     ------------------------------
GL  .M        299.984              : gl           - GROUND LEVEL ELEVATION
EREF.M        299.984              : kb           - ELEVATION OF DEPTH REFERENCE
DATM.M        299.984              : datum        - DATUM ELEVATION
TDD .M        100.584              : tdd          - TOTAL DEPTH DRILLER
RUN .         ONE                  : Run          - RUN NUMBER
ENG .         BILL                 : Engineer     - RECORDING ENGINEER
WIT .         JIM                  : Witness      - WITNESSED BY
MUD .         GEL                  : Mud_type     - MUD TYPE
MATR.         SANDSTONE            : Logunit      - NEUTRON MATRIX
TMAX.C        17.7778              : BHT          - MAXIMUM RECORDED TEMPERATURE
BHTD.M        100.584              : BHTDEP       - MAXIMUM RECORDED TEMPERATURE
RMT .C        20                   : MDTP         - TEMPERATURE OF MUD
MUDD.KG/M     1030                 : MWT          - MUD DENSITY
NEUT.         1                    : NEUTRON      - NEUTRON TYPE
RESI.         0                    : RESIST       - RESISTIVITY TYPE
RM  .OHMM     12                   : RM           - RESISTIVITY OF MUD
RMC .OHMM     7.4                  : RMC          - RESISTIVITY OF MUD CAKE
RMF .OHMM     10.7                 : RMF          - RESISTIVITY OF MUD FILTRATE
SUFT.C        4                    : SUFT         - SURFACE TEMPERATURE
~A  DEPTH       GR     PHIN     RESD
# ...
   57.298   92.458    0.390   38.087
   57.548   95.199    0.388   38.442
   57.798   99.758    0.390   38.437
   58.048   97.960    0.400   38.062
   58.298  100.706    0.409   38.058
   58.548   99.812    0.402   38.413
   58.798   99.828    0.404   38.042
   59.048   97.113    0.406   36.216
   59.298   86.223    0.411   34.026
   59.548   97.143    0.411   33.289
   59.798   96.250    0.401   33.648
   60.048   93.539    0.382   36.187
   60.298   89.919    0.377   39.088
   60.548   83.578    0.384   40.899
   60.798   80.867    0.401   41.985
   61.048  100.874    0.412   38.704
   61.298  113.616    0.417   34.692
   61.548  110.901    0.409   34.322
   61.798  107.281    0.407   33.586
   62.048  109.114    0.412   33.217
   62.298  109.130    0.413   32.844
   62.548  101.879    0.404   32.838
   62.798   99.164    0.400   32.829
   63.048   96.457    0.402   32.822
   63.298   94.655    0.407   32.816
   63.548   93.761    0.408   32.806
   63.798   93.777    0.399   32.800
   64.048   94.701    0.391   32.793
   64.298   96.534    0.392   32.785
   64.548  101.093    0.399   32.778
   64.798  105.652    0.404   32.771
   65.048  111.120    0.402   32.764
   65.298  110.230    0.400   32.756
   65.548  106.607    0.399   32.749
   65.798  107.531    0.394   32.376
   66.048  124.812    0.386   32.734
   66.298  153.002    0.377   33.817
   66.548  173.919    0.381   34.902
   66.798  152.124    0.386   36.714
   67.048  124.877    0.381   39.978
   67.298  106.718    0.373   42.883
   67.548   93.106    0.367   47.605
   67.798   89.486    0.360   47.597
   68.048   88.589    0.355   45.768
   68.298   92.239    0.354   47.581
   68.548   96.798    0.355   47.574
   68.798   94.996    0.360   44.656
   69.048   89.559    0.367   41.011
   69.298   87.761    0.378   38.458
   69.548   91.411    0.393   36.266
   69.798   93.240    0.406   35.166
   70.048   95.989    0.417   35.162
   70.298  100.544    0.413   36.608
   70.548  103.294    0.393   38.785
   70.798  101.484    0.376   43.507
   71.048  101.503    0.361   48.590
   71.298   97.883    0.346   49.674
   71.548   94.264    0.340   50.394
   71.798  106.089    0.334   54.025
   72.048  106.104    0.329   59.837
   72.298   95.215    0.327   52.919
   72.548   91.595    0.348   43.818
   72.798   91.614    0.375   37.263
   73.048   93.447    0.398   32.887
   73.298   96.189    0.398   32.881
   73.548   95.295    0.402   33.236
   73.798   87.132    0.415   33.593
   74.048   81.695    0.421   33.587
   74.298   78.075    0.417   33.576
   74.548   83.543    0.410   33.571
   74.798   91.741    0.401   33.565
   75.048   91.752    0.393   33.556
   75.298   91.768    0.390   33.547
   75.548   90.874    0.385   33.543
   75.798   89.072    0.386   33.536
   76.048   88.183    0.394   32.436
   76.298   88.198    0.391   31.701
   76.548   86.396    0.379   32.419
   76.798   81.871    0.385   32.050
   77.048   85.522    0.389   29.497
   77.298   87.354    0.398   28.034
   77.548   86.461    0.409   27.299
   77.798   84.659    0.413   27.656
   78.048   89.218    0.399   28.740
   78.298   92.864    0.394   31.279
   78.548   92.880    0.401   35.271
   78.798   90.169    0.412   34.538
   79.048   83.831    0.422   28.711
   79.298   88.386    0.399   28.703
   79.548   85.675    0.397   33.061
   79.798   92.051    0.403   32.325
   80.048  100.245    0.415   27.221
   80.298  103.896    0.417   27.218
   80.548   97.550    0.400   27.574
   80.798   90.295    0.370   30.839
   81.048   85.767    0.357   33.743
   81.298   82.147    0.360   41.375
   81.548   78.528    0.363   56.281
   81.798   82.178    0.371   56.274
   82.048   85.836    0.377   42.808
   82.298   86.760    0.390   36.617
   82.548   92.224    0.406   32.244
   82.798   97.696    0.417   29.323
   83.048  100.437    0.427   30.773
   83.298   95.905    0.417   31.130
   83.548   80.472    0.383   33.305
   83.798   51.407    0.253   40.936
   84.048   26.887    0.186   28.198
   84.298   20.544    0.208   21.643
   84.548   19.651    0.234   19.089
   84.798   20.579    0.252   16.898
   85.048   24.226    0.226   15.799
   85.298   26.967    0.202   16.519
   85.548   29.705    0.192   17.603
   85.798   29.728    0.229   19.415
   86.048   28.834    0.248   21.226
   86.298   25.211    0.265   23.763
   86.548   19.778    0.254   25.213
   86.798   19.793    0.229   26.661
   87.048   20.717    0.207   28.108
   87.298   24.367    0.199   29.556
   87.548   27.105    0.188   29.549
   87.798   26.212    0.176   29.178
   88.048   23.501    0.155   30.625
   88.298   16.246    0.124   32.801
   88.548   13.539    0.094   35.340
   88.798   14.463    0.083   37.515
   89.048   15.391    0.083   40.052
   89.298   18.133    0.084   40.772
   89.548   19.057    0.088   40.401
   89.798   18.163    0.097   39.666
   90.048   17.270    0.115   37.839
   90.298   18.190    0.131   36.378
   90.548   20.932    0.126   30.187
   90.798   28.221    0.131   26.542
   91.048   27.328    0.133   22.895
   91.298   27.343    0.132   21.431
   91.548   27.354    0.128   20.697
