~VERSION INFORMATION
 VERS.                 2.0:   CWLS LOG ASCII STANDARD -VERSION 2.0
 WRAP.                  NO:   ONE LINE PER DEPTH STEP
~WELL INFORMATION BLOCK
#MNEM.UNIT           DATA                    DESCRIPTION OF MNEMONIC
#---------    -------------------            -------------------------------
# Generated from Intellog Unique Number	CN_91_93/WELL/1061
WELL.         PETRO-CANADA                   : Well_name    - WELL
LOC .         AA/10-26-091-16W4/0            : Location     - LOCATION
UWI .         AA/10-26-091-16W400            : Uwi          - UNIQUE WELL ID
ENTR.         JOETTE                         : Entered      - ENTERED BY
SRVC.         SCHLUMBERGER                   : Scn          - SERVICE COMPANY
DATE.         02/11/92                       : Date         - LOG DATE
STRT.F        250                            : top_depth    - START DEPTH
STOP.F        739.665                        : bot_depth    - STOP DEPTH
STEP.F        0.82                           : increment    - STEP LENGTH
 NULL. -999.2500:NULL Value
~CURVE INFORMATION BLOCK
#MNEM UNIT       ERCB CURVE CODE    CURVE DESCRIPTION
#-----------   ------------------   ----------------------------------
DEPT.F        00 001 00 00         : DEPTH        - DEPTH
GR  .API      00 310 00 00         : GR           - GAMMA RAY
CALI.MM       00 280 01 00         : CAL          - CALIPER
NPHI.V/V      00 330 00 00         : PHIN         - NEUTRON POROSITY (SANDSTONE)
DPHI.V/V      00 890 00 00         : PHID         - DENSITY POROSITY (SANDSTONE)
ILD .OHMM     00 120 00 00         : RESD         - DEEP RESISTIVITY (DIL)
~PARAMETER INFORMATION
#MNEM.UNIT           DATA             DESCRIPTION OF MNEMONIC
#---------         -----------     ------------------------------
GL  .F        1592.8               : gl           - GROUND LEVEL ELEVATION
EREF.F        1604.2               : kb           - ELEVATION OF DEPTH REFERENCE
DATM.F        1604.2               : datum        - DATUM ELEVATION
TDD .F        780                  : tdd          - TOTAL DEPTH DRILLER
RUN .         ONE                  : Run          - RUN NUMBER
ENG .         BILL                 : Engineer     - RECORDING ENGINEER
WIT .         JIM                  : Witness      - WITNESSED BY
MUD .         GEL                  : Mud_type     - MUD TYPE
MATR.         SANDSTONE            : Logunit      - NEUTRON MATRIX
TMAX.F        64                   : BHT          - MAXIMUM RECORDED TEMPERATURE
BHTD.F        780                  : BHTDEP       - MAXIMUM RECORDED TEMPERATURE
RMT .F        60                   : MDTP         - TEMPERATURE OF MUD
MUDD.LB/G     9.7                  : MWT          - MUD DENSITY
NEUT.         1                    : NEUTRON      - NEUTRON TYPE
RESI.         0                    : RESIST       - RESISTIVITY TYPE
RM  .OHMM     3.49                 : RM           - RESISTIVITY OF MUD
RMC .OHMM     3.49                 : RMC          - RESISTIVITY OF MUD CAKE
RMF .OHMM     3.49                 : RMF          - RESISTIVITY OF MUD FILTRATE
SUFT.F        39.2                 : SUFT         - SURFACE TEMPERATURE
~A  DEPTH       GR      CAL     PHIN     PHID     RESD
  250.000   53.476  358.477    0.532    0.405   16.638
  250.820   53.822  356.580    0.562    0.378   16.659
  251.640   52.692  354.225    0.587    0.395   15.338
  252.461   50.965  354.305    0.592    0.396   13.737
  253.281   53.133  356.898    0.596    0.433   14.544
  254.101   55.891  361.977    0.579    0.458   14.565
  254.921   57.438  362.096    0.564    0.408   11.769
  255.741   58.994  356.220    0.561    0.375    9.245
  256.562   62.050  339.402    0.562    0.368    8.274
  257.382   68.373  332.544    0.577    0.374    7.136
  258.202   76.502  330.176    0.595    0.356    6.389
  259.022   78.372  330.282    0.603    0.296    5.995
  259.843   78.742  332.862    0.606    0.284    5.891
  260.663   80.297  337.444    0.589    0.284    5.685
  261.483   83.942  339.539    0.570    0.279    5.484
  262.303   84.288  340.640    0.577    0.318    5.339
  263.123   84.666  342.762    0.580    0.340    5.253
  263.944   84.722  340.368    0.567    0.355    5.110
  264.764   84.801  330.512    0.568    0.368    4.838
  265.584   84.857  357.517    0.583    0.371    4.838
  266.404   85.219  344.167    0.593    0.367    4.633
  267.224   85.282  335.320    0.597    0.370    4.304
  268.045   85.047  342.389    0.600    0.382    4.114
  268.865   84.514  345.990    0.586    0.381    4.005
  269.685   83.989  347.588    0.565    0.390    3.864
  270.505   84.939  347.721    0.560    0.376    3.762
  271.325   85.309  357.761    0.572    0.386    3.630
  272.146   85.373  357.383    0.579    0.389    3.502
  272.966   85.130  344.556    0.587    0.396    3.474
  273.786   84.597  335.185    0.587    0.406    3.474
  274.606   84.959  332.817    0.597    0.393    3.420
  275.427   85.337  332.817    0.597    0.362    3.425
  276.247   85.989  330.556    0.589    0.380    3.462
  277.067   86.649  326.656    0.583    0.387    3.467
  277.887   87.310  322.769    0.573    0.351    3.538
  278.707   87.672  318.399    0.567    0.326    3.609
  279.528   87.146  312.038    0.576    0.334    3.648
  280.348   86.307  306.686    0.584    0.294    3.757
  281.168   83.692  308.284    0.582    0.226    3.980
  281.988   84.949  311.361    0.545    0.237    3.986
  282.808   92.175  311.964    0.564    0.297    3.918
  283.629   98.805  252.343    0.580    0.292    3.850
  284.449  100.667  221.100    0.583    0.296    3.860
  285.269  102.521  210.760    0.605    0.311    3.791
  286.089  104.077  206.403    0.603    0.312    3.726
  286.909  105.931  204.519    0.598    0.292    3.730
  287.730  105.107  203.107    0.585    0.290    3.737
  288.550  101.581  202.218    0.569    0.298    3.745
  289.370   98.959  201.355    0.567    0.299    3.782
  290.190  102.305  200.466    0.585    0.302    3.823
  291.010  103.877  200.075    0.597    0.316    3.901
  291.831  100.045  199.670    0.598    0.316    3.980
  292.651   95.035  198.768    0.576    0.293    4.215
  293.471   90.920  197.879    0.524    0.277    4.593
  294.291   89.193  197.527    0.510    0.280    4.728
  295.112   88.966  197.633    0.520    0.273    4.736
  295.932   88.126  197.739    0.538    0.273    4.698
  296.752   85.810  197.739    0.580    0.270    4.749
  297.572   82.874  198.475    0.586    0.243    5.842
  298.392   77.864  198.527    0.546    0.213    6.421
  299.213   74.644  198.660    0.478    0.165    7.825
  300.033   73.224  198.739    0.463    0.172    7.825
  300.853   77.457  199.840    0.488    0.224    9.467
  301.673   81.432  201.962    0.491    0.281    9.654
  302.493   81.480  204.057    0.515    0.276    9.755
  303.314   80.664  206.139    0.504    0.280    9.590
  304.134   79.808  207.738    0.492    0.287    9.424
  304.954   79.283  208.354    0.488    0.286    9.353
  305.774   79.637  206.484    0.470    0.273    9.451
  306.594   79.112  206.563    0.470    0.274    9.919
  307.415   77.377  210.177    0.467    0.278   10.905
  308.235   70.278  212.770    0.456    0.269   12.681
  309.055   67.058  215.873    0.452    0.276   13.306
  309.875   64.742  217.445    0.452    0.264   13.966
  310.696   63.604  220.562    0.455    0.313   14.250
  311.516   61.288  224.163    0.466    0.327   14.140
  312.336   59.263  225.734    0.487    0.335   14.024
  313.156   57.536  227.346    0.497    0.340   13.281
  313.976   56.688  224.964    0.507    0.349   12.228
  314.797   57.671  217.099    0.520    0.352   11.683
  315.617   59.210  207.257    0.529    0.354   11.064
  316.437   61.072  195.909    0.528    0.333   11.287
  317.257   62.039  190.557    0.524    0.324   13.379
  318.077   60.603  185.689    0.515    0.285   14.570
  318.898   57.383  184.289    0.460    0.271   15.143
  319.718   56.552  184.422    0.422    0.264   15.596
  320.538   57.809  186.007    0.419    0.266   15.329
  321.358   59.373  186.623    0.442    0.277   14.656
  322.178   59.428  186.703    0.441    0.286   14.005
  322.999   57.395  186.311    0.438    0.279   13.766
  323.819   55.675  184.925    0.450    0.279   15.277
  324.639   56.634  182.544    0.442    0.278   17.438
  325.459   58.795  179.678    0.397    0.230   17.792
  326.280   61.238  178.279    0.405    0.162   17.485
  327.100   63.398  177.887    0.441    0.224   16.868
  327.920   66.446  178.020    0.469    0.235   15.826
  328.740   71.890  178.020    0.480    0.257   14.708
  329.560   72.550  178.742    0.465    0.280   13.792
  330.381   73.501  179.829    0.461    0.277   12.822
  331.201   75.960  180.433    0.456    0.272   12.137
  332.021   79.613  181.023    0.451    0.281    9.624
  332.841   85.347  181.626    0.465    0.266    7.489
  333.661   90.185  182.229    0.503    0.237    5.939
  334.482   97.121  183.841    0.512    0.208    5.027
  335.302  100.467  184.941    0.523    0.203    4.587
  336.122  102.627  187.037    0.542    0.222    4.423
  336.942  101.804  189.630    0.561    0.254    4.149
  337.762  100.076  191.254    0.560    0.264    4.004
  338.583   97.752  191.334    0.564    0.276    3.898
  339.403   95.114  190.445    0.569    0.270    3.978
  340.223   90.701  189.556    0.572    0.267    4.892
  341.043   84.199  188.209    0.513    0.264    5.378
  341.864   80.972  187.307    0.471    0.255    5.857
  342.684   82.842  186.405    0.484    0.263    5.922
  343.504   84.099  186.013    0.488    0.276    5.659
  344.324   83.566  188.619    0.485    0.280    5.309
  345.144   79.443  191.199    0.510    0.282    5.121
  345.965   74.127  193.792    0.552    0.282    5.275
  346.785   62.245  197.419    0.539    0.263    6.487
  347.605   51.258  200.012    0.485    0.255    8.284
  348.425   48.039  200.012    0.376    0.177   10.282
  349.245   46.312  201.729    0.359    0.143   12.644
  350.066   47.868  203.301    0.346    0.153   18.922
  350.886   52.117  203.393    0.338    0.133   17.260
  351.706   56.964  164.703    0.376    0.149   14.075
  352.526   60.617  164.808    0.406    0.195   12.028
  353.346   67.851  165.398    0.453    0.265   11.071
  354.167   73.883  167.494    0.460    0.268   10.680
  354.987   80.512  170.584    0.463    0.263   10.113
  355.807   83.269  177.667    0.461    0.282    8.886
  356.627   83.333  195.208    0.495    0.279    7.383
  357.448   81.009  201.283    0.526    0.268    6.611
  358.268   73.902  205.368    0.560    0.283    6.200
  359.088   69.183  204.479    0.575    0.303    5.816
  359.908   66.560  194.623    0.569    0.328    7.288
  360.728   64.833  179.794    0.525    0.314    8.088
  361.549   64.001  173.931    0.493    0.295    8.408
  362.369   65.267  175.032    0.461    0.274    7.890
  363.189   75.477  178.646    0.445    0.224    6.679
  364.009   85.106  205.638    0.512    0.246    6.441
  364.829   83.678  208.204    0.549    0.312    6.099
  365.650   83.451  210.810    0.557    0.336    5.721
  366.470   85.603  207.434    0.542    0.351    5.468
  367.290   86.272  198.574    0.527    0.365    5.468
  368.110   85.730  195.211    0.523    0.377    5.387
  368.930   84.294  194.833    0.538    0.338    5.391
