~VERSION INFORMATION
 VERS.                 2.0:   CWLS LOG ASCII STANDARD -VERSION 2.0
 WRAP.                  NO:   ONE LINE PER DEPTH STEP
~WELL INFORMATION BLOCK
#MNEM.UNIT           DATA                    DESCRIPTION OF MNEMONIC
#---------    -------------------            -------------------------------
# Generated from Intellog Unique Number	CN_91_93/WELL/1061
WELL.         PETRO-CANADA                   : Well_name    - WELL
LOC .         AA/10-26-091-16W4/0            : Location     - LOCATION
UWI .         AA/10-26-091-16W400            : Uwi          - UNIQUE WELL ID
ENTR.         JOETTE                         : Entered      - ENTERED BY
SRVC.         SCHLUMBERGER                   : Scn          - SERVICE COMPANY
DATE.         02/11/92                       : Date         - LOG DATE
STRT.F        250                            : top_depth    - START DEPTH
STOP.F        739.665                        : bot_depth    - STOP DEPTH
STEP.F        0.82                           : increment    - STEP LENGTH
 NULL. -999.2500:NULL Value
~CURVE INFORMATION BLOCK
#MNEM UNIT       ERCB CURVE CODE    CURVE DESCRIPTION
#-----------   ------------------   ----------------------------------
DEPT.F        00 001 00 00         : DEPTH        - DEPTH
GR  .API      00 310 00 00         : GR           - GAMMA RAY
CALI.MM       00 280 01 00         : CAL          - CALIPER
NPHI.V/V      00 330 00 00         : PHIN         - NEUTRON POROSITY (SANDSTONE)
DPHI.V/V      00 890 00 00         : PHID         - DENSITY POROSITY (SANDSTONE)
ILD .OHMM     00 120 00 00         : RESD         - DEEP RESISTIVITY (DIL)
~PARAMETER INFORMATION
#MNEM.UNIT           DATA             DESCRIPTION OF MNEMONIC
#---------         -----------     ------------------------------
GL  .F        1592.8               : gl           - GROUND LEVEL ELEVATION
EREF.F        1604.2               : kb           - ELEVATION OF DEPTH REFERENCE
DATM.F        1604.2               : datum        - DATUM ELEVATION
TDD .F        780                  : tdd          - TOTAL DEPTH DRILLER
RUN .         ONE                  : Run          - RUN NUMBER
ENG .         BILL                 : Engineer     - RECORDING ENGINEER
WIT .         JIM                  : Witness      - WITNESSED BY
MUD .         GEL                  : Mud_type     - MUD TYPE
MATR.         SANDSTONE            : Logunit      - NEUTRON MATRIX
TMAX.F        64                   : BHT          - MAXIMUM RECORDED TEMPERATURE
BHTD.F        780                  : BHTDEP       - MAXIMUM RECORDED TEMPERATURE
RMT .F        60                   : MDTP         - TEMPERATURE OF MUD
MUDD.LB/G     9.7                  : MWT          - MUD DENSITY
NEUT.         1                    : NEUTRON      - NEUTRON TYPE
RESI.         0                    : RESIST       - RESISTIVITY TYPE
RM  .OHMM     3.49                 : RM           - RESISTIVITY OF MUD
RMC .OHMM     3.49                 : RMC          - RESISTIVITY OF MUD CAKE
RMF .OHMM     3.49                 : RMF          - RESISTIVITY OF MUD FILTRATE
SUFT.F        39.2                 : SUFT         - SURFACE TEMPERATURE
~A  DEPTH       GR      CAL     PHIN     PHID     RESD
# ...
  609.252   44.007  168.501    0.365    0.290   13.109
  610.072   44.982  169.589    0.370    0.326   12.408
  610.892   47.433  169.589    0.385    0.341   11.320
  611.713   49.585  179.330    0.419    0.326   10.923
  612.533   50.544  180.862    0.414    0.296   11.352
  613.353   50.011  183.455    0.420    0.272   12.481
  614.173   49.171  186.545    0.429    0.268   14.652
  614.993   50.154  192.660    0.438    0.247   14.652
  615.814   51.097  192.660    0.432    0.274   17.549
  616.634   51.459  196.353    0.445    0.312   21.179
  617.454   49.433  204.915    0.467    0.314   26.299
  618.274   44.730  206.997    0.473    0.311   31.449
  619.094   41.801  212.574    0.458    0.299   37.954
  619.915   39.170  226.621    0.437    0.320   56.268
  620.735   32.080  237.682    0.415    0.339   74.578
  621.555   26.457  244.254    0.377    0.328   84.338
  622.375   22.044  251.350    0.370    0.316   86.858
  623.196   18.526  253.432    0.383    0.307   87.782
  624.016   19.791  255.044    0.389    0.306   88.733
  624.836   21.645  255.044    0.391    0.312   88.971
  625.656   22.596  255.308    0.393    0.319   89.019
  626.476   24.176  254.851    0.395    0.325   87.466
  627.297   25.127  253.464    0.396    0.326   82.064
  628.117   26.675  252.078    0.394    0.318   76.280
  628.937   28.827  250.718    0.394    0.311   71.530
  629.757   32.488  248.350    0.403    0.324   64.641
  630.577   35.826  246.427    0.405    0.326   47.134
  631.398   43.367  242.554    0.403    0.305   39.154
  632.218   47.003  240.683    0.421    0.297   31.633
  633.038   50.059  239.794    0.428    0.289   29.663
  633.858   50.720  238.421    0.431    0.289   27.057
  634.678   51.686  235.543    0.456    0.280   25.391
  635.499   53.533  230.675    0.453    0.278   24.495
  636.319   58.081  229.786    0.448    0.285   21.317
  637.139   64.113  229.892    0.443    0.289   13.257
  637.959   74.339  229.984    0.456    0.297    8.886
  638.780   77.693  230.090    0.476    0.306    6.788
  639.600   79.540  228.220    0.503    0.290    5.183
  640.420   74.231  225.315    0.551    0.281    4.429
  641.240   58.776  222.934    0.580    0.275    5.248
  642.060   50.766  214.086    0.553    0.290    8.784
  642.881   41.272  209.245    0.454    0.304   12.780
  643.701   44.029  209.337    0.424    0.306   18.603
  644.521   47.375  208.435    0.409    0.308   21.026
  645.341   50.730  207.560    0.408    0.294   23.557
  646.161   53.181  206.658    0.411    0.293   19.035
  646.982   53.542  206.658    0.415    0.293   18.186
  647.802   47.629  205.901    0.420    0.292   17.220
  648.622   43.531  202.001    0.394    0.295   17.901
  649.442   43.594  198.639    0.392    0.317   22.022
  650.262   44.836  198.247    0.414    0.333   27.088
  651.083   45.504  196.363    0.417    0.335   27.897
  651.903   43.478  194.466    0.421    0.324   29.547
  652.723   42.356  193.080    0.425    0.307   30.720
  653.543   44.210  191.707    0.428    0.302   30.195
  654.364   46.952  191.302    0.440    0.326   28.315
  655.184   48.822  190.911    0.444    0.312   23.307
  656.004   50.071  190.022    0.448    0.311   18.655
  656.824   52.522  189.146    0.427    0.318   15.645
  657.644   57.361  188.257    0.415    0.315   14.537
  658.465   69.378  187.368    0.411    0.298   14.021
  659.285   77.201  186.977    0.410    0.289   17.906
  660.105   78.772  186.585    0.409    0.280   21.209
  660.925   76.731  187.712    0.404    0.271   23.541
  661.745   69.043  190.776    0.406    0.271   25.646
  662.566   63.138  193.880    0.408    0.272   26.915
  663.386   60.209  194.994    0.424    0.279   27.197
  664.206   61.175  195.086    0.434    0.255   27.265
  665.026   67.200  195.192    0.409    0.238   27.275
  665.846   73.240  194.814    0.393    0.236   26.808
  666.667   81.361  194.933    0.396    0.208   21.658
  667.487   83.530  195.536    0.399    0.170   19.941
  668.307   82.101  195.616    0.412    0.182   18.021
  669.127   79.180  195.722    0.414    0.226   17.220
  669.948   75.348  195.343    0.417    0.232   17.904
  670.768   70.040  193.944    0.420    0.229   18.787
  671.588   69.515  192.571    0.416    0.246   18.300
  672.408   73.151  191.668    0.399    0.260   17.485
  673.228   77.417  191.277    0.398    0.272   16.095
  674.049   74.182  189.406    0.415    0.239   14.548
  674.869   64.687  176.580    0.426    0.224   13.904
  675.689   59.379  173.702    0.412    0.213   14.451
  676.509   58.273  175.300    0.388    0.234   18.113
  677.329   58.619  177.382    0.386    0.260   19.911
  678.150   58.674  177.382    0.382    0.282   19.911
  678.970   67.997  178.628    0.375    0.272   20.550
  679.790   75.223  178.721    0.369    0.280   20.761
  680.610   77.989  178.342    0.396    0.288   20.029
  681.430   78.343  178.435    0.413    0.272   18.965
  682.251   80.197  180.517    0.414    0.268   17.954
  683.071   81.156  183.123    0.407    0.266   19.559
  683.891   67.781  182.221    0.406    0.259   23.394
  684.711   60.086  173.871    0.405    0.256   28.497
  685.531   58.956  164.540    0.381    0.288   29.629
  686.352   58.132  163.651    0.364    0.287   30.811
  687.172   56.098  163.651    0.359    0.294   30.003
  687.992   52.274  163.352    0.347    0.312   27.878
  688.812   53.249  163.352    0.345    0.340   22.515
  689.633   56.886  163.617    0.343    0.326   17.205
  690.453   61.434  164.678    0.367    0.325   14.154
  691.273   62.408  167.258    0.376    0.330   10.416
  692.093   63.956  170.361    0.379    0.320    9.238
  692.913   77.449  174.970    0.360    0.325    8.911
  693.734   86.482  179.042    0.357    0.328    9.528
  694.554   91.917  190.588    0.355    0.248   10.673
  695.374   97.950  194.673    0.356    0.207   11.625
  696.194   98.319  209.230    0.358    0.192   12.198
  697.014   98.093  208.838    0.410    0.180   12.335
  697.835  101.132  204.952    0.403    0.219   12.350
  698.655   94.041  197.099    0.398    0.246   12.717
  699.475   88.717  195.713    0.404    0.237   13.859
  700.295   83.768  195.552    0.396    0.240   17.669
  701.115   87.303  195.979    0.386    0.227   16.855
  701.936   89.650  194.435    0.382    0.214   15.633
  702.756   89.623  193.372    0.388    0.218   14.905
  703.576   86.903  192.325    0.400    0.244   14.752
  704.396   78.516  190.773    0.412    0.270   15.710
  705.217   76.691  184.750    0.428    0.294   17.039
  706.037   79.639  185.193    0.420    0.300   17.039
  706.857   84.967  186.606    0.408    0.263   16.817
  707.677   84.036  186.552    0.412    0.248   16.811
  708.497   78.932  183.005    0.424    0.254   17.735
  709.318   72.929  180.468    0.408    0.246   19.423
  710.138   71.104  177.922    0.392    0.196   20.677
  710.958   70.774  175.881    0.367    0.172   19.726
  711.778   71.328  174.306    0.360    0.159   18.131
  712.598   77.857  172.281    0.371    0.243   17.131
  713.419   82.892  168.734    0.401    0.285   16.337
  714.239   87.921  169.682    0.413    0.267   15.434
  715.059   88.778  172.577    0.407    0.248   14.586
  715.879   85.463  174.518    0.399    0.234   14.165
  716.699   86.311  175.457    0.396    0.231   14.165
  717.520   88.970  175.892    0.389    0.224   13.605
  718.340   94.000  178.811    0.374    0.227   13.342
  719.160   97.544  183.717    0.364    0.216   13.448
  719.980   96.608  186.643    0.363    0.180   13.448
  720.801   93.586  188.064    0.394    0.197   13.778
  721.621   92.655  188.996    0.415    0.212   14.414
  722.441   93.815  190.424    0.406    0.224   14.932
  723.261   95.566  191.868    0.398    0.207   15.327
  724.081   97.615  193.304    0.387    0.206   15.446
  724.902   98.183  193.732    0.365    0.215   15.287
  725.722   94.859  193.173    0.371    0.213   15.287
  726.542   93.639  192.126    0.380    0.207   15.231
  727.362   91.213  191.063    0.381    0.219   15.220
  728.182   89.690  190.015    0.386    0.233   15.197
