~VERSION INFORMATION
 VERS.                 2.0:   CWLS LOG ASCII STANDARD -VERSION 2.0
 WRAP.                  NO:   ONE LINE PER DEPTH STEP
~WELL INFORMATION BLOCK
#MNEM.UNIT           DATA                    DESCRIPTION OF MNEMONIC
#---------    -------------------            -------------------------------
# Generated from Intellog Unique Number	CN_91_93/WELL/3233
WELL.         PETRO-CANADA                   : Well_name    - WELL
LOC .         AA/10-26-092-17W4/0            : Location     - LOCATION
UWI .         AA/10-26-092-17W400            : Uwi          - UNIQUE WELL ID
ENTR.         JOETTE                         : Entered      - ENTERED BY
SRVC.         SCHLUMBERGER                   : Scn          - SERVICE COMPANY
DATE.         04/14/92                       : Date         - LOG DATE
STRT.F        290                            : top_depth    - START DEPTH
STOP.F        869.888                        : bot_depth    - STOP DEPTH
STEP.F        0.82                           : increment    - STEP LENGTH
 NULL. -999.2500:NULL Value
~CURVE INFORMATION BLOCK
#MNEM UNIT       ERCB CURVE CODE    CURVE DESCRIPTION
#-----------   ------------------   ----------------------------------
DEPT.F        00 001 00 00         : DEPTH        - DEPTH
CALI.IN       00 280 01 00         : CAL          - CALIPER
GR  .API      00 310 00 00         : GR           - GAMMA RAY
NPHI.V/V      00 330 00 00         : PHIN         - NEUTRON POROSITY (SANDSTONE)
DPHI.V/V      00 890 00 00         : PHID         - DENSITY POROSITY (SANDSTONE)
ILD .OHMM     00 120 00 00         : RESD         - DEEP RESISTIVITY (DIL)
~PARAMETER INFORMATION
#MNEM.UNIT           DATA             DESCRIPTION OF MNEMONIC
#---------         -----------     ------------------------------
GL  .F        1607.53              : gl           - GROUND LEVEL ELEVATION
EREF.F        1708.93              : kb           - ELEVATION OF DEPTH REFERENCE
DATM.F        1708.93              : datum        - DATUM ELEVATION
TDD .F        920                  : tdd          - TOTAL DEPTH DRILLER
RUN .         ONE                  : Run          - RUN NUMBER
ENG .         BILL                 : Engineer     - RECORDING ENGINEER
WIT .         JIM                  : Witness      - WITNESSED BY
MUD .         GEL                  : Mud_type     - MUD TYPE
MATR.         SANDSTONE            : Logunit      - NEUTRON MATRIX
TMAX.F        76                   : BHT          - MAXIMUM RECORDED TEMPERATURE
BHTD.F        920                  : BHTDEP       - MAXIMUM RECORDED TEMPERATURE
RMT .F        70                   : MDTP         - TEMPERATURE OF MUD
MUDD.LB/G     9                    : MWT          - MUD DENSITY
NEUT.         1                    : NEUTRON      - NEUTRON TYPE
RESI.         0                    : RESIST       - RESISTIVITY TYPE
RM  .OHMM     0.601                : RM           - RESISTIVITY OF MUD
RMC .OHMM     0.601                : RMC          - RESISTIVITY OF MUD CAKE
RMF .OHMM     0.601                : RMF          - RESISTIVITY OF MUD FILTRATE
SUFT.F        39.2                 : SUFT         - SURFACE TEMPERATURE
~A  DEPTH      CAL       GR     PHIN     PHID     RESD
# ...
  529.501    7.564  108.504    0.503    0.244    4.972
  530.322    7.645  102.404    0.515    0.215    4.880
  531.142    7.604   91.430    0.513    0.177    5.351
  531.962    7.319   87.766    0.454    0.139    7.185
  532.782    6.953   83.494    0.420    0.092   11.179
  533.602    6.871   79.830    0.404    0.153   12.033
  534.423    6.871   87.128    0.418    0.172   10.192
  535.243    6.910   93.207    0.412    0.223    8.632
  536.063    6.910   96.240    0.407    0.215    9.291
  536.883    6.909   95.009    0.402    0.223   11.169
  537.703    6.868   94.395    0.403    0.240   12.940
  538.524    6.786   93.776    0.409    0.207   12.242
  539.344    6.704   93.158    0.413    0.183   12.016
  540.164    6.703   93.145    0.404    0.170   13.419
  540.984    6.703   92.526    0.401    0.166   16.432
  541.804    6.824   93.734    0.411    0.176   14.709
  542.625    7.067   95.554    0.423    0.235   12.691
  543.445    7.431   97.980    0.434    0.212   12.228
  544.265    7.837   99.794    0.435    0.223   12.227
  545.085    7.917  101.002    0.433    0.217   10.944
  545.906    7.998  100.992    0.431    0.217    9.797
  546.726    7.835   99.155    0.449    0.222    9.977
  547.546    7.834   97.925    0.485    0.207   11.142
  548.366    8.605   96.700    0.487    0.206   10.937
  549.186    8.076   96.689    0.483    0.223    9.972
  550.007    7.791   96.071    0.473    0.222    9.609
  550.827    7.872   97.279    0.459    0.223    9.606
  551.647    7.871  100.922    0.451    0.228   10.531
  552.467    7.790  102.737    0.454    0.238   11.129
  553.287    7.545   99.685    0.442    0.246   11.545
  554.108    7.017   92.367    0.421    0.225   12.199
  554.928    6.691   87.483    0.349    0.169   16.995
  555.748    6.691   86.866    0.327    0.069   23.677
  556.568    6.811   89.901    0.332    0.119   20.054
  557.388    6.770   94.154    0.338    0.159   14.930
  558.209    6.729   94.142    0.339    0.216   12.187
  559.029    6.728   91.696    0.401    0.178   13.362
  559.849    6.728   89.252    0.393    0.176   16.666
  560.669    6.727   84.980    0.399    0.266   16.060
  561.490    6.767   87.406    0.411    0.276   12.871
  562.310    6.766   92.267    0.407    0.263   11.736
  563.130    6.766   94.691    0.395    0.250   12.400
  563.950    6.805   94.681    0.404    0.256   11.306
  564.770    6.845   95.280    0.420    0.262    9.576
  565.591    6.845   96.486    0.409    0.262   10.306
  566.411    6.885   97.694    0.404    0.250   10.692
  567.231    6.884   97.684    0.410    0.228   11.508
  568.051    6.883   98.892    0.411    0.215   11.719
  568.871    6.883  100.102    0.408    0.247   11.293
  569.692    6.882  101.919    0.403    0.240   11.714
  570.512    6.882  103.736    0.398    0.236   11.931
  571.332    6.881  101.899    0.392    0.234   12.151
  572.152    6.880  100.062    0.387    0.226   12.148
  572.972    6.920   99.443    0.384    0.220   11.706
  573.793    7.000   99.433    0.400    0.209   10.674
  574.613    7.041   98.812    0.423    0.220    9.733
  575.433    7.202   99.411    0.434    0.222   10.284
  576.253    7.323  100.619    0.443    0.189   11.485
  577.073    7.323  102.436    0.453    0.174   13.064
  577.894    7.038   99.384    0.423    0.150   14.322
  578.714    6.875   95.111    0.403    0.078   13.549
  579.534    7.118   95.710    0.438    0.124   11.060
  580.354    7.157   99.354    0.440    0.172    9.720
  581.175    7.035   98.732    0.434    0.242   10.655
  581.995    6.994   98.114    0.435    0.268   10.654
  582.815    6.993   97.495    0.447    0.300    9.363
  583.635    6.993   98.091    0.444    0.381    7.504
  584.455    7.154   96.861    0.437    0.427    6.014
  585.276    7.438   96.247    0.445    0.359    4.477
  586.096    8.371   98.064    0.472    0.326    3.722
  586.916    8.086   99.269    0.487    0.295    4.818
  587.736    7.476   99.868    0.463    0.265    7.497
  588.556    7.192   98.643    0.457    0.227    8.527
  589.377    7.028   96.197    0.456    0.213    9.700
  590.197    7.150   92.531    0.457    0.191   11.239
  591.017    7.311   91.300    0.457    0.225   10.632
  591.837    6.986   91.293    0.452    0.263    9.694
  592.657    7.269   93.110    0.457    0.279    9.003
  593.478    8.690   95.536    0.484    0.247    8.676
  594.298    8.567   97.964    0.482    0.197    9.167
  595.118    8.445  100.390    0.455    0.184   10.237
  595.938    7.835  102.207    0.445    0.205   11.645
  596.759    7.307  103.410    0.428    0.210   13.004
  597.579    6.859  100.360    0.400    0.225   14.522
  598.399    6.656   93.043    0.404    0.196   15.630
  599.219    6.574   94.251    0.407    0.175   15.627
  600.039    6.573   98.504    0.399    0.154   14.784
  600.860    6.572  104.578    0.391    0.191   13.986
  601.680    6.572  103.348    0.396    0.205   14.243
  602.500    6.571  102.125    0.395    0.213   14.506
  603.320    6.570   97.850    0.394    0.210   14.772
  604.140    6.570   99.058    0.398    0.213   15.045
  604.961    6.569  100.266    0.403    0.211   15.043
  605.781    6.569  100.256    0.408    0.208   14.495
  606.601    6.608  100.246    0.403    0.202   14.228
  607.421    6.608   99.627    0.394    0.211   14.489
  608.241    6.648   97.788    0.393    0.235   14.756
  609.062    6.647   95.344    0.398    0.248   14.484
  609.882    6.687   92.898    0.402    0.251   13.957
  610.702    6.686   96.545    0.408    0.226   14.479
  611.522    6.686   98.968    0.410    0.228   15.299
  612.343    6.644   99.567    0.403    0.258   16.165
  613.163    6.603   98.342    0.398    0.260   16.463
  613.983    6.562   91.633    0.388    0.235   16.159
  614.803    6.561   92.232    0.383    0.209   15.287
  615.623    6.560   92.831    0.374    0.188   18.378
  616.444    6.519   90.994    0.350    0.165   30.224
  617.264    6.519   75.146    0.281    0.030   66.752
  618.084    6.436   75.139    0.237   -0.013  147.426
  618.904    6.436   68.430    0.225   -0.034  238.019
  619.724    6.395   65.373    0.229   -0.034  280.900
  620.545    6.313   64.145    0.242   -0.027  260.900
  621.365    6.231   60.481    0.259   -0.008  212.982
  622.185    6.230   64.128    0.308    0.069   89.547
  623.005    6.230   68.380    0.332    0.130   63.079
  623.825    6.310   72.024    0.370    0.167   41.274
  624.646    6.431   75.059    0.382    0.208   33.078
  625.466    6.512   82.352    0.333    0.042   20.862
  626.286    6.633   80.520    0.256    0.026   30.155
  627.106    6.673   73.811    0.229    0.027   42.011
  627.927    6.672   62.231    0.262    0.154   75.758
  628.747    6.631   68.920    0.334    0.172  109.506
  629.567    6.590   74.999    0.360    0.231   74.347
  630.387    6.548   79.861    0.375    0.237   46.889
  631.207    6.507   85.939    0.384    0.243   27.981
  632.028    6.506   88.367    0.395    0.216   20.831
  632.848    6.587   92.011    0.400    0.205   16.694
  633.668    6.627   92.001    0.402    0.197   17.002
  634.488    6.667   88.944    0.394    0.153   19.340
  635.308    6.707   84.062    0.363    0.083   24.122
  636.129    6.706   79.180    0.312    0.022   52.303
  636.949    6.746   74.905    0.335    0.114   68.948
  637.769    6.786   82.205    0.390    0.147   18.625
  638.589    6.907   91.939    0.399    0.193    9.951
  639.409    7.069   98.625    0.415    0.189    8.745
  640.230    7.190  102.269    0.419    0.195    9.587
  641.050    7.230  104.088    0.420    0.205   11.315
  641.870    7.189  104.078    0.426    0.211   12.870
  642.690    7.147  102.241    0.432    0.188   11.954
  643.510    7.106  104.058    0.430    0.203   10.313
  644.331    7.064  107.093    0.428    0.174   10.503
  645.151    7.023  107.690    0.421    0.187   12.396
  645.971    6.901  108.898    0.416    0.198   12.167
  646.791    6.778  108.281    0.444    0.179   10.692
  647.612    6.656  102.791    0.455    0.148   11.091
  648.432    6.655   98.518    0.436    0.130   12.387
