~VERSION INFORMATION
 VERS.                 2.0:   CWLS LOG ASCII STANDARD -VERSION 2.0
 WRAP.                  NO:   ONE LINE PER DEPTH STEP
~WELL INFORMATION BLOCK
#MNEM.UNIT           DATA                    DESCRIPTION OF MNEMONIC
#---------    -------------------            -------------------------------
# Generated from Intellog Unique Number	CS_73_76/WELL/3242
WELL.         10-26-076-06W4                 : Well_name    - WELL
LOC .         AA/10-26-076-06W4/0            : Location     - LOCATION
UWI .         AA/10-26-076-06W4/0            : Uwi          - UNIQUE WELL ID
ENTR.         SP                             : Entered      - ENTERED BY
SRVC.         SCHLUMBERGER                   : Scn          - SERVICE COMPANY
STRT.M        145                            : top_depth    - START DEPTH
STOP.M        385                            : bot_depth    - STOP DEPTH
STEP.M        0.25                           : increment    - STEP LENGTH
 NULL. -999.2500:NULL Value
~CURVE INFORMATION BLOCK
#MNEM UNIT       ERCB CURVE CODE    CURVE DESCRIPTION
#-----------   ------------------   ----------------------------------
DEPT.M        00 001 00 00         : DEPTH        - DEPTH
ILD .OHMM     00 120 00 00         : RESD         - DEEP RESISTIVITY (DIL)
DPHI.V/V      00 890 00 00         : PHID         - DENSITY POROSITY (LIMESTONE)
NPHI.V/V      00 330 00 00         : PHIN         - NEUTRON POROSITY (LIMESTONE)
GR  .API      00 310 00 00         : GR           - GAMMA RAY
~PARAMETER INFORMATION
#MNEM.UNIT           DATA             DESCRIPTION OF MNEMONIC
#---------         -----------     ------------------------------
GL  .M        557                  : gl           - GROUND LEVEL ELEVATION
EREF.M        560.67               : kb           - ELEVATION OF DEPTH REFERENCE
DATM.M        557                  : datum        - DATUM ELEVATION
TDD .M        385                  : tdd          - TOTAL DEPTH DRILLER
RUN .         ONE                  : Run          - RUN NUMBER
ENG .         BILL                 : Engineer     - RECORDING ENGINEER
WIT .         JIM                  : Witness      - WITNESSED BY
MUD .         GEL                  : Mud_type     - MUD TYPE
MATR.         LIMESTONE            : Logunit      - NEUTRON MATRIX
TMAX.C        21                   : BHT          - MAXIMUM RECORDED TEMPERATURE
BHTD.M        385                  : BHTDEP       - MAXIMUM RECORDED TEMPERATURE
MATR.         1                    : LOGUNIT      - NEUTRON MATRIX
RMT .C        25                   : MDTP         - TEMPERATURE OF MUD
NEUT.         1                    : NEUTRON      - NEUTRON TYPE
RESI.         0                    : RESIST       - RESISTIVITY TYPE
RMC .OHMM     0.25                 : RMC          - RESISTIVITY OF MUD CAKE
RMF .OHMM     0.25                 : RMF          - RESISTIVITY OF MUD FILTRATE
SUFT.C        15                   : SUFT         - SURFACE TEMPERATURE
~A  DEPTH     RESD     PHID     PHIN       GR
# ...
  362.500   53.841    0.316    0.405   40.812
  362.750   45.480    0.316    0.382   38.993
  363.000   36.999    0.304    0.375   43.857
  363.250   27.919    0.290    0.381   60.260
  363.500   22.712    0.275    0.408   67.552
  363.750   18.477    0.290    0.447   64.520
  364.000   18.841    0.300    0.430   60.275
  364.250   24.537    0.263    0.410   71.819
  364.500   31.958    0.243    0.422   76.682
  364.750   39.335    0.248    0.439   72.437
  365.000   44.903    0.285    0.439   59.082
  365.250   44.933    0.310    0.412   49.371
  365.500   44.961    0.305    0.400   42.088
  365.750   48.517    0.293    0.398   50.597
  366.000   52.336    0.274    0.406   54.852
  366.250   70.775    0.269    0.403   57.894
  366.500   79.290    0.306    0.420   56.077
  366.750   83.953    0.325    0.437   48.188
  367.000   82.454    0.317    0.406   45.157
  367.250   77.980    0.320    0.410   45.770
  367.500   72.370    0.328    0.409   42.739
  367.750   67.171    0.323    0.388   41.529
  368.000   62.331    0.300    0.378   46.394
  368.250   58.953    0.288    0.380   49.436
  368.500   63.610    0.302    0.400   51.262
  368.750   71.252    0.307    0.410   48.839
  369.000   78.340    0.311    0.397   49.452
  369.250   75.501    0.317    0.411   49.457
  369.500   67.483    0.322    0.428   47.033
  369.750   60.313    0.320    0.422   45.216
  370.000   51.915    0.326    0.410   44.614
  370.250   43.043    0.321    0.421   45.836
  370.500   37.051    0.314    0.416   47.054
  370.750   33.745    0.310    0.411   51.920
  371.000   31.318    0.302    0.421   53.744
  371.250   29.617    0.300    0.418   58.609
  371.500   25.497    0.299    0.412   62.258
  371.750   22.363    0.286    0.411   64.085
  372.000   19.615    0.267    0.408   65.912
  372.250   18.903    0.282    0.409   68.346
  372.500   22.407    0.267    0.374   78.676
  372.750   32.064    0.210    0.389   95.685
  373.000   41.755    0.203    0.428   98.726
  373.250   80.740    0.186    0.390   87.800
  373.500  147.554    0.192    0.335   63.514
  373.750  188.593    0.268    0.352   49.552
  374.000  219.378    0.285    0.374   38.627
  374.250  168.667    0.259    0.303   38.025
  374.500   94.186    0.259    0.304   35.600
  374.750   72.408    0.274    0.311   34.391
  375.000   38.209    0.299    0.354   39.864
  375.250   25.751    0.306    0.363   47.156
  375.500   20.177    0.282    0.316   50.804
  375.750   16.727    0.258    0.304   41.093
  376.000   15.525    0.269    0.318   35.027
  376.250   15.835    0.258    0.333   33.818
  376.500   16.447    0.258    0.342   34.430
  376.750   19.496    0.301    0.381   33.827
  377.000   23.111    0.326    0.391   32.011
  377.250   25.410    0.326    0.392   30.194
  377.500   24.028    0.321    0.393   27.163
  377.750   19.927    0.327    0.393   28.384
  378.000   18.839    0.311    0.383   28.995
  378.250   15.326    0.302    0.376   25.966
  378.500   12.707    0.326    0.375   24.756
  378.750   10.339    0.325    0.389   25.976
  379.000    9.069    0.337    0.407   27.195
  379.250    8.415    0.328    0.402   29.632
  379.500    7.810    0.299    0.387   29.635
  379.750    7.249    0.295    0.375   29.640
  380.000    6.857    0.307    0.387   29.038
  380.250    6.608    0.333    0.406   28.437
  380.500    6.366    0.334    0.414   28.441
  380.750    6.023    0.326    0.416   28.449
  381.000    5.913    0.298    0.389   28.453
  381.250    5.700    0.321    0.397   27.854
  381.500    5.702    0.344    0.406   27.857
  381.750    5.600    0.323    0.399   27.861
  382.000    5.605    0.310    0.387   27.867
  382.250    5.607    0.296    0.384   27.875
  382.500    5.611    0.330    0.383   27.879
  382.750    5.616    0.339    0.383   27.883
  383.000    5.618    0.318    0.381   27.891
  383.250    5.623    0.316    0.379   27.895
  383.500    5.627    0.321    0.379   27.898
  383.750    5.631    0.320    0.380   27.905
  384.000    5.742    0.315    0.382   27.911
  384.250    5.744    0.312    0.384   27.917
  384.500    5.749    0.326    0.387   28.527
  384.750    5.752    0.312    0.387   28.534
  385.000    5.756    0.268    0.388   28.540
