~VERSION INFORMATION
 VERS.                 2.0:   CWLS LOG ASCII STANDARD -VERSION 2.0
 WRAP.                  NO:   ONE LINE PER DEPTH STEP
~WELL INFORMATION BLOCK
#MNEM.UNIT           DATA                    DESCRIPTION OF MNEMONIC
#---------    -------------------            -------------------------------
# Generated from Intellog Unique Number	CC_88_90/WELL/3145
WELL.         TRIAD OIL CO.                  : Well_name    - WELL
LOC .         AA/10-07-089-11W4/0            : Location     - LOCATION
UWI .         AA/10-07-089-11W400            : Uwi          - UNIQUE WELL ID
ENTR.         JOETTE                         : Entered      - ENTERED BY
SRVC.         SCHLUMBERGER                   : Scn          - SERVICE COMPANY
DATE.         03/11/92                       : Date         - LOG DATE
STRT.M        60.960                         : top_depth    - START DEPTH
STOP.M        161.960                        : bot_depth    - STOP DEPTH
STEP.M        0.25                           : increment    - STEP LENGTH
 NULL. -999.2500:NULL Value
~CURVE INFORMATION BLOCK
#MNEM UNIT       ERCB CURVE CODE    CURVE DESCRIPTION
#-----------   ------------------   ----------------------------------
DEPT.M        00 001 00 00         : DEPTH        - DEPTH
GR  .API      00 310 00 00         : GR           - GAMMA RAY
NPHI.V/V      00 330 00 00         : PHIN         - NEUTRON POROSITY (SANDSTONE)
ILD .OHMM     00 120 00 00         : RESD         - DEEP RESISTIVITY (DIL)
~PARAMETER INFORMATION
#MNEM.UNIT           DATA             DESCRIPTION OF MNEMONIC
#---------         -----------     ------------------------------
GL  .M        459.273              : gl           - GROUND LEVEL ELEVATION
EREF.M        461.01               : kb           - ELEVATION OF DEPTH REFERENCE
DATM.M        461.01               : datum        - DATUM ELEVATION
TDD .M        189.586              : tdd          - TOTAL DEPTH DRILLER
RUN .         ONE                  : Run          - RUN NUMBER
ENG .         BILL                 : Engineer     - RECORDING ENGINEER
WIT .         JIM                  : Witness      - WITNESSED BY
MUD .         GEL                  : Mud_type     - MUD TYPE
MATR.         SANDSTONE            : Logunit      - NEUTRON MATRIX
TMAX.C        23.8889              : BHT          - MAXIMUM RECORDED TEMPERATURE
BHTD.M        189.586              : BHTDEP       - MAXIMUM RECORDED TEMPERATURE
RMT .C        23.8889              : MDTP         - TEMPERATURE OF MUD
MUDD.KG/M     9583.33              : MWT          - MUD DENSITY
NEUT.         1                    : NEUTRON      - NEUTRON TYPE
RESI.         0                    : RESIST       - RESISTIVITY TYPE
RM  .OHMM     3.85                 : RM           - RESISTIVITY OF MUD
RMC .OHMM     3.85                 : RMC          - RESISTIVITY OF MUD CAKE
RMF .OHMM     3.85                 : RMF          - RESISTIVITY OF MUD FILTRATE
SUFT.C        4                    : SUFT         - SURFACE TEMPERATURE
~A  DEPTH       GR     PHIN     RESD
   60.960   85.425    0.539   32.597
   61.210   84.199    0.545   31.809
   61.460   87.275    0.430   77.686
   61.710   96.496    0.386   87.761
   61.960  112.478    0.391   64.843
   62.210  106.336    0.466   45.746
   62.460  105.725    0.533   31.681
   62.710  119.863    0.520   26.669
   62.960  127.241    0.538   22.461
   63.210  113.723    0.554   28.308
   63.460  111.268    0.552   28.324
   63.710  124.792    0.537   23.111
   63.960  121.108    0.521   18.304
   64.210  110.048    0.526   15.299
   64.460  109.437    0.539   19.537
   64.710  105.138    0.556   22.167
   64.960  102.683    0.548   19.166
   65.210  103.916    0.543   16.571
   65.460  112.523    0.546   16.188
   65.710  105.765    0.552   15.794
   65.960   93.477    0.544   14.602
   66.210  100.855    0.531   14.618
   66.460   95.942    0.544   16.447
   66.710  108.237    0.558   16.262
   66.960  115.614    0.564   15.275
   67.210  119.920    0.571   14.486
   67.460  127.297    0.577   14.707
   67.710  112.551    0.567   15.318
   67.960  104.565    0.537   15.333
   68.210  107.641    0.522   16.157
   68.460  118.706    0.525   20.798
   68.710  121.168    0.539   21.014
   68.960  121.171    0.555   20.024
   69.210  109.497    0.550   20.245
   69.460   90.449    0.563   21.064
   69.710   89.838    0.566   20.477
   69.960   93.528    0.558   18.079
   70.210   94.760    0.546   14.877
   70.460  108.899    0.538   15.294
   70.710  120.578    0.535   17.120
   70.960  126.727    0.557   17.746
   71.210  125.501    0.570   16.756
   71.460  106.453    0.579   16.160
   71.710   84.331    0.589   15.371
   71.960   97.856    0.584   15.395
   72.210   89.255    0.574   15.406
   72.460   91.102    0.553   15.221
   72.710   99.094    0.542   14.231
   72.960   99.712    0.551   13.643
   73.210  102.173    0.565   13.859
   73.460   96.030    0.577   14.277
   73.710  102.794    0.575   14.497
   73.960  124.307    0.555   13.909
   74.210  135.987    0.555   14.323
   74.460  129.230    0.573   15.553
   74.710  116.941    0.577   15.367
   74.960  102.195    0.574   14.780
   75.210  112.646    0.567   14.389
   75.460  114.493    0.574   13.604
   75.710  118.183    0.585   13.213
   75.960  121.874    0.573   12.826
   76.210  118.189    0.556   12.641
   76.460  115.734    0.540   13.461
   76.710  118.196    0.546   16.295
   76.960  120.043    0.562   19.931
   77.210  108.984    0.578   16.729
   77.460  100.998    0.565   14.532
   77.710  102.229    0.556   12.737
   77.960  113.295    0.555   12.753
   78.210  102.850    0.558   12.969
   78.460  101.625    0.564   12.784
   78.710  104.701    0.577   12.196
   78.960  110.849    0.589   11.407
   79.210  112.082    0.580   11.426
   79.460  105.325    0.563   12.045
   79.710  109.630    0.579   11.863
   79.960  109.633    0.576   11.074
   80.210  107.792    0.573   10.684
   80.460  108.410    0.577   10.305
   80.710   99.809    0.569   10.316
   80.960   99.812    0.585   10.328
   81.210   97.972    0.612   10.146
   81.460   83.225    0.604   10.146
   81.710   88.145    0.584   10.591
   81.960   94.909    0.573   10.799
   82.210   89.380    0.560   10.815
   82.460   91.842    0.550   10.826
   82.710  101.678    0.541   10.846
   82.960  102.296    0.531   11.662
   83.210   93.081    0.515   17.714
   83.460  105.375    0.529   17.931
   83.710  120.742    0.542   15.935
   83.960  120.131    0.554   14.543
   84.210  117.061    0.538   13.959
   84.460  120.137    0.519   19.408
   84.710  109.079    0.515   21.229
   84.960   99.249    0.499   23.058
   85.210   94.949    0.475   22.069
   85.460   98.640    0.486   24.497
   85.710   99.258    0.508   18.275
   85.960  100.490    0.521   14.473
   86.210   98.650    0.522   15.490
   86.460   91.892    0.519   16.318
   86.710   96.197    0.516   15.529
   86.960  108.492    0.527   14.740
   87.210   94.975    0.525   13.545
   87.460   95.593    0.519   11.549
   87.710  102.356    0.530   10.764
   87.960   92.526    0.549   11.182
   88.210  101.747    0.557   12.207
   88.460  100.522    0.544   12.616
   88.710   89.463    0.532   13.440
   88.960   88.852    0.521   13.661
   89.210   94.386    0.513   14.279
   89.460   98.691    0.532   15.699
   89.710   95.621    0.540   19.338
   89.960   88.864    0.533   16.936
   90.210   91.325    0.525   13.332
   90.460  118.369    0.518   12.543
   90.710  104.852    0.525   11.955
   90.960   93.178    0.532   12.779
   91.210   90.723    0.527   11.993
   91.460   89.498    0.513   15.223
   91.710  112.239    0.490   23.286
   91.960  123.919    0.498   22.899
   92.210  113.475    0.517   17.686
   92.460  114.708    0.511   13.680
   92.710  114.710    0.525   12.686
   92.960  104.266    0.542   11.897
   93.210   98.738    0.536   14.329
   93.460   97.512    0.515   16.356
   93.710  109.806    0.468   16.375
   93.960  120.258    0.414   16.793
   94.210  110.427    0.366   16.808
   94.460  107.357    0.348   18.231
   94.710  109.819    0.436   26.294
   94.960  108.593    0.527   64.128
   95.210  108.597    0.580   54.089
   95.460  116.589    0.597   33.986
   95.710  112.290    0.595    9.058
   95.960   93.241    0.586    7.062
   96.210   87.099    0.576    8.087
   96.460   82.800    0.552    8.706
   96.710   80.960    0.532    9.723
   96.960   72.974    0.537   11.347
   97.210   64.987    0.526   14.387
   97.460   74.823    0.529   15.203
   97.710   83.430    0.532   15.822
   97.960   88.350    0.528   15.234
   98.210   96.957    0.538   14.445
   98.460  116.012    0.528   14.062
   98.710  106.797    0.541   13.474
   98.960  117.862    0.555   13.493
   99.210  127.084    0.553   14.112
   99.460  120.327    0.529   14.928
   99.710  116.642    0.497   16.552
   99.960  120.948    0.505   20.594
  100.210  124.024    0.508   19.000
  100.460  128.329    0.514   14.789
  100.710  116.655    0.520   11.989
  100.960  110.512    0.510   13.621
  101.210   95.766    0.512   14.236
  101.460   90.239    0.515   15.461
  101.710   97.002    0.520   16.277
  101.960  102.536    0.528   14.483
  102.210  110.528    0.531   14.700
  102.460  106.844    0.532   16.127
  102.710  111.764    0.525   14.935
  102.960  106.850    0.503   14.146
  103.210  108.697    0.496   19.797
  103.460  105.627    0.512   21.019
  103.710   93.954    0.522   18.014
  103.960   93.957    0.517   15.013
  104.210  104.408    0.491   20.261
  104.460  102.567    0.467   18.064
  104.710  110.560    0.478   17.074
  104.960  116.708    0.490   17.492
  105.210  103.806    0.498   15.496
  105.460   81.685    0.513   13.906
  105.710   82.302    0.492   14.726
  105.960  101.972    0.501   16.548
  106.210  102.590    0.506   21.796
  106.460   88.457    0.475   21.208
  106.710   79.857    0.438   18.810
  106.960   83.548    0.422   16.211
  107.210   81.093    0.472   23.068
  107.460   77.408    0.484   28.714
  107.710   94.619    0.479   27.322
  107.960  107.528    0.484   18.690
  108.210  105.073    0.487   21.119
  108.460   96.472    0.444   30.590
  108.710  105.079    0.381   22.960
  108.960  108.770    0.371   18.953
  109.210   95.867    0.389   29.229
  109.460   91.568    0.413   30.048
  109.710   87.884    0.483   23.025
  109.960   89.116    0.499   19.823
  110.210   77.443    0.511   17.422
  110.460   80.519    0.490   15.426
  110.710  111.865    0.476   14.436
  110.960  114.941    0.484   17.878
  111.210  114.329    0.516   16.280
  111.460  111.260    0.530   14.084
  111.710   84.836    0.522   14.300
  111.960   81.767    0.507   14.726
  112.210   84.843    0.512   14.935
  112.460   89.148    0.531   17.769
  112.710  103.900    0.544   17.584
  112.960  130.330    0.535   15.789
  113.210  124.188    0.529   14.200
  113.460  111.899    0.526   13.813
  113.710  104.529    0.519   13.430
  113.960  105.146    0.514   13.438
  114.210   91.013    0.535   13.863
  114.460   85.486    0.539   14.273
  114.710   83.031    0.528   16.307
  114.960   82.420    0.518   18.732
