~VERSION INFORMATION
 VERS.                 2.0:   CWLS LOG ASCII STANDARD -VERSION 2.0
 WRAP.                  NO:   ONE LINE PER DEPTH STEP
~WELL INFORMATION BLOCK
#MNEM.UNIT           DATA                    DESCRIPTION OF MNEMONIC
#---------    -------------------            -------------------------------
# Generated from Intellog Unique Number	CC_80_83/WELL/2338
NULL.         -999.25                        : NULL_VALUE
COMP.         PETRO CANADA                   : COMPANY
WELL.         PEX PCEJ HOUSE OV              : Well_name    - WELL
LOC .         10-08-081-14W4                 : Location     - LOCATION          
UWI .         AA/10-08-081-14W400            : Uwi          - UNIQUE WELL ID    
ENTR.         DW                             : Entered      - ENTERED BY        
SRVC.         SCHLUMBERGER                   : Scn          - SERVICE COMPANY   
DATE.         19 JAN 82                      : Date         - LOG DATE
STRT.M        200                            : top_depth    - START DEPTH       
STOP.M        379.996                        : bot_depth    - STOP DEPTH        
STEP.M        0.3                            : increment    - STEP LENGTH       
~CURVE INFORMATION BLOCK
#MNEM UNIT       ERCB CURVE CODE    CURVE DESCRIPTION
#-----------   ------------------   ----------------------------------
DEPT.M        00 001 00 00         : DEPTH        - DEPTH                       
DPHI.V/V      00 890 00 00         : PHID         - DENSITY POROSITY (LIMESTONE)
NPHI.V/V      00 330 00 00         : PHIN         - NEUTRON POROSITY (LIMESTONE)
GR  .API      00 310 00 00         : GR           - GAMMA RAY                   
ILD .OHMM     00 120 00 00         : RESD         - DEEP RESISTIVITY (DIL)      
~PARAMETER INFORMATION       
#MNEM.UNIT           DATA             DESCRIPTION OF MNEMONIC
#---------         -----------     ------------------------------
GL  .M        587.4                : gl           - GROUND LEVEL ELEVATION      
EREF.M        590.9                : kb           - ELEVATION OF DEPTH REFERENCE
DATM.M        590.9                : datum        - DATUM ELEVATION             
TDD .M        390                  : tdd          - TOTAL DEPTH DRILLER         
RUN .         ONE                  : Run          - RUN NUMBER                  
ENG .         BILL                 : Engineer     - RECORDING ENGINEER          
WIT .         JIM                  : Witness      - WITNESSED BY                
MUD .         GEL                  : Mud_type     - MUD TYPE                    
MATR.         LIMESTONE            : Logunit      - NEUTRON MATRIX              
TMAX.C        18.3                 : BHT          - MAXIMUM RECORDED TEMPERATURE
BHTD.M        390                  : BHTDEP       - MAXIMUM RECORDED TEMPERATURE
MATR.         1                    : LOGUNIT      - NEUTRON MATRIX              
RMT .C        25                   : MDTP         - TEMPERATURE OF MUD          
NEUT.         1                    : NEUTRON      - NEUTRON TYPE                
RESI.         0                    : RESIST       - RESISTIVITY TYPE            
RMC .OHMM     0.25                 : RMC          - RESISTIVITY OF MUD CAKE     
RMF .OHMM     0.25                 : RMF          - RESISTIVITY OF MUD FILTRATE 
SUFT.C        15                   : SUFT         - SURFACE TEMPERATURE         
~A  DEPTH     PHID     PHIN       GR     RESD
  200.000    0.338    0.387   66.961   12.774
  200.300    0.364    0.442   71.197   13.258
  200.600    0.375    0.457   73.603   13.508
  200.900    0.324    0.446   72.357   14.021
  201.200    0.303    0.436   63.806   14.018
  201.500    0.327    0.436   55.253   13.242
  201.800    0.334    0.434   49.744   12.747
  202.100    0.309    0.439   61.890   12.985
  202.400    0.332    0.443   64.298   13.480
  202.700    0.381    0.419   53.309   14.260
  203.000    0.394    0.347   49.629   14.805
  203.300    0.368    0.364   53.254   15.958
  203.600    0.355    0.388   61.138   16.259
  203.900    0.327    0.388   67.192   16.877
  204.200    0.335    0.437   71.423   16.872
  204.500    0.362    0.446   72.005   16.551
  204.800    0.362    0.443   67.715   14.772
  205.100    0.326    0.442   70.127   13.955
  205.400    0.328    0.435   81.053   13.183
  205.700    0.303    0.436   87.724   12.933
  206.000    0.278    0.462   83.428   12.929
  206.300    0.321    0.452   77.922   11.760
  206.600    0.320    0.406   74.842    9.552
  206.900    0.294    0.397   74.819    8.526
  207.200    0.299    0.402   79.044    8.055
  207.500    0.365    0.438   80.852    8.052
  207.800    0.433    0.468   78.383    8.203
  208.100    0.419    0.487   75.922    9.010
  208.400    0.336    0.494   76.501    8.674
  208.700    0.329    0.461   74.032    7.891
  209.000    0.296    0.417   69.739    7.178
  209.300    0.301    0.393   70.330    7.175
  209.600    0.308    0.423   75.169    8.032
  209.900    0.287    0.445   81.837    9.515
  210.200    0.302    0.454   92.152   10.259
  210.500    0.346    0.441   96.389   10.650
  210.800    0.346    0.419   97.577    9.873
  211.100    0.326    0.419   92.672    8.813
  211.400    0.333    0.448   89.605    8.645
  211.700    0.312    0.433   88.970    9.319
  212.000    0.287    0.407  101.113   10.432
  212.300    0.369    0.487  103.519   11.036
  212.600    0.391    0.523   99.232   11.458
  212.900    0.338    0.545   88.242    9.305
  213.200    0.333    0.494   79.081    8.152
  213.500    0.343    0.453   88.184    6.498
  213.800    0.272    0.424   83.894    6.138
  214.100    0.264    0.385  101.520    6.136
  214.400    0.293    0.345   90.533    7.989
  214.700    0.319    0.373   91.114   14.886
  215.000    0.296    0.408   95.956   21.298
  215.300    0.303    0.468   70.966   24.759
  215.600    0.314    0.432   59.974   25.704
  215.900    0.318    0.423   59.341   24.279
  216.200    0.313    0.442   53.222   24.270
  216.500    0.307    0.432   46.497   24.725
  216.800    0.323    0.425   46.471   23.801
  217.100    0.331    0.425   56.178   22.910
  217.400    0.331    0.427   55.544   22.477
  217.700    0.343    0.410   49.424   22.894
  218.000    0.359    0.370   48.174   23.325
  218.300    0.369    0.370   52.408   23.316
  218.600    0.382    0.399   60.907   23.307
  218.900    0.387    0.420   59.656   23.742
  219.200    0.364    0.406   46.236   23.738
  219.500    0.349    0.387   40.730   23.283
  219.800    0.347    0.382   49.218   22.841
  220.100    0.343    0.369   49.193   21.987
  220.400    0.346    0.356   46.123   21.167
  220.700    0.359    0.358   46.093   19.990
  221.000    0.368    0.347   50.325   19.610
  221.300    0.373    0.330   49.077   19.239
  221.600    0.389    0.339   49.049   18.876
  221.900    0.380    0.340   50.229   18.866
  222.200    0.392    0.339   50.814   18.862
  222.500    0.399    0.357   53.824   19.577
  222.800    0.405    0.378   55.623   19.572
  223.100    0.403    0.389   56.210   19.567
  223.400    0.409    0.397   50.693   19.195
  223.700    0.392    0.382   49.452   18.476
  224.000    0.391    0.366   51.249   17.785
  224.300    0.388    0.413   51.214   17.122
  224.600    0.386    0.445   51.184   16.482
  224.900    0.397    0.420   49.939   15.570
  225.200    0.360    0.408   49.910   14.706
  225.500    0.363    0.426   52.313   14.704
  225.800    0.360    0.408   53.509   15.262
  226.100    0.340    0.440   52.873   16.145
  226.400    0.324    0.465   50.411   16.141
  226.700    0.329    0.443   48.553   16.135
  227.000    0.345    0.451   46.092   15.531
  227.300    0.353    0.433   53.363   15.237
  227.600    0.356    0.421   55.164   15.233
  227.900    0.330    0.453   55.747   15.225
  228.200    0.324    0.436   53.279   15.221
  228.500    0.330    0.433   46.547   15.507
  228.800    0.366    0.464   44.696   16.402
  229.100    0.379    0.476   49.539   17.028
  229.400    0.358    0.486   50.721   17.023
  229.700    0.356    0.485   48.873   17.340
  230.000    0.347    0.467   45.193   17.336
  230.300    0.337    0.441   43.937   17.003
  230.600    0.360    0.486   46.344   16.997
  230.900    0.368    0.488   47.533   16.676
  231.200    0.358    0.448   47.508   15.457
  231.500    0.335    0.460   51.736   15.163
  231.800    0.331    0.483   52.932   14.596
  232.100    0.338    0.466   53.500   14.593
  232.400    0.332    0.465   53.485   14.586
  232.700    0.336    0.462   50.412   14.580
  233.000    0.339    0.459   44.288   14.304
  233.300    0.323    0.446   44.261   14.301
  233.600    0.323    0.469   46.665   14.293
  233.900    0.345    0.449   49.081   14.560
  234.200    0.317    0.437   55.739   14.556
  234.500    0.328    0.456   55.718   14.553
  234.800    0.340    0.464   53.245   14.546
  235.100    0.344    0.471   50.780   14.820
  235.400    0.340    0.457   51.965   15.380
  235.700    0.359    0.441   53.167   15.375
  236.000    0.374    0.407   54.353   15.663
  236.300    0.366    0.383   49.446   15.955
  236.600    0.344    0.419   50.029   16.254
  236.900    0.337    0.432   51.830   16.559
  237.200    0.321    0.433   51.791   16.555
  237.500    0.315    0.430   51.776   16.550
  237.800    0.319    0.434   52.355   16.236
  238.100    0.331    0.450   54.758   15.922
  238.400    0.342    0.445   54.114   15.917
  238.700    0.348    0.446   54.698   15.913
  239.000    0.318    0.468   61.360   15.909
  239.300    0.308    0.459   64.388   15.608
  239.600    0.334    0.467   67.397   15.602
  239.900    0.344    0.450   66.151   15.596
  240.200    0.340    0.417   61.250   15.298
  240.500    0.321    0.425   58.785   15.294
  240.800    0.362    0.448   57.526   15.003
  241.100    0.371    0.464   56.903   14.999
  241.400    0.365    0.460   68.446   14.712
  241.700    0.359    0.470   65.365   14.708
  242.000    0.371    0.497   61.075   14.426
  242.300    0.371    0.490   57.389   14.422
  242.600    0.354    0.435   57.370   14.419
  242.900    0.361    0.435   62.204   14.412
  243.200    0.387    0.450   61.566   14.139
  243.500    0.377    0.459   59.108   14.132
  243.800    0.368    0.472   59.073   14.397
  244.100    0.349    0.444   60.270   14.393
  244.400    0.350    0.436   61.456   14.385
  244.700    0.348    0.452   62.635   14.382
  245.000    0.337    0.466   65.657   14.379
  245.300    0.336    0.445   69.279   14.372
  245.600    0.356    0.449   69.858   14.368
  245.900    0.382    0.442   70.443   14.364
  246.200    0.377    0.445   67.372   14.357
  246.500    0.338    0.464   57.593   14.354
  246.800    0.344    0.469   56.354   14.349
  247.100    0.341    0.474   61.196   14.345
  247.400    0.334    0.481   70.906   14.339
  247.700    0.329    0.451   81.229   14.334
  248.000    0.339    0.449   89.111   14.062
  248.300    0.353    0.470   78.732   13.283
  248.600    0.349    0.474   73.837   12.082
  248.900    0.348    0.454   73.200   11.632
  249.201    0.344    0.442   76.204   10.580
  249.501    0.341    0.429   76.179    9.993
  249.801    0.335    0.442   78.585    9.990
  250.101    0.348    0.457   79.779    9.988
  250.401    0.364    0.484   73.050   10.173
  250.701    0.347    0.476   64.496   10.171
  251.001    0.362    0.451   59.598   10.361
  251.301    0.350    0.429   59.575   10.961
  251.601    0.338    0.401   55.891   12.042
  251.901    0.320    0.398   53.429   12.982
