~VERSION INFORMATION
 VERS.                 2.0:   CWLS LOG ASCII STANDARD -VERSION 2.0
 WRAP.                  NO:   ONE LINE PER DEPTH STEP
~WELL INFORMATION BLOCK
#MNEM.UNIT           DATA                    DESCRIPTION OF MNEMONIC
#---------    -------------------            -------------------------------
# Generated from Intellog Unique Number	CS_77_79/WELL/962
WELL.         PEX PCEJ LEISMER OV            : Well_name    - WELL
LOC .         AA/10-26-078-08W4/0            : Location     - LOCATION
UWI .         AA/10-26-078-08W4/0            : Uwi          - UNIQUE WELL ID
ENTR.         JHS                            : Entered      - ENTERED BY
SRVC.         SCHLUMBERGER                   : Scn          - SERVICE COMPANY
STRT.M        120                            : top_depth    - START DEPTH
STOP.M        335                            : bot_depth    - STOP DEPTH
STEP.M        0.25                           : increment    - STEP LENGTH
 NULL. -999.2500:NULL Value
~CURVE INFORMATION BLOCK
#MNEM UNIT       ERCB CURVE CODE    CURVE DESCRIPTION
#-----------   ------------------   ----------------------------------
DEPT.M        00 001 00 00         : DEPTH        - DEPTH
DPHI.V/V      00 890 00 00         : PHID         - DENSITY POROSITY (LIMESTONE)
NPHI.V/V      00 330 00 00         : PHIN         - NEUTRON POROSITY (LIMESTONE)
GR  .API      00 310 00 00         : GR           - GAMMA RAY
ILD .OHMM     00 120 00 00         : RESD         - DEEP RESISTIVITY (DIL)
RHOB.KG/M3    00 350 00 00         : DENS         - BULK DENSITY
~PARAMETER INFORMATION
#MNEM.UNIT           DATA             DESCRIPTION OF MNEMONIC
#---------         -----------     ------------------------------
GL  .M        560                  : gl           - GROUND LEVEL ELEVATION
EREF.M        563.58               : kb           - ELEVATION OF DEPTH REFERENCE
DATM.M        563.58               : datum        - DATUM ELEVATION
TDD .M        342                  : tdd          - TOTAL DEPTH DRILLER
RUN .         ONE                  : Run          - RUN NUMBER
ENG .         BILL                 : Engineer     - RECORDING ENGINEER
WIT .         JIM                  : Witness      - WITNESSED BY
MUD .         GEL                  : Mud_type     - MUD TYPE
MATR.         LIMESTONE            : Logunit      - NEUTRON MATRIX
TMAX.C        16                   : BHT          - MAXIMUM RECORDED TEMPERATURE
BHTD.M        342                  : BHTDEP       - MAXIMUM RECORDED TEMPERATURE
MATR.         1                    : LOGUNIT      - NEUTRON MATRIX
RMT .C        25                   : MDTP         - TEMPERATURE OF MUD
NEUT.         1                    : NEUTRON      - NEUTRON TYPE
RESI.         0                    : RESIST       - RESISTIVITY TYPE
RMC .OHMM     0.25                 : RMC          - RESISTIVITY OF MUD CAKE
RMF .OHMM     0.25                 : RMF          - RESISTIVITY OF MUD FILTRATE
SUFT.C        15                   : SUFT         - SURFACE TEMPERATURE
~A  DEPTH     PHID     PHIN       GR     RESD     DENS
# ...
  302.500    0.271    0.338  103.279   17.819 2247.370
  302.750    0.250    0.334  107.582   20.320 2282.820
  303.000    0.236    0.341  110.656   19.963 2305.750
  303.250    0.238    0.327  105.123   18.534 2303.660
  303.500    0.232    0.322  105.738   15.973 2314.090
  303.750    0.222    0.319  107.582   14.027 2330.770
  304.000    0.224    0.345  113.115   13.272 2326.600
  304.250    0.238    0.360  106.967   13.281 2303.650
  304.500    0.255    0.374  111.270   13.288 2274.460
  304.750    0.261    0.379  104.508   13.803 2264.030
  305.000    0.262    0.375   94.672   14.885 2261.940
  305.250    0.246    0.377   91.598   15.462 2289.050
  305.500    0.238    0.373  100.205   14.906 2303.640
  305.750    0.233    0.369  103.893   13.087 2311.980
  306.000    0.229    0.367  119.262   10.865 2318.240
  306.250    0.223    0.391  130.943    9.364 2328.660
  306.500    0.223    0.407  137.705    8.070 2328.660
  306.750    0.236    0.395  134.016    7.779 2305.710
  307.000    0.271    0.412  119.877    7.932 2247.320
  307.250    0.300    0.395  110.041    8.394 2197.270
  307.500    0.296    0.380  100.820    9.397 2203.530
  307.750    0.288    0.366   90.984   10.517 2218.120
  308.000    0.312    0.366   76.844   12.219 2176.410
  308.250    0.329    0.372   38.115   14.737 2147.220
  308.500    0.330    0.385   38.730   19.882 2145.130
  308.750    0.321    0.382   44.262   26.323 2161.810
  309.000    0.313    0.375   46.721   41.232 2174.320
  309.250    0.313    0.378   52.254   64.587 2174.320
  309.500    0.317    0.389   52.254   73.656 2168.050
  309.750    0.322    0.384   47.336   69.703 2159.710
  310.000    0.325    0.386   47.951   67.192 2153.450
  310.250    0.327    0.383   54.713   69.781 2151.370
  310.500    0.322    0.391   65.779   71.144 2159.700
  310.750    0.313    0.407   72.541   56.907 2174.300
  311.000    0.296    0.397   79.303   50.909 2203.490
  311.250    0.240    0.395   63.934   53.884 2299.420
  311.500    0.182    0.379   55.943   53.917 2399.510
  311.750    0.212    0.368   51.639   51.010 2347.380
  312.000    0.256    0.361   49.180   44.800 2272.300
  312.250    0.291    0.366   60.861   40.824 2211.820
  312.500    0.313    0.383   67.008   32.656 2174.280
  312.750    0.312    0.372   72.541   26.116 2176.370
  313.000    0.302    0.383   74.385   20.501 2193.050
  313.250    0.291    0.401   83.607   17.345 2211.810
  313.500    0.282    0.415   89.754   16.104 2228.490
  313.750    0.282    0.438   92.828   15.528 2228.490
  314.000    0.290    0.413   90.369   15.537 2213.890
  314.250    0.293    0.401   93.443   15.261 2209.720
  314.500    0.277    0.385   97.746   14.710 2236.820
  314.750    0.269    0.386  103.893   14.995 2249.330
  315.000    0.267    0.407  104.508   15.290 2253.500
  315.250    0.279    0.422  106.352   14.738 2232.650
  315.500    0.269    0.397  112.500   13.434 2249.330
  315.750    0.257    0.393  113.115   11.797 2270.180
  316.000    0.245    0.395  116.803   10.752 2291.030
  316.250    0.240    0.411  121.107    9.443 2299.370
  316.500    0.233    0.446  127.869    8.767 2311.880
  316.750    0.233    0.452  139.549    7.991 2311.880
  317.000    0.236    0.433  143.852    7.421 2305.620
  317.250    0.232    0.419  150.000    7.023 2313.960
  317.500    0.227    0.396  151.230    7.159 2322.300
  317.750    0.226    0.378  134.016    7.578 2324.380
  318.000    0.241    0.367  117.418    8.481 2297.270
  318.250    0.256    0.360  103.279    9.491 2272.240
  318.500    0.258    0.351   97.131   11.886 2268.070
  318.750    0.250    0.351   89.754   13.552 2282.660
  319.000    0.247    0.344   97.746   15.168 2286.830
  319.250    0.258    0.349  100.820   17.624 2268.060
  319.500    0.261    0.362  103.279   19.362 2263.890
  319.750    0.282    0.380   87.910   23.353 2228.430
  320.000    0.310    0.371   81.762   30.921 2180.470
  320.250    0.315    0.363   86.680   42.498 2172.120
  320.500    0.312    0.367   83.607   48.464 2176.290
  320.750    0.296    0.379   83.607   49.415 2203.400
  321.000    0.285    0.366   86.680   35.331 2222.160
  321.250    0.268    0.358   97.131   23.887 2251.360
  321.500    0.262    0.357  100.205   18.405 2261.780
  321.750    0.255    0.337  105.738   14.720 2274.290
  322.000    0.249    0.324  118.033   13.420 2284.710
  322.250    0.235    0.335  111.270   12.936 2307.650
  322.500    0.239    0.334  101.434   12.705 2301.390
  322.750    0.215    0.335  109.426   12.713 2343.100
  323.000    0.204    0.337  122.336   12.486 2361.860
  323.250    0.206    0.346  126.025   12.265 2357.690
  323.500    0.238    0.358  105.738   11.824 2303.470
  323.750    0.251    0.347   97.746   11.831 2280.530
  324.000    0.245    0.337   87.295   11.837 2290.950
  324.250    0.235    0.333   94.057   12.530 2307.630
  324.500    0.224    0.360   99.590   13.015 2326.400
  324.750    0.221    0.378  106.967   13.774 2332.650
  325.000    0.272    0.395   90.369   14.575 2245.060
  325.250    0.289    0.374   74.385   16.013 2215.870
  325.500    0.289    0.354   71.926   17.923 2215.860
  325.750    0.285    0.348   76.230   20.439 2222.120
  326.000    0.276    0.344   71.311   20.840 2238.800
  326.250    0.261    0.332   84.221   18.997 2263.820
  326.500    0.251    0.319   95.287   17.315 2280.500
  326.750    0.245    0.311  100.820   15.781 2290.930
  327.000    0.240    0.296  113.115   14.655 2299.260
  327.250    0.241    0.273  123.566   13.611 2297.180
  327.500    0.233    0.249  116.803   13.121 2311.770
  327.750    0.229    0.234  114.344   14.413 2318.030
  328.000    0.190    0.200  104.508   18.383 2384.750
  328.250    0.163    0.139   82.992   23.890    0.000
  328.500    0.063    0.088   47.336   34.730    0.000
  328.750    0.000    0.074   19.672   65.564    0.000
  329.000    0.015    0.072   18.443   95.320    0.000
  329.250    0.021    0.073   17.828  100.882    0.000
  329.500    0.022    0.078   17.213  100.937    0.000
  329.750    0.028    0.082   17.213   99.143    0.000
  330.000    0.038    0.087   17.828   92.080    0.000
  330.250    0.046    0.091   17.828   85.507    0.000
  330.500    0.051    0.094   18.443   79.398    0.000
  330.750    0.054    0.098   18.443   71.039    0.000
  331.000    0.051    0.099   18.443   64.749    0.000
  331.250    0.048    0.096   18.443   60.134    0.000
  331.500    0.044    0.096   18.443   57.970    0.000
  331.750    0.040    0.100   19.057   56.938    0.000
  332.000    0.039    0.101   19.672   55.921    0.000
  332.250    0.056    0.104   19.672   55.952    0.000
  332.500    0.056    0.102   19.672   58.123    0.000
  332.750    0.052    0.100   19.672   59.253    0.000
  333.000    0.048    0.095   19.672   63.899    0.000
  333.250    0.041    0.091   20.287   67.625    0.000
  333.500    0.035    0.089   20.902   70.243    0.000
  333.750    0.034    0.087   22.746   72.961    0.000
  334.000    0.032    0.088   27.049   74.383    0.000
  334.250    0.028    0.095   31.352   74.441    0.000
  334.500    0.026    0.100   32.582   73.100    0.000
  334.750    0.027    0.102   34.426   65.406    0.000
  335.000    0.037    0.107   33.812   56.371    0.000
