~VERSION INFORMATION
 VERS.                 2.0:   CWLS LOG ASCII STANDARD -VERSION 2.0
 WRAP.                  NO:   ONE LINE PER DEPTH STEP
~WELL INFORMATION BLOCK
#MNEM.UNIT           DATA                    DESCRIPTION OF MNEMONIC
#---------    -------------------            -------------------------------
# Generated from Intellog Unique Number	CN_94_101/WELL/2690
WELL.         16-30-094-15W4                 : Well_name    - WELL
LOC .         AA/16-30-094-15W4/0            : Location     - LOCATION
UWI .         AA/16-30-094-15W400            : Uwi          - UNIQUE WELL ID
ENTR.         JOETTE                         : Entered      - ENTERED BY
SRVC.         SCHLUMBERGER                   : Scn          - SERVICE COMPANY
DATE.         06/19/92                       : Date         - LOG DATE
STRT.F        100                            : top_depth    - START DEPTH
STOP.F        870.177                        : bot_depth    - STOP DEPTH
STEP.F        0.82                           : increment    - STEP LENGTH
 NULL. -999.2500:NULL Value
~CURVE INFORMATION BLOCK
#MNEM UNIT       ERCB CURVE CODE    CURVE DESCRIPTION
#-----------   ------------------   ----------------------------------
DEPT.F        00 001 00 00         : DEPTH        - DEPTH
CALI.IN       00 280 01 00         : CAL          - CALIPER
GR  .API      00 310 00 00         : GR           - GAMMA RAY
DPHI.V/V      00 890 00 00         : PHID         - DENSITY POROSITY (SANDSTONE)
ILD .OHMM     00 120 00 00         : RESD         - DEEP RESISTIVITY (DIL)
~PARAMETER INFORMATION
#MNEM.UNIT           DATA             DESCRIPTION OF MNEMONIC
#---------         -----------     ------------------------------
GL  .M        520.294              : gl           - GROUND LEVEL ELEVATION
EREF.M        523.342              : kb           - ELEVATION OF DEPTH REFERENCE
DATM.M        523.342              : datum        - DATUM ELEVATION
TDD .M        269.748              : tdd          - TOTAL DEPTH DRILLER
RUN .         ONE                  : Run          - RUN NUMBER
ENG .         BILL                 : Engineer     - RECORDING ENGINEER
WIT .         JIM                  : Witness      - WITNESSED BY
MUD .         GEL                  : Mud_type     - MUD TYPE
MATR.         SANDSTONE            : Logunit      - NEUTRON MATRIX
TMAX.F        68                   : BHT          - MAXIMUM RECORDED TEMPERATURE
BHTD.F        885                  : BHTDEP       - MAXIMUM RECORDED TEMPERATURE
RMT .F        68                   : MDTP         - TEMPERATURE OF MUD
MUDD.LB/G     9.5                  : MWT          - MUD DENSITY
NEUT.         1                    : NEUTRON      - NEUTRON TYPE
RESI.         0                    : RESIST       - RESISTIVITY TYPE
RM  .OHMM     0.84                 : RM           - RESISTIVITY OF MUD
RMC .OHMM     0.84                 : RMC          - RESISTIVITY OF MUD CAKE
RMF .OHMM     0.84                 : RMF          - RESISTIVITY OF MUD FILTRATE
SUFT.F        39.2                 : SUFT         - SURFACE TEMPERATURE
~A  DEPTH      CAL       GR     PHID     RESD
# ...
  242.717    8.840   47.354    0.353   16.733
  243.537    8.881   50.119    0.357   18.391
  244.357    8.884   48.978    0.369   21.377
  245.177    8.888   49.787    0.373   25.317
  245.997    8.890   51.383    0.363   29.443
  246.818    8.894   52.964    0.342   28.927
  247.638    8.856   55.339    0.336   27.378
  248.458    8.860   53.801    0.327   28.449
  249.278    8.863   49.932    0.332   30.127
  250.098    8.866   51.130    0.343   31.298
  250.919    8.869   54.682    0.355   31.329
  251.739    8.873   55.094    0.362   28.049
  252.559    8.875   47.326    0.366   27.544
  253.379    8.877   45.016    0.369   28.106
  254.199    8.881   45.045    0.372   28.651
  255.020    8.884   42.743    0.397   30.913
  255.840    8.887   45.890    0.385   30.952
  256.660    8.851   46.692    0.360   29.846
  257.480    8.854   43.992    0.362   27.725
  258.301    8.857   40.512    0.375   26.234
  259.121    8.861   37.820    0.392   25.781
  259.941    8.863   39.805    0.404   25.807
  260.761    8.866   41.386    0.399   25.833
  261.581    8.869   41.422    0.365   24.449
  262.402    8.911   41.841    0.350   24.480
  263.222    8.914   41.480    0.340   25.438
  264.042    8.955   39.560    0.344   25.950
  264.862    8.960   39.589    0.380   25.970
  265.682    9.002   41.972    0.386   25.509
  266.503    9.004   40.434    0.380   24.598
  267.323    9.007   40.073    0.365   25.573
  268.143    9.049   43.214    0.351   26.573
  268.963    9.051   50.657    0.334   25.150
  269.783    9.095   55.753    0.329   12.608
  270.604    9.098   60.077    0.329    7.072
  271.424    9.101   58.157    0.326    6.950
  272.244    9.103   58.186    0.320    6.333
  273.064    9.107   63.283    0.319    5.066
  273.885    9.109   71.895    0.310    4.887
  274.705    9.111   73.873    0.310    5.472
  275.525    9.116   71.174    0.323    5.376
  276.345    9.041   67.304    0.305    4.904
  277.165    9.044   70.062    0.288    5.000
  277.986    8.969   65.023    0.246    5.294
  278.806    8.971   53.358    0.215    6.884
  279.626    8.935   49.099    0.185    9.291
  280.446    8.938   52.246    0.300   12.544
  281.266    9.019   56.173    0.319   19.303
  282.087    9.101   66.345    0.313   12.337
  282.907    9.142   69.500    0.309    5.529
  283.727    9.145   69.132    0.318    4.766
  284.547    9.148   65.270    0.334    5.440
  285.367    9.151   64.519    0.334    5.979
  286.188    9.155   65.335    0.331    5.986
  287.008    9.158   62.628    0.306    5.770
  287.828    9.160   59.538    0.300    5.886
  288.648    9.164   60.347    0.299    6.715
  289.469    9.166   65.054    0.305    6.238
  290.289    9.130   67.819    0.307    5.583
  291.109    9.133   64.729    0.307    5.484
  291.929    9.176   62.029    0.299    5.917
  292.749    9.218   66.346    0.298    6.035
  293.570    9.221   67.935    0.289    5.929
  294.390    9.224   69.920    0.298    5.935
  295.210    9.226   70.339    0.309    5.723
  296.030    9.191   76.605    0.303    4.329
  296.850    9.233   75.075    0.304    3.874
  297.671    9.353   57.554    0.277    4.419
  298.491    9.317   52.126    0.234    6.929
  299.311    9.281   52.942    0.260   11.276
  300.131    9.284   56.479    0.284   11.714
  300.951    9.403   62.745    0.333    8.535
  301.772    9.446   64.348    0.325    6.456
  302.592    9.488   61.251    0.326    5.462
  303.412    9.451   58.162    0.338    5.676
  304.232    9.416   59.360    0.335    6.850
  305.052    9.379   63.287    0.307    7.965
  305.873    9.383   72.297    0.302    8.589
  306.693    9.424   77.386    0.291    8.760
  307.513    9.505   80.923    0.294    7.551
  308.333    9.627   80.960    0.293    5.819
  309.154    9.629   84.107    0.295    4.655
  309.974    9.632   81.407    0.297    4.660
  310.794    9.634   82.223    0.288    5.124
  311.614    9.598   83.422    0.299    4.942
  312.434    9.562   80.325    0.313    4.853
  313.255    9.488   71.778    0.325    5.043
  314.075    9.451   72.586    0.325    5.339
  314.895    9.376   72.226    0.318    4.689
  315.715    9.263   72.262    0.323    3.895
  316.535    9.188   70.342    0.322    4.282
  317.356    9.035   61.787    0.331    4.207
  318.176    8.882   48.173    0.342    4.133
  318.996    8.729   36.500    0.365    4.294
  319.816    8.577   36.146    0.391   10.346
  320.636    8.423   32.667    0.379   21.466
  321.457    8.192   29.967    0.372   25.422
  322.277    8.974   31.555    0.382   30.108
  323.097    8.977   29.245    0.381   28.496
  323.917    8.981   27.715    0.368   27.485
  324.738    8.984   30.083    0.365   26.997
  325.558    8.986   32.451    0.390   27.038
  326.378    8.990   34.061    0.396   27.058
  327.198    8.992   34.075    0.406   27.603
  328.018    8.997   34.494    0.403   27.624
  328.839    8.959   34.913    0.378   28.181
  329.659    8.963   36.111    0.377   28.202
  330.479    8.966   37.707    0.381   27.715
  331.299    8.970   38.126    0.395   27.750
  332.119    8.932   35.426    0.397   27.264
  332.940    8.936   30.387    0.390   27.291
  333.760    8.938   30.423    0.386   27.312
  334.580    8.941   32.012    0.382   27.855
  335.400    8.945   30.092    0.380   28.423
  336.220    8.948   28.561    0.378   28.981
  337.041    8.951   27.811    0.384   29.572
  337.861    8.954   27.053    0.396   29.595
  338.681    8.956   25.530    0.397   29.632
  339.501    8.959   26.728    0.396   29.654
  340.322    8.962   27.147    0.385   29.699
  341.142    8.966   27.183    0.374   29.722
  341.962    8.969   28.771    0.384   29.744
  342.782    8.972   30.757    0.390   29.782
  343.602    8.974   28.050    0.394   29.805
  344.423    9.018   30.418    0.397   29.834
  345.243    9.020   30.057    0.393   29.865
  346.063    9.024   28.526    0.389   29.902
  346.883    9.026   30.115    0.388   29.933
  347.703    9.030   31.703    0.390   29.970
  348.524    9.032   31.349    0.398   29.993
  349.344    9.036   29.819    0.401   29.475
  350.164    9.037   29.466    0.380   28.422
  350.984    9.041   27.928    0.367   27.408
  351.804    9.044   26.398    0.366   26.436
  352.625    9.047   29.155    0.371   25.979
  353.445    9.089   31.920    0.385   25.518
  354.265    9.092   32.339    0.387   25.550
  355.085    9.094   34.325    0.371   25.563
  355.906    9.097   32.794    0.365   25.588
  356.726    9.102   28.918    0.375   25.627
  357.546    9.105   28.557    0.387   25.178
  358.366    9.107   32.094    0.378   24.279
  359.186    9.111   36.419    0.390   23.860
  360.007    9.113   36.058    0.395   23.872
  360.827    9.115   32.968    0.384   23.902
  361.647    9.118   31.445    0.382   23.483
  362.467    9.122   35.755    0.377   23.950
  363.287    9.126   33.842    0.379   25.357
  364.108    9.128   34.261    0.387   27.359
  364.928    9.131   36.629    0.369   28.429
  365.748    9.134   39.776    0.367   28.458
  366.568    9.138   43.314    0.381   26.934
  367.388    9.141   47.248    0.383   24.562
  368.209    9.143   50.396    0.371   23.247
  369.029    9.146   53.940    0.341   21.190
  369.849    9.149   57.867    0.308   16.027
  370.669    9.152   58.676    0.303    9.868
  371.490    9.155   62.213    0.292    8.196
  372.310    9.158   72.782    0.269    8.359
  373.130    9.161   60.712    0.246    6.563
  373.950    9.165   56.453    0.299    4.438
  374.770    9.168   60.777    0.315    4.879
  375.591    9.170   53.010    0.296    5.885
  376.411    9.173   47.978    0.322    7.101
  377.231    9.176   48.000    0.355    5.897
  378.051    9.178   51.927    0.370    9.963
  378.871    9.182   56.634    0.346   15.615
  379.692    9.225   62.518    0.324   17.490
  380.512    9.267   67.225    0.313    8.768
  381.332    9.348   73.888    0.306    5.202
  382.152    9.389   78.595    0.296    4.569
  382.972    9.472   79.410    0.292    4.659
  383.793    9.474   82.551    0.295    4.578
  384.613    9.476   84.543    0.299    4.097
