~VERSION INFORMATION
 VERS.                 2.0:   CWLS LOG ASCII STANDARD -VERSION 2.0
 WRAP.                  NO:   ONE LINE PER DEPTH STEP
~WELL INFORMATION BLOCK
#MNEM.UNIT           DATA                    DESCRIPTION OF MNEMONIC
#---------    -------------------            -------------------------------
# Generated from Intellog Unique Number	CC_88_90/WELL/1184
WELL.         10-26-089-15W4                 : Well_name    - WELL
LOC .         AA/10-26-089-15W4/0            : Location     - LOCATION
UWI .         AA/10-26-089-15W400            : Uwi          - UNIQUE WELL ID
ENTR.         DW                             : Entered      - ENTERED BY
SRVC.         SCHLUMBERGER                   : Scn          - SERVICE COMPANY
STRT.M        65                             : top_depth    - START DEPTH
STOP.M        204.75                         : bot_depth    - STOP DEPTH
STEP.M        0.25                           : increment    - STEP LENGTH
 NULL. -999.2500:NULL Value
~CURVE INFORMATION BLOCK
#MNEM UNIT       ERCB CURVE CODE    CURVE DESCRIPTION
#-----------   ------------------   ----------------------------------
DEPT.M        00 001 00 00         : DEPTH        - DEPTH
GR  .API      00 310 00 00         : GR           - GAMMA RAY
DPHI.V/V      00 890 00 00         : PHID         - DENSITY POROSITY (SANDSTONE)
NPHI.V/V      00 330 00 00         : PHIN         - NEUTRON POROSITY (SANDSTONE)
ILD .OHMM     00 120 00 00         : RESD         - DEEP RESISTIVITY (DIL)
~PARAMETER INFORMATION
#MNEM.UNIT           DATA             DESCRIPTION OF MNEMONIC
#---------         -----------     ------------------------------
GL  .M        476.41               : gl           - GROUND LEVEL ELEVATION
EREF.M        479.61               : kb           - ELEVATION OF DEPTH REFERENCE
DATM.M        479.61               : datum        - DATUM ELEVATION
TDD .M        213                  : tdd          - TOTAL DEPTH DRILLER
RUN .         ONE                  : Run          - RUN NUMBER
ENG .         BILL                 : Engineer     - RECORDING ENGINEER
WIT .         JIM                  : Witness      - WITNESSED BY
MUD .         GEL                  : Mud_type     - MUD TYPE
MATR.         SANDSTONE            : Logunit      - NEUTRON MATRIX
TMAX.C        25                   : BHT          - MAXIMUM RECORDED TEMPERATURE
BHTD.M        213                  : BHTDEP       - MAXIMUM RECORDED TEMPERATURE
MATR.         1                    : LOGUNIT      - NEUTRON MATRIX
RMT .C        25                   : MDTP         - TEMPERATURE OF MUD
NEUT.         1                    : NEUTRON      - NEUTRON TYPE
RESI.         0                    : RESIST       - RESISTIVITY TYPE
RMC .OHMM     0.25                 : RMC          - RESISTIVITY OF MUD CAKE
RMF .OHMM     0.25                 : RMF          - RESISTIVITY OF MUD FILTRATE
SUFT.C        15                   : SUFT         - SURFACE TEMPERATURE
~A  DEPTH       GR     PHID     PHIN     RESD
# ...
  152.000  121.325    0.219    0.489    7.941
  152.250  116.961    0.223    0.503    7.937
  152.500  111.811    0.213    0.475    7.991
  152.750  113.900    0.182    0.455    7.625
  153.000  120.790    0.181    0.452    6.993
  153.250  121.860    0.211    0.475    6.632
  153.500  116.363    0.211    0.523    6.435
  153.750  117.922    0.216    0.517    6.316
  154.000  121.831    0.229    0.473    6.366
  154.250  122.017    0.223    0.461    6.534
  154.500  119.946    0.216    0.470    6.782
  154.750  121.505    0.224    0.469    7.348
  155.000  127.419    0.224    0.475    8.508
  155.250  129.054    0.214    0.472    9.984
  155.500  125.196    0.197    0.505   11.277
  155.750  117.760    0.181    0.549   12.282
  156.000  109.459    0.131    0.505   12.669
  156.250  108.850    0.078    0.396   12.262
  156.500  119.350    0.110    0.367   11.483
  156.750  122.982    0.165    0.400   10.622
  157.000  122.932    0.193    0.424    9.755
  157.250  118.428    0.206    0.426    9.277
  157.500  112.531    0.202    0.418    9.018
  157.750  112.635    0.182    0.423    8.764
  158.000  118.104    0.180    0.453    8.788
  158.250  119.686    0.200    0.464    9.018
  158.500  116.816    0.216    0.453    9.769
  158.750  114.994    0.225    0.424   10.918
  159.000  114.924    0.224    0.419   12.076
  159.250  112.235    0.196    0.439   12.908
  159.500  108.218    0.141    0.428   13.267
  159.750  112.066    0.105    0.384   13.285
  160.000  115.990    0.136    0.356   13.023
  160.250  117.762    0.194    0.376   12.174
  160.500  117.856    0.219    0.413   11.383
  160.750  116.583    0.207    0.429   10.787
  161.000  114.991    0.192    0.438    9.786
  161.250  113.055    0.179    0.453    9.591
  161.500  114.921    0.185    0.472    9.507
  161.750  112.461    0.157    0.444    9.229
  162.000  111.909    0.164    0.403    8.960
  162.250  117.520    0.225    0.423    8.101
  162.500  118.043    0.224    0.481    5.984
  162.750  118.198    0.239    0.503    4.157
  163.000  115.469    0.259    0.528    3.729
  163.250  105.847    0.266    0.562    4.210
  163.500   95.455    0.257    0.568    5.249
  163.750   87.956    0.237    0.508    6.918
  164.000   79.143    0.222    0.409    9.180
  164.250   73.867    0.218    0.378   11.803
  164.500   68.611    0.214    0.375   13.001
  164.750   62.308    0.226    0.376   14.372
  165.000   55.134    0.254    0.397   16.237
  165.250   48.313    0.282    0.420   18.224
  165.500   43.905    0.297    0.405   21.802
  165.750   40.702    0.301    0.370   27.509
  166.000   38.874    0.302    0.357   35.997
  166.250   40.074    0.301    0.376   52.279
  166.500   41.819    0.292    0.393   73.234
  166.750   43.099    0.287    0.386   93.581
  167.000   46.322    0.297    0.381  110.085
  167.250   48.350    0.302    0.388  112.589
  167.500   50.839    0.305    0.409  110.497
  167.750   50.363    0.306    0.413  109.872
  168.000   48.102    0.299    0.395  109.705
  168.250   47.498    0.292    0.380  106.923
  168.500   48.151    0.293    0.381   99.947
  168.750   51.136    0.297    0.402   90.760
  169.000   54.444    0.292    0.422   84.221
  169.250   56.843    0.280    0.444   74.600
  169.500   57.261    0.275    0.442   66.041
  169.750   56.849    0.284    0.423   62.611
  170.000   58.618    0.296    0.427   56.610
  170.250   62.059    0.297    0.436   49.127
  170.500   66.559    0.292    0.426   43.074
  170.750   68.504    0.260    0.397   38.130
  171.000   67.040    0.261    0.408   35.121
  171.250   64.181    0.293    0.446   34.508
  171.500   61.694    0.266    0.436   34.545
  171.750   61.471    0.269    0.441   35.552
  172.000   62.760    0.262    0.438   36.954
  172.250   62.158    0.236    0.419   36.876
  172.500   60.671    0.252    0.405   34.827
  172.750   61.389    0.296    0.406   32.032
  173.000   65.954    0.283    0.411   30.758
  173.250   76.220    0.257    0.423   30.162
  173.500   85.247    0.232    0.434   15.746
  173.750   95.270    0.163    0.462    4.730
  174.000  108.474    0.148    0.506    3.504
  174.250  120.293    0.238    0.554    3.133
  174.500  124.008    0.291    0.592    2.904
  174.750  118.497    0.275    0.591    2.765
  175.000  114.287    0.276    0.598    2.694
  175.250  115.153    0.275    0.615    2.937
  175.500  117.077    0.262    0.608    3.317
  175.750  117.127    0.257    0.564    3.639
  176.000  114.734    0.241    0.523    4.140
  176.250  108.027    0.188    0.510    4.677
  176.500  109.400    0.122    0.473    4.609
  176.750  119.355    0.146    0.456    4.257
  177.000  125.759    0.215    0.484    3.920
  177.250  124.095    0.243    0.513    3.657
  177.500  120.879    0.247    0.513    3.687
  177.750  114.719    0.227    0.514    3.905
  178.000  108.903    0.202    0.490    3.894
  178.250  100.252    0.189    0.462    6.103
  178.500   89.718    0.168    0.452    9.864
  178.750   82.916    0.130    0.415   12.448
  179.000   80.704    0.106    0.342   14.023
  179.250   78.359    0.128    0.362   16.015
  179.500   74.404    0.199    0.404   16.567
  179.750   76.038    0.245    0.422   15.541
  180.000   85.957    0.257    0.432   13.120
  180.250   97.335    0.257    0.446    9.663
  180.500  102.889    0.234    0.464    6.468
  180.750  103.009    0.233    0.505    4.341
  181.000   96.901    0.252    0.513    3.968
  181.250   86.974    0.259    0.469    5.722
  181.500   84.695    0.246    0.409    8.727
  181.750   90.843    0.234    0.379   11.662
  182.000   91.764    0.230    0.388   13.938
  182.250   89.977    0.221    0.397   15.575
  182.500   91.327    0.238    0.392   17.258
  182.750   93.235    0.245    0.384   18.227
  183.000   92.101    0.236    0.387   18.683
  183.250   88.509    0.233    0.390   19.276
  183.500   86.785    0.231    0.383   19.892
  183.750   90.929    0.233    0.393   20.880
  184.000   92.670    0.246    0.402   21.332
  184.250   91.557    0.244    0.407   21.645
  184.500   89.640    0.234    0.415   21.830
  184.750   88.701    0.237    0.420   21.847
  185.000   90.462    0.243    0.415   22.215
  185.250   92.049    0.245    0.406   22.519
  185.500   93.241    0.251    0.387   23.229
  185.750   93.681    0.255    0.388   23.623
  186.000   93.317    0.249    0.397   24.402
  186.250   90.882    0.236    0.391   26.085
  186.500   86.134    0.227    0.388   27.246
  186.750   83.677    0.238    0.393   27.682
  187.000   79.208    0.252    0.400   28.310
  187.250   76.136    0.257    0.404   29.850
  187.500   73.568    0.260    0.404   31.778
  187.750   68.328    0.265    0.402   33.979
  188.000   62.652    0.276    0.397   37.428
  188.250   56.588    0.301    0.392   42.269
  188.500   50.153    0.304    0.389   50.505
  188.750   50.292    0.286    0.394   69.911
  189.000   53.601    0.279    0.403   95.664
  189.250   54.000    0.284    0.410  117.540
  189.500   54.571    0.272    0.413  137.093
  189.750   54.527    0.266    0.404  158.842
  190.000   49.528    0.284    0.401  170.692
  190.250   45.127    0.300    0.400  170.710
  190.500   46.665    0.294    0.392  167.274
  190.750   51.825    0.280    0.382  159.580
  191.000   55.769    0.275    0.375  139.464
  191.250   58.437    0.282    0.378  116.993
  191.500   60.397    0.294    0.390  102.531
  191.750   63.115    0.305    0.414   95.710
  192.000   66.120    0.320    0.424   92.686
  192.250   68.615    0.330    0.408   91.819
  192.500   71.794    0.318    0.395   93.482
  192.750   76.358    0.313    0.393   97.949
  193.000   81.147    0.312    0.406  101.723
  193.250   85.317    0.309    0.420  103.415
  193.500   89.701    0.306    0.429  105.785
  193.750   93.158    0.308    0.435  105.576
  194.000   93.395    0.322    0.437   93.303
  194.250   93.396    0.337    0.428   73.370
  194.500   93.286    0.332    0.417   64.042
  194.750   93.980    0.309    0.404   60.053
  195.000   96.514    0.288    0.391   52.343
  195.250  104.257    0.280    0.382   44.306
