~VERSION INFORMATION
 VERS.                 2.0:   CWLS LOG ASCII STANDARD -VERSION 2.0
 WRAP.                  NO:   ONE LINE PER DEPTH STEP
~WELL INFORMATION BLOCK
#MNEM.UNIT           DATA                    DESCRIPTION OF MNEMONIC
#---------    -------------------            -------------------------------
# Generated from Intellog Unique Number	CX_WELLS/WELL/1170
WELL.         10-11-088-16W4                 : Well_name    - WELL
LOC .         AA/10-11-088-16W4/0            : Location     - LOCATION
UWI .         AA/10-11-088-16W400            : Uwi          - UNIQUE WELL ID
ENTR.         DW                             : Entered      - ENTERED BY
SRVC.         SCHLUMBERGER                   : Scn          - SERVICE COMPANY
STRT.M        75                             : top_depth    - START DEPTH
STOP.M        275                            : bot_depth    - STOP DEPTH
STEP.M        0.25                           : increment    - STEP LENGTH
 NULL. -999.2500:NULL Value
~CURVE INFORMATION BLOCK
#MNEM UNIT       ERCB CURVE CODE    CURVE DESCRIPTION
#-----------   ------------------   ----------------------------------
DEPT.M        00 001 00 00         : DEPTH        - DEPTH
GR  .API      00 310 00 00         : GR           - GAMMA RAY
NPHI.V/V      00 330 00 00         : PHIN         - NEUTRON POROSITY (SANDSTONE)
DPHI.V/V      00 890 00 00         : PHID         - DENSITY POROSITY (SANDSTONE)
ILD .OHMM     00 120 00 00         : RESD         - DEEP RESISTIVITY (DIL)
~PARAMETER INFORMATION
#MNEM.UNIT           DATA             DESCRIPTION OF MNEMONIC
#---------         -----------     ------------------------------
GL  .M        537.9                : gl           - GROUND LEVEL ELEVATION
EREF.M        540.9                : kb           - ELEVATION OF DEPTH REFERENCE
DATM.M        540.9                : datum        - DATUM ELEVATION
TDD .M        283.7                : tdd          - TOTAL DEPTH DRILLER
RUN .         ONE                  : Run          - RUN NUMBER
ENG .         BILL                 : Engineer     - RECORDING ENGINEER
WIT .         JIM                  : Witness      - WITNESSED BY
MUD .         GEL                  : Mud_type     - MUD TYPE
MATR.         SANDSTONE            : Logunit      - NEUTRON MATRIX
TMAX.C        25                   : BHT          - MAXIMUM RECORDED TEMPERATURE
BHTD.M        283.7                : BHTDEP       - MAXIMUM RECORDED TEMPERATURE
MATR.         1                    : LOGUNIT      - NEUTRON MATRIX
RMT .C        25                   : MDTP         - TEMPERATURE OF MUD
NEUT.         1                    : NEUTRON      - NEUTRON TYPE
RESI.         0                    : RESIST       - RESISTIVITY TYPE
RMC .OHMM     0.25                 : RMC          - RESISTIVITY OF MUD CAKE
RMF .OHMM     0.25                 : RMF          - RESISTIVITY OF MUD FILTRATE
SUFT.C        15                   : SUFT         - SURFACE TEMPERATURE
~A  DEPTH       GR     PHIN     PHID     RESD
# ...
  249.000   84.785    0.351    0.252   35.922
  249.250   84.819    0.341    0.213   37.329
  249.500   82.527    0.332    0.149   41.017
  249.750   80.225    0.335    0.126   44.169
  250.000   80.258    0.356    0.144   48.487
  250.250   80.901    0.370    0.230   53.251
  250.500   85.640    0.383    0.260   52.384
  250.750   85.696    0.386    0.272   50.645
  251.000   87.501    0.383    0.267   49.798
  251.250   91.642    0.379    0.256   48.100
  251.500   96.980    0.374    0.247   44.791
  251.750  100.545    0.366    0.241   41.730
  252.000  105.296    0.362    0.217   41.013
  252.250  106.514    0.362    0.207   33.605
  252.500  104.809    0.362    0.207   28.560
  252.750  103.658    0.362    0.213   27.586
  253.000  103.714    0.365    0.223   27.664
  253.250  105.519    0.369    0.234   27.703
  253.500  107.324    0.373    0.237   27.741
  253.750  109.716    0.375    0.233   26.795
  254.000  111.521    0.375    0.226   23.204
  254.250  112.751    0.376    0.203   20.832
  254.500  112.784    0.376    0.201   20.113
  254.750  110.493    0.378    0.199   20.169
  255.000  111.125    0.379    0.189   20.560
  255.250  116.451    0.382    0.147   20.979
  255.500  122.950    0.385    0.116   20.637
  255.750  127.689    0.390    0.171   19.581
  256.000  133.016    0.392    0.204   18.252
  256.250  139.526    0.399    0.191   17.613
  256.500  139.571    0.403    0.184   16.409
  256.750  130.216    0.410    0.180   16.735
  257.000  115.590    0.414    0.195   17.712
  257.250  106.246    0.415    0.225   18.406
  257.500   97.488    0.417    0.265   19.839
  257.750   96.359    0.413    0.295   22.180
  258.000   98.751    0.394    0.302   27.684
  258.250  101.155    0.390    0.302   35.176
  258.500  103.535    0.390    0.302   41.583
  258.750  106.525    0.390    0.299   43.989
  259.000  109.504    0.388    0.297   40.240
  259.250  111.320    0.380    0.290   37.455
  259.500  110.778    0.377    0.275   33.627
  259.750  109.051    0.376    0.260   30.204
  260.000  106.749    0.378    0.245   31.981
  260.250  104.446    0.379    0.231   33.219
  260.500  103.329    0.380    0.226   34.520
  260.750  103.373    0.381    0.227   33.958
  261.000  105.178    0.383    0.255   32.191
  261.250  108.168    0.377    0.260   29.462
  261.500  111.745    0.369    0.250   28.430
  261.750  113.528    0.366    0.233   26.487
  262.000  115.920    0.365    0.221   25.572
  262.250  117.736    0.363    0.215   24.264
  262.500  119.541    0.366    0.207   23.858
  262.750  118.999    0.372    0.198   22.238
  263.000  115.512    0.378    0.188   21.866
  263.250  111.449    0.380    0.193   21.130
  263.500  107.386    0.373    0.203   20.409
  263.750  106.257    0.356    0.219   20.068
  264.000  105.726    0.347    0.237   20.105
  264.250  104.597    0.353    0.242   20.524
  264.500  101.708    0.358    0.237   21.328
  264.750   98.819    0.366    0.219   22.572
  265.000   95.343    0.372    0.220   23.021
  265.250   90.693    0.376    0.228   25.762
  265.500   84.869    0.378    0.245   27.755
  265.750   86.674    0.378    0.258   29.916
  266.000   90.240    0.378    0.259   30.524
  266.250   94.415    0.377    0.264   29.484
  266.500   95.611    0.377    0.271   25.532
  266.750   98.590    0.376    0.274   22.089
  267.000  102.166    0.375    0.277   14.541
  267.250  106.906    0.375    0.280   13.283
  267.500  111.645    0.377    0.282   11.289
  267.750  111.103    0.444    0.283   12.405
  268.000   92.956    0.516    0.273   13.611
  268.250   78.906    0.549    0.262   19.655
  268.500   66.041    0.597    0.277   22.803
  268.750   56.697    0.573    0.081   32.333
  269.000   50.885    0.543    0.036   61.449
  269.250   46.224    0.356    0.009  132.726
  269.500   39.227    0.094    0.003  151.267
  269.750   38.685    0.090    0.003  151.479
  270.000   40.490    0.088    0.005  149.082
  270.250   41.121    0.087    0.005  152.116
  270.500   38.819    0.092    0.005  152.400
  270.750   37.114    0.096    0.005  147.135
  271.000   39.506    0.102    0.005  139.674
  271.250   41.898    0.108    0.002  137.271
  271.500   43.703    0.108    0.001  137.592
  271.750   42.575    0.098   -0.000  123.472
  272.000   42.032    0.100   -0.000  104.937
  272.250   46.794    0.100   -0.000   82.896
  272.500   49.175    0.102   -0.000   53.556
  272.750   64.477    0.105    0.001   40.031
  273.000   75.084    0.112    0.003   36.603
  273.250   82.779    0.134    0.004   39.471
  273.500   74.000    0.170    0.007   41.774
  273.750   60.548    0.207    0.009   45.048
  274.000   54.724    0.236    0.015   46.813
  274.250   58.301    0.237    0.018   46.878
  274.500   62.442    0.217    0.021   47.010
  274.750   67.193    0.195    0.021   46.244
  275.000   65.477    0.183    0.021   45.470
