~VERSION INFORMATION
 VERS.                 2.0:   CWLS LOG ASCII STANDARD -VERSION 2.0
 WRAP.                  NO:   ONE LINE PER DEPTH STEP
~WELL INFORMATION BLOCK
#MNEM.UNIT           DATA                    DESCRIPTION OF MNEMONIC
#---------    -------------------            -------------------------------
# Generated from Intellog Unique Number	CC_88_90/WELL/3155
WELL.         ESSO RESOURCES                 : Well_name    - WELL
LOC .         AA/12-14-089-10W4/0            : Location     - LOCATION
UWI .         AA/12-14-089-10W400            : Uwi          - UNIQUE WELL ID
ENTR.         JOETTE                         : Entered      - ENTERED BY
SRVC.         SCHLUMBERGER                   : Scn          - SERVICE COMPANY
DATE.         03/04/92                       : Date         - LOG DATE
STRT.M        30.000                         : top_depth    - START DEPTH
STOP.M        131.000                        : bot_depth    - STOP DEPTH
STEP.M        0.25                           : increment    - STEP LENGTH
 NULL. -999.2500:NULL Value
~CURVE INFORMATION BLOCK
#MNEM UNIT       ERCB CURVE CODE    CURVE DESCRIPTION
#-----------   ------------------   ----------------------------------
DEPT.M        00 001 00 00         : DEPTH        - DEPTH
GR  .API      00 310 00 00         : GR           - GAMMA RAY
CALI.MM       00 280 01 00         : CAL          - CALIPER
NPHI.V/V      00 330 00 00         : PHIN         - NEUTRON POROSITY (SANDSTONE)
DPHI.V/V      00 890 00 00         : PHID         - DENSITY POROSITY (SANDSTONE)
ILD .OHMM     00 120 00 00         : RESD         - DEEP RESISTIVITY (DIL)
~PARAMETER INFORMATION
#MNEM.UNIT           DATA             DESCRIPTION OF MNEMONIC
#---------         -----------     ------------------------------
GL  .M        367.97               : gl           - GROUND LEVEL ELEVATION
EREF.M        367.97               : kb           - ELEVATION OF DEPTH REFERENCE
DATM.M        367.97               : datum        - DATUM ELEVATION
TDD .M        189.7                : tdd          - TOTAL DEPTH DRILLER
RUN .         ONE                  : Run          - RUN NUMBER
ENG .         BILL                 : Engineer     - RECORDING ENGINEER
WIT .         JIM                  : Witness      - WITNESSED BY
MUD .         GEL                  : Mud_type     - MUD TYPE
MATR.         SANDSTONE            : Logunit      - NEUTRON MATRIX
TMAX.C        20                   : BHT          - MAXIMUM RECORDED TEMPERATURE
BHTD.M        189.7                : BHTDEP       - MAXIMUM RECORDED TEMPERATURE
RMT .C        11                   : MDTP         - TEMPERATURE OF MUD
MUDD.KG/M     1                    : MWT          - MUD DENSITY
NEUT.         1                    : NEUTRON      - NEUTRON TYPE
RESI.         0                    : RESIST       - RESISTIVITY TYPE
RM  .OHMM     30.7                 : RM           - RESISTIVITY OF MUD
RMC .OHMM     30.7                 : RMC          - RESISTIVITY OF MUD CAKE
RMF .OHMM     30.7                 : RMF          - RESISTIVITY OF MUD FILTRATE
SUFT.C        4                    : SUFT         - SURFACE TEMPERATURE
~A  DEPTH       GR      CAL     PHIN     PHID     RESD
# ...
   66.500   74.823  181.120    0.413    0.136    0.008
   66.750   83.430  185.438    0.429    0.137    0.011
   67.000   88.350  186.552    0.438    0.128    0.011
   67.250   96.957  186.693    0.438    0.130    0.010
   67.500  116.012  185.790    0.455    0.123    0.010
   67.750  106.797  184.816    0.432    0.124    0.009
   68.000  117.862  182.844    0.437    0.134    0.009
   68.250  127.084  179.805    0.462    0.135    0.010
   68.500  120.327  178.925    0.486    0.127    0.011
   68.750  116.642  178.996    0.447    0.128    0.012
   69.000  120.948  180.181    0.431    0.134    0.013
   69.250  124.024  181.319    0.454    0.130    0.015
   69.500  128.329  182.480    0.474    0.130    0.016
   69.750  116.655  183.618    0.508    0.131    0.025
   70.000  110.512  184.780    0.456    0.126    0.027
   70.250   95.766  187.009    0.433    0.129    0.030
   70.500   90.239  188.123    0.398    0.121    0.031
   70.750   97.002  189.332    0.415    0.117    0.033
   71.000  102.536  191.538    0.395    0.131    0.047
   71.250  110.528  192.699    0.382    0.123    0.083
   71.500  106.844  193.814    0.403    0.127    0.285
   71.750  111.764  194.975    0.403    0.137    0.538
   72.000  106.850  196.184    0.389    0.136    0.973
   72.250  108.697  196.254    0.449    0.119    9.169
   72.500  105.627  197.416    0.463    0.119    9.372
   72.750   93.954  198.530    0.489    0.116   14.625
   73.000   93.957  201.804    0.487    0.099   11.844
   73.250  104.408  204.056    0.475    0.105    7.443
   73.500  102.567  205.171    0.472    0.118    5.310
   73.750  110.560  205.265    0.472    0.109    8.285
   74.000  116.708  204.314    0.510    0.110    7.304
   74.250  103.806  203.411    0.518    0.115    5.791
   74.500   81.685  202.460    0.479    0.119   42.328
   74.750   82.302  199.492    0.464    0.115  272.490
   75.000  101.972  196.429    0.432    0.116   27.188
   75.250  102.590  191.349    0.491    0.118   13.539
   75.500   88.457  186.245    0.477    0.277   11.934
   75.750   79.857  181.117    0.460    0.274   17.849
   76.000   83.548  179.099    0.484    0.271    6.752
   76.250   81.093  176.083    0.413    0.268    4.717
   76.500   77.408  173.091    0.406    0.279    7.054
   76.750   94.619  172.117    0.395    0.288    7.848
   77.000  107.528  169.125    0.349    0.298    6.222
   77.250  105.073  167.201    0.363    0.306    5.370
   77.500   96.472  167.271    0.371    0.308   11.031
   77.750  105.079  166.344    0.366    0.283    9.127
   78.000  108.770  166.415    0.394    0.283    7.551
   78.250   95.867  166.532    0.387    0.288   12.553
   78.500   91.568  166.672    0.373    0.289   23.198
   78.750   87.884  166.790    0.330    0.281   25.265
   79.000   89.116  166.884    0.352    0.272   26.376
   79.250   77.443  167.001    0.374    0.278   28.124
   79.500   80.519  167.095    0.378    0.281   46.767
   79.750  111.865  167.212    0.400    0.288   24.809
   80.000  114.941  167.329    0.410    0.295    5.530
   80.250  114.329  167.446    0.393    0.288    7.763
   80.500  111.260  168.608    0.346    0.282    9.201
   80.750   84.836  168.725    0.357    0.269   11.377
   81.000   81.767  168.866    0.353    0.276   13.202
   81.250   84.843  168.936    0.358    0.281    9.620
   81.500   89.148  168.009    0.343    0.275    9.837
   81.750  103.900  168.103    0.371    0.282    8.855
   82.000  130.330  167.176    0.354    0.296    7.804
   82.250  124.188  166.249    0.350    0.310    7.026
   82.500  111.899  166.343    0.328    0.273    7.984
   82.750  104.529  166.507    0.348    0.246    9.464
   83.000  105.146  166.601    0.356    0.235    8.889
   83.250   91.013  166.741    0.349    0.250    8.349
   83.500   85.486  166.812    0.358    0.250    8.533
   83.750   83.031  166.905    0.371    0.254    8.538
   84.000   82.420  167.046    0.395    0.268    7.688
   84.250   84.881  167.163    0.379    0.264   12.780
   84.500   82.425  167.281    0.338    0.270   21.251
   84.750   80.585  167.351    0.329    0.285   30.468
   85.000   91.650  167.492    0.341    0.296   37.673
   85.250  115.622  167.632    0.321    0.313   34.642
   85.500  122.385  167.703    0.347    0.297   60.082
   85.750  116.857  167.820    0.362    0.293   82.591
   86.000  121.162  167.937    0.324    0.284   74.344
   86.250  121.780  168.031    0.371    0.249  131.720
   86.500  121.783  168.148    0.411    0.270   61.548
   86.750  108.880  168.289    0.414    0.300  313.977
   87.000   92.905  167.409    0.402    0.302  544.555
   87.250   83.075  167.456    0.376    0.296  441.070
   87.500  100.286  166.529    0.394    0.284  271.370
   87.750  124.257  166.623    0.366    0.304  126.825
   88.000  124.875  166.763    0.381    0.294  160.164
   88.250  116.889  165.813    0.373    0.291  144.197
   88.500  111.361  166.951    0.378    0.287  277.989
   88.750   97.229  167.092    0.439    0.279   85.106
   89.000   84.940  167.185    0.446    0.282  138.531
   89.250   64.663  167.326    0.476    0.293  198.619
   89.500   41.313  167.443    0.398    0.306  225.702
   89.750   43.774  167.561    0.402    0.298  251.063
   90.000   40.705  167.631    0.427    0.293   49.288
   90.250   33.333  167.772    0.403    0.296   78.564
   90.500   35.179  167.912    0.405    0.303   93.099
   90.750   59.151  167.959    0.388    0.307  268.300
   91.000   99.101  168.100    0.429    0.297  756.887
   91.250  105.250  168.217    0.421    0.268  465.677
   91.500  108.326  168.311    0.377    0.211 1556.180
   91.750   84.361  167.360    0.409    0.229 1086.990
   92.000   68.385  167.478    0.422    0.262 1696.060
   92.250   48.722  166.551    0.437    0.295  565.088
   92.500   46.267  166.691    0.417    0.308  340.522
   92.750   60.406  166.832    0.395    0.319  227.919
   93.000   65.940  165.882    0.405    0.313  209.546
   93.250   57.953  165.975    0.437    0.277  115.986
   93.500   45.050  165.025    0.416    0.283   51.961
   93.750   45.668  165.142    0.374    0.304   54.246
   94.000   51.203  165.259    0.409    0.321   48.838
   94.250   58.581  164.309    0.381    0.319   42.164
   94.500   58.584  164.426    0.390    0.338   46.885
   94.750   54.900  163.499    0.360    0.341   67.221
   95.000   57.975  163.640    0.358    0.331   67.283
   95.250   63.510  163.757    0.413    0.283   63.181
   95.500   61.669  164.895    0.463    0.292  153.738
   95.750   61.673  166.033    0.386    0.314  296.382
   96.000   55.530  167.195    0.405    0.289  302.941
   96.250   62.908  169.424    0.407    0.286  207.176
   96.500   75.817  169.494    0.406    0.311  344.438
   96.750   83.809  170.703    0.451    0.300   80.100
   97.000   83.198  171.817    0.384    0.284  154.420
   97.250   78.284  174.023    0.412    0.258  435.706
   97.500   67.840  177.320    0.403    0.286  611.620
   97.750   57.396  178.435    0.413    0.312  612.071
   98.000   47.566  180.664    0.406    0.322  161.568
   98.250   35.892  181.779    0.448    0.313  496.122
   98.500   32.823  185.052    0.479    0.325  122.910
   98.750   35.284  187.258    0.454    0.333  172.597
   99.000   38.360  190.484    0.429    0.330  217.929
   99.250   37.134  192.714    0.423    0.329  402.805
   99.500   40.210  194.872    0.413    0.314   89.777
   99.750   46.359  196.057    0.402    0.298   57.612
  100.000   38.987  197.195    0.403    0.307   41.980
  100.250   43.907  198.380    0.412    0.316   71.312
  100.500   48.826  199.518    0.433    0.321  156.052
  100.750   48.830  199.636    0.439    0.306  341.549
  101.000   46.989  199.729    0.458    0.301  265.184
  101.250   46.377  199.870    0.429    0.320   94.141
  101.500   46.381  198.920    0.432    0.325  140.807
  101.750   42.697  198.016    0.365    0.306  254.811
  102.000   48.231  197.042    0.373    0.273  633.162
  102.250   48.849  194.050    0.366    0.279  229.579
  102.500   36.560  191.011    0.390    0.252  119.240
  102.750   29.189  189.040    0.448    0.242  336.443
