~VERSION INFORMATION
 VERS.                 2.0:   CWLS LOG ASCII STANDARD -VERSION 2.0
 WRAP.                  NO:   ONE LINE PER DEPTH STEP
~WELL INFORMATION BLOCK
#MNEM.UNIT           DATA                    DESCRIPTION OF MNEMONIC
#---------    -------------------            -------------------------------
# Generated from Intellog Unique Number	CN_91_93/WELL/2788
WELL.         PETRO CANADA                   : Well_name    - WELL
LOC .         AA/10-29-093-17W4/0            : Location     - LOCATION
UWI .         AA/10-29-093-17W400            : Uwi          - UNIQUE WELL ID
ENTR.         JOETTE                         : Entered      - ENTERED BY
SRVC.         SCHLUMBERGER                   : Scn          - SERVICE COMPANY
DATE.         03/24/92                       : Date         - LOG DATE
STRT.F        200                            : top_depth    - START DEPTH
STOP.F        860.269                        : bot_depth    - STOP DEPTH
STEP.F        0.82                           : increment    - STEP LENGTH
 NULL. -999.2500:NULL Value
~CURVE INFORMATION BLOCK
#MNEM UNIT       ERCB CURVE CODE    CURVE DESCRIPTION
#-----------   ------------------   ----------------------------------
DEPT.F        00 001 00 00         : DEPTH        - DEPTH
GR  .API      00 310 00 00         : GR           - GAMMA RAY
NPHI.V/V      00 330 00 00         : PHIN         - NEUTRON POROSITY (SANDSTONE)
DPHI.V/V      00 890 00 00         : PHID         - DENSITY POROSITY (SANDSTONE)
ILD .OHMM     00 120 00 00         : RESD         - DEEP RESISTIVITY (DIL)
~PARAMETER INFORMATION
#MNEM.UNIT           DATA             DESCRIPTION OF MNEMONIC
#---------         -----------     ------------------------------
GL  .F        1673.9               : gl           - GROUND LEVEL ELEVATION
EREF.F        1684.9               : kb           - ELEVATION OF DEPTH REFERENCE
DATM.F        1684.9               : datum        - DATUM ELEVATION
TDD .F        897                  : tdd          - TOTAL DEPTH DRILLER
RUN .         ONE                  : Run          - RUN NUMBER
ENG .         BILL                 : Engineer     - RECORDING ENGINEER
WIT .         JIM                  : Witness      - WITNESSED BY
MUD .         GEL                  : Mud_type     - MUD TYPE
MATR.         SANDSTONE            : Logunit      - NEUTRON MATRIX
TMAX.F        70                   : BHT          - MAXIMUM RECORDED TEMPERATURE
BHTD.F        897                  : BHTDEP       - MAXIMUM RECORDED TEMPERATURE
RMT .F        69                   : MDTP         - TEMPERATURE OF MUD
MUDD.LB/G     8.6                  : MWT          - MUD DENSITY
NEUT.         1                    : NEUTRON      - NEUTRON TYPE
RESI.         0                    : RESIST       - RESISTIVITY TYPE
RM  .OHMM     0.49                 : RM           - RESISTIVITY OF MUD
RMC .OHMM     0.49                 : RMC          - RESISTIVITY OF MUD CAKE
RMF .OHMM     0.49                 : RMF          - RESISTIVITY OF MUD FILTRATE
SUFT.F        39.2                 : SUFT         - SURFACE TEMPERATURE
~A  DEPTH       GR     PHIN     PHID     RESD
# ...
  770.866   39.433    0.422    0.244   20.709
  771.686   39.529    0.414    0.248   22.840
  772.507   39.626    0.410    0.254   26.184
  773.327   41.594    0.401    0.253   27.826
  774.147   42.294    0.399    0.248   25.876
  774.967   41.819    0.402    0.241   22.271
  775.787   39.535    0.412    0.228   16.498
  776.608   39.029    0.415    0.216   15.042
  777.428   42.806    0.413    0.216   15.998
  778.248   48.361    0.401    0.225   16.049
  779.068   53.312    0.370    0.231   16.100
  779.888   53.440    0.363    0.238   17.436
  780.709   46.937    0.418    0.241   18.486
  781.529   42.812    0.441    0.240   22.415
  782.349   40.561    0.456    0.233   21.649
  783.169   43.069    0.463    0.222   19.770
  783.990   58.366    0.449    0.213   18.722
  784.810   56.653    0.433    0.218   17.097
  785.630   52.529    0.404    0.229   16.829
  786.450   47.866    0.396    0.240   18.561
  787.270   45.583    0.396    0.254   21.244
  788.091   44.441    0.397    0.259   39.897
  788.911   47.616    0.400    0.254   51.206
  789.731   59.834    0.404    0.250   68.313
  790.551   61.803    0.411    0.245   78.252
  791.371   61.931    0.418    0.237   88.025
  792.192   59.013    0.434    0.225  102.762
  793.012   53.683    0.438    0.230  122.261
  793.832   45.338    0.438    0.249  148.244
  794.652   36.423    0.436    0.261  163.626
  795.472   40.771    0.436    0.273  161.192
  796.293   44.517    0.441    0.280  149.779
  797.113   50.103    0.439    0.281  133.998
  797.933   53.246    0.424    0.286  117.722
  798.753   56.389    0.406    0.288   99.576
  799.573   60.769    0.406    0.293   36.497
  800.394   61.501    0.403    0.298   29.723
  801.214   61.661    0.398    0.302   25.622
  802.034   62.424    0.390    0.302   22.492
  802.854   61.314    0.383    0.299   20.524
  803.675   60.807    0.379    0.292   24.418
  804.495   61.571    0.378    0.285   30.222
  805.315   62.905    0.376    0.272   32.066
  806.135   64.842    0.372    0.259   33.411
  806.955   72.173    0.379    0.251   34.185
  807.776   89.246    0.406    0.239   32.398
  808.596  102.068    0.427    0.232   31.267
  809.416   96.770    0.435    0.235   27.995
  810.236   92.645    0.418    0.242   24.595
  811.056   88.553    0.395    0.246   20.787
  811.877   85.635    0.384    0.243   16.942
  812.697   83.352    0.376    0.237   16.664
  813.517   83.480    0.367    0.224   18.730
  814.337   83.608    0.367    0.210   21.901
  815.157   85.577    0.369    0.197   23.237
  815.978   86.879    0.376    0.184   24.230
  816.798   90.086    0.387    0.167   23.813
  817.618   92.593    0.389    0.154   20.544
  818.438   96.974    0.395    0.155   18.394
  819.259  100.688    0.403    0.170   16.798
  820.079  108.083    0.429    0.197   15.907
  820.899  116.081    0.439    0.209   15.064
  821.719  122.841    0.437    0.222   14.265
  822.539  124.207    0.430    0.216   14.053
  823.360  121.289    0.425    0.202   14.356
  824.180  110.532    0.424    0.186   15.833
  825.000  103.394    0.410    0.181   17.824
  825.820   99.936    0.383    0.179   19.642
  826.640   98.859    0.378    0.179   22.518
  827.461  100.796    0.375    0.181   24.855
  828.281  104.573    0.376    0.195   24.934
  829.101  107.684    0.380    0.203   24.505
  829.921  112.033    0.387    0.199   22.788
  830.741  117.016    0.394    0.194   19.290
  831.562  114.701    0.411    0.188   16.616
  832.382  105.785    0.420    0.185   13.267
  833.202  101.661    0.423    0.184   12.338
  834.022   96.966    0.421    0.188   13.352
  834.843   91.033    0.413    0.193   14.726
  835.663   88.750    0.416    0.215   17.204
  836.483   86.466    0.421    0.230   20.469
  837.303   91.418    0.417    0.165   24.372
  838.123   98.210    0.403    0.140   27.919
  838.944  102.558    0.391    0.122   28.029
  839.764  106.304    0.380    0.109   25.096
  840.584  111.891    0.374    0.109   23.301
  841.404  118.651    0.374    0.115   20.086
  842.224  117.573    0.376    0.136   17.998
  843.045  113.481    0.384    0.180   18.386
  843.865   97.266    0.403    0.204   18.798
  844.685   91.366    0.419    0.210   18.872
  845.505   98.729    0.400    0.210   18.917
  846.325   99.460    0.385    0.204   18.286
  847.146   87.498    0.377    0.195   16.672
  847.966   91.275    0.365    0.183   13.827
  848.786   96.830    0.354    0.168   10.430
  849.606  100.576    0.325    0.157   10.074
  850.427  102.577    0.311    0.156    8.857
  851.247  100.261    0.311    0.159   13.229
  852.067   80.429    0.314    0.169   25.784
  852.887   71.482    0.318    0.181   53.234
  853.707   76.433    0.323    0.185   99.893
  854.528   83.225    0.336    0.178  631.978
  855.348   71.263    0.382    0.170  587.699
  856.168   56.255    0.390    0.178  536.687
  856.988   49.751    0.395    0.176  480.139
  857.808   43.850    0.410    0.095  398.505
  858.629   37.917    0.506    0.058  363.627
  859.449   31.381    0.526    0.015  386.123
  860.269   27.924    0.536   -0.041  417.857
