~VERSION INFORMATION
 VERS.                 2.0:   CWLS LOG ASCII STANDARD -VERSION 2.0
 WRAP.                  NO:   ONE LINE PER DEPTH STEP
~WELL INFORMATION BLOCK
#MNEM.UNIT           DATA                    DESCRIPTION OF MNEMONIC
#---------    -------------------            -------------------------------
# Generated from Intellog Unique Number	CX_WELLS/WELL/2306
WELL.         11-28-088-08W4                 : Well_name    - WELL
LOC .         AA/11-28-088-08W4/0            : Location     - LOCATION
UWI .         AA/11-28-088-08W400            : Uwi          - UNIQUE WELL ID
ENTR.         DW                             : Entered      - ENTERED BY
SRVC.         SCHLUMBERGER                   : Scn          - SERVICE COMPANY
STRT.M        12                             : top_depth    - START DEPTH
STOP.M        120                            : bot_depth    - STOP DEPTH
STEP.M        0.25                           : increment    - STEP LENGTH
 NULL. -999.2500:NULL Value
~CURVE INFORMATION BLOCK
#MNEM UNIT       ERCB CURVE CODE    CURVE DESCRIPTION
#-----------   ------------------   ----------------------------------
DEPT.M        00 001 00 00         : DEPTH        - DEPTH
GR  .API      00 310 00 00         : GR           - GAMMA RAY
NPHI.V/V      00 330 00 00         : PHIN         - NEUTRON POROSITY (SANDSTONE)
DPHI.V/V      00 890 00 00         : PHID         - DENSITY POROSITY (SANDSTONE)
ILD .OHMM     00 120 00 00         : RESD         - DEEP RESISTIVITY (DIL)
~PARAMETER INFORMATION
#MNEM.UNIT           DATA             DESCRIPTION OF MNEMONIC
#---------         -----------     ------------------------------
GL  .M        362.2                : gl           - GROUND LEVEL ELEVATION
EREF.M        363.725              : kb           - ELEVATION OF DEPTH REFERENCE
DATM.M        363.725              : datum        - DATUM ELEVATION
TDD .M        121                  : tdd          - TOTAL DEPTH DRILLER
RUN .         ONE                  : Run          - RUN NUMBER
ENG .         BILL                 : Engineer     - RECORDING ENGINEER
WIT .         JIM                  : Witness      - WITNESSED BY
MUD .         GEL                  : Mud_type     - MUD TYPE
MATR.         SANDSTONE            : Logunit      - NEUTRON MATRIX
TMAX.C        16                   : BHT          - MAXIMUM RECORDED TEMPERATURE
BHTD.M        121                  : BHTDEP       - MAXIMUM RECORDED TEMPERATURE
MATR.         1                    : LOGUNIT      - NEUTRON MATRIX
RMT .C        25                   : MDTP         - TEMPERATURE OF MUD
NEUT.         1                    : NEUTRON      - NEUTRON TYPE
RESI.         0                    : RESIST       - RESISTIVITY TYPE
RMC .OHMM     0.25                 : RMC          - RESISTIVITY OF MUD CAKE
RMF .OHMM     0.25                 : RMF          - RESISTIVITY OF MUD FILTRATE
SUFT.C        4                    : SUFT         - SURFACE TEMPERATURE
~A  DEPTH       GR     PHIN     PHID     RESD
   12.000   87.468    0.478    0.358   13.655
   12.250   89.922    0.492    0.346   13.181
   12.500   92.989    0.508    0.326   11.809
   12.750   94.836    0.520    0.331   10.193
   13.000   96.689    0.533    0.337    8.797
   13.250   98.535    0.555    0.347    7.593
   13.500   99.774    0.575    0.359    6.432
   13.750  101.008    0.580    0.373    5.449
   14.000  102.247    0.587    0.376    4.882
   14.250  103.498    0.587    0.376    4.371
   14.500  104.731    0.581    0.375    3.846
   14.750  105.363    0.576    0.374    3.575
   15.000  105.995    0.577    0.376    3.204
   15.250  106.627    0.576    0.376    2.979
   15.500  107.265    0.553    0.374    2.771
   15.750  107.290    0.541    0.366    2.829
   16.000  105.493    0.516    0.356    3.171
   16.250  103.701    0.485    0.337    3.488
   16.500  103.106    0.487    0.333    4.058
   16.750  103.131    0.501    0.318    4.548
   17.000  103.775    0.507    0.313    4.910
   17.250  103.788    0.498    0.317    5.304
   17.500  105.045    0.493    0.324    5.623
   17.750  105.058    0.494    0.329    5.846
   18.000  106.303    0.499    0.334    6.084
   18.250  106.935    0.499    0.332    6.450
   18.500  108.174    0.492    0.311    6.706
   18.750  109.413    0.481    0.304    7.110
   19.000  110.045    0.465    0.298    7.255
   19.250  110.070    0.446    0.294    7.692
   19.500  108.880    0.437    0.293    7.849
   19.750  108.291    0.438    0.293    8.318
   20.000  105.291    0.438    0.290    8.814
   20.250  104.101    0.437    0.289    9.341
   20.500  102.304    0.432    0.284    9.716
   20.750   99.899    0.431    0.272    9.929
   21.000   96.887    0.431    0.249    9.949
   21.250   94.483    0.436    0.223    9.780
   21.500   92.685    0.444    0.234    9.441
   21.750   95.139    0.445    0.290    8.622
   22.000   97.593    0.447    0.312    8.165
   22.250   99.440    0.459    0.316    7.601
   22.500   98.863    0.471    0.336    7.468
   22.750   98.888    0.484    0.324    7.217
   23.000   98.912    0.495    0.309    7.094
   23.250   99.544    0.501    0.307    7.105
   23.500  101.397    0.487    0.308    6.862
   23.750  102.630    0.455    0.309    6.745
   24.000  102.655    0.454    0.308    6.634
   24.250  102.679    0.458    0.305    6.776
   24.500  102.698    0.458    0.303    7.185
   24.750  102.115    0.455    0.302    7.465
   25.000  101.545    0.450    0.302    7.911
   25.250  100.962    0.450    0.304    8.089
   25.500  102.195    0.451    0.308    8.097
   25.750  103.440    0.458    0.313    7.817
   26.000  104.680    0.465    0.313    7.410
   26.250  105.925    0.469    0.298    7.284
   26.500  105.944    0.475    0.292    6.905
   26.750  106.569    0.480    0.293    6.788
   27.000  107.207    0.491    0.295    6.552
   27.250  107.846    0.496    0.300    6.448
   27.500  108.471    0.495    0.305    6.458
   27.750  109.723    0.493    0.302    6.474
   28.000  109.735    0.496    0.293    6.487
   28.250  107.938    0.498    0.294    6.500
   28.500  104.325    0.499    0.297    6.393
   28.750  102.533    0.503    0.301    6.291
   29.000  101.331    0.514    0.308    6.297
   29.250   99.534    0.527    0.311    6.079
   29.500   98.344    0.541    0.317    5.653
   29.750   97.761    0.555    0.329    5.067
   30.000   99.626    0.559    0.340    4.454
   30.250  100.853    0.517    0.346    3.703
   30.500  102.700    0.495    0.331    3.511
   30.750  103.332    0.472    0.309    3.862
   31.000  102.148    0.458    0.298    4.409
   31.250  101.559    0.457    0.297    5.737
   31.500   99.761    0.471    0.302    6.314
   31.750   98.578    0.479    0.305    6.564
   32.000   98.602    0.469    0.308    6.828
   32.250   98.633    0.463    0.309    6.978
   32.500   98.050    0.456    0.310    7.124
   32.750   96.860    0.458    0.308    7.272
   33.000   96.879    0.463    0.306    7.424
   33.250   96.296    0.462    0.300    7.584
   33.500   96.320    0.457    0.294    7.591
   33.750   95.738    0.447    0.290    7.754
   34.000   95.155    0.455    0.287    8.221
   34.250   94.578    0.471    0.268    8.229
   34.500   95.210    0.471    0.255    8.402
   34.750   95.842    0.433    0.236    8.119
   35.000   92.223    0.430    0.219    7.837
   35.250   84.346    0.460    0.217    7.562
   35.500   88.021    0.486    0.241    6.523
   35.750   90.475    0.507    0.273    3.217
   36.000   90.499    0.524    0.334    2.481
   36.250   89.309    0.537    0.362    2.265
   36.500   87.512    0.537    0.344    2.229
   36.750   87.537    0.527    0.352    2.363
   37.000   89.990    0.522    0.345    2.550
   37.250   92.444    0.505    0.329    2.913
   37.500   92.481    0.485    0.319    3.263
   37.750   91.899    0.476    0.313    3.798
   38.000   89.494    0.483    0.303    4.023
   38.250   88.905    0.500    0.293    4.109
   38.500   86.500    0.517    0.291    4.276
   38.750   84.703    0.513    0.288    4.703
   39.000   82.906    0.507    0.292    5.271
   39.250   82.930    0.475    0.305    5.691
   39.500   83.562    0.459    0.315    5.923
   39.750   86.623    0.462    0.303    5.822
   40.000   90.912    0.465    0.292    5.216
   40.250   93.967    0.471    0.284    4.848
   40.500   97.635    0.476    0.277    4.107
   40.750  102.519    0.486    0.270    3.612
   41.000  104.979    0.525    0.277    3.236
   41.250  105.003    0.553    0.294    3.125
   41.500  103.200    0.579    0.313    3.074
   41.750  100.795    0.572    0.324    3.023
   42.000   99.611    0.564    0.333    2.973
   42.250   99.028    0.556    0.344    2.926
   42.500  101.482    0.533    0.355    2.930
   42.750  103.936    0.533    0.318    2.935
   43.000  105.176    0.532    0.314    3.054
   43.250  103.992    0.528    0.311    3.180
   43.500  102.188    0.527    0.308    3.306
   43.750  102.213    0.526    0.305    3.437
   44.000  102.237    0.515    0.302    3.712
   44.250  101.661    0.510    0.300    3.788
   44.500  101.692    0.514    0.297    3.871
   44.750  101.109    0.518    0.296    3.950
   45.000  101.133    0.510    0.293    4.108
   45.250  100.551    0.453    0.290    4.436
   45.500   98.753    0.423    0.291    5.772
   45.750   96.349    0.402    0.296    7.375
   46.000   93.938    0.387    0.299    8.905
   46.250   87.282    0.382    0.302    9.980
   46.500   79.411    0.382    0.304   10.381
   46.750   72.148    0.385    0.311   10.220
   47.000   70.350    0.392    0.320   10.047
   47.250   69.768    0.403    0.315   10.067
   47.500   71.013    0.410    0.298    9.728
   47.750   72.860    0.421    0.272    9.743
   48.000   75.314    0.435    0.250    9.582
   48.250   77.767    0.439    0.258    9.602
   48.500   80.829    0.447    0.274    9.616
   48.750   82.675    0.458    0.291    9.463
   49.000   83.927    0.470    0.299    9.311
   49.250   84.547    0.480    0.328    9.153
   49.500   85.786    0.472    0.343    9.344
   49.750   78.523    0.438    0.339   10.467
   50.000   63.364    0.416    0.338   14.959
   50.250   53.064    0.411    0.340   23.909
   50.500   45.199    0.404    0.345   28.872
   50.750   45.831    0.406    0.347   31.759
   51.000   47.672    0.411    0.347   29.535
   51.250   53.169    0.412    0.347   26.959
   51.500   58.665    0.414    0.344   22.839
   51.750   61.727    0.423    0.335   18.990
   52.000   65.389    0.434    0.326   15.498
   52.250   73.916    0.425    0.313   15.822
   52.500   78.806    0.407    0.302   19.466
   52.750   75.793    0.392    0.303   24.872
   53.000   71.567    0.385    0.313   27.360
   53.250   69.168    0.386    0.324   29.555
   53.500   67.972    0.388    0.331   29.082
   53.750   77.107    0.390    0.302   28.060
   54.000   80.168    0.391    0.288   25.626
   54.250   79.585    0.391    0.281   24.712
   54.500   78.395    0.391    0.287   22.993
   54.750   77.205    0.389    0.292   22.207
   55.000   76.629    0.392    0.298   22.230
   55.250   75.445    0.399    0.306   22.287
