~VERSION INFORMATION
 VERS.                 2.0:   CWLS LOG ASCII STANDARD -VERSION 2.0
 WRAP.                  NO:   ONE LINE PER DEPTH STEP
~WELL INFORMATION BLOCK
#MNEM.UNIT           DATA                    DESCRIPTION OF MNEMONIC
#---------    -------------------            -------------------------------
# Generated from Intellog Unique Number	CS_77_79/WELL/982
LOC .         AA/10-36-079-09W4/0            : Location     - LOCATION
UWI .         AA/10-36-079-09W4/0            : Uwi          - UNIQUE WELL ID
ENTR.         JHS                            : Entered      - ENTERED BY
SRVC.         SCHLUMBERGER                   : Scn          - SERVICE COMPANY
STRT.M        235                            : top_depth    - START DEPTH
STOP.M        455                            : bot_depth    - STOP DEPTH
STEP.M        0.25                           : increment    - STEP LENGTH
 NULL. -999.2500:NULL Value
~CURVE INFORMATION BLOCK
#MNEM UNIT       ERCB CURVE CODE    CURVE DESCRIPTION
#-----------   ------------------   ----------------------------------
DEPT.M        00 001 00 00         : DEPTH        - DEPTH
DPHI.V/V      00 890 00 00         : PHID         - DENSITY POROSITY (LIMESTONE)
NPHI.V/V      00 330 00 00         : PHIN         - NEUTRON POROSITY (LIMESTONE)
GR  .API      00 310 00 00         : GR           - GAMMA RAY
ILD .OHMM     00 120 00 00         : RESD         - DEEP RESISTIVITY (DIL)
RHOB.KG/M3    00 350 00 00         : DENS         - BULK DENSITY
~PARAMETER INFORMATION
#MNEM.UNIT           DATA             DESCRIPTION OF MNEMONIC
#---------         -----------     ------------------------------
GL  .M        672.8                : gl           - GROUND LEVEL ELEVATION
EREF.M        676.49               : kb           - ELEVATION OF DEPTH REFERENCE
DATM.M        676.49               : datum        - DATUM ELEVATION
TDD .M        434.08               : tdd          - TOTAL DEPTH DRILLER
RUN .         ONE                  : Run          - RUN NUMBER
ENG .         BILL                 : Engineer     - RECORDING ENGINEER
WIT .         JIM                  : Witness      - WITNESSED BY
MUD .         GEL                  : Mud_type     - MUD TYPE
MATR.         LIMESTONE            : Logunit      - NEUTRON MATRIX
TMAX.C        18                   : BHT          - MAXIMUM RECORDED TEMPERATURE
BHTD.M        434.08               : BHTDEP       - MAXIMUM RECORDED TEMPERATURE
MATR.         1                    : LOGUNIT      - NEUTRON MATRIX
RMT .C        25                   : MDTP         - TEMPERATURE OF MUD
NEUT.         1                    : NEUTRON      - NEUTRON TYPE
RESI.         0                    : RESIST       - RESISTIVITY TYPE
RMC .OHMM     0.25                 : RMC          - RESISTIVITY OF MUD CAKE
RMF .OHMM     0.25                 : RMF          - RESISTIVITY OF MUD FILTRATE
SUFT.C        15                   : SUFT         - SURFACE TEMPERATURE
~A  DEPTH     PHID     PHIN       GR     RESD     DENS
# ...
  344.500    0.253    0.466  110.432    6.053    0.000
  344.750    0.266    0.483  108.604    6.289    0.000
  345.000    0.264    0.516  115.419    6.413    0.000
  345.250    0.264    0.528  112.362    6.416    0.000
  345.500    0.270    0.527  110.527    6.302    0.000
  345.750    0.283    0.512  116.725    6.189    0.000
  346.000    0.292    0.502  114.902    5.964    0.000
  346.250    0.294    0.502  117.390    5.234    0.000
  346.500    0.286    0.513  123.586    4.767    0.000
  346.750    0.273    0.517  126.694    4.183    0.000
  347.000    0.274    0.538  121.781    3.536    0.000
  347.250    0.275    0.527  128.594    3.283    0.000
  347.500    0.280    0.515  132.943    3.164    0.000
  347.750    0.285    0.507  133.579    3.165    0.000
  348.000    0.282    0.506  141.013    3.290    0.000
  348.250    0.263    0.486  142.269    3.353    0.000
  348.500    0.260    0.461  131.804    3.686    0.000
  348.750    0.250    0.439  125.033    4.286    0.000
  349.000    0.233    0.413  122.588    5.372    0.000
  349.250    0.152    0.406  119.532    6.609    0.000
  349.500    0.138    0.417  118.938    7.685    0.000
  349.750    0.198    0.421  112.790    8.608    0.000
  350.000    0.234    0.439  109.723    9.286    0.000
  350.250    0.250    0.454  112.833    9.291    0.000
  350.500    0.255    0.431  112.239    8.791    0.000
  350.750    0.242    0.426  115.348    8.472    0.000
  351.000    0.242    0.415  117.225    8.012    0.000
  351.250    0.239    0.441  121.573    7.441    0.000
  351.500    0.248    0.423  124.690    7.305    0.000
  351.750    0.251    0.423  114.828    7.176    0.000
  352.000    0.258    0.434  111.764    7.179    0.000
  352.250    0.264    0.437  119.813    7.183    0.000
  352.500    0.242    0.443  124.159    7.056    0.000
  352.750    0.233    0.458  124.799    6.674    0.000
  353.000    0.251    0.474  123.587    6.553    0.000
  353.250    0.247    0.460  114.969    6.436    0.000
  353.500    0.247    0.479  112.525    6.687    0.000
  353.750    0.247    0.508  121.191    6.692    0.000
  354.000    0.243    0.513  126.770    6.450    0.000
  354.250    0.245    0.509  117.536    6.216    0.000
  354.500    0.242    0.532  118.792    5.770    0.000
  354.750    0.238    0.547  129.311    4.877    0.000
  355.000    0.255    0.568  131.803    4.044    0.000
  355.250    0.270    0.569  134.298    2.941    0.000
  355.500    0.282    0.567  126.913    2.350    0.000
  355.750    0.286    0.580  132.493    2.102    0.000
  356.000    0.293    0.600  142.391    2.025    0.000
  356.250    0.289    0.582  144.271    1.916    0.000
  356.500    0.285    0.553  135.032    2.028    0.000
  356.750    0.283    0.526  132.589    2.229    0.000
  357.000    0.285    0.495  128.292    2.496    0.000
  357.250    0.283    0.490  124.611    3.129    0.000
  357.500    0.255    0.487  117.844    3.850    0.000
  357.750    0.250    0.466  120.336    4.561    0.000
  358.000    0.259    0.446  119.129    5.204    0.000
  358.250    0.259    0.427  121.618    6.284    0.000
  358.500    0.258    0.411  121.027    6.907    0.000
  358.750    0.264    0.404  117.345    7.042    0.000
  359.000    0.241    0.413  116.135    7.455    0.000
  359.250    0.224    0.411  116.159    8.043    0.000
  359.500    0.214    0.406  103.838    8.201    0.000
  359.750    0.208    0.419  105.715    8.207    0.000
  360.000    0.259    0.409  111.912    8.061    0.000
  360.250    0.275    0.410  112.550    7.914    0.000
  360.500    0.268    0.421  115.045    7.628    0.000
  360.750    0.250    0.400  117.537    7.353    0.000
  361.000    0.225    0.384  118.797    7.219    0.000
  361.250    0.215    0.377  124.375    7.364    0.000
  361.500    0.215    0.384  125.634    7.506    0.000
  361.750    0.211    0.395  121.340    7.653    0.000
  362.000    0.203    0.380  121.358    7.806    0.000
  362.250    0.191    0.375  122.617    7.813    0.000
  362.500    0.173    0.381  125.109    7.672    0.000
  362.750    0.167    0.387  122.666    7.675    0.000
  363.000    0.233    0.377  121.454    7.398    0.000
  363.250    0.241    0.390  131.355    7.130    0.000
  363.500    0.245    0.408  126.440    6.744    0.000
  363.750    0.261    0.428  133.255    6.143    0.000
  364.000    0.272    0.445  120.932    5.704    0.000
  364.250    0.261    0.452  120.338    5.708    0.000
  364.500    0.250    0.446  124.690    5.711    0.000
  364.750    0.240    0.424  122.856    5.933    0.000
  365.000    0.229    0.403  121.645    6.646    0.000
  365.250    0.225    0.398  130.931    7.035    0.000
  365.500    0.230    0.414  138.360    7.447    0.000
  365.750    0.244    0.410  123.570    7.594    0.000
  366.000    0.251    0.433  118.659    7.600    0.000
  366.250    0.258    0.446  124.857    7.606    0.000
  366.500    0.261    0.426  127.960    7.609    0.000
  366.750    0.268    0.423  115.022    7.474    0.000
  367.000    0.271    0.410  109.495    7.478    0.000
  367.250    0.272    0.417  114.456    7.208    0.000
  367.500    0.274    0.429  118.800    7.080    0.000
  367.750    0.278    0.438  120.055    6.951    0.000
  368.000    0.275    0.450  121.314    6.576    0.000
  368.250    0.255    0.427  125.041    6.222    0.000
  368.500    0.248    0.440  117.040    6.224    0.000
  368.750    0.245    0.446  125.090    6.114    0.000
  369.000    0.241    0.460  120.795    6.233    0.000
  369.250    0.251    0.450  116.495    6.237    0.000
  369.500    0.277    0.436  115.909    6.011    0.000
  369.750    0.344    0.439  112.841    5.794    0.000
  370.000    0.414    0.426  113.489    5.691    0.000
  370.250    0.361    0.404  114.122    5.693    0.000
  370.500    0.273    0.390  112.302    5.915    0.000
  370.750    0.269    0.385  109.237    6.381    0.000
  371.000    0.284    0.385  106.171    7.014    0.000
  371.250    0.288    0.419  101.255    7.287    0.000
  371.500    0.284    0.421  103.133    7.291    0.000
  371.750    0.281    0.405  100.075    7.030    0.000
  372.000    0.281    0.393  101.944    7.033    0.000
  372.250    0.281    0.387   98.881    6.908    0.000
  372.500    0.279    0.399  106.931    6.783    0.000
  372.750    0.277    0.388  105.721    6.538    0.000
  373.000    0.275    0.410  110.682    6.421    0.000
  373.250    0.275    0.418  110.708    6.425    0.000
  373.500    0.279    0.410  105.178    6.309    0.000
  373.750    0.286    0.417  102.728    5.968    0.000
  374.000    0.297    0.439  108.309    5.644    0.000
  374.250    0.315    0.442  116.974    5.142    0.000
  374.500    0.367    0.467  112.062    4.686    0.000
  374.750    0.375    0.466  107.762    4.432    0.000
  375.000    0.297    0.430  109.022    4.435 2202.790
  375.250    0.281    0.401  107.192    4.522 2230.140
  375.500    0.270    0.396  105.368    5.065 2249.120
  375.750    0.269    0.384  106.005    5.889 2249.180
  376.000    0.279    0.374  107.264    6.472 2232.490
  376.250    0.284    0.369  104.818    6.602 2224.170
  376.500    0.285    0.338  108.545    6.604 2222.190
  376.750    0.279    0.311  109.809    6.861 2232.740
  377.000    0.257    0.288  102.421    7.685 2270.580
  377.250    0.213    0.248   98.124    8.936 2346.190
  377.500    0.153    0.220   87.037    9.462 2449.080
  377.750    0.118    0.205   83.359    9.648 2507.910
  378.000    0.125    0.226   76.594    9.653 2495.410
  378.250    0.162    0.276   88.346    9.843 2432.540
  378.500    0.248    0.270   90.219   10.035 2285.770
  378.750    0.205    0.233   92.717   10.624 2359.280
  379.000    0.064    0.174   85.332   11.247 2600.630
  379.250    0.036    0.187   73.627   11.255 2648.970
  379.500    0.071    0.252   89.698   10.646 2588.210
  379.750    0.150    0.294   95.897    9.698 2454.020
  380.000    0.271    0.421   99.003    8.837 2246.420
  380.250    0.254    0.410   97.177    7.900 2275.880
  380.500    0.239    0.397  106.459    6.552 2301.120
  380.750    0.217    0.412  105.866    6.316 2338.970
