~VERSION INFORMATION
 VERS.                 2.0:   CWLS LOG ASCII STANDARD -VERSION 2.0
 WRAP.                  NO:   ONE LINE PER DEPTH STEP
~WELL INFORMATION BLOCK
#MNEM.UNIT           DATA                    DESCRIPTION OF MNEMONIC
#---------    -------------------            -------------------------------
# Generated from Intellog Unique Number	CN_94_101/WELL/4120
WELL.         11-20-095-11W4                 : Well_name    - WELL
LOC .         AA/11-20-095-07W4/0            : Location     - LOCATION
UWI .         AA/11-20-095-07W400            : Uwi          - UNIQUE WELL ID
ENTR.         JOETTE                         : Entered      - ENTERED BY
SRVC.         SCHLUMBERGER                   : Scn          - SERVICE COMPANY
DATE.         07/22/92                       : Date         - LOG DATE
STRT.F        20                             : top_depth    - START DEPTH
STOP.F        160.256                        : bot_depth    - STOP DEPTH
STEP.F        0.8202                         : increment    - STEP LENGTH
 NULL. -999.2500:NULL Value
~CURVE INFORMATION BLOCK
#MNEM UNIT       ERCB CURVE CODE    CURVE DESCRIPTION
#-----------   ------------------   ----------------------------------
DEPT.F        00 001 00 00         : DEPTH        - DEPTH
GR  .API      00 310 00 00         : GR           - GAMMA RAY
DPHI.V/V      00 890 00 00         : PHID         - DENSITY POROSITY (SANDSTONE)
ILD .OHMM     00 120 00 00         : RESD         - DEEP RESISTIVITY (DIL)
~PARAMETER INFORMATION
#MNEM.UNIT           DATA             DESCRIPTION OF MNEMONIC
#---------         -----------     ------------------------------
GL  .F        994                  : gl           - GROUND LEVEL ELEVATION
EREF.F        998                  : kb           - ELEVATION OF DEPTH REFERENCE
DATM.F        998                  : datum        - DATUM ELEVATION
TDD .F        172                  : tdd          - TOTAL DEPTH DRILLER
RUN .         ONE                  : Run          - RUN NUMBER
ENG .         BILL                 : Engineer     - RECORDING ENGINEER
WIT .         JIM                  : Witness      - WITNESSED BY
MUD .         GEL                  : Mud_type     - MUD TYPE
MATR.         SANDSTONE            : Logunit      - NEUTRON MATRIX
TMAX.F        51                   : BHT          - MAXIMUM RECORDED TEMPERATURE
BHTD.F        172                  : BHTDEP       - MAXIMUM RECORDED TEMPERATURE
RMT .F        51                   : MDTP         - TEMPERATURE OF MUD
MUDD.LB/G     1.12                 : MWT          - MUD DENSITY
NEUT.         1                    : NEUTRON      - NEUTRON TYPE
RESI.         0                    : RESIST       - RESISTIVITY TYPE
RM  .OHMM     4.37                 : RM           - RESISTIVITY OF MUD
RMC .OHMM     4.37                 : RMC          - RESISTIVITY OF MUD CAKE
RMF .OHMM     4.37                 : RMF          - RESISTIVITY OF MUD FILTRATE
SUFT.F        39.2                 : SUFT         - SURFACE TEMPERATURE
~A  DEPTH       GR     PHID     RESD
   20.000   35.909    0.213   10.964
   20.820   37.436    0.228    9.283
   21.640   42.438    0.250    9.081
   22.461   45.880    0.292    9.046
   23.281   45.423    0.324    9.681
   24.101   43.796    0.337   10.371
   24.921   42.543    0.356   12.361
   25.741   41.306    0.314   16.133
   26.562   40.459    0.284   21.438
   27.382   40.375    0.265   36.011
   28.202   40.308    0.266   40.672
   29.022   40.240    0.274   50.300
   29.843   40.190    0.281   53.832
   30.663   40.123    0.278   46.446
   31.483   39.666    0.264   37.223
   32.303   39.582    0.253   32.730
   33.123   39.532    0.248   36.966
   33.944   37.888    0.255   43.320
   34.764   35.481    0.264   56.484
   35.584   30.701    0.273   67.391
   36.404   28.311    0.290   60.271
   37.224   29.804    0.254   49.226
   38.045   34.823    0.238   42.472
   38.865   37.858    0.244   37.947
   39.685   40.538    0.253   32.708
   40.505   45.947    0.273   29.811
   41.325   56.035    0.307   34.280
   42.146   68.853    0.312   44.741
   42.966   69.566    0.312   56.335
   43.786   64.803    0.313   67.147
   44.606   68.262    0.301   62.248
   45.426   75.214    0.291   58.751
   46.247   80.606    0.299   67.557
   47.067   81.709    0.310   85.064
   47.887   78.132    0.318  135.128
   48.707   73.386    0.321  144.902
   49.528   75.269    0.326  144.330
   50.348   79.864    0.321  122.191
   51.168   77.864    0.318  101.707
   51.988   77.797    0.324   92.426
   52.808   80.070    0.329   97.347
   53.629   84.292    0.328  104.182
   54.449   87.751    0.329  111.387
   55.269   86.514    0.331  119.208
   56.089   80.581    0.328  123.078
   56.910   73.478    0.323  116.165
   57.730   64.035    0.319  111.736
   58.550   60.815    0.314  103.481
   59.370   57.645    0.311   97.764
   60.190   48.592    0.307   82.768
   61.011   43.439    0.300   74.022
   61.831   39.472    0.303   44.556
   62.651   43.304    0.315   35.108
   63.471   48.714    0.331   30.778
   64.291   54.089    0.328   31.841
   65.112   51.292    0.318   38.639
   65.932   48.089    0.294   47.786
   66.752   48.411    0.305   68.227
   67.572   49.124    0.283   65.561
   68.392   49.837    0.270   59.695
   69.213   49.787    0.273   56.286
   70.033   51.263    0.278   60.298
   70.853   53.535    0.285   65.701
   71.673   54.655    0.289   76.994
   72.493   54.588    0.291   54.471
   73.314   56.080    0.279   42.157
   74.134   57.573    0.267   32.594
   74.954   58.286    0.259   34.295
   75.774   60.169    0.233   40.918
   76.594   62.458    0.213   52.455
   77.415   69.800    0.219   84.921
   78.235   76.362    0.224  108.755
   79.055   69.666    0.243   71.681
   79.875   63.749    0.264   41.584
   80.695   67.972    0.285   27.877
   81.516   73.364    0.305   19.372
   82.336   74.467    0.297   18.596
   83.156   75.959    0.209   22.998
   83.976   75.502    0.177   23.277
   84.797   72.316    0.166   22.411
   85.617   67.162    0.166   21.926
   86.437   65.145    0.195   21.839
   87.257   65.078    0.218   22.957
   88.077   68.911    0.248   22.459
   88.898   77.049    0.259   21.951
   89.718   80.085    0.261   21.886
   90.538   77.678    0.265   21.799
   91.358   74.508    0.263   21.692
   92.178   69.355    0.255   21.222
   92.999   62.642    0.249   20.762
   93.819   62.965    0.244   21.055
   94.639   67.967    0.246   21.717
   95.459   71.816    0.255   22.466
   96.279   80.345    0.269   23.616
   97.100   90.433    0.266   23.523
   97.920   84.500    0.259   22.202
   98.740   77.380    0.251   20.582
   99.560   78.873    0.248   19.777
  100.381   78.823    0.240   20.036
  101.201   78.756    0.243   20.359
  102.021   77.892    0.251   21.358
  102.841   78.995    0.266   22.074
  103.661   79.724    0.269   22.363
  104.482   79.267    0.261   22.701
  105.302   80.760    0.259   22.611
  106.122   83.422    0.249   22.522
  106.942   82.575    0.253   22.455
  107.762   77.422    0.247   22.344
  108.583   74.625    0.237   21.860
  109.403   78.458    0.225   21.796
  110.223   80.323    0.225   21.709
  111.043   80.646    0.235   21.624
  111.864   81.359    0.247   21.134
  112.684   82.462    0.242   20.676
  113.504   83.158    0.225   20.595
  114.324   83.514    0.209   20.148
  115.144   84.227    0.214   19.361
  115.965   85.330    0.223   18.942
  116.785   86.433    0.221   18.886
  117.605   87.535    0.227   19.832
  118.425   85.519    0.242   21.225
  119.245   83.875    0.255   22.738
  120.066   82.621    0.256   24.334
  120.886   82.164    0.260   25.579
  121.706   83.673    0.266   25.965
  122.526   83.200    0.274   25.403
  123.346   82.336    0.281   24.410
  124.167   82.302    0.282   25.203
  124.987   86.135    0.282   28.980
  125.807   84.898    0.281   31.046
  126.627   81.711    0.276   29.803
  127.448   77.728    0.269   27.137
  128.268   77.270    0.270   28.554
  129.088   77.186    0.276   40.042
  129.908   78.679    0.283   67.195
  130.728   79.392    0.305  215.842
  131.549   78.562    0.330  252.691
  132.369   76.545    0.342  172.298
  133.189   72.155    0.341  146.157
  134.009   70.155    0.328  111.102
  134.829   66.171    0.323   80.026
  135.650   65.324    0.326   72.795
  136.470   68.767    0.329   61.690
  137.290   71.446    0.319   46.059
  138.110   69.022    0.317   40.459
  138.930   64.666    0.310   44.085
  139.751   56.003    0.304   48.953
  140.571   49.680    0.299   62.693
  141.391   52.732    0.292   67.095
  142.211   52.665    0.292   61.093
  143.031   45.952    0.305   54.584
  143.852   33.373    0.320   51.568
  144.672   29.796    0.319   50.451
  145.492   34.815    0.313   50.252
  146.312   39.428    0.306   47.429
  147.133   39.361    0.281   27.515
  147.953   38.903    0.288   18.117
  148.773   38.836    0.285   12.589
  149.593   40.329    0.269    7.436
  150.413   46.128    0.251    7.145
  151.234   51.130    0.186   14.887
  152.054   51.436    0.176   22.054
  152.874   50.606    0.190   43.543
  153.694   49.759    0.192   58.908
  154.514   49.268    0.137   78.277
  155.335   49.981    0.138  117.944
  156.155   50.694    0.141  133.210
  156.975   51.407    0.139  112.888
  157.795   52.510    0.134   75.678
  158.615   52.442    0.133   18.826
  159.436   51.222    0.131   18.072
  160.256   49.985    0.130   18.677
