~VERSION INFORMATION
 VERS.                 2.0:   CWLS LOG ASCII STANDARD -VERSION 2.0
 WRAP.                  NO:   ONE LINE PER DEPTH STEP
~WELL INFORMATION BLOCK
#MNEM.UNIT           DATA                    DESCRIPTION OF MNEMONIC
#---------    -------------------            -------------------------------
# Generated from Intellog Unique Number	CN_94_101/WELL/5017
WELL.         11-13-100-13W4                 : Well_name    - WELL
LOC .         AA/11-13-100-13W4/0            : Location     - LOCATION
UWI .         AA/11-13-100-13W400            : Uwi          - UNIQUE WELL ID
ENTR.         TIM                            : Entered      - ENTERED BY
SRVC.         SCHLUMBERGER                   : Scn          - SERVICE COMPANY
DATE.         08/13/92                       : Date         - LOG DATE
STRT.M        345                            : top_depth    - START DEPTH
STOP.M        600                            : bot_depth    - STOP DEPTH
STEP.M        0.25                           : increment    - STEP LENGTH
 NULL. -999.2500:NULL Value
~CURVE INFORMATION BLOCK
#MNEM UNIT       ERCB CURVE CODE    CURVE DESCRIPTION
#-----------   ------------------   ----------------------------------
DEPT.M        00 001 00 00         : DEPTH        - DEPTH
GR  .API      00 310 00 00         : GR           - GAMMA RAY
ILD .OHMM     00 120 00 00         : RESD         - DEEP RESISTIVITY (DIL)
NPHI.V/V      00 330 00 00         : PHIN         - NEUTRON POROSITY (SANDSTONE)
DPHI.V/V      00 890 00 00         : PHID         - DENSITY POROSITY (SANDSTONE)
~PARAMETER INFORMATION
#MNEM.UNIT           DATA             DESCRIPTION OF MNEMONIC
#---------         -----------     ------------------------------
GL  .M        791                  : gl           - GROUND LEVEL ELEVATION
EREF.M        794.8                : kb           - ELEVATION OF DEPTH REFERENCE
DATM.M        794.8                : datum        - DATUM ELEVATION
TDD .M        606                  : tdd          - TOTAL DEPTH DRILLER
RUN .         ONE                  : Run          - RUN NUMBER
ENG .         BILL                 : Engineer     - RECORDING ENGINEER
WIT .         JIM                  : Witness      - WITNESSED BY
MUD .         GEL                  : Mud_type     - MUD TYPE
MATR.         SANDSTONE            : Logunit      - NEUTRON MATRIX
TMAX.C        28                   : BHT          - MAXIMUM RECORDED TEMPERATURE
BHTD.M        606                  : BHTDEP       - MAXIMUM RECORDED TEMPERATURE
RMT .C        4                    : MDTP         - TEMPERATURE OF MUD
MUDD.KG/M     1090                 : MWT          - MUD DENSITY
NEUT.         1                    : NEUTRON      - NEUTRON TYPE
RESI.         0                    : RESIST       - RESISTIVITY TYPE
RM  .OHMM     0.24                 : RM           - RESISTIVITY OF MUD
RMC .OHMM     0.24                 : RMC          - RESISTIVITY OF MUD CAKE
RMF .OHMM     0.24                 : RMF          - RESISTIVITY OF MUD FILTRATE
SUFT.C        4                    : SUFT         - SURFACE TEMPERATURE
~A  DEPTH       GR     RESD     PHIN     PHID
  345.000  107.127    4.330    0.494    0.251
  345.250  107.107    4.245    0.485    0.253
  345.500  108.305    4.164    0.475    0.253
  345.750  109.496    4.006    0.481    0.253
  346.000  108.864    3.783    0.494    0.249
  346.250  108.218    3.571    0.511    0.248
  346.500  106.967    3.503    0.520    0.248
  346.750  106.335    3.308    0.515    0.249
  347.000  105.070    3.183    0.512    0.250
  347.250  104.445    3.063    0.510    0.253
  347.500  105.030    3.060    0.517    0.257
  347.750  106.228    3.058    0.537    0.265
  348.000  106.813    3.114    0.535    0.268
  348.250  106.168    3.170    0.530    0.257
  348.500  104.917    3.228    0.521    0.251
  348.750  104.285    3.288    0.507    0.252
  349.000  101.809    3.476    0.496    0.257
  349.250   98.722    3.608    0.490    0.260
  349.500   96.233    4.037    0.482    0.261
  349.750   99.267    4.350    0.480    0.255
  350.000   99.247    4.429    0.475    0.244
  350.250   97.989    4.426    0.472    0.230
  350.500   96.133    4.101    0.462    0.227
  350.750   94.269    3.729    0.460    0.226
  351.000   89.958    3.589    0.485    0.221
  351.250   90.530    3.325    0.517    0.225
  351.500   91.741    3.323    0.518    0.253
  351.750   93.550    3.449    0.516    0.260
  352.000   94.741    3.445    0.513    0.254
  352.250   94.721    3.379    0.509    0.248
  352.500   94.681    3.251    0.503    0.242
  352.750   94.668    3.128    0.494    0.235
  353.000   94.634    3.185    0.486    0.225
  353.250   93.996    3.431    0.463    0.219
  353.500   92.132    3.562    0.444    0.208
  353.750   89.657    3.911    0.433    0.199
  354.000   87.182    4.721    0.421    0.181
  354.250   85.924    5.589    0.420    0.179
  354.500   85.278    6.023    0.423    0.212
  354.750   85.265    6.134    0.433    0.227
  355.000   86.449    5.790    0.468    0.227
  355.250   86.436    5.266    0.482    0.222
  355.500   88.239    4.196    0.496    0.221
  355.750   88.824    3.472    0.504    0.255
  356.000   90.022    3.217    0.505    0.254
  356.250   93.661    3.215    0.507    0.253
  356.500   94.872    3.212    0.505    0.251
  356.750   97.900    3.271    0.503    0.253
  357.000   98.485    3.331    0.494    0.248
  357.250   97.853    3.392    0.483    0.245
  357.500   96.595    3.454    0.477    0.249
  357.750   96.569    3.452    0.475    0.257
  358.000   99.609    3.385    0.477    0.269
  358.250  102.643    3.256    0.486    0.275
  358.500  105.065    3.133    0.489    0.277
  358.750  108.705    3.015    0.489    0.280
  359.000  108.066    2.901    0.496    0.284
  359.250  106.815    2.740    0.503    0.284
  359.500  107.400    2.586    0.512    0.282
  359.750  107.992    2.536    0.515    0.279
  360.000  107.353    2.535    0.510    0.274
  360.250  104.259    2.581    0.502    0.267
  360.500  100.560    2.679    0.499    0.270
  360.750   96.254    2.941    0.496    0.273
  361.000   92.555    3.353    0.491    0.274
  361.250   91.909    3.614    0.488    0.274
  361.500   91.270    3.611    0.491    0.268
  361.750   90.631    3.541    0.499    0.255
  362.000   88.156    3.473    0.504    0.248
  362.250   85.069    3.405    0.499    0.234
  362.500   80.757    4.187    0.480    0.221
  362.750   75.819    5.247    0.461    0.196
  363.000   75.187    5.871    0.447    0.233
  363.250   74.541    6.093    0.439    0.249
  363.500   73.916    5.974    0.440    0.280
  363.750   72.053    5.331    0.444    0.285
  364.000   74.475    4.412    0.446    0.285
  364.250   76.897    3.650    0.474    0.285
  364.500   79.931    3.447    0.484    0.285
  364.750   82.958    3.134    0.498    0.287
  365.000   85.992    3.072    0.505    0.287
  365.250   86.571    3.188    0.501    0.286
  365.500   86.551    3.371    0.496    0.285
  365.750   86.531    3.566    0.487    0.283
  366.000   88.327    3.842    0.480    0.279
  366.250   88.926    4.140    0.471    0.278
  366.500   91.348    4.460    0.467    0.276
  366.750   93.770    4.717    0.462    0.275
  367.000   93.743    4.896    0.458    0.275
  367.250   92.492    5.079    0.459    0.275
  367.500   93.669    5.173    0.461    0.277
  367.750   94.262    4.977    0.465    0.278
  368.000   94.235    4.790    0.468    0.279
  368.250   94.208    4.438    0.473    0.281
  368.500   93.569    4.351    0.475    0.281
  368.750   90.482    4.515    0.474    0.278
  369.000   88.625    4.345    0.470    0.277
  369.250   85.531    4.103    0.469    0.277
  369.500   87.347    3.949    0.470    0.276
  369.750   91.606    3.659    0.474    0.276
  370.000   97.088    3.264    0.477    0.279
  370.250  102.564    3.140    0.483    0.271
  370.500  104.381    3.139    0.488    0.267
  370.750  104.354    3.137    0.496    0.270
  371.000  104.321    3.254    0.497    0.274
  371.250  104.301    3.314    0.495    0.279
  371.500  103.662    3.375    0.492    0.286
  371.750  101.799    3.501    0.487    0.292
  372.000   98.092    3.634    0.485    0.293
  372.250   96.229    3.842    0.484    0.293
  372.500   94.978    4.063    0.481    0.293
  372.750   93.115    4.378    0.480    0.288
  373.000   91.864    4.544    0.474    0.277
  373.250   91.232    4.627    0.471    0.268
  373.500   87.519    4.622    0.475    0.258
  373.750   85.043    4.620    0.474    0.235
  374.000   83.180    4.616    0.455    0.197
  374.250   84.384    4.612    0.485    0.171
  374.500   86.793    4.610    0.501    0.230
  374.750   88.004    4.606    0.518    0.261
  375.000   90.426    4.602    0.510    0.276
  375.250   92.222    4.775    0.496    0.275
  375.500   91.590    4.864    0.488    0.275
  375.750   91.570    4.952    0.488    0.280
  376.000   92.148    4.947    0.491    0.282
  376.250   92.122    4.853    0.491    0.286
  376.500   92.095    4.582    0.488    0.285
  376.750   95.136    4.409    0.490    0.285
  377.000   96.945    4.489    0.496    0.284
  377.250   96.307    4.484    0.505    0.281
  377.500   96.273    4.483    0.513    0.278
  377.750   95.634    4.232    0.487    0.278
  378.000   95.601    3.996    0.489    0.278
  378.250   95.588    3.774    0.491    0.278
  378.500   95.547    3.431    0.494    0.278
  378.750   95.534    3.302    0.499    0.278
  379.000   95.507    3.177    0.507    0.278
  379.250   96.093    3.175    0.512    0.279
  379.500   94.216    3.172    0.511    0.281
  379.750   94.203    3.231    0.508    0.282
  380.000   94.169    3.417    0.501    0.282
  380.250   98.428    3.544    0.498    0.295
  380.500  100.238    3.610    0.491    0.297
  380.750  100.204    3.608    0.483    0.287
  381.000  100.790    3.605    0.478    0.287
  381.250  102.599    3.535    0.477    0.292
  381.500  111.149    3.532    0.485    0.295
  381.750  118.475    3.462    0.492    0.289
  382.000  120.890    3.332    0.497    0.286
  382.250  121.476    3.087    0.506    0.280
  382.500  121.449    2.971    0.519    0.278
  382.750  119.573    2.752    0.537    0.273
  383.000  119.559    2.751    0.538    0.273
  383.250  117.071    2.647    0.529    0.280
  383.500  115.833    2.645    0.520    0.287
  383.750  115.806    2.693    0.515    0.280
  384.000  118.228    2.743    0.517    0.275
  384.250  120.643    2.847    0.518    0.273
  384.500  120.616    2.954    0.518    0.272
  384.750  119.372    3.065    0.516    0.270
  385.000  115.060    3.062    0.514    0.271
  385.250  110.136    3.003    0.513    0.272
  385.500  106.437    2.945    0.511    0.277
  385.750  104.567    2.833    0.508    0.285
  386.000  102.085    2.778    0.506    0.288
  386.250  100.847    2.777    0.493    0.292
  386.500   94.073    2.936    0.482    0.296
  386.750   90.374    3.477    0.399    0.309
  387.000   86.667    4.972    0.371    0.330
  387.250   83.586    8.587    0.311    0.351
  387.500   80.505   10.760    0.299    0.366
  387.750   75.575   11.164    0.309    0.367
  388.000   71.270   11.157    0.319    0.338
  388.250   68.169   10.941    0.342    0.291
