~VERSION INFORMATION
 VERS.                 2.0:   CWLS LOG ASCII STANDARD -VERSION 2.0
 WRAP.                  NO:   ONE LINE PER DEPTH STEP
~WELL INFORMATION BLOCK
#MNEM.UNIT           DATA                    DESCRIPTION OF MNEMONIC
#---------    -------------------            -------------------------------
# Generated from Intellog Unique Number	CX_WELLS/WELL/2326
WELL.         13-01-088-07W4                 : Well_name    - WELL
LOC .         AA/13-01-088-07W4/0            : Location     - LOCATION
UWI .         AA/13-01-088-07W400            : Uwi          - UNIQUE WELL ID
ENTR.         RJA                            : Entered      - ENTERED BY
SRVC.         SCHLUMBERGER                   : Scn          - SERVICE COMPANY
STRT.M        35                             : top_depth    - START DEPTH
STOP.M        150                            : bot_depth    - STOP DEPTH
STEP.M        0.25                           : increment    - STEP LENGTH
 NULL. -999.2500:NULL Value
~CURVE INFORMATION BLOCK
#MNEM UNIT       ERCB CURVE CODE    CURVE DESCRIPTION
#-----------   ------------------   ----------------------------------
DEPT.M        00 001 00 00         : DEPTH        - DEPTH
GR  .API      00 310 00 00         : GR           - GAMMA RAY
NPHI.V/V      00 330 00 00         : PHIN         - NEUTRON POROSITY (SANDSTONE)
DPHI.V/V      00 890 00 00         : PHID         - DENSITY POROSITY (SANDSTONE)
ILD .OHMM     00 120 00 00         : RESD         - DEEP RESISTIVITY (DIL)
~PARAMETER INFORMATION
#MNEM.UNIT           DATA             DESCRIPTION OF MNEMONIC
#---------         -----------     ------------------------------
GL  .M        408.81               : gl           - GROUND LEVEL ELEVATION
EREF.M        410.31               : kb           - ELEVATION OF DEPTH REFERENCE
DATM.M        410.31               : datum        - DATUM ELEVATION
TDD .M        151                  : tdd          - TOTAL DEPTH DRILLER
RUN .         ONE                  : Run          - RUN NUMBER
ENG .         BILL                 : Engineer     - RECORDING ENGINEER
WIT .         JIM                  : Witness      - WITNESSED BY
MUD .         GEL                  : Mud_type     - MUD TYPE
MATR.         SANDSTONE            : Logunit      - NEUTRON MATRIX
TMAX.C        18                   : BHT          - MAXIMUM RECORDED TEMPERATURE
BHTD.M        157                  : BHTDEP       - MAXIMUM RECORDED TEMPERATURE
MATR.         1                    : LOGUNIT      - NEUTRON MATRIX
RMT .C        25                   : MDTP         - TEMPERATURE OF MUD
NEUT.         1                    : NEUTRON      - NEUTRON TYPE
RESI.         0                    : RESIST       - RESISTIVITY TYPE
RMC .OHMM     0.25                 : RMC          - RESISTIVITY OF MUD CAKE
RMF .OHMM     0.25                 : RMF          - RESISTIVITY OF MUD FILTRATE
SUFT.C        15                   : SUFT         - SURFACE TEMPERATURE
~A  DEPTH       GR     PHIN     PHID     RESD
# ...
  122.000   42.075    0.396    0.397  125.676
  122.250   40.103    0.397    0.393  135.283
  122.500   38.187    0.389    0.389  162.983
  122.750   36.841    0.375    0.379  168.919
  123.000   36.784    0.356    0.374  168.740
  123.250   38.586    0.337    0.364  145.010
  123.500   45.394    0.329    0.336  120.026
  123.750   48.448    0.329    0.303  105.063
  124.000   45.224    0.327    0.311   95.517
  124.250   43.271    0.323    0.316   80.558
  124.500   45.717    0.321    0.274   58.469
  124.750   52.526    0.316    0.252   37.904
  125.000   57.438    0.304    0.332   30.790
  125.250   53.626    0.245    0.354   27.983
  125.500   46.666    0.155    0.395   33.724
  125.750   36.539    0.155    0.436   76.936
  126.000   33.353    0.302    0.426   96.235
  126.250   31.400    0.339    0.409  127.346
  126.500   30.073    0.369    0.386  199.526
  126.750   28.726    0.375    0.331  245.020
  127.000   28.650    0.381    0.322  306.479
  127.250   28.575    0.393    0.322  355.629
  127.500   28.480    0.395    0.323  382.680
  127.750   28.385    0.406    0.322  382.141
  128.000   28.348    0.432    0.324  354.002
  128.250   25.750    0.431    0.328  340.480
  128.500   23.796    0.421    0.333  327.474
  128.750   28.120    0.409    0.332  314.854
  129.000   36.181    0.398    0.323  302.826
  129.250   34.834    0.406    0.327  319.915
  129.500   31.629    0.415    0.332  351.019
  129.750   29.069    0.420    0.334  377.852
  130.000   28.993    0.420    0.331  350.030
  130.250   33.280    0.416    0.328  324.142
  130.500   38.855    0.400    0.312  311.870
  130.750   44.412    0.380    0.248  323.343
  131.000   49.988    0.354    0.223  288.499
  131.250   66.810    0.338    0.199   36.526
  131.500   78.018    0.347    0.184   27.515
  131.750   84.808    0.370    0.196   17.186
  132.000   84.125    0.383    0.215   14.215
  132.250   81.527    0.384    0.220   14.459
  132.500   78.967    0.371    0.227   14.723
  132.750   75.117    0.351    0.248   15.842
  133.000   70.035    0.338    0.257   17.383
  133.250   65.578    0.331    0.252   19.427
  133.500   68.632    0.333    0.244   19.039
  133.750   70.434    0.340    0.236   17.971
  134.000   70.965    0.348    0.229   17.606
  134.250   71.515    0.352    0.225   17.581
  134.500   72.046    0.356    0.227   17.557
  134.750   72.615    0.346    0.230   17.212
  135.000   73.165    0.345    0.222   16.247
  135.250   75.593    0.356    0.210   14.765
  135.500   78.040    0.368    0.204   14.206
  135.750   83.596    0.379    0.197   12.671
  136.000   83.502    0.424    0.197   11.520
  136.250   82.800    0.439    0.200   10.874
  136.500   79.576    0.409    0.202   10.858
  136.750   78.268    0.388    0.210   11.688
  137.000   78.192    0.370    0.213   13.306
  137.250   79.368    0.362    0.207   14.057
  137.500   83.028    0.374    0.204   14.042
  137.750   83.579    0.377    0.202   14.017
  138.000   81.625    0.365    0.212   13.742
  138.250   79.046    0.367    0.217   13.742
  138.500   76.467    0.377    0.215   12.699
  138.750   75.140    0.377    0.220   12.694
  139.000   75.064    0.368    0.235   12.677
  139.250   76.240    0.362    0.220   12.659
  139.500   81.190    0.375    0.203   12.641
  139.750   89.250    0.386    0.197   12.384
  140.000   95.433    0.396    0.193   12.358
  140.250  101.634    0.402    0.177   12.579
  140.500  102.810    0.399    0.176   12.565
  140.750   99.586    0.391    0.177   13.023
  141.000   95.756    0.384    0.180   13.502
  141.250   90.673    0.370    0.194   13.999
  141.500   81.817    0.356    0.203   15.354
  141.750   76.734    0.343    0.215   17.491
  142.000   74.781    0.336    0.226   21.472
  142.250   62.796    0.331    0.244   25.396
  142.500   44.552    0.326    0.260   34.892
  142.750   36.340    0.319    0.326   61.186
  143.000   34.387    0.307    0.326  142.229
  143.250   33.685    0.311    0.315  174.597
  143.500   33.590    0.318    0.285  184.384
  143.750   34.141    0.421    0.275  180.637
  144.000   34.691    0.448    0.300  180.510
  144.250   35.222    0.451    0.334  183.671
  144.500   35.772    0.435    0.335  190.360
  144.750   36.322    0.386    0.330  197.432
  145.000   36.246    0.361    0.312  212.450
  145.250   36.797    0.341    0.301  224.438
  145.500   37.347    0.334    0.291  237.104
  145.750   37.897    0.334    0.286  250.483
  146.000   39.073    0.335    0.284  254.869
  146.250   39.623    0.336    0.279  259.332
  146.500   40.192    0.336    0.274  263.872
  146.750   39.471    0.333    0.270  273.579
  147.000   38.163    0.330    0.268  289.017
  147.250   36.836    0.329    0.271  299.755
  147.500   36.134    0.329    0.277  310.782
  147.750   37.310    0.332    0.280  310.344
  148.000   39.112    0.333    0.280  309.907
  148.250   40.895    0.334    0.277  309.361
  148.500   42.071    0.336    0.273  314.777
  148.750   41.995    0.336    0.268  314.444
  149.000   41.938    0.336    0.265  319.837
  149.250   41.199    0.335    0.256  319.387
  149.500   40.497    0.335    0.247  318.824
  149.750   40.421    0.335    0.247  318.374
  150.000   40.346    0.336    0.250  318.038
