~VERSION INFORMATION
 VERS.                 2.0:   CWLS LOG ASCII STANDARD -VERSION 2.0
 WRAP.                  NO:   ONE LINE PER DEPTH STEP
~WELL INFORMATION BLOCK
#MNEM.UNIT           DATA                    DESCRIPTION OF MNEMONIC
#---------    -------------------            -------------------------------
# Generated from Intellog Unique Number	CN_94_101/WELL/5018
WELL.         11-16-099-13W4                 : Well_name    - WELL
LOC .         AA/11-16-099-13W4/0            : Location     - LOCATION
UWI .         AA/11-16-099-13W400            : Uwi          - UNIQUE WELL ID
ENTR.         TIM                            : Entered      - ENTERED BY
SRVC.         SCHLUMBERGER                   : Scn          - SERVICE COMPANY
DATE.         08/13/92                       : Date         - LOG DATE
STRT.M        393.192                        : top_depth    - START DEPTH
STOP.M        594.442                        : bot_depth    - STOP DEPTH
STEP.M        0.25                           : increment    - STEP LENGTH
 NULL. -999.2500:NULL Value
~CURVE INFORMATION BLOCK
#MNEM UNIT       ERCB CURVE CODE    CURVE DESCRIPTION
#-----------   ------------------   ----------------------------------
DEPT.M        00 001 00 00         : DEPTH        - DEPTH
GR  .API      00 310 00 00         : GR           - GAMMA RAY
ILD .OHMM     00 120 00 00         : RESD         - DEEP RESISTIVITY (DIL)
NPHI.V/V      00 330 00 00         : PHIN         - NEUTRON POROSITY (SANDSTONE)
~PARAMETER INFORMATION
#MNEM.UNIT           DATA             DESCRIPTION OF MNEMONIC
#---------         -----------     ------------------------------
GL  .M        829.97               : gl           - GROUND LEVEL ELEVATION
EREF.M        833.323              : kb           - ELEVATION OF DEPTH REFERENCE
DATM.M        833.323              : datum        - DATUM ELEVATION
TDD .M        596.189              : tdd          - TOTAL DEPTH DRILLER
RUN .         ONE                  : Run          - RUN NUMBER
ENG .         BILL                 : Engineer     - RECORDING ENGINEER
WIT .         JIM                  : Witness      - WITNESSED BY
MUD .         GEL                  : Mud_type     - MUD TYPE
MATR.         SANDSTONE            : Logunit      - NEUTRON MATRIX
TMAX.C        33.3333              : BHT          - MAXIMUM RECORDED TEMPERATURE
BHTD.M        596.189              : BHTDEP       - MAXIMUM RECORDED TEMPERATURE
RMT .C        21.1111              : MDTP         - TEMPERATURE OF MUD
MUDD.KG/M     1090                 : MWT          - MUD DENSITY
NEUT.         1                    : NEUTRON      - NEUTRON TYPE
RESI.         0                    : RESIST       - RESISTIVITY TYPE
RM  .OHMM     6                    : RM           - RESISTIVITY OF MUD
RMC .OHMM     6                    : RMC          - RESISTIVITY OF MUD CAKE
RMF .OHMM     6                    : RMF          - RESISTIVITY OF MUD FILTRATE
SUFT.C        4                    : SUFT         - SURFACE TEMPERATURE
~A  DEPTH       GR     RESD     PHIN
# ...
  555.942   52.463   31.061    0.339
  556.192   53.123   29.364    0.338
  556.442   54.371   28.317    0.338
  556.692   54.461   26.801    0.331
  556.942   53.910   25.860    0.327
  557.192   54.018   24.924    0.322
  557.442   54.090   24.504    0.317
  557.692   54.732   23.631    0.313
  557.942   56.567   22.788    0.312
  558.192   59.595   21.989    0.311
  558.442   63.211   20.811    0.310
  558.692   65.634   19.697    0.307
  558.942   67.469   18.973    0.307
  559.192   67.541   17.613    0.306
  559.442   68.201   16.975    0.304
  559.692   68.879   16.057    0.307
  559.942   70.126   14.898    0.309
  560.192   73.724   13.566    0.310
  560.442   76.734   12.110    0.310
  560.692   80.350   11.020    0.311
  560.942   81.597    9.837    0.310
  561.192   81.082    8.128    0.308
  561.442   78.822    6.985    0.306
  561.692   77.132    7.419    0.303
  561.942   76.047    8.350    0.297
  562.192   75.532    9.581    0.292
  562.442   74.411   10.994    0.290
  562.692   73.896   13.636    0.291
  562.942   73.986   16.263    0.291
  563.192   74.646   16.311    0.292
  563.442   78.832   16.036    0.292
  563.692   84.192   14.896    0.292
  563.942   90.158   14.082    0.293
  564.192   94.949   12.562    0.294
  564.442   93.276   10.999    0.299
  564.692   92.174    9.266    0.303
  564.942   91.071    8.113    0.306
  565.192   89.362    7.824    0.307
  565.442   85.340    8.315    0.308
  565.692   83.668    8.831    0.318
  565.942   82.547    9.206    0.330
  566.192   80.269    9.585    0.345
  566.442   80.341   10.391    0.350
  566.692   81.607   11.252    0.343
  566.942   83.460   12.429    0.341
  567.192   84.084   12.949    0.341
  567.442   85.349   12.738    0.342
  567.692   83.677   12.277    0.342
  567.942   79.636   11.398    0.342
  568.192   74.421   10.978    0.342
  568.442   70.967   11.004    0.343
  568.692   69.259   12.641    0.343
  568.942   66.394   14.220    0.340
  569.192   65.309   16.326    0.336
  569.442   65.363   17.699    0.337
  569.692   65.435   18.065    0.342
  569.942   66.701   20.356    0.347
  570.192   68.536   21.195    0.356
  570.442   70.371   22.081    0.366
  570.692   72.793   21.722    0.368
  570.942   77.584   19.390    0.372
  571.192   81.182   17.646    0.373
  571.442   80.079   15.752    0.373
  571.692   78.425   13.792    0.361
  571.942   79.085   13.046    0.356
  572.192   77.395   12.826    0.354
  572.442   74.511   12.856    0.361
  572.692   61.088   13.409    0.368
  572.942   58.773   14.511    0.374
  573.192   54.200   21.007    0.375
  573.442   53.648   27.066    0.374
  573.692   53.133   32.949    0.371
  573.942   55.592   31.184    0.370
  574.192   56.215   29.480    0.365
  574.442   60.437   27.336    0.360
  574.692   63.429   23.477    0.363
  574.942   68.220   19.776    0.365
  575.192   75.361   16.028    0.369
  575.442   77.178   13.510    0.368
  575.692   78.461   13.021    0.361
  575.942   79.709   12.323    0.359
  576.192   82.701   11.441    0.352
  576.442   89.860   10.614    0.355
  576.692   93.440    9.660    0.368
  576.942   97.643    8.786    0.384
  577.192  100.671    7.847    0.377
  577.442  100.762    7.146    0.354
  577.692  100.816    6.751    0.351
  577.942  101.476    6.393    0.352
  578.192  103.898    6.162    0.356
  578.442  108.689    6.173    0.357
  578.692  113.480    6.435    0.363
  578.942  117.647    6.326    0.387
  579.192  124.788    5.647    0.392
  579.442  130.754    5.044    0.402
  579.692  131.432    4.587    0.408
  579.942  131.505    4.344    0.412
  580.192  132.770    4.266    0.424
  580.442  133.394    4.199    0.423
  580.692  135.853    4.211    0.422
  580.942  134.750    4.216    0.419
  581.192  131.866    4.311    0.413
  581.442  127.826    4.411    0.404
  581.692  122.628    4.502    0.394
  581.942  112.106    4.693    0.383
  582.192  106.873    4.889    0.374
  582.442  100.482    5.300    0.356
  582.692   94.091    5.413    0.353
  582.942   95.338    5.750    0.353
  583.192  102.479    5.766    0.353
  583.442  103.157    5.776    0.353
  583.692  102.642    5.464    0.352
  583.942  102.733    4.787    0.351
  584.192  103.374    4.439    0.346
  584.442  103.447    4.039    0.343
  584.692  101.774    3.608    0.336
  584.942   98.909    3.411    0.325
  585.192   96.631    3.046    0.319
  585.442   95.528    2.774    0.318
  585.692   98.538    2.674    0.314
  585.942  102.136    2.434    0.313
  586.192  103.402    2.346    0.310
  586.442  102.299    2.177    0.309
  586.692  102.977    2.059    0.304
  586.942  105.987    1.912    0.300
  587.192  107.804    1.843    0.297
  587.442  102.588    1.744    0.296
  587.692   92.102    1.651    0.296
  587.942   88.631    1.592    0.296
  588.192   83.416    1.565    0.296
  588.442   78.200    1.539    0.295
  588.692   91.217    1.512    0.295
  588.942   98.340    1.606    0.294
  589.192   97.273    1.917    0.286
  589.442   96.152    2.331    0.280
  589.692   95.049    2.946    0.269
  589.942   96.297    4.519    0.243
  590.192   97.544    6.173    0.201
  590.442   98.258    7.506    0.179
  590.692   97.725    9.132    0.168
  590.942   97.797    9.705    0.160
  591.192   98.439    9.359    0.156
  591.442   99.705    8.853    0.156
  591.692  101.558    8.374    0.156
  591.942  102.805    8.080    0.156
  592.192  103.447    7.949    0.157
  592.442  105.300    7.963    0.159
  592.692  107.171    7.824    0.164
  592.942  108.401    7.847    0.169
  593.192  107.867    7.865    0.176
  593.442  106.765    7.884    0.184
  593.692  105.680    7.902    0.189
  593.942  105.770    7.925    0.193
  594.192  105.843    7.944    0.192
  594.442  105.897    7.967    0.191
