~VERSION INFORMATION
 VERS.                 2.0:   CWLS LOG ASCII STANDARD -VERSION 2.0
 WRAP.                  NO:   ONE LINE PER DEPTH STEP
~WELL INFORMATION BLOCK
#MNEM.UNIT           DATA                    DESCRIPTION OF MNEMONIC
#---------    -------------------            -------------------------------
# Generated from Intellog Unique Number	CN_94_101/WELL/3574
WELL.         11-09-096-11W4                 : Well_name    - WELL
LOC .         AA/11-09-096-11W4/0            : Location     - LOCATION
UWI .         AA/11-09-096-11W400            : Uwi          - UNIQUE WELL ID
ENTR.         JOETTE                         : Entered      - ENTERED BY
SRVC.         SCHLUMBERGER                   : Scn          - SERVICE COMPANY
DATE.         07/31/92                       : Date         - LOG DATE
STRT.F        20                             : top_depth    - START DEPTH
STOP.F        330.039                        : bot_depth    - STOP DEPTH
STEP.F        0.8202                         : increment    - STEP LENGTH
 NULL. -999.2500:NULL Value
~CURVE INFORMATION BLOCK
#MNEM UNIT       ERCB CURVE CODE    CURVE DESCRIPTION
#-----------   ------------------   ----------------------------------
DEPT.F        00 001 00 00         : DEPTH        - DEPTH
GR  .API      00 310 00 00         : GR           - GAMMA RAY
ILD .OHMM     00 120 00 00         : RESD         - DEEP RESISTIVITY (DIL)
RHOB.G/CC     00 350 00 00         : DENS         - BULK DENSITY
DPHI.V/V      00 890 00 00         : PHID         - DENSITY POROSITY (SANDSTONE)
~PARAMETER INFORMATION
#MNEM.UNIT           DATA             DESCRIPTION OF MNEMONIC
#---------         -----------     ------------------------------
GL  .M        284.074              : gl           - GROUND LEVEL ELEVATION
EREF.M        285.293              : kb           - ELEVATION OF DEPTH REFERENCE
DATM.M        285.293              : datum        - DATUM ELEVATION
TDD .M        103.632              : tdd          - TOTAL DEPTH DRILLER
RUN .         ONE                  : Run          - RUN NUMBER
ENG .         BILL                 : Engineer     - RECORDING ENGINEER
WIT .         JIM                  : Witness      - WITNESSED BY
MUD .         GEL                  : Mud_type     - MUD TYPE
MATR.         SANDSTONE            : Logunit      - NEUTRON MATRIX
TMAX.F        30                   : BHT          - MAXIMUM RECORDED TEMPERATURE
BHTD.F        340                  : BHTDEP       - MAXIMUM RECORDED TEMPERATURE
RMT .F        30                   : MDTP         - TEMPERATURE OF MUD
MUDD.LB/G     8.9                  : MWT          - MUD DENSITY
NEUT.         1                    : NEUTRON      - NEUTRON TYPE
RESI.         0                    : RESIST       - RESISTIVITY TYPE
RM  .OHMM     3.69                 : RM           - RESISTIVITY OF MUD
RMC .OHMM     3.69                 : RMC          - RESISTIVITY OF MUD CAKE
RMF .OHMM     3.69                 : RMF          - RESISTIVITY OF MUD FILTRATE
SUFT.F        5                    : SUFT         - SURFACE TEMPERATURE
~A  DEPTH       GR     RESD     DENS     PHID
   20.000   57.235   75.483    2.297    0.214
   20.820   58.003   62.948    2.279    0.225
   21.640   54.781   51.551    2.189    0.279
   22.461   48.380   43.780    2.195    0.276
   23.281   45.573   40.717    2.214    0.264
   24.101   41.565   47.090    2.182    0.284
   24.921   34.766   58.567    2.156    0.299
   25.741   28.374   68.978    2.162    0.296
   26.562   25.161   87.362    2.167    0.293
   27.382   27.501  135.123    2.161    0.296
   28.202   28.667  180.724    2.199    0.274
   29.022   32.209  220.737    2.202    0.271
   29.843   37.736  201.586    2.176    0.287
   30.663   41.675  177.527    2.180    0.285
   31.483   44.025  156.344    2.214    0.265
   32.303   46.365  132.778    2.249    0.243
   33.123   49.518  123.485    2.249    0.243
   33.944   52.273  110.747    2.243    0.247
   34.764   56.212   99.320    2.230    0.254
   35.584   61.740   90.703    2.226    0.257
   36.404   63.692   79.880    2.220    0.261
   37.224   65.644   74.289    2.212    0.266
   38.045   68.382   66.626    2.201    0.272
   38.865   67.958   65.433    2.197    0.275
   39.685   63.155   70.372    2.197    0.275
   40.505   59.147   75.683    2.214    0.264
   41.325   59.907   81.396    2.230    0.254
   42.146   59.069   85.965    2.220    0.261
   42.966   58.231   90.789    2.198    0.274
   43.786   58.205   87.561    2.199    0.273
   44.606   58.567   79.967    2.189    0.279
   45.426   56.943   74.369    2.179    0.285
   46.247   55.310   74.377    2.183    0.283
   47.067   56.070   75.749    2.188    0.280
   47.887   54.852   77.144    2.194    0.276
   48.707   53.626   81.474    2.240    0.249
   49.528   52.787   81.484    2.249    0.243
   50.348   53.945   81.491    2.239    0.249
   51.168   53.513   82.994    2.233    0.253
   51.988   52.683   86.074    2.265    0.234
   52.808   51.854   86.083    2.444    0.125
   53.629   53.400   81.530    2.515    0.082
   54.449   54.971   75.823    2.469    0.110
   55.269   59.307   69.245    2.305    0.209
   56.089   62.452   59.884    2.285    0.221
   56.910   64.801   48.159    2.263    0.235
   57.730   63.565   36.675    2.249    0.243
   58.550   63.133   32.300    2.238    0.249
   59.370   62.304   32.303    2.236    0.251
   60.190   63.461   36.026    2.238    0.250
   61.011   63.038   40.180    2.216    0.263
   61.831   63.400   44.006    2.231    0.254
   62.651   64.549   48.195    2.245    0.245
   63.471   62.130   43.222    2.187    0.281
   64.291   59.314   38.065    2.199    0.274
   65.112   61.266   39.477    2.200    0.272
   65.932   64.401   50.916    2.208    0.268
   66.752   66.768   73.232    2.210    0.267
   67.572   69.514   66.884    2.207    0.268
   68.392   73.047   64.500    2.213    0.265
   69.213   75.008   59.986    2.231    0.254
   70.033   73.781   58.912    2.243    0.247
   70.853   68.961   64.521    2.246    0.245
   71.673   66.153   66.915    2.230    0.254
   72.493   52.203   62.233    2.224    0.258
   73.314   53.360   55.811    2.232    0.254
   74.134   62.870   47.399    2.211    0.266
   74.954   61.246   50.060    2.187    0.281
   75.774   57.635   57.896    2.189    0.279
   76.594   64.355  111.361    2.218    0.262
   77.415   77.442  107.399    2.212    0.265
   78.235   75.411   76.056    2.210    0.267
   79.055   66.626  133.590    2.228    0.256
   79.875   62.230  115.531    2.233    0.253
   80.695   56.623   84.843    2.227    0.256
   81.516   50.628   73.374    2.209    0.267
   82.336   43.035   68.238    2.203    0.271
   83.156   39.425   67.018    2.228    0.256
   83.976   40.582   80.376    2.350    0.182
   84.797   43.328   88.029    2.298    0.214
   85.617   46.075   96.410    2.204    0.271
   86.437   46.429  126.624    2.151    0.302
   87.257   44.814  157.486    2.153    0.301
   88.077   41.998  195.871    2.167    0.293
   88.898   40.762  337.844    2.208    0.268
   89.718   42.325  737.979    2.202    0.271
   90.538   41.893  412.665    2.188    0.280
   91.358   37.488  199.546    2.190    0.279
   92.178   38.248  146.541    2.209    0.267
   92.999   39.794  105.681    2.189    0.279
   93.819   38.964  141.346    2.163    0.295
   94.639   38.532  199.636    2.145    0.306
   95.459   38.100  182.325    2.150    0.303
   96.279   35.672  207.067    2.158    0.298
   97.100   34.454  338.211    2.162    0.296
   97.920   32.830  370.410    2.168    0.292
   98.740   33.590  314.571    2.185    0.282
   99.560   34.739  308.941    2.191    0.278
  100.381   36.302  338.354    2.199    0.274
  101.201   37.053  384.279    2.196    0.275
  102.021   38.202  495.625    2.182    0.284
  102.841   40.162  314.738    2.170    0.291
  103.661   48.480  244.081    2.154    0.301
  104.482   53.620  189.287    2.165    0.294
  105.302   58.751  160.752    2.187    0.281
  106.122   56.729  136.522    2.179    0.286
  106.942   53.118  144.181    2.177    0.287
  107.762   59.044  211.176    2.170    0.291
  108.583   67.751  398.879    2.176    0.287
  109.403   70.488  563.390    2.180    0.285
  110.223   68.476  563.465    2.191    0.278
  111.043   70.808  606.000    2.185    0.282
  111.864   68.009  663.695    2.171    0.290
  112.684   60.027  726.865    2.171    0.291
  113.504   57.988  796.067    2.172    0.289
  114.324   57.556  856.161    2.166    0.293
  115.144   56.727  920.792    2.160    0.297
  115.965   55.897  825.786    2.166    0.294
  116.785   54.273  640.403    2.175    0.288
  117.605   52.260  515.014    2.181    0.284
  118.425   49.047  487.748    2.189    0.280
  119.245   48.209  505.849    2.190    0.279
  120.066   46.187  544.035    2.186    0.281
  120.886   42.577  534.298    2.176    0.287
  121.706   38.171  479.169    2.166    0.294
  122.526   31.373  437.608    2.159    0.297
  123.346   28.556  479.271    2.163    0.295
  124.167   25.343  607.012    2.169    0.292
  124.987   26.500  938.866    2.173    0.289
  125.807   29.627  905.461    2.172    0.290
  126.627   29.610  842.084    2.168    0.292
  127.448   31.164  857.614    2.160    0.297
  128.268   33.911  922.379    2.152    0.302
  129.088   37.452  922.476    2.161    0.296
  129.908   34.239  728.503    2.167    0.293
  130.728   29.833  575.332    2.167    0.293
  131.549   26.620  653.406    2.166    0.293
  132.369   27.777  769.554    2.156    0.299
  133.189   29.331  630.224    2.138    0.310
  134.009   27.301  565.213    2.130    0.315
  134.829   26.869  677.871    2.165    0.294
  135.650   27.620  858.568    2.155    0.300
  136.470   28.778  843.200    2.143    0.307
  137.290   30.341  813.199    2.137    0.311
  138.110   33.494  756.260    2.152    0.302
  138.930   37.026  565.558    2.160    0.297
  139.751   35.800  393.299    2.160    0.297
  140.571   33.389  386.269    2.161    0.296
  141.391   26.582  535.729    2.153    0.301
  142.211   28.137  586.749    2.149    0.304
  143.031   26.124  597.554    2.147    0.305
  143.852   23.299  642.680    2.142    0.308
  144.672   22.073  678.733    2.134    0.313
  145.492   23.636  757.002    2.128    0.316
  146.312   27.177  691.341    2.124    0.319
  147.133   26.745  666.743    2.127    0.317
  147.953   25.916  691.488    2.135    0.312
  148.773   30.243  730.299    2.151    0.303
  149.593   29.820  785.429    2.142    0.308
  150.413   27.790  730.454    2.134    0.313
  151.234   26.165  576.858    2.130    0.315
  152.054   24.939  463.911    2.130    0.315
  152.874   24.498  346.929    2.133    0.313
  153.694   25.258  340.719    2.145    0.306
  154.514   26.804  472.566    2.157    0.299
  155.335   27.572  566.772    2.166    0.293
  156.155   28.738  609.573    2.154    0.300
  156.975   31.485  577.285    2.150    0.303
  157.795   36.227  527.213    2.172    0.290
  158.615   43.344  447.736    2.191    0.278
  159.436   52.457  360.071    2.215    0.264
  160.256   61.561  245.892    2.253    0.241
  161.076   63.099  187.258    2.270    0.230
  161.896   63.478  140.038    2.292    0.217
