~VERSION INFORMATION
 VERS.                 2.0:   CWLS LOG ASCII STANDARD -VERSION 2.0
 WRAP.                  NO:   ONE LINE PER DEPTH STEP
~WELL INFORMATION BLOCK
#MNEM.UNIT           DATA                    DESCRIPTION OF MNEMONIC
#---------    -------------------            -------------------------------
# Generated from Intellog Unique Number	CN_91_93/WELL/2634
WELL.         10-29-091-16W4                 : Well_name    - WELL
LOC .         AA/10-29-091-16W4/0            : Location     - LOCATION
UWI .         AA/10-29-091-16W400            : Uwi          - UNIQUE WELL ID
ENTR.         JOETTE                         : Entered      - ENTERED BY
SRVC.         SCHLUMBERGER                   : Scn          - SERVICE COMPANY
DATE.         02/11/92                       : Date         - LOG DATE
STRT.M        75                             : top_depth    - START DEPTH
STOP.M        240                            : bot_depth    - STOP DEPTH
STEP.M        0.25                           : increment    - STEP LENGTH
 NULL. -999.2500:NULL Value
~CURVE INFORMATION BLOCK
#MNEM UNIT       ERCB CURVE CODE    CURVE DESCRIPTION
#-----------   ------------------   ----------------------------------
DEPT.M        00 001 00 00         : DEPTH        - DEPTH
GR  .API      00 310 00 00         : GR           - GAMMA RAY
CALI.MM       00 280 01 00         : CAL          - CALIPER
NPHI.V/V      00 330 00 00         : PHIN         - NEUTRON POROSITY (SANDSTONE)
DPHI.V/V      00 890 00 00         : PHID         - DENSITY POROSITY (SANDSTONE)
ILD .OHMM     00 120 00 00         : RESD         - DEEP RESISTIVITY (DIL)
~PARAMETER INFORMATION
#MNEM.UNIT           DATA             DESCRIPTION OF MNEMONIC
#---------         -----------     ------------------------------
GL  .M        490.6                : gl           - GROUND LEVEL ELEVATION
EREF.M        493.66               : kb           - ELEVATION OF DEPTH REFERENCE
DATM.M        493.66               : datum        - DATUM ELEVATION
TDD .M        249.5                : tdd          - TOTAL DEPTH DRILLER
RUN .         ONE                  : Run          - RUN NUMBER
ENG .         BILL                 : Engineer     - RECORDING ENGINEER
WIT .         JIM                  : Witness      - WITNESSED BY
MUD .         GEL                  : Mud_type     - MUD TYPE
MATR.         SANDSTONE            : Logunit      - NEUTRON MATRIX
TMAX.C        22                   : BHT          - MAXIMUM RECORDED TEMPERATURE
BHTD.M        249.5                : BHTDEP       - MAXIMUM RECORDED TEMPERATURE
RMT .C        21                   : MDTP         - TEMPERATURE OF MUD
MUDD.KG/M     1060                 : MWT          - MUD DENSITY
NEUT.         1                    : NEUTRON      - NEUTRON TYPE
RESI.         0                    : RESIST       - RESISTIVITY TYPE
RM  .OHMM     7.3                  : RM           - RESISTIVITY OF MUD
RMC .OHMM     9.8                  : RMC          - RESISTIVITY OF MUD CAKE
RMF .OHMM     6.8                  : RMF          - RESISTIVITY OF MUD FILTRATE
SUFT.C        4                    : SUFT         - SURFACE TEMPERATURE
~A  DEPTH       GR      CAL     PHIN     PHID     RESD
# ...
  148.000   79.014  292.207    0.382    0.120   13.663
  148.250   80.535  290.732    0.357    0.099   14.711
  148.500   83.256  287.770    0.364    0.165   15.697
  148.750   86.880  284.304    0.376    0.229   15.572
  149.000   87.501  281.333    0.389    0.217   15.444
  149.250   84.821  276.375    0.383    0.215   15.180
  149.500   86.339  272.908    0.380    0.206   15.059
  149.750   87.863  268.937    0.389    0.189   15.070
  150.000   83.558  258.303    0.416    0.213   15.354
  150.250   82.704  254.899    0.442    0.222   14.961
  150.500   79.162  252.471    0.434    0.162   18.139
  150.750   71.463  247.580    0.407    0.161   18.139
  151.000   64.957  244.161    0.390    0.200   24.816
  151.250   61.126  240.750    0.372    0.157   28.996
  151.500   59.377  236.843    0.355    0.137   30.670
  151.750   60.307  231.952    0.348    0.143   29.896
  152.000   62.124  229.029    0.368    0.154   26.597
  152.250   63.942  227.118    0.392    0.176   24.330
  152.500   63.381  226.665    0.405    0.209   23.919
  152.750   61.334  226.665    0.408    0.246   24.203
  153.000   60.179  226.799    0.349    0.230   24.887
  153.250   59.916  226.841    0.327    0.181   31.015
  153.500   60.846  226.905    0.287    0.106   33.714
  153.750   62.069  226.473    0.312    0.104   35.331
  154.000   62.396  226.020    0.321    0.137   36.043
  154.250   62.132  225.581    0.309    0.127   35.120
  154.500   62.170  226.629    0.287    0.108   32.711
  154.750   62.795  227.683    0.285    0.105   26.828
  155.000   64.022  227.683    0.315    0.129   26.828
  155.250   66.438  229.290    0.374    0.180   25.954
  155.500   68.553  231.809    0.390    0.234   22.055
  155.750   70.366  231.809    0.402    0.249   20.730
  156.000   71.589  232.920    0.417    0.241   20.730
  156.250   71.632  232.920    0.405    0.222   20.226
  156.500   69.874  237.032    0.401    0.186   17.838
  156.750   66.642  239.035    0.408    0.188   17.077
  157.000   64.599  243.565    0.404    0.214   17.077
  157.250   63.435  247.585    0.378    0.181   17.290
  157.500   62.875  252.100    0.280    0.070   30.989
  157.750   64.395  256.609    0.224    0.039   32.773
  158.000   68.892  260.636    0.263    0.093   32.830
  158.250   74.277  264.154    0.313    0.142   25.713
  158.500   79.662  273.128    0.386    0.190   18.059
  158.750   82.668  286.073    0.424    0.228   15.355
  159.000   80.324  295.543    0.476    0.236   15.355
  159.250   76.795  301.560    0.458    0.222   14.595
  159.500   75.941  301.560    0.433    0.216   13.584
  159.750   77.457  305.657    0.430    0.231   12.995
  160.000   81.950  310.145    0.420    0.216   12.795
  160.250   86.749  314.674    0.408    0.199   12.342
  160.500   86.477  316.203    0.409    0.151   11.811
  160.750   90.673  317.746    0.413    0.121   11.306
  161.000   91.599  319.303    0.437    0.200   11.306
  161.250   88.367  319.352    0.458    0.223   11.037
  161.500   89.288  318.432    0.470    0.215   10.465
  161.750   90.222  316.500    0.449    0.220   10.493
  162.000   86.388  314.568    0.446    0.200   10.406
  162.250   86.430  312.642    0.422    0.171   10.514
  162.500   88.545  310.229    0.412    0.133   10.639
  162.750   90.354  306.824    0.428    0.165   11.039
  163.000   88.902  304.389    0.434    0.206   11.889
  163.250   90.129  300.489    0.431    0.174   12.809
  163.500   87.780  297.085    0.473    0.150   12.710
  163.750   83.355  293.666    0.496    0.157   14.334
  164.000   83.686  289.759    0.436    0.061   14.484
  164.250   89.963  286.348    0.417    0.060   11.981
  164.500   95.352  282.441    0.464    0.109   11.056
  164.750   98.061  279.029    0.488    0.214   10.204
  165.000   95.721  276.113    0.507    0.219    9.677
  165.250   93.377  276.113    0.556    0.211   10.332
  165.500   91.029  274.251    0.493    0.213   10.634
  165.750   88.391  269.353    0.433    0.191   10.552
  166.000   90.205  265.446    0.396    0.139   10.286
  166.250   93.211  261.037    0.394    0.190   10.114
  166.500   95.330  253.662    0.421    0.209   10.702
  166.750   93.288  246.272    0.450    0.170   10.812
  167.000   91.538  238.897    0.469    0.166   11.034
  167.250   89.487  231.529    0.435    0.136   13.255
  167.500   87.138  225.640    0.353    0.047   13.896
  167.750   95.801  225.194    0.387    0.186   13.786
  168.000   99.997  231.196    0.420    0.211   12.958
  168.250  102.702  234.225    0.421    0.204   12.398
  168.500   94.718  228.832    0.419    0.200   13.724
  168.750   92.374  223.453    0.422    0.185   15.616
  169.000   90.616  222.009    0.417    0.139   15.499
  169.250   93.623  222.065    0.346    0.094   14.701
  169.500  103.475  222.164    0.342    0.079   13.563
  169.750  112.427  223.184    0.370    0.132   12.069
  170.000  115.731  226.715    0.400    0.206   11.447
  170.250  108.337  232.215    0.405    0.208   11.053
  170.500  107.173  238.705    0.417    0.208   10.580
  170.750  105.725  243.228    0.443    0.213   10.121
  171.000  104.867  244.778    0.451    0.213    9.425
  171.250  111.445  246.823    0.443    0.208    8.468
  171.500  113.858  247.368    0.444    0.205    7.953
  171.750  114.189  246.426    0.487    0.211    7.613
  172.000  105.598  238.556    0.496    0.187    9.063
  172.250   95.520  239.122    0.507    0.157    9.944
  172.500   92.284  239.122    0.503    0.107    9.691
  172.750   93.210  239.221    0.461    0.088    9.273
  173.000  101.576  241.259    0.442    0.190    8.642
  173.250  103.984  247.764    0.452    0.212    8.642
  173.500  106.396  248.323    0.494    0.206    8.432
  173.750  102.268  248.379    0.521    0.198    7.850
  174.000  102.009  247.933    0.474    0.152    9.516
  174.250  105.610  247.997    0.435    0.088    9.359
  174.500  108.324  249.540    0.450    0.126    7.673
  174.750  105.674  248.103    0.506    0.187    7.346
  175.000  106.905  248.103    0.522    0.207    7.290
  175.250  106.344  246.737    0.510    0.209    7.571
  175.500  103.401  245.802    0.474    0.177    8.081
  175.750  102.552  244.861    0.419    0.133    8.548
  176.000  110.612  243.438    0.424    0.173    8.720
  176.250  113.016  242.999    0.444    0.200    8.498
  176.500  114.842  242.567    0.465    0.199    8.361
  176.750  112.489  241.123    0.461    0.180    8.839
  177.000   96.173  235.235    0.431    0.152   11.118
  177.250   91.752  228.850    0.368    0.077   11.976
  177.500   91.192  223.457    0.345    0.045   11.886
  177.750   95.982  223.018    0.372    0.072   11.481
  178.000   98.390  227.548    0.430    0.131   11.390
  178.250   90.992  231.072    0.442    0.185   11.515
  178.500   83.892  234.590    0.436    0.193   12.177
  178.750   66.382  233.656    0.408    0.206   14.501
  179.000   56.305  226.281    0.372    0.250   15.481
  179.250   42.665  216.924    0.370    0.262   16.676
  179.500   37.051  216.994    0.379    0.289   16.554
  179.750   34.706  216.994    0.382    0.298   15.839
  180.000   38.019  217.589    0.385    0.299   15.018
  180.250   37.458  217.589    0.386    0.309   15.326
  180.500   35.700  218.728    0.382    0.320   16.653
  180.750   33.657  220.250    0.384    0.324   19.655
  181.000   32.205  222.274    0.383    0.309   20.043
  181.250   31.347  226.301    0.373    0.318   21.986
  181.500   31.079  231.326    0.374    0.314   25.012
  181.750   32.005  241.292    0.375    0.309   31.170
  182.000   32.633  243.825    0.372    0.311   43.732
  182.250   31.483  248.334    0.375    0.319   53.012
  182.500   30.625  254.831    0.385    0.312   66.065
  182.750   31.253  261.824    0.395    0.311   91.000
  183.000   32.183  272.780    0.401    0.316   91.000
  183.250   32.510  279.787    0.418    0.315  108.572
  183.500   32.862  285.287    0.435    0.310  113.736
  183.750   32.875  295.748    0.413    0.312  121.427
  184.000   32.017  295.748    0.411    0.317  126.147
  184.250   30.272  304.807    0.389    0.322  125.173
