~VERSION INFORMATION
 VERS.                 2.0:   CWLS LOG ASCII STANDARD -VERSION 2.0
 WRAP.                  NO:   ONE LINE PER DEPTH STEP
~WELL INFORMATION BLOCK
#MNEM.UNIT           DATA                    DESCRIPTION OF MNEMONIC
#---------    -------------------            -------------------------------
# Generated from Intellog Unique Number	CN_91_93/WELL/3678
WELL.         10-02-093-08W4                 : Well_name    - WELL
LOC .         AA/10-02-093-08W4/0            : Location     - LOCATION
UWI .         AA/10-02-093-08W400            : Uwi          - UNIQUE WELL ID
ENTR.         JOETTE                         : Entered      - ENTERED BY
SRVC.         SCHLUMBERGER                   : Scn          - SERVICE COMPANY
DATE.         03/22/92                       : Date         - LOG DATE
STRT.M        75                             : top_depth    - START DEPTH
STOP.M        205                            : bot_depth    - STOP DEPTH
STEP.M        0.25                           : increment    - STEP LENGTH
 NULL. -999.2500:NULL Value
~CURVE INFORMATION BLOCK
#MNEM UNIT       ERCB CURVE CODE    CURVE DESCRIPTION
#-----------   ------------------   ----------------------------------
DEPT.M        00 001 00 00         : DEPTH        - DEPTH
CALI.MM       00 280 01 00         : CAL          - CALIPER
GR  .API      00 310 00 00         : GR           - GAMMA RAY
ILD .OHMM     00 120 00 00         : RESD         - DEEP RESISTIVITY (DIL)
NPHI.V/V      00 330 00 00         : PHIN         - NEUTRON POROSITY (SANDSTONE)
DPHI.V/V      00 890 00 00         : PHID         - DENSITY POROSITY (SANDSTONE)
~PARAMETER INFORMATION
#MNEM.UNIT           DATA             DESCRIPTION OF MNEMONIC
#---------         -----------     ------------------------------
GL  .M        454.8                : gl           - GROUND LEVEL ELEVATION
EREF.M        454.8                : kb           - ELEVATION OF DEPTH REFERENCE
DATM.M        454.8                : datum        - DATUM ELEVATION
TDD .M        205.4                : tdd          - TOTAL DEPTH DRILLER
RUN .         ONE                  : Run          - RUN NUMBER
ENG .         BILL                 : Engineer     - RECORDING ENGINEER
WIT .         JIM                  : Witness      - WITNESSED BY
MUD .         GEL                  : Mud_type     - MUD TYPE
MATR.         SANDSTONE            : Logunit      - NEUTRON MATRIX
TMAX.C        16                   : BHT          - MAXIMUM RECORDED TEMPERATURE
BHTD.M        205.4                : BHTDEP       - MAXIMUM RECORDED TEMPERATURE
RMT .C        14                   : MDTP         - TEMPERATURE OF MUD
MUDD.KG/M     9583.33              : MWT          - MUD DENSITY
NEUT.         1                    : NEUTRON      - NEUTRON TYPE
RESI.         0                    : RESIST       - RESISTIVITY TYPE
RM  .OHMM     4.8                  : RM           - RESISTIVITY OF MUD
RMC .OHMM     4.8                  : RMC          - RESISTIVITY OF MUD CAKE
RMF .OHMM     4.8                  : RMF          - RESISTIVITY OF MUD FILTRATE
SUFT.C        4                    : SUFT         - SURFACE TEMPERATURE
~A  DEPTH      CAL       GR     RESD     PHIN     PHID
# ...
  148.000  171.984  112.857   29.445    0.423    0.316
  148.250  172.031  109.199   34.490    0.421    0.329
  148.500  173.092  103.088   59.528    0.410    0.346
  148.750  173.139   98.203   82.831    0.440    0.352
  149.000  173.168  100.680  138.934    0.444    0.347
  149.250  173.225  106.837  127.513    0.445    0.339
  149.500  173.253  106.865  108.939    0.427    0.340
  149.750  173.282  103.821  112.158    0.409    0.348
  150.000  173.339  102.611  133.289    0.420    0.350
  150.250  173.358   98.953  165.368    0.415    0.350
  150.500  173.405  102.043  240.248    0.406    0.354
  150.750  173.434  106.974  281.472    0.415    0.354
  151.000  173.472  102.708  273.623    0.427    0.349
  151.250  173.519  100.271  251.130    0.426    0.344
  151.500  174.589  101.527  211.494    0.406    0.340
  151.750  174.608  100.317  165.783    0.408    0.325
  152.000  174.656  110.155  135.667    0.419    0.323
  152.250  174.684  110.178  112.627    0.418    0.330
  152.500  175.754  105.293   85.787    0.413    0.329
  152.750  175.792  102.862   75.425    0.440    0.340
  153.000  175.821  103.498   97.694    0.447    0.348
  153.250  175.859   99.227  148.174    0.456    0.347
  153.500  175.906  106.611  194.696    0.453    0.337
  153.750  175.944  105.407  234.770    0.430    0.330
  154.000  175.982  124.452  248.717    0.424    0.332
  154.250  176.020  125.702  275.112    0.412    0.330
  154.500  176.068  118.977  308.738    0.413    0.328
  154.750  176.087  113.479  275.342    0.420    0.330
  155.000  176.143  107.367  245.609    0.397    0.339
  155.250  177.194  107.390  252.839    0.382    0.346
  155.500  177.251  108.639  318.225    0.409    0.336
  155.750  177.280  106.214  412.180    0.413    0.328
  156.000  177.308  104.397  469.197    0.417    0.326
  156.250  177.356  105.027  449.662    0.438    0.333
  156.500  177.384  111.798  443.394    0.442    0.339
  156.750  176.409  112.434  424.934    0.441    0.348
  157.000  176.447  109.390  425.111    0.411    0.346
  157.250  176.476  105.732  413.257    0.440    0.333
  157.500  175.501  106.368  395.968    0.439    0.288
  157.750  175.549  113.139  333.473    0.389    0.294
  158.000  175.568  127.884  220.072    0.437    0.307
  158.250  174.583  152.451  172.488    0.465    0.316
  158.500  174.631  147.566   84.199    0.488    0.326
  158.750  173.656  135.933   41.105    0.470    0.335
  159.000  173.675  123.681   41.122    0.476    0.340
  159.250  173.722  110.208   41.734    0.474    0.349
  159.500  173.760  102.875   50.314    0.475    0.357
  159.750  173.798  100.439   91.970    0.465    0.362
  160.000  173.836   96.781  127.986    0.468    0.332
  160.250  173.874   99.871  117.477    0.469    0.320
  160.500  173.912  122.597   90.774    0.461    0.312
  160.750  173.950  135.502   73.226    0.462    0.309
  161.000  173.988  141.051   53.425    0.464    0.311
  161.250  174.036  138.615   47.646    0.493    0.301
  161.500  174.055  131.890   42.497    0.474    0.295
  161.750  174.093  123.938   37.364    0.464    0.305
  162.000  174.131  122.734   35.804    0.487    0.331
  162.250  174.178  130.118   37.935    0.492    0.336
  162.500  174.216  130.141   38.500    0.492    0.336
  162.750  174.254  128.942   26.906    0.481    0.328
  163.000  174.302  131.413   28.101    0.473    0.303
  163.250  174.340  125.915   30.204    0.498    0.299
  163.500  174.387  126.551   34.389    0.491    0.292
  163.750  174.406  134.549   36.962    0.468    0.298
  164.000  174.444  136.412   37.512    0.453    0.314
  164.250  174.492  131.527   35.431    0.412    0.327
  164.500  174.530  129.096   34.944    0.394    0.303
  164.750  174.558  126.052   43.976    0.451    0.276
  165.000  174.596  116.873   43.368    0.482    0.324
  165.250  174.644  136.537   32.098    0.458    0.304
  165.500  174.682  129.801   27.819    0.434    0.294
  165.750  174.710  127.370   37.622    0.463    0.269
  166.000  174.748  134.760   30.346    0.471    0.264
  166.250  175.809  141.530   29.079    0.484    0.270
  166.500  175.856  137.872   29.512    0.499    0.284
  166.750  175.894  132.988   29.107    0.469    0.296
  167.000  175.942  133.624   27.889    0.453    0.302
  167.250  175.961  120.151   25.969    0.438    0.289
  167.500  175.999  128.148   27.123    0.407    0.278
  167.750  176.046  136.759   33.171    0.390    0.285
  168.000  176.075  136.169   32.715    0.330    0.268
  168.250  176.132  130.671   30.463    0.311    0.220
  168.500  176.150  116.590   28.773    0.285    0.194
  168.750  176.207  109.859   26.792    0.282    0.190
  169.000  176.255  104.980   24.592    0.290    0.183
  169.250  176.274  103.157   29.648    0.318    0.210
  169.500  176.321  100.726  145.864    0.349    0.263
  169.750  176.369  103.202   78.734    0.383    0.288
  170.000  176.388  107.519   44.364    0.397    0.317
  170.250  176.435  103.867  111.196    0.401    0.351
  170.500  176.473   99.590   51.998    0.396    0.375
  170.750  176.502   92.865   44.419    0.385    0.375
  171.000  176.540   99.022  189.325    0.376    0.366
  171.250  176.587   99.658  238.285    0.387    0.354
  171.500  176.625   96.001  304.242    0.402    0.354
  171.750  176.654   91.729  423.514    0.413    0.371
  172.000  175.670   94.825  455.159    0.406    0.375
  172.250  175.708   91.775  475.379    0.401    0.366
  172.500  175.746   93.644  449.096    0.406    0.361
  172.750  175.784   97.347  436.482    0.394    0.358
  173.000  175.831   93.684  296.407    0.384    0.352
  173.250  175.879  101.068  235.701    0.391    0.346
  173.500  175.907  130.542  201.348    0.401    0.337
  173.750  175.936  146.514  162.425    0.412    0.324
  174.000  175.983  156.971   85.193    0.399    0.292
  174.250  176.012  156.994   26.277    0.374    0.253
  174.500  176.049  154.563   23.101    0.368    0.284
  174.750  176.107  153.353   20.023    0.338    0.292
  175.000  176.135  150.309   18.912    0.326    0.286
  175.250  176.163  145.424   17.359    0.320    0.276
  175.500  176.211  137.472   16.875    0.312    0.266
  175.750  177.281  118.478   27.502    0.312    0.255
  176.000  177.319  102.551   32.217    0.345    0.247
  176.250  177.357   92.753   36.674    0.368    0.257
  176.500  177.404   97.076   35.147    0.397    0.276
  176.750  177.423   95.872   35.666    0.409    0.311
  177.000  176.448   98.962   54.095    0.421    0.370
  177.250  175.464  106.351   82.047    0.402    0.369
  177.500  173.476  105.755   42.421    0.391    0.355
  177.750  173.495  101.484   36.242    0.396    0.356
  178.000  171.479   97.212   42.456    0.405    0.364
  178.250  170.504   91.714   81.013    0.405    0.365
  178.500  169.520   88.056  159.102    0.412    0.357
  178.750  169.558   83.785  237.875    0.405    0.350
  179.000  169.586   83.814  441.059    0.409    0.356
  179.250  168.602   90.579  539.472    0.417    0.362
  179.500  168.649   94.895  614.096    0.416    0.356
  179.750  168.687   94.918  605.600    0.368    0.335
  180.000  168.716   91.260  540.148    0.356    0.325
  180.250  168.754   87.603  454.944    0.356    0.329
  180.500  168.811   94.373  435.911    0.352    0.324
  180.750  168.830   94.396  405.944    0.347    0.297
  181.000  169.890   95.038  394.583    0.350    0.290
  181.250  169.938   96.288  372.767    0.354    0.284
  181.500  169.976  101.826  342.123    0.349    0.276
  181.750  170.004  106.768  268.150    0.342    0.277
  182.000  170.042  104.337  192.854    0.344    0.287
  182.250  171.102  102.513  132.856    0.353    0.297
  182.500  171.150  112.965   90.220    0.353    0.303
  182.750  172.210  126.483   63.962    0.383    0.298
  183.000  172.248  139.388   50.138    0.399    0.295
  183.250  172.315  135.731   56.266    0.399    0.297
  183.500  173.366  118.583   77.184    0.379    0.302
  183.750  173.394  113.079   85.366    0.365    0.314
  184.000  173.432  105.740   95.790    0.391    0.315
  184.250  173.470  111.897   90.484    0.404    0.237
