~Version : LASO    vs 4.00 - DATA COPYRIGHT - RILEYS DATASHARE INTERNATIONAL
 VERS.                2.0 :   CWLS Log ASCII Standard -VERSION 2.0
 WRAP.                 NO :   One line per depth step
~Well Information Block
#MNEM.UNIT       Data                        Description of Mnemonic
#----.----      -------------------------- : -----------------------------
 STRT.FT           30.0000                 : Start Depth
 STOP.FT          463.0000                 : End Depth
 STEP.FT            0.5000                 : Depth Increment
 NULL.           -999.25                   : NULL Value
 COMP.    PACIFIC PETROLEUMS LIMITED       : COMPANY
 WELL.    BAYSEL-ASHLAND STPBK CH#21 13-30 : WELL NAME
 FLD .    STPBK. OIL SANDS                 : FIELD NAME
 LOC .    13-30-091-08W4                     : WELL LOCATION
 PROV.    ALBERTA                          : PROVINCE
 SRVC.    SCHLUMBERGER                     : LOGGING SERVICE COMPANY
 DATE.    01-MAR-73                        : DATE LOGGED
 UWI .    AA/13-30-091-08W400              : UNIQUE WELL ID
~Curve Information Block
#MNEM.UNIT        API CODE                   Curve Description
#----.----      LG--CV-CL--M               : -----------------
 DEPT.FT         0   1  0  0               : 1 DEPTH
 CALI.IN        45 280  1  1               : 2 DENSITY CALIPER
 DPHI.%         45 890 12  1               : 3 DENSITY POROSITY (SANDSTONE)
 GR  .GAPI      45 310  1  1               : 4 GAMMA RAY
 RHOB.G/C3      45 350  1  1               : 5 BULK DENSITY
 LLS .OHMM      11 220  9  1               : 6 FOCUSSED RESISTIVITY
 SP  .MV        11  10  1  1               : 7 SPONTANEOUS POTENTIAL
 NPHI.%         41 890  3  1               : 8 NEUTRON POROSITY (SANDSTONE)
~Parameter Information Block
#MNEM.UNIT       Data                        Description of Mnemonic
#----.----      -------------------------- : -----------------------------
 RUN .                   1                 : Run Number
 GL  .FT         1240.0000                 : Ground Level Elevation
 DREF.                  KB                 : Depth Reference
 EREF.FT         1244.0000                 : Elevation of Depth Reference
 TDL .FT          464.0000                 : Total Depth Logger
 TDD .FT          455.0000                 : Total Depth Driller
 CSGL.FT            0.0000                 : Casing Bottom Logger
 CSGD.FT            0.0000                 : Casing Bottom Driller
 CSGS.IN          219.0000                 : Casing Size
 CSGW.LBS           0.0000                 : Casing Weight
 BHT .DEGF         52.0000                 : Bottom Hole Temperature
 BS  .IN            6.2500                 : Bit Size
 DFD .           1110.0000                 : Mud Weight (Density)
 DFV .             89.0000                 : Mud Viscosity
 DFL .              4.5000                 : Mud Fluid Loss
 DFPH.              9.0000                 : Mud pH
 RM  .OHMM          4.6200                 : Mud Resistivity
 RMT .DEGF         49.0000                 : Mud Resistivity Temperature
 RMF .OHMM          5.0000                 : Mud Filtrate Resistivity
 RMFT.DEGF         20.0000                 : RMF Temperature
 RMC .OHMM          5.3000                 : Mud Cake Resistivity
 RMCT.DEGF         20.0000                 : RMC Temperature
~Asc DEPTH      CALI       DPHI       GR         RHOB       LLS        SP         NPHI 
# ...
  439.5000     6.3130    39.4500    48.7500     1.9998     5.8537    90.0900    57.9720
  440.0000     6.3140    36.6060    53.9100     2.0799     6.1183    89.3850    57.8700
  440.5000     6.3150    34.4460    53.3100     2.0652     6.3831    88.1550    56.8980
  441.0000     6.3160    35.6940    54.0200     2.0518     6.3304    88.6500    56.2200
  441.5000     6.3170    36.4500    54.2600     2.0433     6.2839    89.3550    58.2660
  442.0000     6.3180    36.9480    50.5500     2.0375     5.9900    90.1200    57.3420
  442.5000     6.3190    36.7800    47.7300     2.0435     5.3436    90.4950    57.5820
  443.0000     6.3200    36.7260    43.3400     2.0437     6.4184    90.6450    56.7180
  443.5000     6.3210    40.5900    41.9300     1.9966     9.0998    90.7950    57.4680
  444.0000     6.3220    45.0000    38.2500     1.9958    13.0686    90.9450    58.0260
  444.5000     6.3330    45.0000    29.1100     1.7426    20.1665    94.2300    56.9700
  445.0000     6.3490    45.0000    26.5600     1.6237    14.5824    99.9150    58.1280
  445.5000     6.2930    45.0000    25.1900     1.5428     9.7237    99.3600    58.1700
  446.0000     6.2940    45.0000    24.0800     1.6237     5.6889    97.9800    58.1640
  446.5000     6.2960    45.0000    25.1600     1.6850     6.9156    93.4950    58.0860
  447.0000     6.2980    45.0000    26.6800     1.7670     9.2094    94.3650    57.9900
  447.5000     6.3000    45.0000    28.5600     1.7500    10.8800    95.4000    56.3580
  448.0000     6.3020    45.0000    31.8900     1.7207    12.0734    96.1350    56.2440
  448.5000     6.3040    45.0000    27.8400     1.8058     9.4587    97.6650    56.6220
  449.0000     6.3070    44.6760    26.8200     1.9048    11.2987   100.3350    46.7400
  449.5000     6.3090    36.9900    25.9200     1.9958    12.7125    98.1000    42.3180
  450.0000     6.3110    31.0920    25.3400     1.9990    14.7581    95.3550    39.0540
  450.5000     6.3130    26.3820    24.9400     2.3055    16.6659    97.9800    36.1380
  451.0000     6.3130    21.6720    24.7900     2.3431    18.4429    99.9750    33.7980
  451.5000     6.3040    18.4800    24.9300     2.3807  -999.2500  -999.2500    33.5220
  452.0000     6.2980    15.5700    25.0700     2.4183  -999.2500  -999.2500    31.4400
  452.5000     6.2920    12.2520    25.2500     2.4524  -999.2500  -999.2500    30.6480
  453.0000     6.2750    12.9060    25.6300     2.4367  -999.2500  -999.2500    30.8640
  453.5000     6.2450    13.2420    26.3700     2.4264  -999.2500  -999.2500    29.3280
  454.0000     6.2150    12.3240    26.9700     2.4454  -999.2500  -999.2500    27.2820
  454.5000     6.1850    12.6120    26.4100     2.4424  -999.2500  -999.2500    27.3960
  455.0000     6.1590    13.0440    25.1100     2.4402  -999.2500  -999.2500    27.5820
  455.5000     6.1350    13.5300    23.7400     2.4266  -999.2500  -999.2500    27.4920
  456.0000     6.1110    13.5600    22.7900     2.4317  -999.2500  -999.2500    27.1800
  456.5000     6.0910    15.0180    22.1100     2.4154  -999.2500  -999.2500    26.5980
  457.0000     6.0790    14.8620    21.8200     2.3955  -999.2500  -999.2500    27.3060
  457.5000     6.0700    14.5980    22.5300     2.4130  -999.2500  -999.2500    26.9760
  458.0000     6.0620    15.0840    23.2100     2.4079  -999.2500  -999.2500    26.6100
  458.5000     6.0540    15.7740    23.0100     2.3940  -999.2500  -999.2500    26.5260
  459.0000     6.0460    15.8580    23.1500     2.3862  -999.2500  -999.2500    27.8760
  459.5000     6.0350    15.9300    23.4300     2.3868  -999.2500  -999.2500    28.1580
  460.0000     6.0550    16.3320    24.1800     2.3614  -999.2500  -999.2500    28.9560
  460.5000     6.0840    18.3540    25.1900     2.3247  -999.2500  -999.2500    31.2000
  461.0000     6.1130    20.3400    26.2300     2.2915  -999.2500  -999.2500    34.2900
  461.5000     6.1500    21.7740    27.1400     2.2793  -999.2500  -999.2500    36.2160
  462.0000     6.1450    22.8300    27.8900     2.2741  -999.2500  -999.2500    35.7240
  462.5000     6.1380    21.9960    28.0000     2.2735  -999.2500  -999.2500    34.8120
  463.0000     6.0800    21.0300    29.7600     2.2975  -999.2500  -999.2500    35.0340
