~VERSION INFORMATION
 VERS.                 2.0:   CWLS LOG ASCII STANDARD -VERSION 2.0
 WRAP.                  NO:   ONE LINE PER DEPTH STEP
~WELL INFORMATION BLOCK
#MNEM.UNIT           DATA                    DESCRIPTION OF MNEMONIC
#---------    -------------------            -------------------------------
# Generated from Intellog Unique Number	CW_82_90/WELL/694
WELL.         10-09-083-19W4                 : Well_name    - WELL
LOC .         AA/10-09-083-19W4/0            : Location     - LOCATION
UWI .         AA/10-09-083-19W400            : Uwi          - UNIQUE WELL ID
ENTR.         JAYE                           : Entered      - ENTERED BY
SRVC.         WESTERN ATLAS                  : Scn          - SERVICE COMPANY
DATE.         30 FEB 81                      : Date         - LOG DATE
STRT.M        192                            : top_depth    - START DEPTH
STOP.M        365                            : bot_depth    - STOP DEPTH
STEP.M        0.25                           : increment    - STEP LENGTH
 NULL. -999.2500:NULL Value
~CURVE INFORMATION BLOCK
#MNEM UNIT       ERCB CURVE CODE    CURVE DESCRIPTION
#-----------   ------------------   ----------------------------------
DEPT.M        00 001 00 00         : DEPTH        - DEPTH
CALI.MM       00 280 01 00         : CAL          - CALIPER
GR  .API      00 310 00 00         : GR           - GAMMA RAY
NPHI.V/V      00 330 00 00         : PHIN         - NEUTRON POROSITY (SANDSTONE)
DPHI.V/V      00 890 00 00         : PHID         - DENSITY POROSITY (SANDSTONE)
ILD .OHMM     00 120 00 00         : RESD         - DEEP RESISTIVITY (DIL)
~PARAMETER INFORMATION
#MNEM.UNIT           DATA             DESCRIPTION OF MNEMONIC
#---------         -----------     ------------------------------
GL  .M        577.5                : gl           - GROUND LEVEL ELEVATION
EREF.M        580.32               : kb           - ELEVATION OF DEPTH REFERENCE
DATM.M        577.5                : datum        - DATUM ELEVATION
TDD .M        371                  : tdd          - TOTAL DEPTH DRILLER
RUN .         ONE                  : Run          - RUN NUMBER
ENG .         STEVENS & GAMBER     : Engineer     - RECORDING ENGINEER
WIT .         HAYES & CLARKE       : Witness      - WITNESSED BY
MUD .         GEL CHEM             : Mud_type     - MUD TYPE
MATR.         SANDSTONE            : Logunit      - NEUTRON MATRIX
TMAX.C        17                   : BHT          - MAXIMUM RECORDED TEMPERATURE
BHTD.M        371                  : BHTDEP       - MAXIMUM RECORDED TEMPERATURE
RMT .C        11                   : MDTP         - TEMPERATURE OF MUD
MUDD.KG/M     1100                 : MWT          - MUD DENSITY
NEUT.         1                    : NEUTRON      - NEUTRON TYPE
RESI.         0                    : RESIST       - RESISTIVITY TYPE
RM  .OHMM     3.8                  : RM           - RESISTIVITY OF MUD
RMC .OHMM     0                    : RMC          - RESISTIVITY OF MUD CAKE
RMF .OHMM     3.6                  : RMF          - RESISTIVITY OF MUD FILTRATE
SUFT.C        0                    : SUFT         - SURFACE TEMPERATURE
~A  DEPTH      CAL       GR     PHIN     PHID     RESD
# ...
  228.500  230.681   49.266    0.358    0.308   12.099
  228.750  229.643   49.338    0.372    0.312   11.842
  229.000  229.456   49.365    0.376    0.322   11.678
  229.250  229.281   48.443    0.376    0.330   11.736
  229.500  229.012   48.153    0.371    0.340   11.860
  229.750  229.139   48.364    0.360    0.337   12.053
  230.000  229.822   48.439    0.347    0.329   12.793
  230.250  231.334   47.657    0.324    0.318   13.966
  230.500  232.641   44.057    0.273    0.286   15.419
  230.750  234.881   41.209    0.195    0.261   17.576
  231.000  235.463   39.678    0.105    0.035   18.936
  231.250  235.901   38.698    0.091    0.004   18.464
  231.500  235.844   39.591    0.092    0.001   17.014
  231.750  235.652   42.224    0.171    0.008   16.130
  232.000  235.270   45.238    0.206    0.122   14.837
  232.250  234.992   47.992    0.242    0.231   13.517
  232.500  235.026   49.072    0.385    0.299   12.767
  232.750  235.583   49.344    0.405    0.331   12.379
  233.000  235.831   49.365    0.413    0.332   12.345
  233.250  236.179   50.009    0.409    0.333   12.361
  233.500  236.416   51.022    0.400    0.333   12.304
  233.750  236.352   52.355    0.398    0.320   12.363
  234.000  236.483   53.431    0.398    0.312   12.495
  234.250  236.519   53.077    0.398    0.304   12.556
  234.500  236.243   51.354    0.397    0.306   12.547
  234.750  236.051   50.372    0.396    0.316   12.560
  235.000  235.782   51.944    0.398    0.319   12.575
  235.250  236.119   54.212    0.403    0.325   12.589
  235.500  236.154   54.983    0.409    0.326   12.819
  235.750  236.093   53.256    0.413    0.323   12.834
  236.000  236.735   51.965    0.413    0.320   12.606
  236.250  237.095   50.927    0.411    0.311   12.481
  236.500  237.452   48.267    0.411    0.304   12.331
  236.750  237.583   49.160    0.412    0.307   12.252
  237.000  237.846   50.108    0.412    0.312   12.171
  237.250  237.667   49.944    0.412    0.314   12.188
  237.500  236.744   49.840    0.410    0.325   12.292
  237.750  235.192   49.981    0.407    0.322   12.168
  238.000  234.265   51.812    0.394    0.318   12.159
  238.250  235.350   54.260    0.383    0.321   12.060
  238.500  235.607   55.090    0.382    0.320   11.983
  238.750  235.738   54.980    0.389    0.324   11.682
  239.000  235.142   54.004    0.399    0.329   11.522
  239.250  234.324   53.276    0.406    0.335   11.362
  239.500  234.250   53.924    0.400    0.331   11.096
  239.750  233.536   55.748    0.394    0.325   10.965
  240.000  232.946   57.758    0.392    0.313   10.775
  240.250  233.395   58.592    0.394    0.301   10.505
  240.500  233.750   57.984    0.399    0.299   10.263
  240.750  234.493   56.264    0.404    0.295   10.064
  241.000  234.863   55.654    0.409    0.292    9.925
  241.250  235.219   57.548    0.410    0.290    9.825
  241.500  235.261   57.688    0.413    0.286    9.725
  241.750  235.282   58.334    0.416    0.300    9.627
  242.000  235.424   61.586    0.416    0.300    9.618
  242.250  235.559   63.415    0.414    0.298    9.577
  242.500  235.699   63.749    0.407    0.295    9.532
  242.750  235.624   63.334    0.403    0.293    9.383
  243.000  235.235   61.795    0.397    0.282    9.341
  243.250  234.425   59.693    0.394    0.280    9.335
  243.500  233.508   58.969    0.390    0.276    9.327
  243.750  232.567   58.490    0.385    0.271    9.319
  244.000  231.992   57.755    0.381    0.278    9.383
  244.250  231.164   57.900    0.376    0.273    9.376
  244.500  230.351   59.040    0.376    0.273    9.368
  244.750  229.758   60.177    0.377    0.271    9.415
  245.000  229.467   60.707    0.379    0.265    9.515
  245.250  229.821   60.412    0.382    0.272    9.669
  245.500  230.704   59.065    0.384    0.288    9.919
  245.750  231.686   58.460    0.381    0.292   10.101
  246.000  232.044   59.226    0.379    0.303   10.187
  246.250  232.388   61.177    0.379    0.307   10.085
  246.500  232.636   63.629    0.382    0.305    9.816
  246.750  232.565   65.388    0.387    0.300    8.994
  247.000  232.491   65.657    0.392    0.290    7.983
  247.250  232.201   64.309    0.401    0.282    6.772
  247.500  231.921   63.645    0.407    0.279    5.745
  247.750  231.634   66.093    0.412    0.276    4.864
  248.000  231.986   70.601    0.415    0.266    4.253
  248.250  232.436   73.730    0.420    0.244    3.926
  248.500  234.165   75.434    0.425    0.206    3.771
  248.750  236.112   77.262    0.431    0.198    3.789
  249.000  238.898   77.908    0.447    0.190    3.837
  249.250  242.732   83.535    0.463    0.173    3.900
  249.500  245.739   89.967    0.473    0.205    3.963
  249.750  248.326   92.671    0.474    0.218    4.028
  250.000  250.263   91.190    0.471    0.223    4.195
  250.250  251.676   90.033    0.464    0.221    4.562
  250.500  252.549   89.863    0.453    0.226    4.980
  250.750  252.908   87.827    0.445    0.235    5.753
  251.000  252.305   83.174    0.435    0.252    6.570
  251.250  251.587   80.075    0.422    0.258    7.661
  251.500  250.780   78.347    0.412    0.253    8.832
  251.750  248.480   79.674    0.413    0.250    9.462
  252.000  244.066   81.250    0.418    0.236    9.598
  252.250  240.392   81.513    0.422    0.211    9.201
  252.500  236.491   81.978    0.422    0.212    8.973
  252.750  239.602   82.060    0.419    0.200    9.101
  253.000  241.755   82.207    0.418    0.189    9.181
  253.250  242.735   84.594    0.418    0.190    9.295
  253.500  242.454   83.419    0.416    0.190    9.411
  253.750  241.115   80.082    0.412    0.200    9.529
  254.000  239.126   76.920    0.408    0.205    9.792
  254.250  236.622   74.079    0.401    0.208    9.933
  254.500  234.744   75.031    0.394    0.207   10.040
  254.750  233.942   76.544    0.389    0.204   10.032
  255.000  234.179   79.621    0.384    0.209    9.839
  255.250  235.705   81.195    0.380    0.216    9.593
  255.500  238.274   81.903    0.381    0.221    9.406
  255.750  239.373   82.794    0.394    0.225    9.400
  256.000  238.876   85.172    0.406    0.227    9.286
  256.250  236.999   86.192    0.421    0.216    9.073
  256.500  239.567   85.838    0.424    0.206    8.488
  256.750  242.673   84.742    0.423    0.218    8.481
  257.000  244.090   84.512    0.420    0.220    8.539
  257.250  242.316   83.036    0.413    0.225    8.857
  257.500  239.601   81.187    0.400    0.220    9.021
  257.750  236.123   78.275    0.394    0.213    9.343
  258.000  234.052   77.299    0.389    0.210    9.729
  258.250  232.383   75.946    0.383    0.212    9.926
  258.500  231.780   74.094    0.382    0.222   10.106
  258.750  231.612   71.249    0.383    0.239   10.272
  259.000  231.421   64.663    0.386    0.239   10.497
  259.250  231.463   67.798    0.388    0.246   10.550
  259.500  231.599   71.620    0.389    0.237   10.365
  259.750  232.138   72.694    0.392    0.225    9.843
  260.000  232.499   73.584    0.402    0.229    9.597
  260.250  233.811   72.986    0.420    0.240    9.411
  260.500  235.330   72.446    0.434    0.261    9.211
  260.750  237.163   75.942    0.438    0.255    8.848
  261.000  238.998   78.404    0.430    0.239    8.514
  261.250  239.989   77.608    0.413    0.237    8.209
  261.500  240.754   76.694    0.407    0.216    7.976
  261.750  241.743   75.966    0.405    0.220    7.546
  262.000  243.576   76.047    0.406    0.228    7.060
  262.250  244.573   76.755    0.414    0.229    6.420
  262.500  243.444   80.078    0.429    0.227    5.884
  262.750  241.461   82.773    0.439    0.240    5.173
  263.000  241.283   86.593    0.446    0.256    4.582
  263.250  242.577   86.671    0.452    0.272    4.303
  263.500  243.258   85.767    0.452    0.266    4.290
  263.750  243.705   83.169    0.448    0.252    4.313
  264.000  243.736   83.308    0.433    0.255    4.743
  264.250  242.609   78.409    0.420    0.262    5.297
  264.500  240.521   77.552    0.408    0.269    6.163
  264.750  238.328   76.262    0.402    0.261    6.704
