~VERSION INFORMATION
 VERS.                 2.0:   CWLS LOG ASCII STANDARD -VERSION 2.0
 WRAP.                  NO:   ONE LINE PER DEPTH STEP
~WELL INFORMATION BLOCK
#MNEM.UNIT           DATA                    DESCRIPTION OF MNEMONIC
#---------    -------------------            -------------------------------
# Generated from Intellog Unique Number	CN_94_101/WELL/5047
WELL.         15-14-101-13W4                 : Well_name    - WELL
LOC .         AA/15-14-101-13W4/0            : Location     - LOCATION
UWI .         AA/15-14-101-13W400            : Uwi          - UNIQUE WELL ID
ENTR.         TIM                            : Entered      - ENTERED BY
SRVC.         SCHLUMBERGER                   : Scn          - SERVICE COMPANY
DATE.         08/14/92                       : Date         - LOG DATE
STRT.M        370                            : top_depth    - START DEPTH
STOP.M        585                            : bot_depth    - STOP DEPTH
STEP.M        0.25                           : increment    - STEP LENGTH
NULL. -999.2500:NULL Value
~CURVE INFORMATION BLOCK
#MNEM UNIT       ERCB CURVE CODE    CURVE DESCRIPTION
#-----------   ------------------   ----------------------------------
DEPT.M        00 001 00 00         : DEPTH        - DEPTH
GR  .API      00 310 00 00         : GR           - GAMMA RAY
ILD .OHMM     00 120 00 00         : RESD         - DEEP RESISTIVITY (DIL)
NPHI.V/V      00 330 00 00         : PHIN         - NEUTRON POROSITY (SANDSTONE)
DPHI.V/V      00 890 00 00         : PHID         - DENSITY POROSITY (SANDSTONE)
~PARAMETER INFORMATION
#MNEM.UNIT           DATA             DESCRIPTION OF MNEMONIC
#---------         -----------     ------------------------------
GL  .M        804                  : gl           - GROUND LEVEL ELEVATION
EREF.M        809                  : kb           - ELEVATION OF DEPTH REFERENCE
DATM.M        809                  : datum        - DATUM ELEVATION
TDD .M        590                  : tdd          - TOTAL DEPTH DRILLER
RUN .         ONE                  : Run          - RUN NUMBER
ENG .         BILL                 : Engineer     - RECORDING ENGINEER
WIT .         JIM                  : Witness      - WITNESSED BY
MUD .         GEL                  : Mud_type     - MUD TYPE
MATR.         SANDSTONE            : Logunit      - NEUTRON MATRIX
TMAX.C        25                   : BHT          - MAXIMUM RECORDED TEMPERATURE
BHTD.M        590                  : BHTDEP       - MAXIMUM RECORDED TEMPERATURE
RMT .C        10                   : MDTP         - TEMPERATURE OF MUD
MUDD.KG/M     1090                 : MWT          - MUD DENSITY
NEUT.         1                    : NEUTRON      - NEUTRON TYPE
RESI.         0                    : RESIST       - RESISTIVITY TYPE
RM  .OHMM     5.7                  : RM           - RESISTIVITY OF MUD
RMC .OHMM     5.7                  : RMC          - RESISTIVITY OF MUD CAKE
RMF .OHMM     5.7                  : RMF          - RESISTIVITY OF MUD FILTRATE
SUFT.C        4                    : SUFT         - SURFACE TEMPERATURE
~A  DEPTH       GR     RESD     PHIN     PHID
  370.000  127.991    4.537    0.543    0.259
  370.250  127.374    4.544    0.544    0.259
  370.500  124.286    4.752    0.541    0.260
  370.750  120.578    4.964    0.537    0.260
  371.000  116.870    5.382    0.547    0.259
  371.250  115.019    6.008    0.557    0.257
  371.500  118.730    6.219    0.548    0.252
  371.750  125.534    6.224    0.516    0.255
  372.000  129.865    6.229    0.520    0.257
  372.250  131.104    6.440    0.546    0.261
  372.500  132.962    6.446    0.517    0.262
  372.750  136.056    6.659    0.506    0.246
  373.000  139.769    6.664    0.529    0.244
  373.250  139.772    6.671    0.536    0.247
  373.500  139.155    6.674    0.537    0.249
  373.750  137.922    6.680    0.533    0.255
  374.000  135.451    6.273    0.536    0.265
  374.250  132.361    5.456    0.542    0.272
  374.500  132.365    4.639    0.545    0.276
  374.750  132.367    4.231    0.545    0.277
  375.000  131.751    4.030    0.533    0.275
  375.250  130.517    4.449    0.511    0.266
  375.500  127.428    4.660    0.482    0.268
  375.750  124.339    4.871    0.468    0.276
  376.000  120.013    5.499    0.458    0.278
  376.250  116.306    5.710    0.455    0.282
  376.500  116.927    5.919    0.463    0.280
  376.750  123.113    6.339    0.490    0.259
  377.000  129.916    6.342    0.512    0.235
  377.250  129.919    6.554    0.522    0.220
  377.500  122.502    6.561    0.521    0.202
  377.750  119.413    6.154    0.501    0.199
  378.000  123.744    5.747    0.492    0.291
  378.250  125.601    5.341    0.502    0.291
  378.500  125.604    4.730    0.516    0.281
  378.750  122.516    4.528    0.514    0.273
  379.000  122.519    4.532    0.505    0.268
  379.250  126.849    4.951    0.512    0.262
  379.500  126.852    4.951    0.528    0.256
  379.750  123.145    3.523    0.535    0.252
  380.000  120.055    4.760    0.524    0.251
  380.250  118.203    4.972    0.512    0.260
  380.500  121.915    5.391    0.500    0.268
  380.750  131.811    5.397    0.505    0.277
  381.000  134.287    5.608    0.514    0.281
  381.250  135.526    5.202    0.524    0.284
  381.500  135.528    4.795    0.533    0.287
  381.750  133.676    4.184    0.545    0.291
  382.000  132.442    3.776    0.553    0.292
  382.250  129.354    3.166    0.560    0.294
  382.500  127.501    2.758    0.561    0.297
  382.750  125.030    2.558    0.564    0.293
  383.000  121.323    2.563    0.569    0.268
  383.250  120.707    2.774    0.563    0.267
  383.500  117.619    3.605    0.542    0.262
  383.750  115.766    4.021    0.518    0.258
  384.000  116.387    4.439    0.506    0.253
  384.250  119.481    4.651    0.511    0.248
  384.500  123.194    4.863    0.522    0.255
  384.750  126.287    4.871    0.528    0.261
  385.000  130.001    4.669    0.529    0.265
  385.250  130.002    4.469    0.533    0.265
  385.500  128.150    3.856    0.539    0.263
  385.750  125.680    3.449    0.549    0.263
  386.000  122.591    3.661    0.550    0.268
  386.250  119.501    4.079    0.551    0.272
  386.500  115.794    4.498    0.554    0.274
  386.750  110.850    4.710    0.555    0.277
  387.000  107.143    4.715    0.520    0.279
  387.250  104.673    4.721    0.501    0.281
  387.500  105.293    4.316    0.492    0.279
  387.750  107.151    4.112    0.501    0.272
  388.000  109.009    3.913    0.529    0.266
  388.250  109.011    4.331    0.551    0.262
  388.500  108.395    4.747    0.532    0.264
  388.750  110.252    5.165    0.514    0.269
  389.000  115.201    5.171    0.513    0.276
  389.250  118.914    5.590    0.524    0.282
  389.500  117.680    5.802    0.508    0.292
  389.750  115.210    5.806    0.481    0.298
  390.000  113.976    6.224    0.512    0.303
  390.250  114.597    6.229    0.518    0.294
  390.500  118.928    6.441    0.524    0.283
  390.750  121.403    6.446    0.517    0.276
  391.000  122.642    6.246    0.524    0.271
  391.250  122.645    5.633    0.534    0.271
  391.500  123.266    5.434    0.582    0.278
  391.750  126.360    5.440    0.562    0.282
  392.000  130.072    5.241    0.549    0.279
  392.250  131.311    5.245    0.552    0.271
  392.500  129.459    4.838    0.560    0.267
  392.750  126.988    4.432    0.557    0.273
  393.000  126.373    4.439    0.554    0.278
  393.250  125.758    4.443    0.559    0.283
  393.500  122.668    4.656    0.564    0.285
  393.750  118.343    4.660    0.572    0.285
  394.000  115.254    4.872    0.570    0.284
  394.250  113.402    4.877    0.556    0.282
  394.500  115.259    4.884    0.536    0.282
  394.750  118.353    4.889    0.538    0.284
  395.000  120.829    4.894    0.570    0.288
  395.250  117.740    4.901    0.573    0.290
  395.500  113.415    4.699    0.530    0.288
  395.750  113.417    4.705    0.493    0.282
  396.000  113.420    4.918    0.492    0.275
  396.250  115.895    4.924    0.500    0.277
  396.500  119.607    5.135    0.515    0.278
  396.750  120.228    5.347    0.526    0.275
  397.000  120.850    5.353    0.524    0.274
  397.250  120.852    5.358    0.510    0.277
  397.500  120.237    5.364    0.516    0.278
  397.750  119.620    5.371    0.519    0.278
  398.000  118.387    5.581    0.525    0.278
  398.250  118.389    5.588    0.519    0.279
  398.500  119.010    5.594    0.507    0.279
  398.750  120.867    5.598    0.513    0.279
  399.000  123.962    5.193    0.520    0.280
  399.250  126.438    5.197    0.533    0.280
  399.500  127.677    4.998    0.523    0.277
  399.750  127.061    4.799    0.516    0.268
  400.000  123.354    4.803    0.525    0.269
  400.250  119.028    4.807    0.532    0.270
  400.500  117.175    4.608    0.532    0.272
  400.750  117.178    4.614    0.528    0.273
  401.000  119.037    5.031    0.516    0.270
  401.250  122.749    5.449    0.505    0.267
  401.500  127.079    5.456    0.493    0.267
  401.750  133.265    5.459    0.484    0.269
  402.000  138.214    5.466    0.514    0.265
  402.250  139.453    5.265    0.530    0.260
  402.500  140.693    5.066    0.555    0.262
  402.750  141.932    4.657    0.561    0.264
  403.000  142.552    4.046    0.574    0.265
  403.250  143.173    3.639    0.595    0.259
  403.500  141.321    3.645    0.584    0.249
  403.750  136.996    3.652    0.576    0.237
  404.000  132.051    3.865    0.579    0.241
  404.250  125.252    3.868    0.572    0.252
  404.500  120.927    4.079    0.561    0.260
  404.750  116.601    4.292    0.553    0.268
  405.000  118.459    4.298    0.547    0.275
  405.250  119.698    4.302    0.548    0.283
  405.500  119.082    4.308    0.546    0.288
  405.750  111.047    4.726    0.539    0.292
  406.000  103.011    4.731    0.578    0.297
  406.250   94.358    4.531    0.510    0.307
  406.500   84.468    4.332    0.473    0.326
  406.750   69.631    4.339    0.438    0.328
  407.000   63.450    4.547    0.410    0.328
  407.250   62.217    5.583    0.367    0.325
  407.500   62.219    7.856    0.373    0.321
  407.750   63.458   11.778    0.385    0.315
  408.000   65.316   13.434    0.400    0.305
  408.250   66.555   13.438    0.405    0.278
  408.500   69.031   13.239    0.411    0.285
  408.750   70.270   13.037    0.417    0.295
  409.000   73.365   12.632    0.420    0.302
  409.250   75.222   12.226    0.416    0.311
  409.500   77.698   11.820    0.416    0.313
  409.750   79.555   11.411    0.422    0.311
  410.000   82.649   10.798    0.426    0.311
  410.250   83.269   10.804    0.431    0.312
  410.500   83.892   10.810    0.433    0.313
  410.750   83.275   10.817    0.444    0.315
  411.000   82.660   10.822    0.451    0.303
  411.250   82.044   10.622    0.452    0.295
  411.500   81.427   10.216    0.454    0.290
  411.750   80.193   10.015    0.454    0.295
  412.000   77.723    9.816    0.453    0.297
  412.250   80.199    9.818    0.456    0.303
  412.500   85.148   10.030    0.462    0.306
  412.750   85.770   10.449    0.462    0.308
  413.000   83.917   10.867    0.460    0.312
  413.250   79.592   11.080    0.457    0.312
