~VERSION INFORMATION
 VERS.                 2.0:   CWLS LOG ASCII STANDARD -VERSION 2.0
 WRAP.                  NO:   ONE LINE PER DEPTH STEP
~WELL INFORMATION BLOCK
#MNEM.UNIT           DATA                    DESCRIPTION OF MNEMONIC
#---------    -------------------            -------------------------------
# Generated from Intellog Unique Number	CS_77_79/WELL/962
WELL.         PEX PCEJ LEISMER OV            : Well_name    - WELL
LOC .         AA/10-26-078-08W4/0            : Location     - LOCATION
UWI .         AA/10-26-078-08W4/0            : Uwi          - UNIQUE WELL ID
ENTR.         JHS                            : Entered      - ENTERED BY
SRVC.         SCHLUMBERGER                   : Scn          - SERVICE COMPANY
STRT.M        120                            : top_depth    - START DEPTH
STOP.M        335                            : bot_depth    - STOP DEPTH
STEP.M        0.25                           : increment    - STEP LENGTH
 NULL. -999.2500:NULL Value
~CURVE INFORMATION BLOCK
#MNEM UNIT       ERCB CURVE CODE    CURVE DESCRIPTION
#-----------   ------------------   ----------------------------------
DEPT.M        00 001 00 00         : DEPTH        - DEPTH
DPHI.V/V      00 890 00 00         : PHID         - DENSITY POROSITY (LIMESTONE)
NPHI.V/V      00 330 00 00         : PHIN         - NEUTRON POROSITY (LIMESTONE)
GR  .API      00 310 00 00         : GR           - GAMMA RAY
ILD .OHMM     00 120 00 00         : RESD         - DEEP RESISTIVITY (DIL)
RHOB.KG/M3    00 350 00 00         : DENS         - BULK DENSITY
~PARAMETER INFORMATION
#MNEM.UNIT           DATA             DESCRIPTION OF MNEMONIC
#---------         -----------     ------------------------------
GL  .M        560                  : gl           - GROUND LEVEL ELEVATION
EREF.M        563.58               : kb           - ELEVATION OF DEPTH REFERENCE
DATM.M        563.58               : datum        - DATUM ELEVATION
TDD .M        342                  : tdd          - TOTAL DEPTH DRILLER
RUN .         ONE                  : Run          - RUN NUMBER
ENG .         BILL                 : Engineer     - RECORDING ENGINEER
WIT .         JIM                  : Witness      - WITNESSED BY
MUD .         GEL                  : Mud_type     - MUD TYPE
MATR.         LIMESTONE            : Logunit      - NEUTRON MATRIX
TMAX.C        16                   : BHT          - MAXIMUM RECORDED TEMPERATURE
BHTD.M        342                  : BHTDEP       - MAXIMUM RECORDED TEMPERATURE
MATR.         1                    : LOGUNIT      - NEUTRON MATRIX
RMT .C        25                   : MDTP         - TEMPERATURE OF MUD
NEUT.         1                    : NEUTRON      - NEUTRON TYPE
RESI.         0                    : RESIST       - RESISTIVITY TYPE
RMC .OHMM     0.25                 : RMC          - RESISTIVITY OF MUD CAKE
RMF .OHMM     0.25                 : RMF          - RESISTIVITY OF MUD FILTRATE
SUFT.C        15                   : SUFT         - SURFACE TEMPERATURE
~A  DEPTH     PHID     PHIN       GR     RESD     DENS
# ...
  156.500    0.177    0.516  134.016    6.624    0.000
  156.750    0.215    0.537  138.934    5.816    0.000
  157.000    0.206    0.550  150.615    5.012    0.000
  157.250    0.201    0.559  151.230    4.484    0.000
  157.500    0.194    0.534  141.393    4.165    0.000
  157.750    0.197    0.516  132.172    4.014    0.000
  158.000    0.260    0.511  137.090    4.017    0.000
  158.250    0.277    0.506  142.623    4.251    0.000
  158.500    0.288    0.489  143.238    5.032    0.000
  158.750    0.295    0.439  123.566    6.183    0.000
  159.000    0.308    0.404  103.279    9.507    0.000
  159.250    0.317    0.379   88.525   14.892    0.000
  159.500    0.316    0.386   63.320   20.467    0.000
  159.750    0.293    0.392   67.623   24.688    0.000
  160.000    0.275    0.383   74.385   24.703    0.000
  160.250    0.269    0.395   71.311   22.099    0.000
  160.500    0.256    0.406   75.615   20.909    0.000
  160.750    0.230    0.410   73.770   21.318    0.000
  161.000    0.234    0.400   80.533   21.738    0.000
  161.250    0.287    0.399   86.066   22.160    0.000
  161.500    0.294    0.409   97.131   21.764    0.000
  161.750    0.300    0.411   90.984   21.781    0.000
  162.000    0.303    0.395  103.893   22.209    0.000
  162.250    0.301    0.392  102.664   23.070    0.000
  162.500    0.301    0.392   91.598   23.962    0.000
  162.750    0.306    0.389   90.369   24.426    0.000
  163.000    0.311    0.382   84.221   24.903    0.000
  163.250    0.315    0.380   80.533   25.387    0.000
  163.500    0.314    0.387   80.533   24.937    0.000
  163.750    0.311    0.401   83.607   23.595    0.000
  164.000    0.308    0.421   85.451   21.910    0.000
  164.250    0.305    0.439   87.910   19.602    0.000
  164.500    0.295    0.444   92.213   17.867    0.000
  164.750    0.283    0.444  102.049   15.984    0.000
  165.000    0.271    0.437  110.041   13.272    0.000
  165.250    0.250    0.438  111.270   10.815    0.000
  165.500    0.239    0.450  112.500    8.649    0.000
  165.750    0.219    0.481  134.631    7.181    0.000
  166.000    0.221    0.483  147.541    6.923    0.000
  166.250    0.223    0.476  146.926    6.800    0.000
  166.500    0.225    0.503  148.156    7.063    0.000
  166.750    0.228    0.493  142.623    7.474    0.000
  167.000    0.241    0.493  144.467    9.358    0.000
  167.250    0.269    0.454  143.238   11.935    0.000
  167.500    0.276    0.431  143.852   14.666    0.000
  167.750    0.275    0.419  142.623   18.023    0.000
  168.000    0.271    0.421  130.943   19.075    0.000
  168.250    0.269    0.441  128.484   18.047    0.000
  168.500    0.269    0.444  124.795   16.147    0.000
  168.750    0.270    0.423  141.393   14.995    0.000
  169.000    0.273    0.417  146.311   14.454    0.000
  169.250    0.273    0.409  132.787   14.740    0.000
  169.500    0.278    0.391  122.951   14.748    0.000
  169.750    0.276    0.377  114.344   15.034    0.000
  170.000    0.275    0.381  107.582   16.211    0.000
  170.250    0.282    0.391  100.820   17.155    0.000
  170.500    0.283    0.378   90.984   18.500    0.000
  170.750    0.289    0.376  100.205   18.172    0.000
  171.000    0.280    0.360  108.197   17.849    0.000
  171.250    0.265    0.358  112.500   17.861    0.000
  171.500    0.255    0.369  116.189   17.872    0.000
  171.750    0.247    0.384  109.426   18.217    0.000
  172.000    0.237    0.387  100.820   19.285    0.000
  172.250    0.237    0.384  101.434   19.297    0.000
  172.500    0.249    0.382  100.820   18.952    0.000
  172.750    0.260    0.393   95.902   18.613    0.000
  173.000    0.255    0.404  110.656   17.945    0.000
  173.250    0.262    0.405  114.344   16.979    0.000
  173.500    0.264    0.398  118.033   16.671    0.000
  173.750    0.260    0.398  116.803   15.486    0.000
  174.000    0.250    0.394  110.041   14.650    0.000
  174.250    0.239    0.388  116.803   13.606    0.000
  174.500    0.236    0.384  122.336   12.871    0.000
  174.750    0.233    0.404  129.713   11.515    0.000
  175.000    0.231    0.442  137.090    9.925    0.000
  175.250    0.231    0.430  134.016    8.879    0.000
  175.500    0.232    0.421  140.779    8.401    0.000
  175.750    0.233    0.449  145.697    8.727    0.000
  176.000    0.238    0.465  151.230    8.732    0.000
  176.250    0.260    0.470  142.623    9.416    0.000
  176.500    0.269    0.459  135.246   10.343    0.000
  176.750    0.272    0.452  116.803   11.578    0.000
  177.000    0.271    0.447  112.500   12.720    0.000
  177.250    0.261    0.434  108.811   13.975    0.000
  177.500    0.242    0.436  117.418   13.724    0.000
  177.750    0.236    0.438  124.795   12.052    0.000
  178.000    0.236    0.461  137.705   11.190    0.000
  178.250    0.245    0.472  142.008   10.392    0.000
  178.500    0.256    0.466  144.467   10.399    0.000
  178.750    0.272    0.454  139.549   11.006    0.000
  179.000    0.271    0.458  124.180   12.318    0.000
  179.250    0.259    0.439  110.041   13.790    0.000
  179.500    0.249    0.420  114.344   15.150    0.000
  179.750    0.245    0.415  110.656   15.445    0.000
  180.000    0.233    0.434  121.107   15.169    0.000
  180.250    0.227    0.430  121.721   14.623    0.000
  180.500    0.232    0.437  110.656   13.838    0.000
  180.750    0.281    0.416  110.656   13.847    0.000
  181.000    0.280    0.416  114.959   14.117    0.000
  181.250    0.275    0.415  113.730   14.940    0.000
  181.500    0.282    0.410  115.574   15.520    0.000
  181.750    0.277    0.405  122.951   15.819    0.000
  182.000    0.270    0.417  129.098   15.833    0.000
  182.250    0.269    0.430  127.869   15.550    0.000
  182.500    0.259    0.442  126.639   14.990    0.000
  182.750    0.250    0.469  126.025   14.181    0.000
  183.000    0.243    0.480  127.869   13.417    0.000
  183.250    0.249    0.487  130.943   12.695    0.000
  183.500    0.269    0.475  122.951   12.239    0.000
  183.750    0.286    0.463  119.262   11.582    0.000
  184.000    0.293    0.444   98.975   10.755    0.000
  184.250    0.289    0.433  109.426    9.987    0.000
  184.500    0.275    0.445  122.951    9.273    0.000
  184.750    0.269    0.482  124.795    8.612    0.000
  185.000    0.300    0.489  122.951    8.149    0.000
  185.250    0.338    0.503  100.205   10.203    0.000
  185.500    0.464    0.532   80.533   12.076    0.000
  185.750    0.625    0.591   42.418   15.405    0.000
  186.000    0.553    0.637   34.426   18.578    0.000
  186.250    0.477    0.424   46.721   22.408    0.000
  186.500    0.271    0.400   54.098   24.617    0.000
  186.750    0.276    0.383   65.164   26.544    0.000
  187.000    0.281    0.361   67.008   27.577    0.000
  187.250    0.281    0.361   72.541   28.117    0.000
  187.500    0.278    0.372   65.164   29.200    0.000
  187.750    0.278    0.358   70.697   29.770    0.000
  188.000    0.280    0.350   73.156   30.926    0.000
  188.250    0.285    0.347   73.770   30.942    0.000
  188.500    0.289    0.359   74.385   32.148    0.000
  188.750    0.298    0.355   75.000   32.171    0.000
  189.000    0.304    0.353   70.082   32.196    0.000
  189.250    0.309    0.354   72.541   32.821    0.000
  189.500    0.313    0.361   78.074   32.836    0.000
  189.750    0.313    0.369   77.459   32.865    0.000
  190.000    0.313    0.377   79.918   33.506    0.000
  190.250    0.314    0.371   76.844   33.524    0.000
  190.500    0.316    0.370   76.230   32.933    0.000
  190.750    0.317    0.358   71.926   32.945    0.000
  191.000    0.316    0.356   69.467   32.978    0.000
  191.250    0.317    0.365   73.770   32.993    0.000
  191.500    0.321    0.361   67.008   33.637    0.000
  191.750    0.321    0.374   70.697   33.669    0.000
  192.000    0.317    0.408   78.074   33.690    0.000
  192.250    0.309    0.399   70.082   33.709    0.000
  192.500    0.308    0.399   75.615   33.112    0.000
  192.750    0.310    0.409   81.147   32.514    0.000
