~VERSION INFORMATION
 VERS.                 2.0:   CWLS LOG ASCII STANDARD -VERSION 2.0
 WRAP.                  NO:   ONE LINE PER DEPTH STEP
~WELL INFORMATION BLOCK
#MNEM.UNIT           DATA                    DESCRIPTION OF MNEMONIC
#---------    -------------------            -------------------------------
# Generated from Intellog Unique Number	CN_94_101/WELL/1075
WELL.         11-32-094-06W4                 : Well_name    - WELL
LOC .         AA/11-32-094-06W4/0            : Location     - LOCATION
UWI .         AA/11-32-094-06W400            : Uwi          - UNIQUE WELL ID
ENTR.         JOETTE                         : Entered      - ENTERED BY
SRVC.         SCHLUMBERGER                   : Scn          - SERVICE COMPANY
DATE.         04/10/92                       : Date         - LOG DATE
STRT.M        100                            : top_depth    - START DEPTH
STOP.M        310                            : bot_depth    - STOP DEPTH
STEP.M        0.25                           : increment    - STEP LENGTH
 NULL. -999.2500:NULL Value
~CURVE INFORMATION BLOCK
#MNEM UNIT       ERCB CURVE CODE    CURVE DESCRIPTION
#-----------   ------------------   ----------------------------------
DEPT.M        00 001 00 00         : DEPTH        - DEPTH
ILD .OHMM     00 120 00 00         : RESD         - DEEP RESISTIVITY (DIL)
DPHI.V/V      00 890 00 00         : PHID         - DENSITY POROSITY (SANDSTONE)
NPHI.V/V      00 330 00 00         : PHIN         - NEUTRON POROSITY (SANDSTONE)
GR  .API      00 310 00 00         : GR           - GAMMA RAY
CALI.MM       00 280 01 00         : CAL          - CALIPER
~PARAMETER INFORMATION
#MNEM.UNIT           DATA             DESCRIPTION OF MNEMONIC
#---------         -----------     ------------------------------
GL  .M        588.65               : gl           - GROUND LEVEL ELEVATION
EREF.M        591.35               : kb           - ELEVATION OF DEPTH REFERENCE
DATM.M        591.35               : datum        - DATUM ELEVATION
TDD .M        313                  : tdd          - TOTAL DEPTH DRILLER
RUN .         ONE                  : Run          - RUN NUMBER
ENG .         BILL                 : Engineer     - RECORDING ENGINEER
WIT .         JIM                  : Witness      - WITNESSED BY
MUD .         GEL                  : Mud_type     - MUD TYPE
MATR.         SANDSTONE            : Logunit      - NEUTRON MATRIX
TMAX.C        16                   : BHT          - MAXIMUM RECORDED TEMPERATURE
BHTD.M        313                  : BHTDEP       - MAXIMUM RECORDED TEMPERATURE
RMT .C        19                   : MDTP         - TEMPERATURE OF MUD
MUDD.KG/M     1050                 : MWT          - MUD DENSITY
NEUT.         1                    : NEUTRON      - NEUTRON TYPE
RESI.         0                    : RESIST       - RESISTIVITY TYPE
RM  .OHMM     8.17                 : RM           - RESISTIVITY OF MUD
RMC .OHMM     8.17                 : RMC          - RESISTIVITY OF MUD CAKE
RMF .OHMM     8.17                 : RMF          - RESISTIVITY OF MUD FILTRATE
SUFT.C        4                    : SUFT         - SURFACE TEMPERATURE
~A  DEPTH     RESD     PHID     PHIN       GR      CAL
# ...
  173.000   26.696    0.323    0.453   57.714  173.130
  173.250   25.273    0.322    0.446   56.547  173.205
  173.500   23.049    0.326    0.442   55.994  174.376
  173.750   22.205    0.326    0.442   56.039  174.426
  174.000   19.491    0.312    0.445   57.325  174.526
  174.250   17.117    0.300    0.461   62.904  175.648
  174.500   15.304    0.298    0.476   67.870  175.748
  174.750   13.188    0.303    0.468   72.865  176.870
  175.000   11.791    0.307    0.459   76.604  178.017
  175.250   10.350    0.306    0.458   79.715  179.114
  175.500    9.985    0.283    0.465   84.681  182.305
  175.750    9.817    0.262    0.477   90.275  186.492
  176.000    9.840    0.239    0.490   97.693  196.837
  176.250    9.859    0.227    0.503  106.338  204.066
  176.500    9.878    0.224    0.491  108.865  207.232
  176.750    9.707    0.208    0.474  105.874  209.401
  177.000    9.552    0.171    0.477  105.321  209.501
  177.250    9.211    0.174    0.490  107.221  209.601
  177.500    8.882    0.188    0.509  110.332  210.723
  177.750    8.569    0.173    0.534  114.684  211.845
  178.000    8.433    0.177    0.545  118.423  215.010
  178.250    8.445    0.194    0.516  120.338  219.198
  178.500    8.298    0.188    0.515  120.398  223.411
  178.750    8.162    0.187    0.523  120.472  225.555
  179.000    7.724    0.194    0.551  119.306  227.674
  179.250    7.175    0.198    0.549  116.300  229.868
  179.500    6.925    0.194    0.540  113.892  232.012
  179.750    6.805    0.185    0.532  113.339  233.159
  180.000    6.952    0.192    0.512  115.253  233.209
  180.250    6.965    0.197    0.503  117.153  234.330
  180.500    6.978    0.202    0.519  116.599  234.430
  180.750    6.860    0.206    0.539  116.046  235.577
  181.000    6.745    0.211    0.547  116.719  235.677
  181.250    6.631    0.220    0.555  119.232  235.752
  181.500    6.400    0.217    0.558  120.503  235.877
  181.750    6.410    0.205    0.549  123.659  237.024
  182.000    6.305    0.206    0.546  123.719  237.073
  182.250    6.311    0.221    0.549  121.954  238.220
  182.500    6.323    0.233    0.559  120.758  239.367
  182.750    6.455    0.238    0.563  118.978  239.467
  183.000    6.468    0.225    0.555  116.585  240.614
  183.250    5.899    0.211    0.545  112.981  240.664
  183.500    5.375    0.214    0.542  109.347  240.789
  183.750    4.995    0.230    0.556  105.099  240.913
  184.000    4.911    0.240    0.570  107.029  240.963
  184.250    4.923    0.235    0.568  109.526  242.110
  184.500    4.927    0.229    0.563  105.922  242.210
  184.750    4.849    0.229    0.553  103.514  242.310
  185.000    4.853    0.225    0.540  102.961  243.407
  185.250    4.863    0.230    0.549  109.153  242.535
  185.500    4.781    0.248    0.565  111.052  242.610
  185.750    4.792    0.268    0.567  109.273  240.715
  186.000    4.711    0.257    0.572  105.668  239.768
  186.250    4.723    0.248    0.565  105.115  236.802
  186.500    4.729    0.248    0.556  103.335  232.814
  186.750    4.833    0.253    0.528   99.701  232.889
  187.000    4.930    0.254    0.518   93.644  231.992
  187.250    5.330    0.246    0.503   92.477  231.094
  187.500    5.543    0.239    0.497   95.005  231.144
  187.750    6.107    0.231    0.504   95.648  231.244
  188.000    6.475    0.235    0.511   95.110  231.344
  188.250    6.994    0.231    0.501   93.928  231.469
  188.500    7.557    0.231    0.502   91.550  230.547
  188.750    8.815    0.239    0.519   89.771  229.649
  189.000    9.001    0.237    0.520   88.589  228.677
  189.250    9.018    0.238    0.505   86.196  225.711
  189.500    8.696    0.253    0.490   86.256  221.723
  189.750    8.393    0.246    0.477   85.718  217.735
  190.000    8.097    0.251    0.466   83.310  211.728
  190.250    8.113    0.243    0.468   79.706  211.827
  190.500    6.854    0.232    0.459   79.153  213.971
  190.750    5.471    0.237    0.465   79.197  215.118
  191.000    5.281    0.244    0.463   79.871  215.168
  191.250    5.926    0.240    0.460   81.172  216.290
  191.500    6.906    0.242    0.486   83.071  222.547
  191.750    7.754    0.247    0.507   86.197  227.807
  192.000    8.374    0.245    0.503   90.565  227.857
  192.250    8.717    0.234    0.488   89.996  227.957
  192.500    8.575    0.230    0.471   88.232  226.012
  192.750    8.587    0.235    0.481   87.663  225.115
  193.000    8.129    0.236    0.492   86.512  224.168
  193.250    7.414    0.238    0.486   87.185  224.268
  193.500    6.752    0.229    0.488   86.647  225.415
  193.750    5.192    0.229    0.497   86.064  226.537
  194.000    5.202    0.239    0.507   84.897  226.612
  194.250    5.734    0.253    0.515   86.198  227.783
  194.500    6.193    0.260    0.521   90.551  227.858
  194.750    6.689    0.261    0.513   96.129  226.961
  195.000    7.649    0.252    0.503   95.576  227.036
  195.250    8.427    0.239    0.478   92.570  225.092
  195.500    6.855    0.235    0.453   85.885  224.170
  195.750    5.480    0.230    0.500   80.426  221.228
  196.000    5.916    0.252    0.514   83.552  220.281
  196.250    6.514    0.259    0.514   84.838  221.403
  196.500    7.180    0.268    0.506   85.526  224.594
  196.750    7.328    0.268    0.505   86.812  226.763
  197.000    6.680    0.260    0.526   88.099  226.838
  197.250    4.674    0.261    0.539   90.626  226.963
  197.500    5.053    0.259    0.531   93.737  225.990
  197.750    5.252    0.256    0.527   94.411  223.074
  198.000    5.365    0.258    0.530   93.857  221.105
  198.250    5.176    0.252    0.524   91.464  219.136
  198.500    5.186    0.246    0.534   91.539  215.173
  198.750    5.711    0.248    0.527   92.826  212.232
  199.000    6.534    0.258    0.511   90.418  209.215
  199.250    7.195    0.272    0.494   81.893  205.252
  199.500    6.938    0.283    0.475   79.515  201.239
  199.750    6.090    0.284    0.470   79.560  197.251
  200.000    4.179    0.284    0.466   80.846  195.332
  200.250    3.603    0.292    0.466   81.534  196.429
  200.500    3.607    0.287    0.507   82.805  200.666
  200.750    3.614    0.281    0.570   85.318  204.879
  201.000    3.762    0.287    0.586   92.767  205.951
  201.250    4.065    0.274    0.585   90.389  209.142
  201.500    4.310    0.248    0.579   89.192  210.264
  201.750    4.931    0.237    0.551   89.865  211.386
  202.000    5.430    0.232    0.541   91.167  211.461
  202.250    5.979    0.231    0.534   91.840  212.583
  202.500    6.458    0.241    0.528   91.900  212.707
  202.750    7.122    0.235    0.517   91.960  211.760
  203.000    7.838    0.229    0.506   92.034  211.910
  203.250    8.627    0.223    0.479   91.451  211.013
  203.500    9.500    0.218    0.459   91.511  210.041
  203.750   10.271    0.227    0.460   91.601  208.097
  204.000   10.290    0.227    0.448   91.646  204.109
  204.250    9.923    0.217    0.409   92.304  199.098
  204.500    9.050    0.215    0.417   92.992  198.201
  204.750    8.407    0.208    0.434   93.052  198.276
  205.000    7.806    0.200    0.445   91.886  198.376
  205.250    6.858    0.201    0.450   92.559  198.501
  205.500    6.610    0.212    0.454   93.845  199.648
  205.750    6.626    0.224    0.454   95.745  199.722
  206.000    7.439    0.227    0.458   93.352  199.847
  206.250    7.733    0.225    0.460   90.959  198.900
  206.500    8.199    0.218    0.459   89.792  197.953
  206.750    7.766    0.218    0.459   89.882  196.034
  207.000    7.079    0.228    0.460   89.927  194.090
  207.250    6.830    0.219    0.470   89.987  193.143
  207.500    8.584    0.214    0.492   89.434  189.179
  207.750   11.859    0.210    0.516   87.041  185.191
  208.000   14.359    0.201    0.504   82.180  179.159
  208.250   14.117    0.229    0.474   76.123  174.124
  208.500   12.863    0.291    0.427   71.262  171.207
  208.750   11.291    0.286    0.435   72.549  172.279
  209.000    9.017    0.277    0.432   76.916  173.476
  209.250    7.915    0.253    0.425   78.816  173.551
