~VERSION INFORMATION
 VERS.                 2.0:   CWLS LOG ASCII STANDARD -VERSION 2.0
 WRAP.                  NO:   ONE LINE PER DEPTH STEP
~WELL INFORMATION BLOCK
#MNEM.UNIT           DATA                    DESCRIPTION OF MNEMONIC
#---------    -------------------            -------------------------------
# Generated from Intellog Unique Number	CN_94_101/WELL/3648
WELL.         10-14-096-13W4                 : Well_name    - WELL
LOC .         AA/10-14-096-13W4/0            : Location     - LOCATION
UWI .         AA/10-14-096-13W400            : Uwi          - UNIQUE WELL ID
ENTR.         J                              : Entered      - ENTERED BY
SRVC.         SCHLUMBERGER                   : Scn          - SERVICE COMPANY
DATE.         08/05/92                       : Date         - LOG DATE
STRT.F        50                             : top_depth    - START DEPTH
STOP.F        760.302                        : bot_depth    - STOP DEPTH
STEP.F        0.8202                         : increment    - STEP LENGTH
 NULL. -999.2500:NULL Value
~CURVE INFORMATION BLOCK
#MNEM UNIT       ERCB CURVE CODE    CURVE DESCRIPTION
#-----------   ------------------   ----------------------------------
DEPT.F        00 001 00 00         : DEPTH        - DEPTH
ILD .OHMM     00 120 00 00         : RESD         - DEEP RESISTIVITY (DIL)
GR  .API      00 310 00 00         : GR           - GAMMA RAY
NPHI.V/V      00 330 00 00         : PHIN         - NEUTRON POROSITY (SANDSTONE)
~PARAMETER INFORMATION
#MNEM.UNIT           DATA             DESCRIPTION OF MNEMONIC
#---------         -----------     ------------------------------
GL  .M        418.003              : gl           - GROUND LEVEL ELEVATION
EREF.M        419.527              : kb           - ELEVATION OF DEPTH REFERENCE
DATM.M        419.527              : datum        - DATUM ELEVATION
TDD .M        235.001              : tdd          - TOTAL DEPTH DRILLER
RUN .         ONE                  : Run          - RUN NUMBER
ENG .         BILL                 : Engineer     - RECORDING ENGINEER
WIT .         JIM                  : Witness      - WITNESSED BY
MUD .         GEL                  : Mud_type     - MUD TYPE
MATR.         SANDSTONE            : Logunit      - NEUTRON MATRIX
TMAX.F        40                   : BHT          - MAXIMUM RECORDED TEMPERATURE
BHTD.F        771                  : BHTDEP       - MAXIMUM RECORDED TEMPERATURE
RMT .F        40                   : MDTP         - TEMPERATURE OF MUD
MUDD.LB/G     0.001                : MWT          - MUD DENSITY
NEUT.         1                    : NEUTRON      - NEUTRON TYPE
RESI.         0                    : RESIST       - RESISTIVITY TYPE
RM  .OHMM     0.9                  : RM           - RESISTIVITY OF MUD
RMC .OHMM     0.9                  : RMC          - RESISTIVITY OF MUD CAKE
RMF .OHMM     0.9                  : RMF          - RESISTIVITY OF MUD FILTRATE
SUFT.F        39.2                 : SUFT         - SURFACE TEMPERATURE
~A  DEPTH     RESD       GR     PHIN
# ...
  583.957   62.693   41.125    0.324
  584.777  160.214   38.373    0.330
  585.597   83.894   43.226    0.331
  586.417   32.954   52.920    0.312
  587.238   29.452   56.592    0.308
  588.058   26.829   56.638    0.314
  588.878   30.151   59.495    0.309
  589.698   40.260   63.156    0.305
  590.518   33.959   61.998    0.297
  591.339   14.684   58.431    0.309
  592.159   16.190   58.077    0.321
  592.979   27.708   60.934    0.315
  593.799   36.317   63.803    0.303
  594.619   34.371   60.225    0.295
  595.440   38.606   56.257    0.294
  596.260   45.075   55.134    0.298
  597.080   50.657   55.146    0.304
  597.900   49.835   54.803    0.327
  598.720   32.797   52.842    0.329
  599.541   45.472   50.067    0.299
  600.361   44.734   48.508    0.300
  601.181   27.275   52.569    0.302
  602.001   21.315   55.438    0.307
  602.822   29.569   55.485    0.309
  603.642   33.871   51.919    0.320
  604.462   59.085   48.340    0.354
  605.282  111.248   44.774    0.354
  606.102   44.566   55.282    0.327
  606.923   65.432   52.507    0.323
  607.743   68.165   46.130    0.330
  608.563   38.505   45.374    0.339
  609.383   25.341   51.845    0.312
  610.203   25.396   54.312    0.295
  611.024   38.780   51.537    0.300
  611.844   35.327   51.997    0.309
  612.664   34.059   51.642    0.320
  613.484   33.488   48.867    0.326
  614.304   43.017   44.899    0.339
  615.125   30.573   44.946    0.346
  615.945   33.072   50.636    0.316
  616.765   30.126   49.066    0.310
  617.585   23.556   51.521    0.319
  618.406   23.608   52.371    0.307
  619.226   37.473   50.410    0.302
  620.046   38.953   44.022    0.318
  620.866   44.645   41.258    0.347
  621.686   40.669   49.346    0.328
  622.507   40.758   45.379    0.323
  623.327   44.939   44.221    0.318
  624.147   34.455   43.063    0.304
  624.967   30.810   39.497    0.305
  625.787   38.828   37.938    0.316
  626.608   36.072   44.007    0.297
  627.428   39.750   42.058    0.301
  628.248   42.186   41.301    0.315
  629.068   28.843   40.534    0.329
  629.888   37.070   37.380    0.329
  630.709   45.834   34.605    0.324
  631.529   60.042   32.656    0.330
  632.349   52.646   32.301    0.333
  633.169   47.025   34.344    0.332
  633.990   43.663   36.410    0.336
  634.810   38.284   37.673    0.339
  635.630   25.209   38.499    0.342
  636.450   29.433   41.368    0.351
  637.270   40.808   43.422    0.314
  638.091   48.618   40.659    0.322
  638.911   54.609   38.297    0.333
  639.731   56.890   36.737    0.313
  640.551   60.343   36.784    0.308
  641.371   73.237   36.028    0.339
  642.192   85.510   34.481    0.342
  643.012   79.396   32.922    0.332
  643.832   65.741   30.949    0.357
  644.652   91.147   28.587    0.357
  645.472  171.711   27.430    0.358
  646.293  196.586   25.469    0.321
  647.113  212.769   24.311    0.324
  647.933  166.276   29.176    0.328
  648.753   99.518   28.821    0.333
  649.573  109.727   27.262    0.318
  650.394  140.947   29.718    0.322
  651.214   78.114   33.791    0.319
  652.034   64.678   49.507    0.302
  652.854   56.711   71.246    0.295
  653.675   10.985   80.148    0.287
  654.495    8.590   83.395    0.291
  655.315    8.446   87.870    0.291
  656.135    7.548   92.333    0.289
  656.955    8.983   96.005    0.290
  657.776   11.327   95.249    0.293
  658.596   15.124   86.865    0.282
  659.416   14.589   85.695    0.273
  660.236    8.895   81.338    0.275
  661.056    8.581   85.789    0.298
  661.877    8.944   87.442    0.298
  662.697    8.785   95.530    0.303
  663.517    8.157   94.785    0.308
  664.337    8.020  101.256    0.332
  665.157    7.736  100.500    0.339
  665.978    7.753   98.551    0.329
  666.798    7.071   99.802    0.328
  667.618    6.944   99.849    0.330
  668.438    7.231   92.646    0.303
  669.259    8.442   80.648    0.304
  670.079   11.266   66.631    0.337
  670.899  394.840   28.502    0.353
  671.719  366.611   24.133    0.348
  672.539  340.586   25.809    0.345
  673.360  341.332   26.234    0.344
  674.180  335.611   26.682    0.339
  675.000  323.746   24.721    0.337
  675.820  300.599   22.371    0.345
  676.640  268.651   20.812    0.351
  677.461  239.967   20.457    0.367
  678.281  194.830   22.512    0.361
  679.101  143.938   22.960    0.350
  679.921  144.175   22.593    0.335
  680.741  158.964   23.065    0.327
  681.562  165.604   23.513    0.325
  682.382  142.381   22.356    0.337
  683.202  142.693   22.001    0.353
  684.022  132.491   23.654    0.367
  684.843  116.170   24.102    0.360
  685.663  107.924   22.543    0.342
  686.483  123.558   22.590    0.315
  687.303  164.982   25.435    0.296
  688.123  119.451   33.925    0.307
  688.944   74.276   42.013    0.387
  689.764   59.197   57.328    0.469
  690.584    5.875   97.558    0.541
  691.404    4.254   95.597    0.530
  692.224    5.262   88.004    0.499
  693.045    6.031   86.445    0.515
  693.865    6.520   89.727    0.528
  694.685    7.760   87.755    0.511
  695.505    7.931   87.400    0.466
  696.325    8.421   95.087    0.420
  697.146    8.440   97.141    0.333
  697.966    8.141  100.010    0.272
  698.786    8.155   98.439    0.245
  699.606    8.491   81.624    0.227
  700.427    7.445   84.481    0.209
  701.247    5.294   85.330    0.232
  702.067    5.950   83.760    0.227
  702.887    5.956   84.208    0.237
  703.707    5.533   99.924    0.270
  704.528    6.219  100.384    0.364
  705.348    7.543   98.412    0.388
  706.168    8.641   93.641    0.248
  706.988    7.155   96.097    0.237
  707.808    5.924  104.988    0.249
  708.629    6.287  103.039    0.258
  709.449    6.932  105.483    0.275
  710.269    6.947  108.753    0.308
  711.089    5.033  102.766    0.369
  711.909    2.954   75.890    0.343
  712.730    2.138   62.676    0.339
  713.550    1.805   47.065    0.348
  714.370    2.918   44.290    0.339
  715.190  315.497   30.675    0.340
  716.010  322.283   27.120    0.363
  716.831   96.902   28.761    0.369
  717.651   13.060   29.634    0.376
  718.471    3.185   28.064    0.362
  719.291    2.396   28.913    0.333
  720.112    1.838   31.782    0.326
  720.932    1.877   29.810    0.338
  721.752    2.070   28.262    0.344
  722.572    2.283   31.509    0.356
  723.392    2.334   33.563    0.369
  724.213    2.336   33.610    0.378
  725.033    2.433   38.487    0.368
  725.853    3.126   43.351    0.343
  726.673    2.904   41.391    0.302
  727.493    3.455   38.627    0.309
  728.314    5.801   35.462    0.331
  729.134    5.386   31.895    0.325
  729.954    4.909   27.939    0.303
  730.774    5.623   28.376    0.303
  731.594    6.083   30.453    0.314
  732.415    5.541   30.488    0.315
  733.235    5.345   30.535    0.305
  734.055    6.119   31.775    0.306
  734.875    6.020   33.428    0.298
  735.696    4.982   37.111    0.291
  736.516    5.089   36.768    0.289
  737.336    5.942   35.587    0.295
  738.156    5.520   33.626    0.299
  738.976    4.837   32.079    0.316
  739.797    3.930   32.516    0.331
  740.617    3.514   38.584    0.334
  741.437    3.657   46.271    0.302
  742.257    4.191   45.916    0.292
  743.077    4.801   37.922    0.293
  743.898    4.458   36.776    0.283
  744.718    3.906   40.035    0.276
  745.538    3.297   52.539    0.301
  746.358    3.180   69.058    0.333
  747.178    3.645   87.585    0.345
  747.999    3.256  105.722    0.332
  748.819    3.142  105.379    0.299
  749.639    2.149   95.365    0.265
  750.459    2.708   74.122    0.190
  751.280    3.412   67.332    0.164
  752.100    5.621   68.996    0.148
  752.920    9.090   69.456    0.138
  753.740    9.459   68.298    0.135
  754.560   12.398   67.956    0.137
  755.381   13.150   67.577    0.132
  756.201   15.952   66.420    0.127
  757.021   15.388   62.842    0.130
  757.841   12.270   51.647    0.150
  758.661   13.266   42.448    0.150
  759.482   13.551    0.304    0.145
  760.302   13.332    0.374    0.157
