~VERSION INFORMATION
 VERS.                 2.0:   CWLS LOG ASCII STANDARD -VERSION 2.0
 WRAP.                  NO:   ONE LINE PER DEPTH STEP
~WELL INFORMATION BLOCK
#MNEM.UNIT           DATA                    DESCRIPTION OF MNEMONIC
#---------    -------------------            -------------------------------
# Generated from Intellog Unique Number	CN_94_101/WELL/5032
WELL.         13-10-099-10W4                 : Well_name    - WELL
LOC .         AA/13-10-099-10W4/0            : Location     - LOCATION
UWI .         AA/13-10-099-10W400            : Uwi          - UNIQUE WELL ID
ENTR.         T                              : Entered      - ENTERED BY
SRVC.         SCHLUMBERGER                   : Scn          - SERVICE COMPANY
DATE.         08/17/92                       : Date         - LOG DATE
STRT.M        12.192                         : top_depth    - START DEPTH
STOP.M        108.442                        : bot_depth    - STOP DEPTH
STEP.M        0.25                           : increment    - STEP LENGTH
 NULL. -999.2500:NULL Value
~CURVE INFORMATION BLOCK
#MNEM UNIT       ERCB CURVE CODE    CURVE DESCRIPTION
#-----------   ------------------   ----------------------------------
DEPT.M        00 001 00 00         : DEPTH        - DEPTH
GR  .API      00 310 00 00         : GR           - GAMMA RAY
NPHI.V/V      00 330 00 00         : PHIN         - NEUTRON POROSITY (SANDSTONE)
ILD .OHMM     00 120 00 00         : RESD         - DEEP RESISTIVITY (DIL)
~PARAMETER INFORMATION
#MNEM.UNIT           DATA             DESCRIPTION OF MNEMONIC
#---------         -----------     ------------------------------
GL  .M        283.251              : gl           - GROUND LEVEL ELEVATION
EREF.M        283.251              : kb           - ELEVATION OF DEPTH REFERENCE
DATM.M        283.251              : datum        - DATUM ELEVATION
TDD .M        108.814              : tdd          - TOTAL DEPTH DRILLER
RUN .         ONE                  : Run          - RUN NUMBER
ENG .         BILL                 : Engineer     - RECORDING ENGINEER
WIT .         JIM                  : Witness      - WITNESSED BY
MUD .         GEL                  : Mud_type     - MUD TYPE
MATR.         SANDSTONE            : Logunit      - NEUTRON MATRIX
TMAX.C        20                   : BHT          - MAXIMUM RECORDED TEMPERATURE
BHTD.M        49.3776              : BHTDEP       - MAXIMUM RECORDED TEMPERATURE
RMT .C        20                   : MDTP         - TEMPERATURE OF MUD
MUDD.KG/M     1030                 : MWT          - MUD DENSITY
NEUT.         1                    : NEUTRON      - NEUTRON TYPE
RESI.         0                    : RESIST       - RESISTIVITY TYPE
RM  .OHMM     12                   : RM           - RESISTIVITY OF MUD
RMC .OHMM     8.4                  : RMC          - RESISTIVITY OF MUD CAKE
RMF .OHMM     11.4                 : RMF          - RESISTIVITY OF MUD FILTRATE
SUFT.C        4                    : SUFT         - SURFACE TEMPERATURE
~A  DEPTH       GR     PHIN     RESD
   12.192   96.600    0.504  167.719
   12.442   94.835    0.499  169.472
   12.692   87.797    0.463  168.044
   12.942   67.584    0.448  165.198
   13.192   43.861    0.448  163.062
   13.442   41.214    0.448  161.637
   13.692   42.081    0.438  159.855
   13.942   44.704    0.426  157.012
   14.192   42.927    0.414  154.876
   14.442   41.165    0.420  149.199
   14.692   39.397    0.427  137.864
   14.942   41.139    0.427  134.667
   15.192   46.399    0.422  151.283
   15.442   45.509    0.412  150.563
   15.692   41.100    0.402  148.424
   15.942   40.211    0.390  146.999
   16.192   41.958    0.380  147.684
   16.442   44.581    0.388  148.032
   16.692   46.326    0.396  145.542
   16.942   45.433    0.380  142.345
   17.192   45.421    0.363  139.148
   17.442   46.288    0.360  135.951
   17.692   46.276    0.372  134.519
   17.942   45.383    0.382  136.629
   18.192   44.496    0.379  137.321
   18.442   43.604    0.372  136.957
   18.692   43.589    0.368  136.230
   18.942   43.577    0.367  136.578
   19.192   42.684    0.362  138.334
   19.442   41.798    0.358  140.087
   19.692   40.908    0.357  141.136
   19.942   40.899    0.357  141.477
   20.192   41.760    0.352  141.467
   20.442   42.629    0.355  138.974
   20.692   43.493    0.368  138.607
   20.942   44.362    0.375  140.364
   21.192   45.229    0.370  140.348
   21.442   44.339    0.372  138.923
   21.692   40.808    0.384  136.430
   21.942   40.794    0.390  135.713
   22.192   40.788    0.384  137.112
   22.442   40.773    0.375  139.222
   22.692   38.127    0.370  138.852
   22.942   37.237    0.364  138.839
   23.192   38.104    0.365  138.826
   23.442   41.602    0.376  138.813
   23.692   44.225    0.390  137.742
   23.942   45.969    0.400  130.299
   24.192   46.836    0.403  127.803
   24.442   46.827    0.395  126.025
   24.692   44.178    0.389  122.828
   24.942   42.404    0.385  125.645
   25.192   42.398    0.389  127.752
   25.442   41.505    0.392  128.093
   25.692   43.250    0.393  126.665
   25.942   44.995    0.393  125.234
   26.192   47.618    0.399  125.928
   26.442   51.119    0.411  125.919
   26.692   51.983    0.427  125.906
   26.942   50.209    0.428  125.185
   27.192   49.328    0.428  122.696
   27.442   47.556    0.427  120.914
   27.692   46.664    0.421  120.547
   27.942   46.655    0.415  118.408
   28.192   46.637    0.405  117.688
   28.442   47.510    0.398  114.491
   28.692   47.492    0.399  109.524
   28.942   48.362    0.406  106.327
   29.192   48.353    0.420  105.607
   29.442   49.216    0.427  108.067
   29.692   50.083    0.429  108.762
   29.942   50.947    0.425  108.746
   30.192   51.810    0.425  108.022
   30.442   51.804    0.425  107.662
   30.692   52.668    0.426  106.588
   30.942   53.532    0.429  101.622
   31.192   55.276    0.433  116.115
   31.442   59.656    0.441   90.271
   31.692   64.038    0.448   77.521
   31.942   71.930    0.453   74.320
   32.192   78.944    0.458   82.094
   32.442   88.593    0.455   91.988
   32.692   89.456    0.453   95.160
   32.942   85.932    0.455   99.039
   33.192   78.891    0.460  101.857
   33.442   74.492    0.460  104.674
   33.692   68.332    0.454  108.907
   33.942   60.414    0.449  112.786
   34.192   55.130    0.444   98.971
   34.442   51.606    0.431   57.559
   34.692   49.838    0.407   47.994
   34.942   55.976    0.403   40.901
   35.192   68.260    0.440   38.058
   35.442   82.299    0.482   41.583
   35.692   93.701    0.498   40.155
   35.942   98.081    0.492   36.604
   36.192   98.947    0.478   37.653
   36.442   97.176    0.468   40.824
   36.692   96.289    0.466   43.288
   36.942   94.518    0.467   44.330
   37.192   92.750    0.467   45.733
   37.442   91.857    0.461   45.363
   37.692   91.848    0.457   44.649
   37.942   92.715    0.451   44.636
   38.192   94.457    0.448   45.681
   38.442   97.080    0.448   44.964
   38.692   97.065    0.449   43.890
   38.942   94.419    0.450   46.707
   39.192   91.772    0.451   48.463
   39.442   91.758    0.450   50.570
   39.692   92.627    0.450   54.449
   39.942   93.494    0.448   62.577
   40.192   94.360    0.442   57.254
   40.442   93.470    0.437   51.934
   40.692   86.433    0.416   47.322
   40.942   82.027    0.388   49.078
   41.192   81.138    0.371   51.542
   41.442   80.245    0.417   49.406
   41.692   80.236    0.440   45.144
   41.942   78.465    0.441   42.297
   42.192   78.456    0.432   45.466
   42.442   81.076    0.420   45.105
   42.692   83.699    0.419   43.677
   42.942   83.684    0.436   42.957
   43.192   82.797    0.437   45.421
   43.442   81.024    0.435   49.300
   43.692   81.018    0.435   54.594
   43.942   82.763    0.434   59.535
   44.192   86.264    0.423   61.998
   44.442   88.008    0.413   59.152
   44.692   85.359    0.406   56.662
   44.942   80.956    0.407   55.939
   45.192   77.429    0.409   57.344
   45.442   75.664    0.409   55.916
   45.692   75.652    0.408   51.304
   45.942   77.394    0.405   45.627
   46.192   79.141    0.407   40.660
   46.442   82.640    0.413   35.340
   46.692   86.138    0.421   29.313
   46.942   89.639    0.432   31.069
   47.192   93.140    0.438   35.656
   47.442   96.644    0.429   21.841
   47.692  101.902    0.413   15.810
   47.942  108.913    0.444   18.274
   48.192  111.536    0.490   18.969
   48.442  108.887    0.503   19.313
   48.692  105.362    0.488   19.647
   48.942  104.472    0.478   19.992
   49.192  105.339    0.484   20.683
   49.442  109.718    0.488   21.021
   49.692  114.976    0.493   21.015
   49.942  122.868    0.495   22.417
   50.192  125.488    0.497   25.235
   50.442  120.207    0.493   32.298
   50.692  114.048    0.488   37.238
   50.942  107.892    0.481   34.041
   51.192   95.582    0.476   32.964
   51.442   87.666    0.479   30.831
   51.692   85.895    0.490   27.631
   51.942   89.394    0.511   37.879
   52.192   90.266    0.522   38.924
   52.442   91.133    0.510   36.791
   52.692   86.724    0.450   38.547
   52.942   84.081    0.457   47.026
   53.192   83.188    0.473   68.245
   53.442   81.420    0.452  105.032
   53.692   78.770    0.411  110.680
   53.942   74.371    0.193  104.295
   54.192   69.090    0.087  101.449
   54.442   61.174    0.060  100.024
   54.692   56.772    0.044   92.227
   54.942   56.757    0.060   76.643
   55.192   56.742    0.093   71.677
   55.442   53.218    0.131   58.570
   55.692   51.453    0.183   51.481
   55.942   47.925    0.229   43.331
   56.192   45.282    0.270   42.256
   56.442   41.757    0.292   42.594
   56.692   36.473    0.280   42.935
   56.942   32.946    0.276   41.861
   57.192   32.056    0.292   41.137
   57.442   31.166    0.305   41.124
   57.692   31.154    0.308   40.757
   57.942   32.024    0.306   40.388
   58.192   32.012    0.304   40.027
   58.442   33.748    0.306   39.657
   58.692   34.621    0.308   38.583
   58.942   34.609    0.316   38.216
   59.192   33.716    0.323   38.200
   59.442   32.829    0.331   38.895
   59.692   32.817    0.322   40.654
   59.942   35.434    0.316   44.887
   60.192   38.936    0.307   52.658
   60.442   43.315    0.282   69.629
   60.692   49.451    0.207   73.154
   60.942   52.077    0.068   77.033
   61.192   52.943    0.068   78.435
   61.442   53.807    0.066   70.285
   61.692   53.792    0.102   60.719
   61.942   52.902    0.133   65.306
   62.192   52.012    0.157   77.676
   62.442   51.122    0.155   82.263
   62.692   51.114    0.116   74.466
   62.942   51.977    0.109   53.221
   63.192   57.235    0.150   58.516
   63.442   63.371    0.181   51.073
   63.692   73.019    0.213   39.381
   63.942   73.886    0.246   73.691
   64.192   76.509    0.328   77.567
   64.442   77.375    0.327   84.987
   64.692   67.700    0.327  133.450
   64.942   56.272    0.360  116.100
   65.192   50.991    0.385   75.039
   65.442   61.518    0.395  121.735
   65.692   68.532    0.364  151.089
   65.942   65.885    0.348  130.555
   66.192   53.576    0.312  139.034
