~VERSION INFORMATION
 VERS.                 2.0:   CWLS LOG ASCII STANDARD -VERSION 2.0
 WRAP.                  NO:   ONE LINE PER DEPTH STEP
~WELL INFORMATION BLOCK
#MNEM.UNIT           DATA                    DESCRIPTION OF MNEMONIC
#---------    -------------------            -------------------------------
# Generated from Intellog Unique Number	CC_88_90/WELL/3157
WELL.         TRIAD OIL CO.                  : Well_name    - WELL
LOC .         AA/13-22-088-12W4/0            : Location     - LOCATION
UWI .         AA/13-22-088-12W400            : Uwi          - UNIQUE WELL ID
ENTR.         JOETTE                         : Entered      - ENTERED BY
SRVC.         SCHLUMBERGER                   : Scn          - SERVICE COMPANY
DATE.         03/11/92                       : Date         - LOG DATE
STRT.M        60.96                          : top_depth    - START DEPTH
STOP.M        185.96                         : bot_depth    - STOP DEPTH
STEP.M        0.25                           : increment    - STEP LENGTH
 NULL. -999.2500:NULL Value
~CURVE INFORMATION BLOCK
#MNEM UNIT       ERCB CURVE CODE    CURVE DESCRIPTION
#-----------   ------------------   ----------------------------------
DEPT.M        00 001 00 00         : DEPTH        - DEPTH
ILD .OHMM     00 120 00 00         : RESD         - DEEP RESISTIVITY (DIL)
NPHI.V/V      00 330 00 00         : PHIN         - NEUTRON POROSITY (SANDSTONE)
GR  .API      00 310 00 00         : GR           - GAMMA RAY
~PARAMETER INFORMATION
#MNEM.UNIT           DATA             DESCRIPTION OF MNEMONIC
#---------         -----------     ------------------------------
GL  .M        463.357              : gl           - GROUND LEVEL ELEVATION
EREF.M        464.942              : kb           - ELEVATION OF DEPTH REFERENCE
DATM.M        464.942              : datum        - DATUM ELEVATION
TDD .M        186.538              : tdd          - TOTAL DEPTH DRILLER
RUN .         ONE                  : Run          - RUN NUMBER
ENG .         BILL                 : Engineer     - RECORDING ENGINEER
WIT .         JIM                  : Witness      - WITNESSED BY
MUD .         GEL                  : Mud_type     - MUD TYPE
MATR.         SANDSTONE            : Logunit      - NEUTRON MATRIX
TMAX.C        9.44444              : BHT          - MAXIMUM RECORDED TEMPERATURE
BHTD.M        186.538              : BHTDEP       - MAXIMUM RECORDED TEMPERATURE
RMT .C        23.8889              : MDTP         - TEMPERATURE OF MUD
MUDD.KG/M     9166.66              : MWT          - MUD DENSITY
NEUT.         1                    : NEUTRON      - NEUTRON TYPE
RESI.         0                    : RESIST       - RESISTIVITY TYPE
RM  .OHMM     4.62                 : RM           - RESISTIVITY OF MUD
RMC .OHMM     4.62                 : RMC          - RESISTIVITY OF MUD CAKE
RMF .OHMM     4.62                 : RMF          - RESISTIVITY OF MUD FILTRATE
SUFT.C        4                    : SUFT         - SURFACE TEMPERATURE
~A  DEPTH     RESD     PHIN       GR
   60.960   20.024    0.400   91.200
   61.210   17.816    0.393   96.616
   61.460   16.009    0.395   94.671
   61.710   14.802    0.406   94.687
   61.960   14.794    0.417   97.643
   62.210   15.792    0.411  103.553
   62.460   20.793    0.413  105.037
   62.710   30.399    0.404  104.073
   62.960   32.797    0.391   92.809
   63.210   24.181    0.373   86.941
   63.460   19.771    0.368   84.015
   63.710   16.759    0.399   86.488
   63.960   17.557    0.402   88.953
   64.210   18.151    0.389   94.855
   64.460   16.545    0.393  104.685
   64.710   15.138    0.404  106.173
   64.960   15.734    0.413  102.757
   65.210   15.727    0.411  108.659
   65.460   15.120    0.404  113.580
   65.710   15.317    0.405  114.586
   65.960   16.111    0.412  117.051
   66.210   15.105    0.411  120.501
   66.460   14.701    0.406  117.084
   66.710   15.697    0.407  117.596
   66.960   17.894    0.417  117.608
   67.210   18.287    0.417  122.534
   67.460   18.283    0.389  125.003
   67.710   19.279    0.392  118.153
   67.960   19.875    0.399  114.251
   68.210   17.467    0.413  116.229
   68.460   15.860    0.419  115.751
   68.710   15.051    0.421  119.696
   68.960   15.047    0.424  121.670
   69.210   15.643    0.429  119.733
   69.460   16.838    0.424  119.256
   69.710   16.834    0.407  122.705
   69.960   16.829    0.412  121.251
   70.210   16.423    0.416  119.306
   70.460   15.815    0.408  122.756
   70.710   15.409    0.410  125.225
   70.960   15.003    0.417  120.341
   71.210   14.798    0.416  119.868
   71.460   14.593    0.409  116.451
   71.710   14.389    0.406  122.844
   71.960   14.781    0.402  118.937
   72.210   15.577    0.412  112.578
   72.460   15.573    0.429  116.028
   72.710   14.766    0.436  127.329
   72.960   14.362    0.409  137.155
   73.210   13.556    0.413  131.286
   73.460   13.549    0.427  127.379
   73.710   14.145    0.428  127.396
   73.960   13.938    0.424  139.674
   74.210   13.332    0.424  140.676
   74.460   12.927    0.420  138.240
   74.710   12.723    0.412  126.977
   74.960   12.715    0.408  125.032
   75.210   12.712    0.411  126.029
   75.460   12.706    0.415  123.103
   75.710   13.502    0.427  118.710
   75.960   13.897    0.433  122.647
   76.210   13.089    0.429  124.139
   76.460   12.884    0.414  122.194
   76.710   13.681    0.407  134.962
   76.960   13.675    0.412  137.435
   77.210   13.069    0.439  132.053
   77.460   12.463    0.458  132.070
   77.710   12.057    0.466  131.600
   77.960   12.450    0.449  129.655
   78.210   12.047    0.434  133.596
   78.460   13.042    0.429  137.045
   78.710   14.440    0.415  134.120
   78.960   13.032    0.426  128.746
   79.210   11.223    0.444  126.310
   79.460   10.017    0.451  131.227
   79.710    8.810    0.438  136.148
   79.960    9.005    0.421  139.112
   80.210    9.598    0.416  136.186
   80.460    9.596    0.417  132.279
   80.710    9.389    0.427  130.338
   80.960    9.184    0.443  128.393
   81.210    8.979    0.448  124.973
   81.460    8.973    0.447  121.066
   81.710    8.969    0.446  122.068
   81.960    8.963    0.447  121.104
   82.210    8.958    0.447  122.592
   82.460   10.154    0.445  120.647
   82.710   12.952    0.429  117.725
   82.960   14.549    0.412  115.776
   83.210   18.949    0.397  106.474
   83.460   17.742    0.381   99.138
   83.710   16.535    0.371  106.021
   83.960   18.733    0.372  101.129
   84.210   20.929    0.378   94.280
   84.460   18.521    0.382   85.959
   84.710   16.513    0.378   90.394
   84.960   16.308    0.379   92.863
   85.210   15.102    0.380  101.217
   85.460   16.098    0.388   97.311
   85.710   15.691    0.382   95.856
   85.960   15.686    0.380   94.896
   86.210   16.280    0.382  100.794
   86.460   15.876    0.382  108.172
   86.710   15.470    0.381  112.112
   86.960   14.864    0.383  112.133
   87.210   14.458    0.383  108.712
   87.460   15.253    0.386  103.334
   87.710   13.847    0.394  102.370
   87.960    9.837    0.411  106.310
   88.210   10.232    0.423  110.259
   88.460   12.229    0.413  110.272
   88.710   11.222    0.405  112.250
   88.960   11.216    0.401  114.233
   89.210   15.416    0.392  113.265
   89.460   18.815    0.380  109.362
   89.710   16.007    0.369  105.941
   89.960   13.999    0.366  102.035
   90.210   13.193    0.379   98.128
   90.460   13.588    0.396   98.639
   90.710   11.380    0.415  107.974
   90.960   11.975    0.413  109.957
   91.210   14.172    0.416  111.441
   91.460   16.770    0.416  112.443
   91.710   18.968    0.390  110.984
   91.960   18.763    0.377  105.610
   92.210   16.555    0.369   99.251
   92.460   14.945    0.376   94.363
   92.710   14.339    0.383   91.928
   92.960   12.333    0.382   95.868
   93.210    9.725    0.381   97.361
   93.460    7.918    0.383   98.358
   93.710    9.314    0.388  104.256
   93.960   15.316    0.394  107.220
   94.210   18.313    0.395  104.294
   94.460   18.508    0.390   95.973
   94.710   17.902    0.382   88.143
   94.960   15.695    0.383   88.650
   95.210   15.289    0.371   91.119
   95.460    6.873    0.370   93.097
   95.710    6.466    0.378   98.019
   95.960    7.061    0.425  103.925
   96.210    8.459    0.439  109.827
   96.460   11.057    0.430  111.810
   96.710   11.252    0.428  110.351
   96.960   11.648    0.424  112.330
   97.210   14.846    0.401  117.259
   97.460   14.638    0.391  115.310
   97.710   14.434    0.387  102.575
   97.960   14.228    0.379   98.178
   98.210   14.221    0.379  104.080
   98.460   14.017    0.390  109.492
   98.710   13.812    0.392  109.999
   98.960   13.006    0.392  107.073
   99.210   12.400    0.400  104.147
   99.460   11.993    0.412  102.692
   99.710   12.790    0.417  105.660
   99.960   14.987    0.406  109.596
  100.210   18.186    0.390  112.556
  100.460   16.379    0.366  116.006
  100.710   13.771    0.364  113.570
  100.960   14.365    0.375  110.154
  101.210   13.557    0.385  105.266
  101.460   15.556    0.382  100.387
  101.710   14.349    0.373   98.438
  101.960   12.943    0.368   98.454
  102.210   13.738    0.397   95.528
  102.460   14.735    0.403   99.473
  102.710   13.726    0.402  102.432
  102.960   15.724    0.385  100.487
  103.210   19.323    0.362   98.538
  103.460   19.719    0.337   95.122
  103.710   18.512    0.334   88.276
  103.960   15.704    0.346   93.198
  104.210   12.893    0.361  102.533
  104.460   11.487    0.373  102.059
  104.710   10.481    0.375  101.095
  104.960   12.278    0.370  111.415
  105.210   14.275    0.367  112.904
  105.460   18.274    0.367  108.506
  105.710   18.068    0.359  104.113
  105.960   17.663    0.352  101.183
  106.210   15.855    0.352   99.238
  106.460   14.849    0.359  101.217
  106.710   16.245    0.355  102.705
  106.960   17.240    0.354  102.721
  107.210   17.035    0.361   99.800
  107.460   17.231    0.377   97.859
  107.710   19.228    0.385   98.856
  107.960   16.819    0.377   97.402
  108.210   15.612    0.361   93.981
  108.460   14.204    0.356   89.584
  108.710   15.602    0.367   87.639
  108.960   15.596    0.372   89.618
  109.210   14.591    0.368   92.091
  109.460   15.384    0.379   93.583
  109.710   14.979    0.386   92.615
  109.960   14.173    0.375   91.651
  110.210   15.970    0.354   95.100
  110.460   24.575    0.302   97.570
  110.710   42.393    0.264   92.682
  110.960   17.557    0.294   78.966
  111.210   10.941    0.327   78.492
  111.460   11.738    0.349   86.851
  111.710   13.936    0.381   97.167
  111.960   14.530    0.393  106.997
  112.210   13.725    0.398  105.048
  112.460   11.718    0.395  101.141
  112.710   11.711    0.411  105.580
  112.960   10.905    0.415  109.026
  113.210    9.298    0.412  111.495
  113.460    8.893    0.410  112.006
  113.710   10.889    0.404  112.019
  113.960   11.285    0.388  115.963
  114.210   13.082    0.378  114.018
  114.460   14.678    0.383  107.659
  114.710   14.072    0.383   99.338
  114.960   13.665    0.372   93.470
