~VERSION INFORMATION
 VERS.                 2.0:   CWLS LOG ASCII STANDARD -VERSION 2.0
 WRAP.                  NO:   ONE LINE PER DEPTH STEP
~WELL INFORMATION BLOCK
#MNEM.UNIT           DATA                    DESCRIPTION OF MNEMONIC
#---------    -------------------            -------------------------------
# Generated from Intellog Unique Number	CC_80_83/WELL/2416
NULL.         -999.25                        : NULL_VALUE
WELL.         PEX PCEJ HANGST OV             : Well_name    - WELL              
LOC .         11-29-082-08W4                 : Location     - LOCATION          
UWI .         AA/11-29-082-08W4/0            : Uwi          - UNIQUE WELL ID    
ENTR.         RJA                            : Entered      - ENTERED BY        
SRVC.         DRESSER ATLAS                  : Scn          - SERVICE COMPANY   
DATE.         24 FEB 80                      : Date         - LOG DATE
STRT.M        250                            : top_depth    - START DEPTH       
STOP.M        510.09                         : bot_depth    - STOP DEPTH        
STEP.M        0.3                            : increment    - STEP LENGTH       
~CURVE INFORMATION BLOCK
#MNEM UNIT       ERCB CURVE CODE    CURVE DESCRIPTION
#-----------   ------------------   ----------------------------------
DEPT.M        00 001 00 00         : DEPTH        - DEPTH                       
DPHI.V/V      00 890 00 00         : PHID         - DENSITY POROSITY (LIMESTONE)
NPHI.V/V      00 330 00 00         : PHIN         - NEUTRON POROSITY (LIMESTONE)
GR  .API      00 310 00 00         : GR           - GAMMA RAY                   
ILD .OHMM     00 120 00 00         : RESD         - DEEP RESISTIVITY (DIL)      
~PARAMETER INFORMATION       
#MNEM.UNIT           DATA             DESCRIPTION OF MNEMONIC
#---------         -----------     ------------------------------
GL  .M        735.57               : gl           - GROUND LEVEL ELEVATION      
EREF.M        739.17               : kb           - ELEVATION OF DEPTH REFERENCE
DATM.M        739.17               : datum        - DATUM ELEVATION             
TDD .M        518                  : tdd          - TOTAL DEPTH DRILLER         
RUN .         ONE                  : Run          - RUN NUMBER                  
ENG .         BILL                 : Engineer     - RECORDING ENGINEER          
WIT .         JIM                  : Witness      - WITNESSED BY                
MUD .         GEL                  : Mud_type     - MUD TYPE                    
MATR.         LIMESTONE            : Logunit      - NEUTRON MATRIX              
TMAX.C        15                   : BHT          - MAXIMUM RECORDED TEMPERATURE
BHTD.M        5182                 : BHTDEP       - MAXIMUM RECORDED TEMPERATURE
MATR.         1                    : LOGUNIT      - NEUTRON MATRIX              
RMT .C        25                   : MDTP         - TEMPERATURE OF MUD          
NEUT.         1                    : NEUTRON      - NEUTRON TYPE                
RESI.         0                    : RESIST       - RESISTIVITY TYPE            
RMC .OHMM     0.25                 : RMC          - RESISTIVITY OF MUD CAKE     
RMF .OHMM     0.25                 : RMF          - RESISTIVITY OF MUD FILTRATE 
SUFT.C        15                   : SUFT         - SURFACE TEMPERATURE         
~A  DEPTH     PHID     PHIN       GR     RESD
# ...
  458.792    0.249    0.333   80.930   13.957
  459.092    0.233    0.313   75.381   13.983
  459.392    0.216    0.318   70.827   14.464
  459.692    0.236    0.336   72.368   13.877
  459.992    0.211    0.326   71.979   12.163
  460.292    0.206    0.336   74.081   11.153
  460.592    0.209    0.338   82.835   11.581
  460.892    0.234    0.314   63.543   12.370
  461.192    0.241    0.329   65.953   12.652
  461.492    0.243    0.315   69.172   13.287
  461.792    0.251    0.326   72.640   13.954
  462.092    0.262    0.327   57.639   15.771
  462.392    0.275    0.335   53.892   18.579
  462.692    0.265    0.330   52.947   21.640
  462.992    0.256    0.323   48.269   22.598
  463.292    0.258    0.335   56.215   22.010
  463.592    0.279    0.341   47.867   22.218
  463.892    0.295    0.349   40.822   23.553
  464.192    0.314    0.350   38.758   25.110
  464.492    0.309    0.361   40.982   26.469
  464.792    0.271    0.337   53.904   29.469
  465.092    0.259    0.312   46.675   33.118
  465.392    0.236    0.289   63.887   22.895
  465.692    0.230    0.297   72.705   18.751
  465.992    0.252    0.329   86.062   16.158
  466.292    0.256    0.348   75.723   16.188
  466.591    0.262    0.325   75.026   18.574
  466.891    0.253    0.294   45.596   22.297
  467.191    0.227    0.312   33.080   20.064
  467.491    0.229    0.335   60.430   15.413
  467.791    0.278    0.347   77.767   11.620
  468.091    0.274    0.365  104.308    9.516
  468.391    0.266    0.385   99.380    8.216
  468.691    0.261    0.348   87.177    7.591
  468.991    0.205    0.349   93.009    7.520
  469.291    0.199    0.311   90.383    7.201
  469.591    0.194    0.315   99.572    7.147
  469.891    0.202    0.302   99.929    7.590
  470.191    0.211    0.285   92.393    8.262
  470.491    0.222    0.310   90.323    8.841
  470.791    0.260    0.327   90.000    9.497
  471.091    0.234    0.312   94.712   10.298
  471.391    0.211    0.315   81.950   10.896
  471.691    0.192    0.280   70.058   11.464
  471.991    0.171    0.288   72.591   11.529
  472.291    0.177    0.299   82.776   11.464
  472.591    0.211    0.313   75.238   11.551
  472.891    0.237    0.310   70.311   11.792
  473.191    0.246    0.313   65.632   12.176
  473.491    0.235    0.313   71.962   12.314
  473.791    0.236    0.315   78.601   12.152
  474.091    0.233    0.309   76.658   12.106
  474.391    0.227    0.294   73.972   12.500
  474.691    0.225    0.273   66.929   13.053
  474.991    0.233    0.266   71.268   13.176
  475.291    0.263    0.317   81.205   12.882
  475.591    0.236    0.306   67.570   12.174
  475.891    0.229    0.307   76.137   11.614
  476.191    0.184    0.323   87.567   10.771
  476.491    0.175    0.320   87.365   10.083
  476.791    0.178    0.326   94.565    9.334
  477.091    0.191    0.311   89.328    8.804
  477.391    0.214    0.310   98.642    8.352
  477.691    0.217    0.314   83.889    8.196
  477.991    0.208    0.293   90.713    8.258
  478.291    0.207    0.301   83.423    8.705
  478.591    0.214    0.314   69.418    9.456
  478.891    0.225    0.294   63.059   10.235
  479.191    0.217    0.286   62.425   10.410
  479.491    0.213    0.297   60.855   10.587
  479.791    0.214    0.291   54.374   10.508
  480.091    0.219    0.299   64.496   10.687
  480.391    0.221    0.314   57.391   10.829
  480.691    0.213    0.305   58.622   10.350
  480.991    0.204    0.294   63.646   10.195
  481.291    0.199    0.319   69.227    9.781
  481.591    0.199    0.321   81.838    9.616
  481.891    0.207    0.311   64.908    9.966
  482.191    0.204    0.315   64.334   10.194
  482.491    0.251    0.316   64.942   11.033
  482.791    0.292    0.310   50.562   13.295
  483.091    0.303    0.314   38.794   15.839
  483.391    0.299    0.318   39.151   19.014
  483.691    0.295    0.314   31.364   22.955
  483.991    0.296    0.328   26.872   29.048
  484.291    0.303    0.316   18.090   31.261
  484.591    0.301    0.324   21.433   27.245
  484.891    0.301    0.328   31.804   24.196
  485.191    0.305    0.309   42.426   21.856
  485.491    0.311    0.309   35.695   21.166
  485.791    0.320    0.313   29.524   24.013
  486.091    0.322    0.320   28.265   26.583
  486.391    0.311    0.341   27.816   28.448
  486.691    0.311    0.343   27.678   28.287
  486.991    0.318    0.329   27.664   25.841
  487.291    0.323    0.353   28.023   23.518
  487.591    0.324    0.348   24.028   20.535
  487.891    0.307    0.347   21.401   18.549
  488.191    0.294    0.314   21.823   17.629
  488.491    0.294    0.304   19.197   17.829
  488.791    0.306    0.309   16.818   22.224
  489.091    0.309    0.324   18.359   26.982
  489.391    0.306    0.308   16.169   30.842
  489.691    0.306    0.298   18.516   34.792
  489.991    0.306    0.320   19.560   35.789
  490.291    0.304    0.338   15.380   35.991
  490.591    0.307    0.354   15.987   32.144
  490.891    0.316    0.350   23.311   30.036
  491.190    0.323    0.360   31.879   29.089
  491.490    0.331    0.355   26.576   28.816
  491.790    0.335    0.368   29.237   29.641
  492.090    0.340    0.340   32.894   31.541
  492.390    0.330    0.352   34.559   32.141
  492.690    0.315    0.343   40.328   31.481
  492.990    0.312    0.351   44.293   29.976
  493.290    0.325    0.353   36.380   30.202
  493.590    0.334    0.361   26.915   33.942
  493.890    0.334    0.341   19.685   32.564
  494.190    0.330    0.338   18.304   34.652
  494.490    0.334    0.355   25.379   33.370
  494.790    0.347    0.364   26.422   27.023
  495.090    0.365    0.371   25.165   25.061
  495.390    0.361    0.386   42.315   25.876
  495.690    0.314    0.391   41.119   28.006
  495.990    0.314    0.364   39.982   28.917
  496.290    0.317    0.380   45.257   26.120
  496.590    0.308    0.352   37.155   25.729
  496.890    0.289    0.340   35.153   25.923
  497.190    0.277    0.336   27.117   24.544
  497.490    0.279    0.325   43.147   22.380
  497.790    0.288    0.325   42.821   20.912
  498.090    0.285    0.317   32.983   19.431
  498.390    0.281    0.314   40.120   17.852
  498.690    0.287    0.326   41.473   16.155
  498.990    0.307    0.317   34.619   13.843
  499.290    0.323    0.342   27.887    9.678
  499.590    0.313    0.336   23.459    8.200
  499.890    0.317    0.342   17.161    6.467
  500.190    0.318    0.322   15.780    5.647
  500.490    0.329    0.306   15.081    5.257
  500.790    0.315    0.306   15.875    5.025
  501.090    0.309    0.313   22.267    4.885
  501.390    0.284    0.296   26.416    4.811
  501.690    0.259    0.283   23.483    4.977
  501.990    0.119    0.268   35.222    5.296
  502.290    0.055    0.247   54.486    6.715
  502.590    0.027    0.260   56.836    8.214
  502.890    0.021    0.231   59.430   11.123
  503.190    0.025    0.228   64.643   13.178
  503.490    0.036    0.212   61.891   14.534
  503.790    0.041    0.204   58.582   14.588
  504.090    0.042    0.210   52.038   13.970
  504.390    0.042    0.211   64.898   13.734
  504.690    0.027    0.210   60.281   13.554
  504.990    0.021    0.211   63.563   13.734
  505.290    0.014    0.199   66.285   15.967
  505.590    0.004    0.173   57.253   18.952
  505.890    0.002    0.141   48.221   23.227
  506.190    0.004    0.106   33.096   27.208
  506.490    0.002    0.104   27.608   27.777
  506.790    0.001    0.110   34.870   26.851
  507.090    0.000    0.124   36.907   25.857
  507.390    0.001    0.135   32.852   24.714
  507.690    0.002    0.136   42.726   24.298
  507.990    0.005    0.136   39.043   23.049
  508.290    0.005    0.152   42.635   21.417
  508.590    0.003    0.162   56.178   20.780
  508.890    0.001    0.163   54.420   20.012
  509.190    0.000    0.171   60.004   19.675
  509.490    0.005    0.181   66.459   19.019
  509.790    0.010    0.188   65.450   18.419
  510.090    0.012    0.192   58.967   17.805
