~VERSION INFORMATION
 VERS.                 2.0:   CWLS LOG ASCII STANDARD -VERSION 2.0
 WRAP.                  NO:   ONE LINE PER DEPTH STEP
~WELL INFORMATION BLOCK
#MNEM.UNIT           DATA                    DESCRIPTION OF MNEMONIC
#---------    -------------------            -------------------------------
# Generated from Intellog Unique Number	CC_88_90/WELL/2299
WELL.         10-29-090-16W4                 : Well_name    - WELL
LOC .         AA/10-29-090-16W4/0            : Location     - LOCATION
UWI .         AA/10-29-090-16W400            : Uwi          - UNIQUE WELL ID
ENTR.         DW                             : Entered      - ENTERED BY
SRVC.         SCHLUMBERGER                   : Scn          - SERVICE COMPANY
STRT.M        75                             : top_depth    - START DEPTH
STOP.M        234.75                         : bot_depth    - STOP DEPTH
STEP.M        0.25                           : increment    - STEP LENGTH
 NULL. -999.2500:NULL Value
~CURVE INFORMATION BLOCK
#MNEM UNIT       ERCB CURVE CODE    CURVE DESCRIPTION
#-----------   ------------------   ----------------------------------
DEPT.M        00 001 00 00         : DEPTH        - DEPTH
GR  .API      00 310 00 00         : GR           - GAMMA RAY
DPHI.V/V      00 890 00 00         : PHID         - DENSITY POROSITY (SANDSTONE)
NPHI.V/V      00 330 00 00         : PHIN         - NEUTRON POROSITY (SANDSTONE)
ILD .OHMM     00 120 00 00         : RESD         - DEEP RESISTIVITY (DIL)
~PARAMETER INFORMATION
#MNEM.UNIT           DATA             DESCRIPTION OF MNEMONIC
#---------         -----------     ------------------------------
GL  .M        485.33               : gl           - GROUND LEVEL ELEVATION
EREF.M        488.62               : kb           - ELEVATION OF DEPTH REFERENCE
DATM.M        488.62               : datum        - DATUM ELEVATION
TDD .M        244                  : tdd          - TOTAL DEPTH DRILLER
RUN .         ONE                  : Run          - RUN NUMBER
ENG .         BILL                 : Engineer     - RECORDING ENGINEER
WIT .         JIM                  : Witness      - WITNESSED BY
MUD .         GEL                  : Mud_type     - MUD TYPE
MATR.         SANDSTONE            : Logunit      - NEUTRON MATRIX
TMAX.C        27                   : BHT          - MAXIMUM RECORDED TEMPERATURE
BHTD.M        244                  : BHTDEP       - MAXIMUM RECORDED TEMPERATURE
MATR.         1                    : LOGUNIT      - NEUTRON MATRIX
RMT .C        25                   : MDTP         - TEMPERATURE OF MUD
NEUT.         1                    : NEUTRON      - NEUTRON TYPE
RESI.         0                    : RESIST       - RESISTIVITY TYPE
RMC .OHMM     0.25                 : RMC          - RESISTIVITY OF MUD CAKE
RMF .OHMM     0.25                 : RMF          - RESISTIVITY OF MUD FILTRATE
SUFT.C        15                   : SUFT         - SURFACE TEMPERATURE
~A  DEPTH       GR     PHID     PHIN     RESD
# ...
  118.500  137.573    0.218    0.597    4.445
  118.750  133.863    0.216    0.576    4.805
  119.000  137.232    0.223    0.584    5.232
  119.250  141.384    0.223    0.584    5.954
  119.500  139.936    0.229    0.578    6.805
  119.750  132.661    0.246    0.576    7.555
  120.000  122.224    0.261    0.526    8.608
  120.250  113.260    0.296    0.493   10.287
  120.500  107.077    0.302    0.474   11.510
  120.750  104.688    0.312    0.444   12.385
  121.000  104.173    0.311    0.422   12.954
  121.250  103.823    0.289    0.424   13.025
  121.500  104.418    0.299    0.429   13.032
  121.750  104.562    0.308    0.440   13.443
  122.000  103.271    0.301    0.448   13.835
  122.250  101.831    0.288    0.453   14.591
  122.500  102.783    0.279    0.454   16.174
  122.750  105.503    0.256    0.454   17.895
  123.000  106.894    0.204    0.447   19.734
  123.250  108.261    0.169    0.396   23.662
  123.500  110.605    0.187    0.372   25.272
  123.750  105.829    0.124    0.330   24.898
  124.000  100.325    0.041    0.264   22.452
  124.250  105.748    0.058    0.248   18.188
  124.500  117.930    0.102    0.312   14.849
  124.750  126.908    0.133    0.399   12.387
  125.000  133.705    0.169    0.437   11.316
  125.250  134.956    0.219    0.448   11.046
  125.500  129.209    0.220    0.433   11.422
  125.750  121.674    0.166    0.398   12.126
  126.000  118.001    0.146    0.398   12.263
  126.250  118.087    0.152    0.419   12.291
  126.500  121.891    0.190    0.424   11.963
  126.750  125.043    0.230    0.412   11.654
  127.000  126.621    0.232    0.410   11.538
  127.250  127.068    0.211    0.427   11.623
  127.500  124.783    0.209    0.442   12.242
  127.750  121.067    0.208    0.450   13.290
  128.000  113.626    0.225    0.466   13.730
  128.250  107.933    0.248    0.457   13.594
  128.500  108.639    0.277    0.422   13.369
  128.750  113.480    0.293    0.411   13.135
  129.000  117.403    0.271    0.441   12.943
  129.250  118.277    0.274    0.457   13.323
  129.500  115.886    0.276    0.455   13.830
  129.750  111.980    0.206    0.425   13.998
  130.000  109.285    0.169    0.391   13.900
  130.250  107.865    0.234    0.387   13.584
  130.500  105.761    0.284    0.397   12.926
  130.750  104.558    0.302    0.400   12.321
  131.000  105.492    0.302    0.400   11.766
  131.250  110.562    0.302    0.402   11.177
  131.500  116.126    0.292    0.414   10.791
  131.750  117.327    0.267    0.427   10.981
  132.000  115.611    0.255    0.426   11.519
  132.250  114.627    0.267    0.426   11.535
  132.500  112.988    0.277    0.428   11.520
  132.750  112.701    0.265    0.427   11.434
  133.000  113.183    0.254    0.434   11.208
  133.250  112.305    0.263    0.441   11.411
  133.500  111.928    0.273    0.425   12.405
  133.750  115.194    0.276    0.411   13.275
  134.000  120.628    0.252    0.398   13.493
  134.250  123.884    0.209    0.390   13.045
  134.500  127.336    0.159    0.388   12.394
  134.750  134.357    0.150    0.415   11.816
  135.000  138.389    0.216    0.466   11.067
  135.250  131.265    0.244    0.436   10.184
  135.500  127.407    0.243    0.408    9.936
  135.750  127.190    0.249    0.408   10.455
  136.000  126.137    0.252    0.412   12.074
  136.250  123.648    0.245    0.424   14.230
  136.500  118.757    0.221    0.427   17.051
  136.750  110.837    0.142    0.336   23.622
  137.000  107.164    0.096    0.302   27.617
  137.250  110.370    0.086    0.314   22.740
  137.500  118.865    0.094    0.340   13.754
  137.750  127.386    0.107    0.396    7.927
  138.000  132.247    0.133    0.451    5.183
  138.250  138.225    0.250    0.486    4.137
  138.500  139.195    0.301    0.558    3.232
  138.750  134.717    0.274    0.617    2.734
  139.000  130.374    0.242    0.590    2.741
  139.250  129.092    0.219    0.514    3.029
  139.500  129.818    0.189    0.468    4.036
  139.750  131.974    0.178    0.425    6.017
  140.000  127.541    0.197    0.419    8.238
  140.250  127.601    0.188    0.441    9.586
  140.500  131.299    0.179    0.461    9.816
  140.750  129.944    0.202    0.491    9.607
  141.000  127.393    0.201    0.525    9.818
  141.250  127.254    0.193    0.475   10.794
  141.500  128.031    0.175    0.429   11.595
  141.750  129.872    0.137    0.401   12.302
  142.000  129.943    0.144    0.400   13.098
  142.250  127.712    0.198    0.414   13.567
  142.500  128.012    0.207    0.398   13.526
  142.750  129.836    0.224    0.400   13.554
  143.000  128.283    0.242    0.430   13.203
  143.250  126.999    0.232    0.453   12.841
  143.500  124.620    0.224    0.463   12.759
  143.750  118.960    0.232    0.476   12.764
  144.000  113.922    0.221    0.476   12.763
  144.250  109.425    0.212    0.432   12.932
  144.500  109.615    0.220    0.410   13.364
  144.750  112.894    0.231    0.406   13.575
  145.000  115.038    0.229    0.398   14.063
  145.250  116.094    0.203    0.390   14.976
  145.500  115.173    0.158    0.366   16.290
  145.750  104.789    0.136    0.278   20.727
  146.000   99.623    0.063    0.245   28.758
  146.250  100.933    0.024    0.253   41.722
  146.500  102.801    0.070    0.265   51.066
  146.750  103.671    0.132    0.287   48.346
  147.000  104.713    0.151    0.313   38.177
  147.250  104.548    0.157    0.332   28.929
  147.500  101.326    0.171    0.308   25.386
  147.750  100.821    0.098    0.261   29.296
  148.000  101.518    0.024    0.240   35.542
  148.250  102.282    0.049    0.258   38.333
  148.500  108.393    0.088    0.287   36.685
  148.750  114.332    0.101    0.317   30.173
  149.000  116.985    0.144    0.362   23.519
  149.250  115.976    0.177    0.402   19.682
  149.500  109.231    0.167    0.389   17.990
  149.750  104.353    0.139    0.343   17.581
  150.000  112.089    0.129    0.329   18.523
  150.250  118.870    0.170    0.335   18.928
  150.500  119.405    0.200    0.382   18.287
  150.750  116.394    0.206    0.401   17.076
  151.000  118.525    0.204    0.384   15.599
  151.250  125.444    0.209    0.395   13.835
  151.500  127.506    0.219    0.435   12.207
  151.750  128.081    0.212    0.420   11.597
  152.000  127.223    0.188    0.404   11.215
  152.250  119.234    0.166    0.429   11.047
  152.500  113.027    0.142    0.447   11.149
  152.750  117.005    0.148    0.428   11.698
  153.000  122.595    0.212    0.413   12.653
  153.250  124.790    0.209    0.427   12.676
  153.500  126.411    0.190    0.442   12.700
  153.750  127.184    0.195    0.434   12.328
  154.000  128.187    0.176    0.408   11.807
  154.250  130.401    0.129    0.384   11.706
  154.500  133.059    0.126    0.382   11.716
  154.750  137.207    0.164    0.419   12.064
  155.000  134.389    0.190    0.454   12.543
  155.250  128.653    0.216    0.454   12.558
  155.500  126.894    0.229    0.452   12.311
  155.750  126.484    0.213    0.473   11.726
  156.000  122.049    0.207    0.483   10.450
  156.250  119.824    0.205    0.472    9.911
  156.500  124.527    0.160    0.453    9.780
  156.750  131.833    0.090    0.433   10.211
  157.000  137.623    0.104    0.419   10.842
  157.250  141.848    0.186    0.434   11.054
  157.500  142.958    0.196    0.475   10.836
  157.750  137.283    0.183    0.490   10.177
  158.000  134.385    0.167    0.547    9.632
  158.250  134.519    0.139    0.542    9.307
  158.500  135.444    0.141    0.477    8.997
  158.750  136.207    0.183    0.449    8.770
  159.000  135.591    0.198    0.447    8.786
  159.250  135.510    0.202    0.433    8.853
  159.500  136.219    0.190    0.421    9.675
  159.750  138.160    0.172    0.412   10.268
  160.000  141.123    0.154    0.398   10.575
  160.250  143.159    0.149    0.388   11.107
  160.500  142.983    0.178    0.395   11.434
  160.750  142.946    0.232    0.416   11.608
  161.000  143.082    0.243    0.415   11.828
  161.250  142.393    0.226    0.406   11.855
  161.500  138.401    0.207    0.409   12.552
  161.750  134.985    0.189    0.415   14.064
