~VERSION INFORMATION
 VERS.                 2.0:   CWLS LOG ASCII STANDARD -VERSION 2.0
 WRAP.                  NO:   ONE LINE PER DEPTH STEP
~WELL INFORMATION BLOCK
#MNEM.UNIT           DATA                    DESCRIPTION OF MNEMONIC
#---------    -------------------            -------------------------------
# Generated from Intellog Unique Number	CN_94_101/WELL/5027
WELL.         12-06-097-10W4                 : Well_name    - WELL
LOC .         AA/12-06-097-10W4/0            : Location     - LOCATION
UWI .         AA/12-06-097-10W400            : Uwi          - UNIQUE WELL ID
ENTR.         JOETTE                         : Entered      - ENTERED BY
SRVC.         SCHLUMBERGER                   : Scn          - SERVICE COMPANY
DATE.         08/13/92                       : Date         - LOG DATE
STRT.M        10                             : top_depth    - START DEPTH
STOP.M        90.5                           : bot_depth    - STOP DEPTH
STEP.M        0.25                           : increment    - STEP LENGTH
 NULL. -999.2500:NULL Value
~CURVE INFORMATION BLOCK
#MNEM UNIT       ERCB CURVE CODE    CURVE DESCRIPTION
#-----------   ------------------   ----------------------------------
DEPT.M        00 001 00 00         : DEPTH        - DEPTH
GR  .API      00 310 00 00         : GR           - GAMMA RAY
ILD .OHMM     00 120 00 00         : RESD         - DEEP RESISTIVITY (DIL)
NPHI.V/V      00 330 00 00         : PHIN         - NEUTRON POROSITY (SANDSTONE)
DPHI.V/V      00 890 00 00         : PHID         - DENSITY POROSITY (SANDSTONE)
~PARAMETER INFORMATION
#MNEM.UNIT           DATA             DESCRIPTION OF MNEMONIC
#---------         -----------     ------------------------------
GL  .M        284.9                : gl           - GROUND LEVEL ELEVATION
EREF.M        284.9                : kb           - ELEVATION OF DEPTH REFERENCE
DATM.M        284.9                : datum        - DATUM ELEVATION
TDD .M        93.1                 : tdd          - TOTAL DEPTH DRILLER
RUN .         ONE                  : Run          - RUN NUMBER
ENG .         BILL                 : Engineer     - RECORDING ENGINEER
WIT .         JIM                  : Witness      - WITNESSED BY
MUD .         GEL                  : Mud_type     - MUD TYPE
MATR.         SANDSTONE            : Logunit      - NEUTRON MATRIX
TMAX.C        0                    : BHT          - MAXIMUM RECORDED TEMPERATURE
BHTD.M        93.1                 : BHTDEP       - MAXIMUM RECORDED TEMPERATURE
RMT .C        8                    : MDTP         - TEMPERATURE OF MUD
MUDD.KG/M     1250                 : MWT          - MUD DENSITY
NEUT.         1                    : NEUTRON      - NEUTRON TYPE
RESI.         0                    : RESIST       - RESISTIVITY TYPE
RM  .OHMM     16.4                 : RM           - RESISTIVITY OF MUD
RMC .OHMM     16.4                 : RMC          - RESISTIVITY OF MUD CAKE
RMF .OHMM     16.4                 : RMF          - RESISTIVITY OF MUD FILTRATE
SUFT.C        4                    : SUFT         - SURFACE TEMPERATURE
~A  DEPTH       GR     RESD     PHIN     PHID
   10.000   36.654    0.510    0.498    0.239
   10.250   42.605    0.499    0.491    0.210
   10.500   38.927    0.498    0.543    0.214
   10.750   32.811    0.535    0.507    0.214
   11.000   36.941    0.565    0.452    0.201
   11.250   38.087    0.554    0.431    0.199
   11.500   41.635    0.542    0.454    0.224
   11.750   37.958    0.551    0.513    0.237
   12.000   30.640    0.539    0.533    0.258
   12.250   43.197    0.528    0.518    0.242
   12.500   55.153    0.602    0.490    0.267
   12.750   41.266    4.457    0.486    0.298
   13.000   33.366  106.714    0.511    0.358
   13.250   36.295  149.533    0.432    0.367
   13.500   33.819  154.863    0.448    0.347
   13.750   37.349  157.642    0.488    0.351
   14.000   39.696  160.205    0.478    0.354
   14.250   36.018  159.939    0.463    0.340
   14.500   30.502  156.511    0.422    0.337
   14.750   31.630  150.373    0.431    0.342
   15.000   31.574  139.040    0.434    0.347
   15.250   30.900  136.286    0.422    0.355
   15.500   30.826  130.941    0.426    0.358
   15.750   35.575  133.144    0.472    0.346
   16.000   35.501  143.200    0.488    0.334
   16.250   29.985  163.181    0.504    0.349
   16.500   35.954  156.694    0.496    0.349
   16.750   41.286  145.045    0.445    0.326
   17.000   42.995  124.351    0.416    0.325
   17.250   45.943  112.889    0.474    0.332
   17.500   45.268  119.209    0.468    0.345
   17.750   52.420  121.147    0.480    0.357
   18.000   52.928  110.042    0.449    0.366
   18.250   49.251   97.975    0.458    0.379
   18.500   46.775   90.692    0.472    0.394
   18.750   43.097   88.797    0.489    0.368
   19.000   33.414   86.942    0.497    0.349
   19.250   42.349   66.548    0.445    0.356
   19.500   51.885   53.939    0.449    0.386
   19.750   59.036   48.967    0.433    0.389
   20.000   63.749   51.680    0.503    0.363
   20.250   63.074   52.549    0.513    0.354
   20.500   63.601   45.936    0.463    0.344
   20.750   62.326   34.522    0.492    0.314
   21.000   65.255   29.059    0.471    0.316
   21.250   69.385   25.872    0.464    0.282
   21.500   66.327   25.332    0.459    0.271
   21.750   68.055   24.802    0.485    0.265
   22.000   69.783   23.830    0.493    0.280
   22.250   64.886   22.467    0.494    0.309
   22.500   64.812   19.639    0.490    0.303
   22.750   66.540   16.847    0.477    0.301
   23.000   65.866   15.883    0.534    0.323
   23.250   65.191   17.750    0.523    0.363
   23.500   68.157   19.826    0.518    0.336
   23.750   79.495    9.290    0.568    0.331
   24.000   86.646    5.562    0.584    0.326
   24.250   90.777    2.917    0.624    0.329
   24.500   91.303    2.454    0.651    0.331
   24.750  106.863    2.146    0.657    0.331
   25.000   92.957    1.772    0.631    0.327
   25.250  100.072    2.136    0.601    0.318
   25.500   95.212    2.674    0.634    0.312
   25.750  101.144    3.970    0.616    0.302
   26.000  108.277    2.289    0.563    0.280
   26.250  108.222    1.720    0.617    0.276
   26.500  117.739    1.684    0.611    0.308
   26.750  111.077    2.068    0.565    0.303
   27.000  107.400    2.541    0.520    0.297
   27.250  111.530    2.441    0.561    0.291
   27.500  101.810    1.977    0.586    0.297
   27.750   95.749    1.730    0.657    0.305
   28.000   90.870    1.792    0.629    0.315
   28.250   97.403    1.566    0.532    0.336
   28.500   99.131    1.751    0.563    0.327
   28.750   53.976    2.647    0.485    0.291
   29.000   25.657    3.443    0.441    0.212
   29.250   15.354    7.183    0.400    0.196
   29.500   14.680 1161.090    0.344    0.289
   29.750   14.606 1114.930    0.349    0.296
   30.000   21.139 1030.910    0.372    0.290
   30.250   21.065 1531.360    0.338    0.285
   30.500   20.973 1744.060    0.327    0.294
   30.750   21.499 1468.040    0.325    0.294
   31.000   23.246 2262.180    0.355    0.282
   31.250   26.175 2528.160    0.351    0.277
   31.500   26.720 2570.680    0.334    0.283
   31.750   29.030 2123.350    0.339    0.278
   32.000   30.157 3035.460    0.384    0.280
   32.250   31.904 1749.970    0.379    0.286
   32.500   31.830 2109.280    0.354    0.296
   32.750   32.939 1106.390    0.365    0.293
   33.000   35.286  637.841    0.366    0.286
   33.250   36.413  861.581    0.341    0.279
   33.500   35.739  623.134    0.351    0.281
   33.750   38.067  534.523    0.404    0.286
   34.000   39.795  338.692    0.393    0.291
   34.250   35.499  465.967    0.395    0.292
   34.500   38.446  423.018    0.385    0.290
   34.750   40.793  491.236    0.363    0.285
   35.000   43.122  914.925    0.356    0.284
   35.250   37.024 1703.100    0.360    0.279
   35.500   31.526 1833.770    0.359    0.279
   35.750   32.654  737.879    0.392    0.283
   36.000   35.583  495.091    0.412    0.279
   36.250   38.530 1295.680    0.421    0.280
   36.500   39.057  371.040    0.403    0.283
   36.750   32.977  530.425    0.392    0.291
   37.000   37.126 1025.960    0.398    0.291
   37.250   42.457 1465.060    0.427    0.288
   37.500   43.585  661.021    0.436    0.279
   37.750   33.865  292.502    0.407    0.283
   38.000   37.431  241.468    0.391    0.282
   38.250   37.940  372.298    0.431    0.276
   38.500   36.064  596.119    0.444    0.273
   38.750   38.411  370.651    0.421    0.287
   39.000   44.944  226.147    0.404    0.295
   39.250   51.476  145.947    0.401    0.295
   39.500   55.006  154.203    0.414    0.291
   39.750   58.536  134.799    0.410    0.292
   40.000   61.483  103.236    0.401    0.288
   40.250   64.394   59.517    0.401    0.278
   40.500   63.119   53.019    0.434    0.270
   40.750   67.868   50.940    0.447    0.276
   41.000   78.623   54.788    0.469    0.281
   41.250   79.150   56.772    0.418    0.276
   41.500   66.445   55.586    0.419    0.271
   41.750   75.399   50.463    0.445    0.268
   42.000   69.301   42.476    0.433    0.267
   42.250   77.053   33.784    0.430    0.262
   42.500   72.775   35.675    0.443    0.263
   42.750   70.881   41.382    0.455    0.270
   43.000   81.035   34.852    0.456    0.280
   43.250   63.526   31.622    0.462    0.276
   43.500   60.450   51.599    0.433    0.271
   43.750   86.219   50.522    0.402    0.234
   44.000   93.972   23.204    0.378    0.211
   44.250   89.694   25.461    0.374    0.167
   44.500   95.007   27.922    0.400    0.212
   44.750   93.750   22.631    0.417    0.227
   45.000   92.475   22.159    0.454    0.228
   45.250   89.398   31.660    0.495    0.234
   45.500   94.730   41.941    0.469    0.265
   45.750   86.229   41.848    0.478    0.279
   46.000   90.378   33.919    0.450    0.267
   46.250   74.070   28.001    0.417    0.243
   46.500   68.572   30.149    0.410    0.243
   46.750   63.694   28.425    0.430    0.256
   47.000   64.821   27.295    0.442    0.247
   47.250   71.973   29.389    0.415    0.250
   47.500   63.472   35.404    0.400    0.271
   47.750   67.002   35.999    0.381    0.280
   48.000   75.355   36.605    0.403    0.271
   48.250   84.872   39.413    0.429    0.270
   48.500   61.976   45.769    0.441    0.279
   48.750   55.296   71.873    0.445    0.298
   49.000   49.817  174.500    0.440    0.318
   49.250   52.145  141.358    0.410    0.301
   49.500   59.278  108.259    0.418    0.298
   49.750   65.210  105.939    0.448    0.301
   50.000   68.158  109.776    0.450    0.309
   50.250   78.294  101.615    0.411    0.304
   50.500  104.664   65.615    0.392    0.275
   50.750  117.822   32.520    0.392    0.242
   51.000  105.718   22.648    0.370    0.220
   51.250  105.062   19.798    0.424    0.216
   51.500   83.949   20.131    0.442    0.200
   51.750   76.049   35.427    0.433    0.287
   52.000   68.768   68.487    0.420    0.308
   52.250   51.860   75.148    0.464    0.309
   52.500   52.987  113.632    0.428    0.300
   52.750   55.316  168.701    0.408    0.303
   53.000   59.409  236.654    0.398    0.312
   53.250   59.973  254.670    0.416    0.320
