~VERSION INFORMATION
 VERS.                 2.0:   CWLS LOG ASCII STANDARD -VERSION 2.0
 WRAP.                  NO:   ONE LINE PER DEPTH STEP
~WELL INFORMATION BLOCK
#MNEM.UNIT           DATA                    DESCRIPTION OF MNEMONIC
#---------    -------------------            -------------------------------
# Generated from Intellog Unique Number	CC_88_90/WELL/1169
WELL.         10-08-090-16W4                 : Well_name    - WELL
LOC .         AA/10-08-090-16W4/0            : Location     - LOCATION
UWI .         AA/10-08-090-16W400            : Uwi          - UNIQUE WELL ID
ENTR.         DW                             : Entered      - ENTERED BY
SRVC.         SCHLUMBERGER                   : Scn          - SERVICE COMPANY
STRT.M        75.000                         : top_depth    - START DEPTH
STOP.M        176.000                        : bot_depth    - STOP DEPTH
STEP.M        0.25                           : increment    - STEP LENGTH
 NULL. -999.2500:NULL Value
~CURVE INFORMATION BLOCK
#MNEM UNIT       ERCB CURVE CODE    CURVE DESCRIPTION
#-----------   ------------------   ----------------------------------
DEPT.M        00 001 00 00         : DEPTH        - DEPTH
GR  .API      00 310 00 00         : GR           - GAMMA RAY
ILD .OHMM     00 120 00 00         : RESD         - DEEP RESISTIVITY (DIL)
NPHI.V/V      00 330 00 00         : PHIN         - NEUTRON POROSITY (SANDSTONE)
DPHI.V/V      00 890 00 00         : PHID         - DENSITY POROSITY (SANDSTONE)
~PARAMETER INFORMATION
#MNEM.UNIT           DATA             DESCRIPTION OF MNEMONIC
#---------         -----------     ------------------------------
GL  .M        480                  : gl           - GROUND LEVEL ELEVATION
EREF.M        483.93               : kb           - ELEVATION OF DEPTH REFERENCE
DATM.M        483.93               : datum        - DATUM ELEVATION
TDD .M        239                  : tdd          - TOTAL DEPTH DRILLER
RUN .         ONE                  : Run          - RUN NUMBER
ENG .         BILL                 : Engineer     - RECORDING ENGINEER
WIT .         JIM                  : Witness      - WITNESSED BY
MUD .         GEL                  : Mud_type     - MUD TYPE
MATR.         SANDSTONE            : Logunit      - NEUTRON MATRIX
TMAX.C        25                   : BHT          - MAXIMUM RECORDED TEMPERATURE
BHTD.M        239                  : BHTDEP       - MAXIMUM RECORDED TEMPERATURE
MATR.         1                    : LOGUNIT      - NEUTRON MATRIX
RMT .C        25                   : MDTP         - TEMPERATURE OF MUD
NEUT.         1                    : NEUTRON      - NEUTRON TYPE
RESI.         0                    : RESIST       - RESISTIVITY TYPE
RMC .OHMM     0.25                 : RMC          - RESISTIVITY OF MUD CAKE
RMF .OHMM     0.25                 : RMF          - RESISTIVITY OF MUD FILTRATE
SUFT.C        15                   : SUFT         - SURFACE TEMPERATURE
~A  DEPTH       GR     RESD     PHIN     PHID
# ...
  118.500  102.567   11.084    0.447    0.254
  118.750  110.560   11.292    0.407    0.247
  119.000  116.708   11.060    0.383    0.199
  119.250  103.806   10.561    0.413    0.186
  119.500   81.685   10.068    0.454    0.225
  119.750   82.302    9.599    0.458    0.251
  120.000  101.972    9.324    0.446    0.246
  120.250  102.590    9.602    0.444    0.252
  120.500   88.457    9.932    0.446    0.228
  120.750   79.857   10.245    0.445    0.217
  121.000   83.548   10.526    0.439    0.201
  121.250   81.093   10.629    0.446    0.182
  121.500   77.408   10.620    0.477    0.227
  121.750   94.619   10.646    0.484    0.256
  122.000  107.528   10.338    0.471    0.240
  122.250  105.073   10.171    0.458    0.249
  122.500   96.472   10.221    0.450    0.258
  122.750  105.079   10.198    0.444    0.238
  123.000  108.770   10.201    0.441    0.238
  123.250   95.867   10.341    0.449    0.240
  123.500   91.568   10.638    0.454    0.268
  123.750   87.884   11.011    0.449    0.283
  124.000   89.116   11.273    0.432    0.265
  124.250   77.443   11.445    0.409    0.236
  124.500   80.519   11.615    0.393    0.221
  124.750  111.865   11.442    0.392    0.256
  125.000  114.941   11.239    0.428    0.316
  125.250  114.329   11.096    0.469    0.329
  125.500  111.260   11.352    0.492    0.316
  125.750   84.836   11.883    0.492    0.317
  126.000   81.767   12.033    0.473    0.309
  126.250   84.843   12.073    0.459    0.300
  126.500   89.148   11.591    0.449    0.287
  126.750  103.900   11.109    0.436    0.272
  127.000  130.330   10.272    0.410    0.242
  127.250  124.188    9.016    0.403    0.217
  127.500  111.899    8.538    0.444    0.245
  127.750  104.529    8.664    0.465    0.275
  128.000  105.146    8.820    0.476    0.280
  128.250   91.013    9.641    0.471    0.288
  128.500   85.486   10.569    0.451    0.297
  128.750   83.031   10.991    0.440    0.297
  129.000   82.420   11.527    0.447    0.302
  129.250   84.881   11.753    0.452    0.299
  129.500   82.425   11.454    0.455    0.265
  129.750   80.585   10.257    0.448    0.221
  130.000   91.650    8.881    0.411    0.177
  130.250  115.622    8.287    0.373    0.170
  130.500  122.385    8.181    0.401    0.228
  130.750  116.857    8.066    0.452    0.247
  131.000  121.162    9.238    0.463    0.241
  131.250  121.780   10.578    0.468    0.239
  131.500  121.783   11.293    0.479    0.244
  131.750  108.880   11.435    0.482    0.244
  132.000   92.905   10.641    0.483    0.232
  132.250   83.075    9.034    0.461    0.220
  132.500  100.286    6.930    0.418    0.172
  132.750  124.257    4.730    0.423    0.185
  133.000  124.875    3.237    0.455    0.237
  133.250  116.889    2.703    0.478    0.254
  133.500  111.361    2.473    0.526    0.275
  133.750   97.229    2.403    0.580    0.285
  134.000   84.940    2.713    0.634    0.284
  134.250   64.663    3.844    0.676    0.277
  134.500   41.313    6.318    0.680    0.264
  134.750   43.774    8.724    0.651    0.243
  135.000   40.705    8.926    0.594    0.217
  135.250   33.333    8.507    0.463    0.186
  135.500   35.179    8.198    0.426    0.159
  135.750   59.151    8.018    0.435    0.176
  136.000   99.101    8.338    0.447    0.198
  136.250  105.250    9.277    0.470    0.198
  136.500  108.326   10.353    0.482    0.213
  136.750   84.361   11.446    0.502    0.210
  137.000   68.385   11.816    0.520    0.204
  137.250   48.722   11.807    0.501    0.199
  137.500   46.267   11.793    0.450    0.181
  137.750   60.406   11.463    0.406    0.173
  138.000   65.940   10.731    0.385    0.207
  138.250   57.953   10.494    0.383    0.223
  138.500   45.050   10.791    0.395    0.231
  138.750   45.668   11.043    0.408    0.256
  139.000   51.203   11.760    0.414    0.274
  139.250   58.581   12.834    0.416    0.268
  139.500   58.584   13.178    0.422    0.256
  139.750   54.900   13.501    0.423    0.220
  140.000   57.975   12.486    0.419    0.190
  140.250   63.510   11.672    0.407    0.213
  140.500   61.669   12.491    0.388    0.234
  140.750   61.673   14.266    0.388    0.214
  141.000   55.530   15.581    0.424    0.218
  141.250   62.908   15.877    0.438    0.223
  141.500   75.817   15.880    0.430    0.204
  141.750   83.809   15.909    0.375    0.158
  142.000   83.198   17.334    0.325    0.140
  142.250   78.284   19.968    0.337    0.180
  142.500   67.840   22.262    0.375    0.206
  142.750   57.396   25.827    0.376    0.158
  143.000   47.566   26.886    0.326    0.118
  143.250   35.892   23.018    0.296    0.093
  143.500   32.823   19.405    0.307    0.072
  143.750   35.284   18.993    0.307    0.052
  144.000   38.360   18.043    0.283    0.042
  144.250   37.134   17.981    0.294    0.095
  144.500   40.210   18.329    0.346    0.157
  144.750   46.359   19.708    0.365    0.140
  145.000   38.987   20.706    0.337    0.086
  145.250   43.907   19.956    0.320    0.090
  145.500   48.826   18.012    0.342    0.142
  145.750   48.830   14.229    0.366    0.160
  146.000   46.989   11.889    0.359    0.142
  146.250   46.377   10.839    0.314    0.093
  146.500   46.381   10.175    0.291    0.095
  146.750   42.697    9.998    0.335    0.157
  147.000   48.231   10.177    0.405    0.174
  147.250   48.849   10.338    0.439    0.170
  147.500   36.560   10.490    0.450    0.144
  147.750   29.189   10.670    0.436    0.124
  148.000   25.505   10.786    0.398    0.119
  148.250   21.820   10.717    0.386    0.148
  148.500   31.042   10.543    0.429    0.206
  148.750   48.867   10.534    0.455    0.201
  149.000   44.568   10.524    0.446    0.202
  149.250   42.728   10.605    0.442    0.191
  149.500   45.190   10.825    0.452    0.175
  149.750   47.651   10.917    0.456    0.183
  150.000   71.622   10.521    0.452    0.187
  150.250   87.604    9.700    0.442    0.193
  150.500   92.523    9.326    0.434    0.209
  150.750   94.370    9.623    0.428    0.214
  151.000   77.780   10.072    0.429    0.198
  151.250   71.638   10.356    0.440    0.191
  151.500   86.391   10.494    0.451    0.201
  151.750   96.841   10.056    0.459    0.173
  152.000   96.230    9.277    0.446    0.143
  152.250   95.618    8.771    0.429    0.131
  152.500   82.716    8.643    0.441    0.155
  152.750   72.272    8.687    0.465    0.192
  153.000   64.285    8.827    0.458    0.181
  153.250   64.903    9.042    0.449    0.146
  153.500   82.728    9.920    0.449    0.166
  153.750   82.117   10.450    0.448    0.194
  154.000   75.360   10.452    0.443    0.204
  154.250   75.363   10.423    0.440    0.217
  154.500   77.210   10.245    0.439    0.225
  154.750   71.068   10.208    0.451    0.216
  155.000   69.227   10.467    0.482    0.178
  155.250   66.772   10.860    0.531    0.174
  155.500   63.702   11.088    0.510    0.192
  155.750   46.498   11.320    0.424    0.180
  156.000   45.886   11.885    0.407    0.172
  156.250   55.722   12.280    0.409    0.221
  156.500   73.548   12.518    0.410    0.225
  156.750   83.999   12.585    0.410    0.216
  157.000   79.700   12.547    0.412    0.214
  157.250   66.797   12.568    0.416    0.206
  157.500   48.978   12.320    0.418    0.205
  157.750   71.105   11.177    0.410    0.200
  158.000   95.691   10.686    0.400    0.180
  158.250  123.964   10.210    0.384    0.171
  158.500  115.978    9.643    0.381    0.184
  158.750  115.981    9.649    0.411    0.208
  159.000  124.588    9.973    0.445    0.234
  159.250  120.904   10.302    0.433    0.239
  159.500   92.637   10.401    0.428    0.213
  159.750   76.047    9.335    0.445    0.189
  160.000   47.780    7.581    0.452    0.194
  160.250   63.762    6.408    0.436    0.188
  160.500  106.785    6.318    0.429    0.159
  160.750  104.330    7.394    0.452    0.231
  161.000  106.176    8.317    0.468    0.232
  161.250   93.888    8.764    0.480    0.193
  161.500   61.934    8.453    0.520    0.181
  161.750   44.115    7.638    0.521    0.166
