~Version : LASO    vs 4.00
VERS.                2.00:   CWLS Log ASCII Standard -VERSION 2.0
WRAP.                  NO:
~Well Information Block
#MNEM.UNIT       Data                        Description of Mnemonic
#----.----      -------------------------- : -----------------------------
STRT.M            15.0000:
STOP.M           203.4000:
STEP.M             0.1000:
NULL.           -999.2500:
COMP.  MOBIL OIL CANADA LTD.     :COMPANY
WELL.  MOBIL CLARKE OV 12-34     :WELL
FLD.   CLARKE                    :FIELD
LOC.   12-34-089-08W4            :LOCATION
CTRY.  CANADA                    :COUNTRY
PROV.  ALBERTA                   :PROVINCE
SRVC.  SCHLUMBERGER              :SERVICE COMPANY
DATE.  20-FEB-81                 :LOG DATE
UWI.   AA/12-34-089-08W400       :UNIQUE WELL ID
~Parameter Information Block
#MNEM.UNIT       Data                        Description of Mnemonic
#----.----      -------------------------- : -----------------------------
RUN .                   1                 : Run Number
GL  .M           415.1000                 : Ground Level Elevation
DREF.                  KB                 : Depth Reference
EREF.M           418.1000                 : Elevation of Depth Reference
TDL .M           203.0000                 : Total Depth Logger
TDD .M           200.0000                 : Total Depth Driller
CSGL.M            18.0000                 : Casing Bottom Logger
CSGD.M            15.0000                 : Casing Bottom Driller
CSGS.MM          219.0000                 : Casing Size
CSGW.KG/M          0.0000                 : Casing Weight
BHT .DEGC         12.0000                 : Bottom Hole Temperature
BS  .MM          159.0000                 : Bit Size
DFD .           1110.0000                 : Mud Weight (Density)
DFV .             90.0000                 : Mud Viscosity
DFPH.             10.0000                 : Mud pH
RM  .OHMM          1.9600                 : Mud Resistivity
RMT .DEGC         20.0000                 : Mud Resistivity Temperature
~Curve Information Block
#MNEM.UNIT        API CODE    Curve Description
#---------    ------------    -------------------------------------------
DEPT.M                    :   DEPTH
CALI.MM       42 280  1  1:   3 DENSITY CALIPER
DPHI.V/V                  :   DPHI
DT  .US/M     60 520  0  1:   2 SONIC INTERVAL TRANSIT TIME (COMPENSATED)
GR  .GAPI     42 310  1  1:   4 GAMMA RAY
ILD .OHMM      7 120 46  1:   7 DEEP INDUCTION
ILM .OHMM      7 120 44  1:   8 MEDIUM INDUCTION
NPHI.V/V      42 890  3  1:   5 NEUTRON POROSITY (SANDSTONE)
RHOB.K/M3     42 350  1  1:   6 BULK DENSITY
SFLU.OHMM      7 220  1  1:   9 FOCUSSED RESISTIVITY
SP  .MV        7  10  1  1:   10 SPONTANEOUS POTENTIAL
~A  Depth           CALI        DPHI          DT          GR         ILD         ILM        NPHI        RHOB        SFLU          SP
# ...
124.8000        164.3000      0.2410    409.8800     85.7400      9.6434      9.0830      0.3619   2249.8999      8.8273    -54.4500
124.9000        164.3000      0.2382    408.4000     83.5650      9.6434      9.0830      0.3619   2249.8999      8.8273    -54.4500
125.0000        162.7500      0.2344    412.0800     81.3300     10.0886      9.3547      0.3577   2154.3999     10.9202    -56.8500
125.1000        162.7500      0.2293    417.3600     79.0950     10.0886      9.3547      0.3577   2154.3999     10.9202    -56.8500
125.2000        162.0000      0.2278    434.4000     76.3650     10.6324      9.8862      0.3679   2140.1001     12.4231    -59.4200
125.3000        162.0000      0.2284    450.4800     72.8700     10.6324      9.8862      0.3679   2140.1001     12.4231    -59.4200
125.4000        161.6750      0.2339    482.8000     67.1250     12.4575     11.5832      0.3839   2128.1001     10.3236    -57.8700
125.5000        161.6750      0.2351    498.6800     61.3800     12.4575     11.5832      0.3839   2128.1001     10.3236    -57.8700
125.6000        161.4000      0.2324    501.4400     55.6350     14.2768     13.0086      0.3710   2116.2000     11.4138    -56.9700
125.7000        161.4000      0.2275    501.4400     49.6500     14.2768     13.0086      0.3710   2116.2000     11.4138    -56.9700
125.8000        159.0750      0.2294    534.1600     46.7400     18.5451     15.1158      0.3560   2102.0000     13.9775    -58.2400
125.9000        159.0750      0.2377    580.0400     45.6150     18.5451     15.1158      0.3560   2102.0000     13.9775    -58.2400
126.0000        153.6750      0.2488    590.0800     44.8800     26.7565     24.6280      0.3821   2088.3999     31.6687    -60.9600
126.1000        153.6750      0.2614    591.6800     44.1000     26.7565     24.6280      0.3821   2088.3999     31.6687    -60.9600
126.2000        154.8000      0.2739    591.8400     43.2300     33.4989     30.0213      0.3778   2104.1001     33.4372    -61.5900
126.3000        154.8000      0.2864    502.7600     42.2700     33.4989     30.0213      0.3778   2104.1001     33.4372    -61.5900
126.4000        151.6250      0.2958    499.7600     40.9950     42.4063     35.6640      0.3754   2111.8000     43.1152    -64.4900
126.5000        151.6250      0.3050    481.2000     39.7200     42.4063     35.6640      0.3754   2111.8000     43.1152    -64.4900
126.6000        151.7250      0.3131    465.6000     38.9550     69.9246     66.2872      0.3815   2153.0000     81.5511    -68.1600
126.7000        151.7250      0.3180    455.0400     38.1900     69.9246     66.2872      0.3815   2153.0000     81.5511    -68.1600
126.8000        153.0000      0.3234    444.4800     37.6050     78.9641     75.7582      0.3886   2172.8999    102.1951    -67.2600
126.9000        153.0000      0.3317    433.9200     37.2150     78.9641     75.7582      0.3886   2172.8999    102.1951    -67.2600
127.0000        160.8250      0.3318    423.3600     36.8250     87.6254     82.9908      0.3954   2162.7000    136.5935    -63.5400
127.1000        160.8250      0.3308    415.8800     36.7200     87.6254     82.9908      0.3954   2162.7000    136.5935    -63.5400
127.2000        163.0000      0.3289    417.3200     36.7200     95.1985     88.7626      0.3908   2151.8000    196.8928    -61.4800
127.3000        163.0000      0.3254    419.4000     37.3650     95.1985     88.7626      0.3908   2151.8000    196.8928    -61.4800
127.4000        169.6750      0.3225    421.4800     38.2950    105.8352     99.9608      0.3964   2136.6001    209.4257    -57.7800
127.5000        169.6750      0.3204    423.6000     38.8350    105.8352     99.9608      0.3964   2136.6001    209.4257    -57.7800
127.6000        171.7000      0.3171    421.7200     38.9700    109.8070    103.2357      0.4025   2151.2000    134.1004    -56.1900
127.7000        171.7000      0.3150    417.6000     39.0600    109.8070    103.2357      0.4025   2151.2000    134.1004    -56.1900
127.8000        170.1250      0.3077    411.2800     37.9050    115.6192    108.7001      0.4030   2159.6001    117.3356    -54.0300
127.9000        170.1250      0.2998    404.9600     37.0200    115.6192    108.7001      0.4030   2159.6001    117.3356    -54.0300
128.0000        167.9750      0.2936    400.1600     36.7950    127.9469    132.1387      0.3806   2160.3999    160.3356    -50.7800
128.1000        167.9750      0.2951    395.7600     36.7500    127.9469    132.1387      0.3806   2160.3999    160.3356    -50.7800
128.2000        167.2500      0.2979    392.2400     36.7200    132.5043    158.8656      0.3789   2163.6001    309.7633    -49.0800
128.3000        167.2500      0.2981    390.1600     38.3400    132.5043    158.8656      0.3789   2163.6001    309.7633    -49.0800
128.4000        166.6500      0.3006    388.2800     39.5850    132.6264    171.8027      0.3734   2163.8000    349.4861    -47.2700
128.5000        166.6500      0.3006    387.0400     42.9900    132.6264    171.8027      0.3734   2163.8000    349.4861    -47.2700
128.6000        166.0000      0.2997    386.4800     46.6200     95.4619    137.9844      0.3769   2165.2000    774.5151    -41.4300
128.7000        166.0000      0.2993    391.2000     49.7100     95.4619    137.9844      0.3769   2165.2000    774.5151    -41.4300
128.8000        165.8000      0.2974    400.7200     51.9450     81.4010     83.4507      0.3806   2152.3000    751.3286    -41.5800
128.9000        165.8000      0.2962    427.4800     53.4150     81.4010     83.4507      0.3806   2152.3000    751.3286    -41.5800
129.0000        165.4500      0.2934    455.0800     54.1200     69.8602     65.8006      0.3839   2143.0000    175.4809    -44.1300
129.1000        165.4500      0.2904    463.4800     54.5400     69.8602     65.8006      0.3839   2143.0000    175.4809    -44.1300
129.2000        163.6750      0.2905    467.7200     54.1650     54.2788     52.3637      0.3729   2130.1001     47.6683    -46.1000
129.3000        163.6750      0.2904    472.8000     53.5350     54.2788     52.3637      0.3729   2130.1001     47.6683    -46.1000
129.4000        161.7750      0.2887    470.1600     52.6650     48.7787     48.4206      0.3621   2133.8000     34.8201    -49.0500
129.5000        161.7750      0.2857    466.5600     51.9750     48.7787     48.4206      0.3621   2133.8000     34.8201    -49.0500
129.6000        159.8750      0.2854    462.7600     52.0650     45.6068     45.7330      0.3617   2148.8000     39.6488    -52.0100
129.7000        159.8750      0.2877    459.5600     52.1400     45.6068     45.7330      0.3617   2148.8000     39.6488    -52.0100
129.8000        156.1000      0.2907    457.7600     52.2150     39.2130     40.1634      0.3536   2171.0000     92.6040    -55.4600
129.9000        156.1000      0.2960    456.8800     53.5500     39.2130     40.1634      0.3536   2171.0000     92.6040    -55.4600
130.0000        155.5500      0.3024    458.7600     54.8850     36.9003     37.3792      0.3480   2167.2000     95.8142    -55.1400
130.1000        155.5500      0.3066    460.0000     56.2200     36.9003     37.3792      0.3480   2167.2000     95.8142    -55.1400
130.2000        156.8250      0.3116    462.7600     59.7600     36.5620     34.2476      0.3544   2168.3999     87.6254    -54.7600
130.3000        156.8250      0.3110    466.5200     63.5550     36.5620     34.2476      0.3544   2168.3999     87.6254    -54.7600
130.4000        158.2500      0.3093    461.2000     65.9550     36.2936     31.9912      0.3620   2176.1001     68.3959    -55.6300
130.5000        158.2500      0.3063    457.0000     67.9950     36.2936     31.9912      0.3620   2176.1001     68.3959    -55.6300
130.6000        158.6500      0.3023    455.8400     67.7250     33.4064     27.8375      0.3726   2176.5000     40.0157    -55.5100
130.7000        158.6500      0.2975    459.3600     67.0950     33.4064     27.8375      0.3726   2176.5000     40.0157    -55.5100
130.8000        157.8500      0.2930    461.5600     66.1650     31.8149     27.0290      0.3765   2191.0000     34.0588    -54.9800
