~VERSION INFORMATION
 VERS.                 2.0:   CWLS LOG ASCII STANDARD -VERSION 2.0
 WRAP.                  NO:   ONE LINE PER DEPTH STEP
~WELL INFORMATION BLOCK
#MNEM.UNIT           DATA                    DESCRIPTION OF MNEMONIC
#---------    -------------------            -------------------------------
# Generated from Intellog Unique Number	CC_88_90/WELL/1184
WELL.         10-26-089-15W4                 : Well_name    - WELL
LOC .         AA/10-26-089-15W4/0            : Location     - LOCATION
UWI .         AA/10-26-089-15W400            : Uwi          - UNIQUE WELL ID
ENTR.         DW                             : Entered      - ENTERED BY
SRVC.         SCHLUMBERGER                   : Scn          - SERVICE COMPANY
STRT.M        65                             : top_depth    - START DEPTH
STOP.M        204.75                         : bot_depth    - STOP DEPTH
STEP.M        0.25                           : increment    - STEP LENGTH
 NULL. -999.2500:NULL Value
~CURVE INFORMATION BLOCK
#MNEM UNIT       ERCB CURVE CODE    CURVE DESCRIPTION
#-----------   ------------------   ----------------------------------
DEPT.M        00 001 00 00         : DEPTH        - DEPTH
GR  .API      00 310 00 00         : GR           - GAMMA RAY
DPHI.V/V      00 890 00 00         : PHID         - DENSITY POROSITY (SANDSTONE)
NPHI.V/V      00 330 00 00         : PHIN         - NEUTRON POROSITY (SANDSTONE)
ILD .OHMM     00 120 00 00         : RESD         - DEEP RESISTIVITY (DIL)
~PARAMETER INFORMATION
#MNEM.UNIT           DATA             DESCRIPTION OF MNEMONIC
#---------         -----------     ------------------------------
GL  .M        476.41               : gl           - GROUND LEVEL ELEVATION
EREF.M        479.61               : kb           - ELEVATION OF DEPTH REFERENCE
DATM.M        479.61               : datum        - DATUM ELEVATION
TDD .M        213                  : tdd          - TOTAL DEPTH DRILLER
RUN .         ONE                  : Run          - RUN NUMBER
ENG .         BILL                 : Engineer     - RECORDING ENGINEER
WIT .         JIM                  : Witness      - WITNESSED BY
MUD .         GEL                  : Mud_type     - MUD TYPE
MATR.         SANDSTONE            : Logunit      - NEUTRON MATRIX
TMAX.C        25                   : BHT          - MAXIMUM RECORDED TEMPERATURE
BHTD.M        213                  : BHTDEP       - MAXIMUM RECORDED TEMPERATURE
MATR.         1                    : LOGUNIT      - NEUTRON MATRIX
RMT .C        25                   : MDTP         - TEMPERATURE OF MUD
NEUT.         1                    : NEUTRON      - NEUTRON TYPE
RESI.         0                    : RESIST       - RESISTIVITY TYPE
RMC .OHMM     0.25                 : RMC          - RESISTIVITY OF MUD CAKE
RMF .OHMM     0.25                 : RMF          - RESISTIVITY OF MUD FILTRATE
SUFT.C        15                   : SUFT         - SURFACE TEMPERATURE
~A  DEPTH       GR     PHID     PHIN     RESD
# ...
  108.500   91.224    0.250    0.448   14.134
  108.750   96.833    0.265    0.441   14.178
  109.000  102.267    0.249    0.456   13.609
  109.250  103.812    0.221    0.477   13.078
  109.500  100.653    0.212    0.470   12.596
  109.750   96.876    0.223    0.440   12.055
  110.000   97.372    0.237    0.437   11.890
  110.250  102.015    0.245    0.457   11.511
  110.500  105.117    0.218    0.475   11.350
  110.750  104.965    0.218    0.471   11.731
  111.000  103.692    0.232    0.461   12.305
  111.250  102.679    0.223    0.459   12.958
  111.500  101.050    0.224    0.461   13.785
  111.750   97.079    0.231    0.479   13.862
  112.000   86.595    0.260    0.499   13.111
  112.250   79.436    0.261    0.500   11.382
  112.500   83.863    0.253    0.468   10.023
  112.750   94.220    0.264    0.434   10.050
  113.000   99.788    0.258    0.442   10.554
  113.250   99.100    0.261    0.478   11.317
  113.500   90.260    0.267    0.485   13.102
  113.750   81.814    0.272    0.470   14.108
  114.000   78.666    0.265    0.460   14.467
  114.250   80.033    0.260    0.458   15.193
  114.500   84.309    0.286    0.450   15.635
  114.750   85.842    0.304    0.443   15.924
  115.000   82.802    0.301    0.431   15.710
  115.250   79.654    0.297    0.421   15.687
  115.500   78.337    0.303    0.414   16.060
  115.750   78.263    0.312    0.412   15.682
  116.000   80.576    0.310    0.413   13.174
  116.250   85.971    0.295    0.415    9.141
  116.500   93.086    0.280    0.427    7.466
  116.750   97.297    0.268    0.459    7.050
  117.000   97.797    0.259    0.490    6.719
  117.250   95.090    0.247    0.537    6.824
  117.500   88.009    0.225    0.593    7.308
  117.750   81.733    0.197    0.534    8.530
  118.000   87.630    0.186    0.495    9.885
  118.250   95.748    0.215    0.502   10.477
  118.500   95.228    0.235    0.484   10.360
  118.750   90.409    0.235    0.443    9.941
  119.000   91.022    0.265    0.440    9.317
  119.250   96.067    0.268    0.456    8.882
  119.500  100.517    0.258    0.475    8.449
  119.750   99.471    0.246    0.480    8.203
  120.000   96.168    0.248    0.473    8.100
  120.250   95.299    0.270    0.468    7.973
  120.500   95.944    0.279    0.467    8.137
  120.750   99.340    0.245    0.474    8.839
  121.000  107.243    0.266    0.490    8.832
  121.250   94.165    0.256    0.481    7.498
  121.500   80.979    0.210    0.459    5.978
  121.750   90.648    0.222    0.453    4.945
  122.000   98.982    0.286    0.467    3.820
  122.250  104.884    0.303    0.509    3.235
  122.500  108.810    0.305    0.545    2.900
  122.750  114.396    0.288    0.578    2.788
  123.000  115.118    0.274    0.575    2.858
  123.250  110.141    0.281    0.546    3.601
  123.500  109.484    0.277    0.560    5.438
  123.750  106.497    0.271    0.572    7.027
  124.000  103.726    0.263    0.561    8.776
  124.250  103.408    0.224    0.564    9.967
  124.500  104.149    0.189    0.522   10.029
  124.750  104.632    0.184    0.450    9.442
  125.000  106.351    0.175    0.463    9.034
  125.250  110.552    0.193    0.467    9.269
  125.500  112.866    0.208    0.465    9.906
  125.750  113.325    0.213    0.472   11.027
  126.000  112.681    0.206    0.473   12.081
  126.250  107.922    0.178    0.442   12.823
  126.500  101.402    0.148    0.394   13.637
  126.750  105.616    0.167    0.392   13.702
  127.000  104.907    0.227    0.414   13.257
  127.250  101.851    0.263    0.427   13.107
  127.500  102.855    0.251    0.427   13.649
  127.750  105.462    0.225    0.428   14.147
  128.000  104.476    0.219    0.429   14.658
  128.250   98.189    0.215    0.428   16.729
  128.500   95.029    0.187    0.459   16.604
  128.750   95.578    0.072    0.313   34.700
  129.000   85.907   -0.016    0.154   55.071
  129.250   69.666    0.013    0.174   54.965
  129.500   68.604    0.056    0.191   44.554
  129.750   73.550    0.098    0.229   24.564
  130.000   79.401    0.121    0.262   18.875
  130.250   81.676    0.145    0.326   18.618
  130.500   81.690    0.178    0.394   16.224
  130.750   83.239    0.195    0.418   15.276
  131.000   86.481    0.199    0.422   14.310
  131.250   91.757    0.234    0.437   13.048
  131.500  100.272    0.257    0.423   11.743
  131.750  105.196    0.232    0.403   11.190
  132.000  105.708    0.181    0.417   11.154
  132.250  105.500    0.169    0.456   11.555
  132.500  103.773    0.219    0.475   12.730
  132.750   99.057    0.225    0.464   13.332
  133.000   91.438    0.175    0.429   14.311
  133.250   92.466    0.175    0.424   15.367
  133.500   97.622    0.232    0.447   15.611
  133.750   96.331    0.260    0.467   15.308
  134.000   93.242    0.220    0.473   15.624
  134.250   93.665    0.167    0.430   16.851
  134.500   93.503    0.198    0.430   18.348
  134.750   90.506    0.229    0.429   19.350
  135.000   87.243    0.193    0.392   19.514
  135.250   86.479    0.147    0.368   17.941
  135.500   88.257    0.160    0.392   14.732
  135.750   91.509    0.209    0.433   13.315
  136.000   92.885    0.234    0.454   12.402
  136.250   96.204    0.229    0.464   12.239
  136.500   91.628    0.145    0.457   12.978
  136.750   78.174    0.035    0.384   13.735
  137.000   76.488    0.044    0.277   14.133
  137.250   87.047    0.095    0.297   14.256
  137.500   96.944    0.151    0.341   12.953
  137.750  103.966    0.187    0.433   11.008
  138.000  107.476    0.202    0.506   10.075
  138.250  106.277    0.204    0.488   10.292
  138.500  105.495    0.183    0.462   10.619
  138.750  110.803    0.147    0.446   11.149
  139.000  111.427    0.171    0.459   11.382
  139.250  104.387    0.211    0.464   11.590
  139.500  103.277    0.216    0.459   11.547
  139.750  110.016    0.213    0.455   10.821
  140.000  108.585    0.229    0.448   10.007
  140.250  103.404    0.194    0.486   10.089
  140.500  105.000    0.164    0.521   10.644
  140.750  108.171    0.147    0.487   10.707
  141.000  108.516    0.149    0.451   10.062
  141.250  110.702    0.182    0.483    9.316
  141.500  116.549    0.215    0.521    8.912
  141.750  117.856    0.208    0.531    8.598
  142.000  117.041    0.210    0.510    8.760
  142.250  110.332    0.227    0.493    9.785
  142.500  102.353    0.231    0.485   10.895
  142.750   98.553    0.218    0.467   11.455
  143.000   96.773    0.211    0.450   11.787
  143.250  100.570    0.209    0.441   11.637
  143.500  100.834    0.190    0.438   11.184
  143.750  103.992    0.205    0.453   10.459
  144.000  111.253    0.224    0.477   10.083
  144.250  114.845    0.217    0.496   10.696
  144.500  110.988    0.225    0.500   11.748
  144.750  101.757    0.215    0.454   12.133
  145.000   99.906    0.215    0.431   12.560
  145.250  105.496    0.224    0.444   12.525
  145.500  110.517    0.226    0.446   11.935
  145.750  113.608    0.218    0.438   11.429
  146.000  118.324    0.209    0.458   11.286
  146.250  119.288    0.208    0.458   11.591
  146.500  116.395    0.212    0.444   12.305
  146.750  111.903    0.202    0.427   13.021
  147.000  108.800    0.182    0.412   13.522
  147.250  107.593    0.161    0.401   13.520
  147.500  107.803    0.155    0.400   12.605
  147.750  113.111    0.207    0.420   11.256
  148.000  119.816    0.200    0.400   10.534
  148.250  119.116    0.194    0.440   10.332
  148.500  117.327    0.217    0.492   10.599
  148.750  120.733    0.226    0.481   11.066
  149.000  120.155    0.219    0.488   11.218
  149.250  112.202    0.197    0.479   11.501
  149.500  104.452    0.159    0.464   10.460
  149.750  107.699    0.184    0.465    9.014
  150.000  114.578    0.228    0.492    7.785
  150.250  113.985    0.228    0.529    6.676
  150.500  111.463    0.226    0.555    6.119
  150.750  113.432    0.220    0.569    6.069
  151.000  109.657    0.195    0.577    6.453
  151.250  109.995    0.144    0.606    7.162
  151.500  116.370    0.146    0.548    7.602
  151.750  120.708    0.208    0.445    7.689
