~VERSION INFORMATION
 VERS.                 2.0:   CWLS LOG ASCII STANDARD -VERSION 2.0
 WRAP.                  NO:   ONE LINE PER DEPTH STEP
~WELL INFORMATION BLOCK
#MNEM.UNIT           DATA                    DESCRIPTION OF MNEMONIC
#---------    -------------------            -------------------------------
# Generated from Intellog Unique Number	CW_79_81/WELL/2478
WELL.         10-35-081-19W4                 : Well_name    - WELL
LOC .         AA/10-35-081-19W4/0            : Location     - LOCATION
UWI .         AA/10-35-081-19W400            : Uwi          - UNIQUE WELL ID
ENTR.         MAX                            : Entered      - ENTERED BY
SRVC.         SCHLUMBERGER                   : Scn          - SERVICE COMPANY
STRT.M        167.64                         : top_depth    - START DEPTH
STOP.M        365.64                         : bot_depth    - STOP DEPTH
STEP.M        0.25                           : increment    - STEP LENGTH
 NULL. -999.2500:NULL Value
~CURVE INFORMATION BLOCK
#MNEM UNIT       ERCB CURVE CODE    CURVE DESCRIPTION
#-----------   ------------------   ----------------------------------
DEPT.M        00 001 00 00         : DEPTH        - DEPTH
ILD .OHMM     00 120 00 00         : RESD         - DEEP RESISTIVITY (DIL)
NPHI.V/V      00 330 00 00         : PHIN         - NEUTRON POROSITY (SANDSTONE)
DPHI.V/V      00 890 00 00         : PHID         - DENSITY POROSITY (SANDSTONE)
GR  .API      00 310 00 00         : GR           - GAMMA RAY
CALI.MM       00 280 01 00         : CAL          - CALIPER
~PARAMETER INFORMATION
#MNEM.UNIT           DATA             DESCRIPTION OF MNEMONIC
#---------         -----------     ------------------------------
GL  .M        574.548              : gl           - GROUND LEVEL ELEVATION
EREF.M        577.596              : kb           - ELEVATION OF DEPTH REFERENCE
DATM.M        574.548              : datum        - DATUM ELEVATION
TDD .M        365.455              : tdd          - TOTAL DEPTH DRILLER
RUN .         ONE                  : Run          - RUN NUMBER
ENG .         BILL                 : Engineer     - RECORDING ENGINEER
WIT .         JIM                  : Witness      - WITNESSED BY
MUD .         GEL                  : Mud_type     - MUD TYPE
MATR.         SANDSTONE            : Logunit      - NEUTRON MATRIX
TMAX.C        23.8889              : BHT          - MAXIMUM RECORDED TEMPERATURE
BHTD.M        365.455              : BHTDEP       - MAXIMUM RECORDED TEMPERATURE
MATR.         1                    : LOGUNIT      - NEUTRON MATRIX
RMT .C        7.22222              : MDTP         - TEMPERATURE OF MUD
NEUT.         1                    : NEUTRON      - NEUTRON TYPE
RESI.         0                    : RESIST       - RESISTIVITY TYPE
RMC .OHMM     5.71                 : RMC          - RESISTIVITY OF MUD CAKE
RMF .OHMM     6.9                  : RMF          - RESISTIVITY OF MUD FILTRATE
SUFT.C        -20                  : SUFT         - SURFACE TEMPERATURE
~A  DEPTH     RESD     PHIN     PHID       GR      CAL
# ...
  313.640    9.598    0.444    0.175  106.605  135.310
  313.890    9.700    0.451    0.164  105.565  135.741
  314.140    9.821    0.458    0.160  103.683  136.061
  314.390    9.889    0.457    0.161  104.713  136.053
  314.640    9.884    0.445    0.172  105.355  136.591
  314.890    9.882    0.430    0.167  107.239  136.582
  315.140    9.770    0.429    0.159  111.108  136.575
  315.390    9.661    0.435    0.162  115.375  136.567
  315.640    9.570    0.441    0.179  117.959  136.559
  315.890    9.429    0.435    0.195  116.661  136.551
  316.140    9.006    0.427    0.184  117.626  136.541
  316.390    8.601    0.434    0.182  114.923  136.533
  316.640    8.429    0.433    0.174  108.941  136.525
  316.890    8.637    0.421    0.163  102.852  136.517
  317.140    9.157    0.403    0.153   99.740  136.510
  317.390    9.495    0.404    0.148  102.066  136.503
  317.640    9.842    0.417    0.164  105.296  136.492
  317.890   10.217    0.416    0.190  105.291  136.483
  318.140   10.462    0.426    0.194  104.899  136.476
  318.390   10.303    0.437    0.191  104.635  136.688
  318.640    9.827    0.441    0.189  104.436  137.009
  318.890    9.475    0.433    0.189  103.654  137.001
  319.140    9.470    0.406    0.188  100.736  135.894
  319.390    9.980    0.390    0.194  100.192  134.973
  319.640   10.362    0.384    0.199   98.720  133.796
  319.890   10.968    0.386    0.203   98.068  132.911
  320.140   11.719    0.391    0.205   97.998  132.464
  320.390   11.937    0.392    0.207   94.454  131.926
  320.640   11.753    0.389    0.207   85.818  131.461
  320.890   11.835    0.384    0.203   79.340  131.454
  321.140   12.308    0.372    0.184   75.192  131.445
  321.390   13.126    0.347    0.155   72.857  131.436
  321.640   14.244    0.320    0.140   71.558  131.428
  321.890   15.867    0.330    0.200   69.879  131.419
  322.140   17.654    0.381    0.250   67.987  131.410
  322.390   20.073    0.352    0.214   67.982  131.841
  322.640   21.692    0.307    0.116   70.308  132.272
  322.890   21.601    0.285    0.088   75.093  132.484
  323.140   19.991    0.309    0.145   82.534  132.476
  323.390   17.549    0.382    0.185   94.018  132.465
  323.640   15.797    0.408    0.180   99.677  132.459
  323.890   13.721    0.404    0.181   99.672  132.450
  324.140   12.563    0.407    0.183   98.308  132.442
  324.390   11.946    0.416    0.186   96.103  132.434
  324.640   11.707    0.426    0.193   94.804  132.426
  324.890   11.824    0.422    0.205   97.225  132.416
  325.140   12.001    0.422    0.207   96.412  132.409
  325.390   12.259    0.419    0.214   94.853  131.962
  325.640   12.122    0.420    0.209   92.518  131.844
  325.890   12.204    0.423    0.198   90.960  131.837
  326.140   12.932    0.415    0.181   89.142  131.829
  326.390   14.808    0.367    0.152   82.793  131.908
  326.640   15.028    0.333    0.126   79.551  132.353
  326.890   14.915    0.352    0.116   86.020  132.350
  327.140   15.046    0.383    0.144   90.935  132.672
  327.390   14.874    0.396    0.169   93.779  133.103
  327.640   14.366    0.387    0.172   94.745  133.643
  327.890   13.950    0.379    0.157   94.469  134.601
  328.140   13.945    0.370    0.154   93.116  135.050
  328.390   14.350    0.375    0.148   92.335  135.918
  328.640   14.294    0.376    0.159   92.136  136.787
  328.890   14.134    0.382    0.169   93.426  137.438
  329.140   13.870    0.392    0.176   95.299  137.869
  329.390   13.080    0.391    0.186   94.548  138.298
  329.640   12.590    0.385    0.183   92.117  138.289
  329.890   12.956    0.387    0.172   89.780  138.281
  330.140   13.262    0.391    0.155   88.999  138.274
  330.390   13.356    0.394    0.144   89.772  138.266
  330.640   13.081    0.397    0.145   92.098  138.258
  330.890   12.109    0.407    0.165   96.569  138.248
  331.140   11.062    0.399    0.192   99.531  138.240
  331.390   10.584    0.408    0.187  101.080  138.232
  331.640   10.468    0.419    0.182  100.881  137.894
  331.890   10.388    0.426    0.178  100.359  137.667
  332.140   10.215    0.427    0.176  100.807  137.550
  332.390    9.961    0.427    0.171  103.984  137.009
  332.640    9.808    0.428    0.166  106.947  136.545
  332.890    9.663    0.428    0.160  107.459  136.538
  333.140    9.416    0.425    0.154  107.778  136.201
  333.390    9.074    0.418    0.146  109.846  135.974
  333.640    8.669    0.410    0.141  113.207  135.966
  333.890    8.149    0.407    0.153  116.039  135.957
  334.140    7.727    0.411    0.170  121.159  135.947
  334.390    7.447    0.419    0.174  123.226  135.941
  334.640    7.378    0.422    0.176  123.545  135.933
  334.890    7.483    0.424    0.174  122.763  135.925
  335.140    7.821    0.423    0.169  121.140  135.917
  335.390    8.729    0.417    0.165  117.413  135.815
  335.640    9.417    0.411    0.158  111.743  135.349
  335.890   10.409    0.394    0.143  105.265  134.903
  336.140   11.573    0.372    0.123   99.758  134.786
  336.390   13.203    0.350    0.096   99.495  134.559
  336.640   15.465    0.339    0.090  104.345  134.223
  336.890   18.263    0.360    0.170  110.209  134.214
  337.140   20.165    0.377    0.181  112.361  134.205
  337.390   20.158    0.379    0.177  114.946  134.198
  337.640   19.494    0.383    0.175  114.812  134.519
  337.890   19.004    0.382    0.173  111.700  134.730
  338.140   19.164    0.378    0.169  106.776  134.722
  338.390   20.523    0.372    0.162  102.249  134.712
  338.640   21.637    0.377    0.153  100.356  134.702
  338.890   22.590    0.381    0.142   98.280  134.695
  339.140   23.587    0.379    0.137   96.204  134.687
  339.390   24.630    0.374    0.132   93.869  134.240
  339.640   25.403    0.372    0.126   92.893  133.574
  339.890   24.896    0.383    0.137   96.718  133.657
  340.140   23.433    0.382    0.176   96.443  134.106
  340.390   20.355    0.381    0.176   93.072  134.975
  340.640   18.639    0.383    0.179   86.206  135.515
  340.890   18.568    0.386    0.188   75.325  135.946
  341.140   20.086    0.393    0.208   61.792  136.377
  341.390   23.530    0.405    0.249   47.113  136.896
  341.640   28.299    0.407    0.258   38.477  137.344
  341.890   31.503    0.404    0.263   35.882  137.337
  342.140   36.367    0.396    0.275   34.454  137.329
  342.390   41.838    0.390    0.288   33.413  137.322
  342.640   46.481    0.391    0.298   32.632  137.094
  342.890   49.929    0.393    0.299   32.787  136.024
  343.140   51.451    0.387    0.297   33.592  135.103
  343.390   51.058    0.381    0.293   34.623  134.657
  343.640   49.288    0.385    0.289   35.654  133.882
  343.890   47.167    0.389    0.286   36.555  133.216
  344.140   44.711    0.388    0.283   37.457  132.879
  344.390   40.777    0.388    0.276   39.285  132.779
  344.640   38.381    0.384    0.269   41.978  132.313
  344.890   36.451    0.381    0.265   45.599  132.306
  345.140   34.432    0.380    0.261   49.802  132.298
  345.390   32.228    0.380    0.260   52.258  132.289
  345.640   29.550    0.381    0.260   54.001  132.281
  345.890   25.575    0.386    0.256   60.997  132.272
  346.140   23.021    0.398    0.251   68.814  132.264
  346.390   18.824    0.402    0.240   79.684  132.256
  346.640   14.338    0.400    0.217   90.750  132.248
  346.890   11.311    0.393    0.182   98.901  132.241
  347.140    9.407    0.385    0.145  103.169  132.123
  347.390    7.973    0.372    0.128  105.041  131.675
  347.640    7.176    0.370    0.125  106.654  131.667
  347.890    6.967    0.382    0.131  105.614  131.659
  348.140    6.990    0.394    0.152  105.545  131.322
  348.390    7.166    0.396    0.163  104.116  131.095
  348.640    7.469    0.385    0.155   99.839  131.087
  348.890    8.066    0.367    0.132   91.795  130.984
  349.140    8.906    0.324    0.115   90.442  130.521
  349.390    9.914    0.322    0.092  104.677  130.512
  349.640   10.144    0.387    0.096  116.390  130.176
  349.890    9.206    0.427    0.128  123.765  129.730
