~VERSION INFORMATION
 VERS.                 2.0:   CWLS LOG ASCII STANDARD -VERSION 2.0
 WRAP.                  NO:   ONE LINE PER DEPTH STEP
~WELL INFORMATION BLOCK
#MNEM.UNIT           DATA                    DESCRIPTION OF MNEMONIC
#---------    -------------------            -------------------------------
# Generated from Intellog Unique Number	CS_77_79/WELL/949
WELL.         PEX PCEJ THORNBURY OV          : Well_name    - WELL
LOC .         AA/10-11-079-12W4/0            : Location     - LOCATION
UWI .         AA/10-11-079-12W4/0            : Uwi          - UNIQUE WELL ID
ENTR.         JHS                            : Entered      - ENTERED BY
SRVC.         SCHLUMBERGER                   : Scn          - SERVICE COMPANY
STRT.M        250                            : top_depth    - START DEPTH
STOP.M        465                            : bot_depth    - STOP DEPTH
STEP.M        0.25                           : increment    - STEP LENGTH
 NULL. -999.2500:NULL Value
~CURVE INFORMATION BLOCK
#MNEM UNIT       ERCB CURVE CODE    CURVE DESCRIPTION
#-----------   ------------------   ----------------------------------
DEPT.M        00 001 00 00         : DEPTH        - DEPTH
DPHI.V/V      00 890 00 00         : PHID         - DENSITY POROSITY (LIMESTONE)
NPHI.V/V      00 330 00 00         : PHIN         - NEUTRON POROSITY (LIMESTONE)
GR  .API      00 310 00 00         : GR           - GAMMA RAY
ILD .OHMM     00 120 00 00         : RESD         - DEEP RESISTIVITY (DIL)
RHOB.KG/M3    00 350 00 00         : DENS         - BULK DENSITY
~PARAMETER INFORMATION
#MNEM.UNIT           DATA             DESCRIPTION OF MNEMONIC
#---------         -----------     ------------------------------
GL  .M        640                  : gl           - GROUND LEVEL ELEVATION
EREF.M        643.5                : kb           - ELEVATION OF DEPTH REFERENCE
DATM.M        643.5                : datum        - DATUM ELEVATION
TDD .M        474                  : tdd          - TOTAL DEPTH DRILLER
RUN .         ONE                  : Run          - RUN NUMBER
ENG .         BILL                 : Engineer     - RECORDING ENGINEER
WIT .         JIM                  : Witness      - WITNESSED BY
MUD .         GEL                  : Mud_type     - MUD TYPE
MATR.         LIMESTONE            : Logunit      - NEUTRON MATRIX
TMAX.C        26                   : BHT          - MAXIMUM RECORDED TEMPERATURE
BHTD.M        474                  : BHTDEP       - MAXIMUM RECORDED TEMPERATURE
MATR.         1                    : LOGUNIT      - NEUTRON MATRIX
RMT .C        25                   : MDTP         - TEMPERATURE OF MUD
NEUT.         1                    : NEUTRON      - NEUTRON TYPE
RESI.         0                    : RESIST       - RESISTIVITY TYPE
RMC .OHMM     0.25                 : RMC          - RESISTIVITY OF MUD CAKE
RMF .OHMM     0.25                 : RMF          - RESISTIVITY OF MUD FILTRATE
SUFT.C        15                   : SUFT         - SURFACE TEMPERATURE
~A  DEPTH     PHID     PHIN       GR     RESD     DENS
# ...
  359.500    0.262    0.506   95.054    3.419    0.000
  359.750    0.268    0.508   96.937    3.355    0.000
  360.000    0.265    0.521   91.355    3.419    0.000
  360.250    0.266    0.543   93.871    3.418    0.000
  360.500    0.263    0.528   95.747    3.291    0.000
  360.750    0.287    0.519   93.899    3.109    0.000
  361.000    0.306    0.501   94.538    2.937    0.000
  361.250    0.294    0.523   92.691    2.882    0.000
  361.500    0.278    0.521   88.351    2.937    0.000
  361.750    0.266    0.503   91.485    3.108    0.000
  362.000    0.253    0.514   92.743    3.352    0.000
  362.250    0.258    0.501   90.895    3.755    0.000
  362.500    0.268    0.503   90.296    4.128    0.000
  362.750    0.269    0.493   89.690    4.452    0.000
  363.000    0.274    0.506   84.725    4.286    0.000
  363.250    0.280    0.510   82.878    4.205    0.000
  363.500    0.292    0.494   88.498    3.973    0.000
  363.750    0.305    0.507   85.401    3.973    0.000
  364.000    0.313    0.491   81.065    4.048    0.000
  364.250    0.284    0.477   89.794    4.125    0.000
  364.500    0.274    0.473   92.304    4.203    0.000
  364.750    0.284    0.458   87.967    4.365    0.000
  365.000    0.298    0.451   88.604    4.708    0.000
  365.250    0.311    0.465   87.999    4.983    0.000
  365.500    0.344    0.488   85.530    5.477    0.000
  365.750    0.381    0.497   82.438    6.252    0.000
  366.000    0.418    0.469   80.585    6.872    0.000
  366.250    0.366    0.452   86.205    7.698    0.000
  366.500    0.291    0.434   83.734    8.622    0.000
  366.750    0.254    0.416   78.150    9.477    0.000
  367.000    0.247    0.398   77.546    9.842    0.000
  367.250    0.243    0.385   76.320    9.657    0.000
  367.500    0.245    0.399   78.207    9.297    0.000
  367.750    0.242    0.390   75.114    8.783    0.000
  368.000    0.233    0.382   80.110    8.456    0.000
  368.250    0.226    0.378   79.503    8.617    0.000
  368.500    0.219    0.369   73.925    8.781    0.000
  368.750    0.186    0.369   74.562    9.293    0.000
  369.000    0.145    0.365   80.181    9.470    0.000
  369.250    0.115    0.306   82.687    9.117    0.000
  369.500    0.110    0.282   65.282    8.613    0.000
  369.750    0.157    0.316   77.124    8.137    0.000
  370.000    0.214    0.417   86.476    8.136    0.000
  370.250    0.214    0.408   91.476    8.136    0.000
  370.500    0.219    0.408   93.358    8.290    0.000
  370.750    0.222    0.411   90.267    8.290    0.000
  371.000    0.222    0.406   84.685    8.289    0.000
  371.250    0.217    0.421   75.365    8.288    0.000
  371.500    0.212    0.429   72.272    8.132    0.000
  371.750    0.202    0.420   77.269    8.131    0.000
  372.000    0.197    0.404   82.886    7.978    0.000
  372.250    0.205    0.397   86.641    7.977    0.000
  372.500    0.205    0.402   82.302    7.977    0.000
  372.750    0.202    0.415   80.455    8.128    0.000
  373.000    0.199    0.426   84.204    8.128    0.000
  373.250    0.195    0.423   89.826    8.127    0.000
  373.500    0.191    0.424   87.353    8.127    0.000
  373.750    0.197    0.416   74.306    8.126    0.000
  374.000    0.197    0.398   74.940    8.125    0.000
  374.250    0.193    0.394   83.051    8.599    0.000
  374.500    0.193    0.389   87.426    9.100    0.000
  374.750    0.198    0.388   89.934    9.631    0.000
  375.000    0.199    0.389   90.571    9.630    0.000
  375.250    0.194    0.376   86.856    9.098    0.000
  375.500    0.182    0.358   78.162    8.434    0.000
  375.750    0.156    0.331   75.067    8.433    0.000
  376.000    0.150    0.314   66.996    8.119    0.000
  376.250    0.218    0.416   69.502    8.118    0.000
  376.500    0.225    0.435   80.726    7.966    0.000
  376.750    0.203    0.439   85.100    7.525    0.000
  377.000    0.195    0.443   80.758    7.245    0.000
  377.250    0.193    0.448   90.112    6.845    0.000
  377.500    0.214    0.452   96.979    6.716    0.000
  377.750    0.258    0.479   88.907    6.589    0.000
  378.000    0.280    0.486   85.188    6.465    0.000
  378.250    0.280    0.471   84.584    6.108    0.000
  378.500    0.268    0.492   81.492    5.662    0.000
  378.750    0.241    0.459   84.622    4.959    0.000
  379.000    0.231    0.459   84.637    4.262    0.000
  379.250    0.252    0.487   80.303    3.877    0.000
  379.500    0.294    0.504   78.456    3.526    0.000
  379.750    0.326    0.515   76.602    3.526    0.000
  380.000    0.361    0.526   71.642    3.593    0.000
  380.250    0.412    0.552   74.771    3.949    0.000
  380.500    0.435    0.528   78.523    4.341    0.000
  380.750    0.433    0.514   76.679    4.863    0.000
  381.000    0.444    0.505   78.558    5.447    0.000
  381.250    0.457    0.491   69.865    5.657    0.000
  381.500    0.439    0.479   71.128    5.987    0.000
  381.750    0.424    0.466   74.259    6.100    0.000
  382.000    0.297    0.442   76.764    6.216    0.000
  382.250    0.250    0.428   80.516    5.985    0.000
  382.500    0.253    0.430   86.138    5.872    0.000
  382.750    0.276    0.429   84.910    5.984    0.000
  383.000    0.301    0.453   76.216    6.577    0.000
  383.250    0.241    0.463   88.679    7.094    0.000
  383.500    0.218    0.462   82.474    7.508    0.000
  383.750    0.197    0.426   83.738    7.796    0.000
  384.000    0.209    0.419   85.001    7.944    0.000
  384.250    0.224    0.417   89.376    8.096    0.000
  384.500    0.237    0.410   89.392    8.095    0.000
  384.750    0.241    0.400   89.409    8.249    0.000
  385.000    0.237    0.393   91.302    8.248    0.000
  385.250    0.223    0.401   85.090    8.247    0.000
  385.500    0.207    0.397   85.732    8.092    0.000
  385.750    0.198    0.393   93.842    7.940    0.000
  386.000    0.200    0.388   96.969    7.644    0.000
  386.250    0.205    0.388   90.764    7.360    0.000
  386.500    0.209    0.386   87.050    7.086    0.000
  386.750    0.210    0.407   92.669    6.952    0.000
  387.000    0.208    0.419  100.153    6.821    0.000
  387.250    0.207    0.437   97.684    6.821    0.000
  387.500    0.210    0.446   95.837    6.950    0.000
  387.750    0.205    0.421   95.856    7.218    0.000
  388.000    0.206    0.403   93.380    7.496    0.000
  388.250    0.210    0.391   95.895    7.784    0.000
  388.500    0.212    0.398   97.149    7.784    0.000
  388.750    0.213    0.392   90.325    7.637    0.000
  389.000    0.211    0.386   85.985    7.352    0.000
  389.250    0.216    0.378   87.245    6.946    0.000
  389.500    0.218    0.370   79.798    6.687    0.000
  389.750    0.213    0.369   79.817    6.562    0.000
  390.000    0.216    0.376   85.439    6.438    0.000
  390.250    0.227    0.378   88.563    6.317    0.000
  390.500    0.228    0.388   84.850    6.316    0.000
  390.750    0.230    0.411   76.776    6.436    0.000
  391.000    0.240    0.389   75.547    6.812    0.000
  391.250    0.255    0.378   71.833    7.487    0.000
  391.500    0.262    0.372   69.365    8.547    0.000
  391.750    0.263    0.366   69.382   10.327    0.000
  392.000    0.262    0.350   71.886   13.206    0.000
  392.250    0.247    0.314   67.548   15.076    0.000
  392.500    0.208    0.281   62.587   16.260    0.000
  392.750    0.170    0.234   60.742   15.953    0.000
  393.000    0.101    0.183   58.266   12.239    0.000
  393.250    0.019    0.154   51.440    9.041    0.000
  393.500    0.012    0.144   49.591    7.770    0.000
  393.750    0.056    0.186   53.346    6.935    0.000
  394.000    0.110    0.261   57.094    6.429    0.000
  394.250    0.168    0.396   64.582    6.308    0.000
  394.500    0.275    0.397   66.466    6.676    0.000
  394.750    0.274    0.407   65.243    7.200    0.000
  395.000    0.274    0.422   65.259    7.620    0.000
  395.250    0.273    0.429   64.656    7.765    0.000
  395.500    0.279    0.419   67.788    7.912    0.000
  395.750    0.276    0.432   69.668    7.912    0.000
