~VERSION INFORMATION
 VERS.                 2.0:   CWLS LOG ASCII STANDARD -VERSION 2.0
 WRAP.                  NO:   ONE LINE PER DEPTH STEP
~WELL INFORMATION BLOCK
#MNEM.UNIT           DATA                    DESCRIPTION OF MNEMONIC
#---------    -------------------            -------------------------------
# Generated from Intellog Unique Number	CX_WELLS/WELL/3925
WELL.         15-01-098-12W4                 : Well_name    - WELL
LOC .         AA/15-01-098-12W4/0            : Location     - LOCATION
UWI .         AA/15-01-098-12W400            : Uwi          - UNIQUE WELL ID
ENTR.         TIM                            : Entered      - ENTERED BY
SRVC.         SCHLUMBERGER                   : Scn          - SERVICE COMPANY
DATE.         08/11/92                       : Date         - LOG DATE
STRT.M        0                              : top_depth    - START DEPTH
STOP.M        120                            : bot_depth    - STOP DEPTH
STEP.M        0.25                           : increment    - STEP LENGTH
 NULL. -999.2500:NULL Value
~CURVE INFORMATION BLOCK
#MNEM UNIT       ERCB CURVE CODE    CURVE DESCRIPTION
#-----------   ------------------   ----------------------------------
DEPT.M        00 001 00 00         : DEPTH        - DEPTH
ILD .OHMM     00 120 00 00         : RESD         - DEEP RESISTIVITY (DIL)
GR  .API      00 310 00 00         : GR           - GAMMA RAY
NPHI.V/V      00 330 00 00         : PHIN         - NEUTRON POROSITY (SANDSTONE)
DPHI.V/V      00 890 00 00         : PHID         - DENSITY POROSITY (SANDSTONE)
~PARAMETER INFORMATION
#MNEM.UNIT           DATA             DESCRIPTION OF MNEMONIC
#---------         -----------     ------------------------------
GL  .M        362.5                : gl           - GROUND LEVEL ELEVATION
EREF.M        362.5                : kb           - ELEVATION OF DEPTH REFERENCE
DATM.M        362.5                : datum        - DATUM ELEVATION
TDD .M        137.6                : tdd          - TOTAL DEPTH DRILLER
RUN .         ONE                  : Run          - RUN NUMBER
ENG .         BILL                 : Engineer     - RECORDING ENGINEER
WIT .         JIM                  : Witness      - WITNESSED BY
MUD .         GEL                  : Mud_type     - MUD TYPE
MATR.         SANDSTONE            : Logunit      - NEUTRON MATRIX
TMAX.C        10                   : BHT          - MAXIMUM RECORDED TEMPERATURE
BHTD.M        137                  : BHTDEP       - MAXIMUM RECORDED TEMPERATURE
RMT .C        10                   : MDTP         - TEMPERATURE OF MUD
MUDD.KG/M     1090                 : MWT          - MUD DENSITY
NEUT.         1                    : NEUTRON      - NEUTRON TYPE
RESI.         0                    : RESIST       - RESISTIVITY TYPE
RM  .OHMM     13.1                 : RM           - RESISTIVITY OF MUD
RMC .OHMM     13.1                 : RMC          - RESISTIVITY OF MUD CAKE
RMF .OHMM     13.1                 : RMF          - RESISTIVITY OF MUD FILTRATE
SUFT.C        4                    : SUFT         - SURFACE TEMPERATURE
~A  DEPTH     RESD       GR     PHIN     PHID
# ...
   43.500    5.857  114.024    0.486    0.316
   43.750    5.865  112.816    0.471    0.325
   44.000    5.873  114.712    0.461    0.342
   44.250    5.881  118.462    0.456    0.338
   44.500    5.889  122.229    0.492    0.321
   44.750    5.653  121.642    0.509    0.321
   45.000    5.200  118.564    0.541    0.329
   45.250    4.651  114.253    0.573    0.345
   45.500    4.401  109.322    0.586    0.354
   45.750    4.470  105.632    0.603    0.365
   46.000    4.540  100.700    0.617    0.372
   46.250    4.484   98.251    0.628    0.373
   46.500    4.426   97.673    0.627    0.375
   46.750    4.369   97.087    0.621    0.380
   47.000    4.504   95.879    0.621    0.387
   47.250    4.507   95.284    0.615    0.384
   47.500    4.712   94.697    0.605    0.377
   47.750    4.923   94.111    0.585    0.364
   48.000    5.217   93.524    0.559    0.327
   48.250    5.448   89.213    0.520    0.289
   48.500    5.231   86.144    0.501    0.281
   48.750    5.021   88.040    0.488    0.284
   49.000    5.028   88.711    0.474    0.292
   49.250    5.326   92.461    0.528    0.296
   49.500    6.319   88.771    0.563    0.303
   49.750    7.825   83.839    0.576    0.305
   50.000    7.513   78.287    0.586    0.307
   50.250    6.530   85.149    0.601    0.308
   50.500    5.837   96.976    0.615    0.313
   50.750    5.004  101.354    0.610    0.312
   51.000    4.603  103.250    0.597    0.312
   51.250    4.610  106.388    0.591    0.311
   51.500    4.551  105.801    0.594    0.308
   51.750    4.368  102.740    0.594    0.308
   52.000    4.194  107.119    0.591    0.309
   52.250    4.570  112.118    0.586    0.311
   52.500    4.982  112.782    0.581    0.315
   52.750    5.131  110.324    0.580    0.319
   53.000    5.066  107.876    0.582    0.309
   53.250    5.004  106.048    0.582    0.307
   53.500    5.228  103.599    0.576    0.312
   53.750    5.540   99.288    0.554    0.320
   54.000    5.551  101.805    0.560    0.331
   54.250    5.477  106.804    0.597    0.344
   54.500    5.257  109.338    0.593    0.349
   54.750    5.117  110.596    0.567    0.340
   55.000    5.578  111.872    0.513    0.316
   55.250    6.344  104.457    0.470    0.270
   55.500    7.745   92.698    0.399    0.256
   55.750   15.954   78.457    0.292    0.239
   56.000   17.638   64.206    0.319    0.239
   56.250   16.226   40.034    0.356    0.252
   56.500   15.574   38.206    0.367    0.279
   56.750   16.271   35.757    0.358    0.283
   57.000   17.735   35.170    0.374    0.292
   57.250   25.657   39.549    0.370    0.305
   57.500   35.088   44.548    0.377    0.318
   57.750   31.805   44.582    0.402    0.328
   58.000   25.764   38.410    0.415    0.331
   58.250   24.728   35.340    0.392    0.338
   58.500   32.864   47.796    0.380    0.352
   58.750   43.676   50.942    0.386    0.357
   59.000   46.940   52.218    0.393    0.362
   59.250   49.024   52.252    0.394    0.362
   59.500   49.092   51.044    0.391    0.354
   59.750   47.135   49.216    0.384    0.357
   60.000   43.980   48.009    0.401    0.363
   60.250   42.197   50.517    0.398    0.367
   60.500   37.221   53.654    0.383    0.361
   60.750   33.749   53.688    0.387    0.342
   61.000   30.182   53.722    0.398    0.323
   61.250   26.613   58.110    0.411    0.321
   61.500   23.793   63.730    0.413    0.318
   61.750   21.888   63.152    0.395    0.311
   62.000   19.575   61.944    0.393    0.309
   62.250   17.024   61.358    0.395    0.321
   62.500   18.556   66.348    0.390    0.316
   62.750   20.508   67.624    0.379    0.309
   63.000   26.123   65.796    0.379    0.314
   63.250   39.989   65.209    0.383    0.323
   63.500   39.483   64.639    0.387    0.329
   63.750   35.825   63.415    0.383    0.323
   64.000   34.361   61.587    0.367    0.311
   64.250   31.622   61.009    0.353    0.310
   64.500   29.915   63.517    0.361    0.307
   64.750   28.712   67.896    0.374    0.301
   65.000   29.161   73.516    0.379    0.292
   65.250   30.039   79.765    0.375    0.275
   65.500   30.091   84.153    0.374    0.273
   65.750   29.699   84.186    0.388    0.278
   66.000   29.751   84.212    0.402    0.284
   66.250   32.890   83.625    0.419    0.290
   66.500   38.477   83.047    0.429    0.311
   66.750   46.961   80.598    0.410    0.326
   67.000   59.821   77.520    0.386    0.368
   67.250   43.292   66.382    0.363    0.398
   67.500   42.129   53.382    0.370    0.378
   67.750   38.743   55.278    0.391    0.325
   68.000   35.142   65.863    0.383    0.330
   68.250   30.123   80.173    0.360    0.322
   68.500   48.110   93.871    0.362    0.296
   68.750   64.826   93.284    0.357    0.271
   69.000   84.946   80.896    0.335    0.300
   69.250  114.461   69.757    0.288    0.322
   69.500  108.319   63.584    0.262    0.286
   69.750   79.478   64.239    0.321    0.232
   70.000   64.382   68.618    0.373    0.249
   70.250   55.168   72.385    0.383    0.309
   70.500   47.962   76.143    0.386    0.314
   70.750   43.519   78.668    0.373    0.326
   71.000   40.591   77.460    0.367    0.343
   71.250   36.301   76.874    0.371    0.345
   71.500   31.998   79.391    0.384    0.325
   71.750   27.819   77.562    0.393    0.317
   72.000   23.846   76.976    0.384    0.304
   72.250   23.879   81.967    0.388    0.292
   72.500   27.165   82.621    0.392    0.297
   72.750   31.790   80.793    0.368    0.301
   73.000   32.287   78.974    0.398    0.307
   73.250   29.692   77.758    0.406    0.323
   73.500   26.923   82.766    0.412    0.312
   73.750   23.414   90.257    0.370    0.288
   74.000   24.462   89.049    0.332    0.255
   74.250   21.260   86.592    0.276    0.240
   74.500   18.746   84.143    0.288    0.250
   74.750   17.009   90.401    0.330    0.252
   75.000   16.326   89.177    0.370    0.250
   75.250   16.587   87.349    0.374    0.265
   75.500   17.074   86.141    0.365    0.252
   75.750   18.356   85.555    0.375    0.247
   76.000   19.728   84.347    0.382    0.253
   76.250   20.904   81.898    0.352    0.258
   76.500   23.111   78.208    0.335    0.287
   76.750   26.282   72.035    0.328    0.297
   77.000   30.315   68.345    0.338    0.310
   77.250   29.106   67.146    0.351    0.310
   77.500   26.767   64.689    0.363    0.301
   77.750   23.271   66.585    0.369    0.294
   78.000   21.728   72.826    0.336    0.296
   78.250   21.137   76.593    0.352    0.290
   78.500   20.287   77.256    0.379    0.265
   78.750   22.428   77.894    0.388    0.262
   79.000   29.389   77.936    0.367    0.292
   79.250   32.491   74.858    0.361    0.304
   79.500   34.931   69.314    0.374    0.317
   79.750   32.124   64.374    0.384    0.319
   80.000   28.325   61.926    0.389    0.313
   80.250   25.323   75.002    0.398    0.296
   80.500   23.628   87.459    0.402    0.294
   80.750   25.763   85.010    0.383    0.301
   81.000   25.071   85.656    0.386    0.292
   81.250   21.189   90.656    0.399    0.261
   81.500   16.923   96.896    0.409    0.243
   81.750   13.517  113.077    0.417    0.241
   82.000   11.747  124.912    0.419    0.239
   82.250   10.505  121.214    0.423    0.237
   82.500   10.372  116.903    0.428    0.235
   82.750   10.390  122.531    0.440    0.237
   83.000   10.855  121.953    0.428    0.239
   83.250   11.182  120.108    0.415    0.239
   83.500   11.353  116.427    0.398    0.232
   83.750   11.707  112.728    0.389    0.230
   84.000   11.882  109.038    0.386    0.228
   84.250   11.898  105.977    0.392    0.228
   84.500   11.915  110.347    0.401    0.227
   84.750   11.935  109.140    0.409    0.219
   85.000   11.948  106.691    0.393    0.214
   85.250   11.964  109.208    0.392    0.211
   85.500   12.151  111.742    0.393    0.211
   85.750   12.517  111.155    0.393    0.218
   86.000   13.452  109.939    0.387    0.224
   86.250   15.084  102.525    0.390    0.213
   86.500   17.903   94.481    0.398    0.212
   86.750   20.944   87.688    0.403    0.232
