~VERSION INFORMATION
 VERS.                 2.0:   CWLS LOG ASCII STANDARD -VERSION 2.0
 WRAP.                  NO:   ONE LINE PER DEPTH STEP
~WELL INFORMATION BLOCK
#MNEM.UNIT           DATA                    DESCRIPTION OF MNEMONIC
#---------    -------------------            -------------------------------
# Generated from Intellog Unique Number	CC_88_90/WELL/3160
WELL.         HUSKY OIL OPERATIONS LTD.      : Well_name    - WELL
LOC .         AA/16-19-089-07W4/0            : Location     - LOCATION
UWI .         AA/16-19-089-07W400            : Uwi          - UNIQUE WELL ID
ENTR.         JOETTE                         : Entered      - ENTERED BY
SRVC.         SCHLUMBERGER                   : Scn          - SERVICE COMPANY
DATE.         03/06/92                       : Date         - LOG DATE
STRT.M        15.240                         : top_depth    - START DEPTH
STOP.M        116.240                        : bot_depth    - STOP DEPTH
STEP.M        0.25                           : increment    - STEP LENGTH
 NULL. -999.2500:NULL Value
~CURVE INFORMATION BLOCK
#MNEM UNIT       ERCB CURVE CODE    CURVE DESCRIPTION
#-----------   ------------------   ----------------------------------
DEPT.M        00 001 00 00         : DEPTH        - DEPTH
GR  .API      00 310 00 00         : GR           - GAMMA RAY
CALI.MM       00 280 01 00         : CAL          - CALIPER
DPHI.V/V      00 890 00 00         : PHID         - DENSITY POROSITY (SANDSTONE)
ILD .OHMM     00 120 00 00         : RESD         - DEEP RESISTIVITY (DIL)
~PARAMETER INFORMATION
#MNEM.UNIT           DATA             DESCRIPTION OF MNEMONIC
#---------         -----------     ------------------------------
GL  .M        428.244              : gl           - GROUND LEVEL ELEVATION
EREF.M        429.463              : kb           - ELEVATION OF DEPTH REFERENCE
DATM.M        429.463              : datum        - DATUM ELEVATION
TDD .M        180.746              : tdd          - TOTAL DEPTH DRILLER
RUN .         ONE                  : Run          - RUN NUMBER
ENG .         BILL                 : Engineer     - RECORDING ENGINEER
WIT .         JIM                  : Witness      - WITNESSED BY
MUD .         GEL                  : Mud_type     - MUD TYPE
MATR.         SANDSTONE            : Logunit      - NEUTRON MATRIX
TMAX.C        11.1111              : BHT          - MAXIMUM RECORDED TEMPERATURE
BHTD.M        180.746              : BHTDEP       - MAXIMUM RECORDED TEMPERATURE
RMT .C        10                   : MDTP         - TEMPERATURE OF MUD
MUDD.KG/M     9800                 : MWT          - MUD DENSITY
NEUT.         1                    : NEUTRON      - NEUTRON TYPE
RESI.         0                    : RESIST       - RESISTIVITY TYPE
RM  .OHMM     5.68                 : RM           - RESISTIVITY OF MUD
RMC .OHMM     5.68                 : RMC          - RESISTIVITY OF MUD CAKE
RMF .OHMM     5.68                 : RMF          - RESISTIVITY OF MUD FILTRATE
SUFT.C        4                    : SUFT         - SURFACE TEMPERATURE
~A  DEPTH       GR      CAL     PHID     RESD
   15.240   85.425 1084.290    0.309   52.982
   15.490   84.199 1064.480    0.287   62.577
   15.740   87.275 1126.470    0.280   62.662
   15.990   96.496 1188.460    0.288   57.208
   16.240  112.478 1107.300    0.298   53.212
   16.490  106.336 1097.720    0.302   53.298
   16.740  105.725 1159.870    0.306   59.575
   16.990  119.863 1211.630    0.289   60.745
   17.240  127.241 1284.010    0.278   59.688
   17.490  113.723 1305.100    0.275   56.548
   17.740  111.268 1285.290    0.290   57.690
   17.990  124.792 1245.040    0.292   62.157
   18.240  121.108 1204.620    0.287   57.799
   18.490  110.048 1092.790    0.308   46.412
   18.740  109.437 1073.300    0.342   39.381
   18.990  105.138 1145.360    0.327   35.963
   19.240  102.683 1248.410    0.331   43.275
   19.490  103.916 1177.310    0.363   29.445
   19.740  112.523 1024.590    0.347   28.421
   19.990  105.765 1117.410    0.313   45.041
   20.240   93.477 1332.770    0.326   49.428
   20.490  100.855 1312.960    0.316   36.878
   20.740   95.942 1313.760    0.313   36.928
   20.990  108.237 1385.980    0.319   46.088
   21.240  115.614 1417.290    0.362   60.779
   21.490  119.920 1162.320    0.417   50.632
   21.740  127.297  825.392    0.418   31.435
   21.990  112.551  805.745    0.398   19.879
   22.240  104.565  745.200    0.357   18.158
   22.490  107.641  766.131    0.310   17.522
   22.740  118.706  828.120    0.294   18.535
   22.990  121.168  920.943    0.277   28.314
   23.240  121.171  972.868    0.265   36.002
   23.490  109.497 1014.410    0.252   46.614
   23.740   90.449 1015.210    0.238   41.793
   23.990   89.838 1015.690    0.230   39.595
   24.240   93.528 1005.950    0.233   39.638
   24.490   94.760  924.955    0.244   45.976
   24.740  108.899  935.821    0.252   48.634
   24.990  120.578  946.688    0.256   39.777
   25.240  126.727  855.309    0.262   39.831
   25.490  125.501  845.886    0.285   42.904
   25.740  106.453  836.143    0.310   38.477
   25.990   84.331  754.988    0.384   28.700
   26.240   97.856  694.283    0.425   23.921
   26.490   89.255  674.797    0.451   25.766
   26.740   91.102  655.150    0.443   29.879
   26.990   99.094  645.246    0.430   32.210
   27.240   99.712  615.214    0.421   33.452
   27.490  102.173  605.632    0.408   34.109
   27.740   96.030  596.049    0.372   32.306
   27.990  102.794  597.172    0.352   28.445
   28.240  124.307  597.493    0.382   30.648
   28.490  135.987  618.745    0.379   34.892
   28.740  129.230  639.836    0.371   42.754
   28.990  116.941  640.477    0.365   53.358
   29.240  102.195  610.285    0.389   63.056
   29.490  112.646  559.965    0.402   57.583
   29.740  114.493  540.318    0.378   48.846
   29.990  118.183  510.286    0.338   57.692
   30.240  121.874  541.441    0.300   72.002
   30.490  118.189  582.981    0.313   59.998
   30.740  115.734  604.072    0.319   49.981
   30.990  118.196  594.810    0.313   55.882
   31.240  120.043  575.003    0.304   56.980
   31.490  108.984  555.036    0.305   58.099
   31.740  100.998  565.902    0.322   58.162
   31.990  102.229  586.993    0.338   59.305
   32.240  113.295  587.956    0.339   54.158
   32.490  102.850  496.416    0.347   50.388
   32.740  101.625  456.160    0.340   56.307
   32.990  104.701  589.881    0.324   61.809
   33.240  110.849  590.523    0.330   61.892
   33.490  112.082  580.940    0.339   60.831
   33.740  105.325  581.582    0.348   60.880
   33.990  109.630  582.385    0.350   62.110
   34.240  109.633  582.866    0.354   62.144
   34.490  107.792  594.053    0.356   63.382
   34.740  108.410  594.374    0.361   67.046
   34.990   99.809  595.016    0.340   73.577
   35.240   99.812  585.594    0.302   73.677
   35.490   97.972  596.621    0.301   69.801
   35.740   83.225  597.102    0.289   66.147
   35.990   88.145  608.129    0.287   73.936
   36.240   94.909  619.156    0.292   87.326
   36.490   89.380  619.798    0.288   97.637
   36.740   91.842  620.279    0.285   90.841
   36.990  101.678  620.921    0.268   87.610
   37.240  102.296  611.338    0.272   78.571
   37.490   93.081  611.980    0.257   84.632
   37.740  105.375  612.622    0.221   83.181
   37.990  120.742  664.708    0.214   71.907
   38.240  120.131  695.863    0.227   63.297
   38.490  117.061  696.665    0.264   59.967
   38.740  120.137  687.082    0.251   61.145
   38.990  109.079  677.339    0.262   64.698
   39.240   99.249  708.815    0.274   71.019
   39.490   94.949  719.842    0.278   76.518
   39.740   98.640  720.484    0.271   80.942
   39.990   99.258  721.126    0.242   82.533
   40.240  100.490  721.768    0.209   73.977
   40.490   98.650  722.570    0.211   65.119
   40.740   91.892  723.212    0.215   59.467
   40.990   96.197  723.854    0.207   53.332
   41.240  108.492  724.656    0.199   51.463
   41.490   94.975  724.977    0.205   50.581
   41.740   95.593  725.619    0.210   47.933
   41.990  102.356  757.255    0.216   46.253
   42.240   92.526  757.897    0.230   51.686
   42.490  101.747  758.379    0.263   53.694
   42.740  100.522  759.181    0.278   49.034
   42.990   89.463  759.823    0.245   50.924
   43.240   88.852  760.465    0.219   56.936
   43.490   94.386  761.107    0.181   61.345
   43.740   98.691  741.299    0.180   60.293
   43.990   95.621  670.369    0.182   52.121
   44.240   88.864  752.808    0.194   49.366
   44.490   91.325  814.958    0.208   46.769
   44.740  118.369  815.599    0.240   45.130
   44.990  104.852  816.402    0.233   43.561
   45.240   93.178  816.883    0.214   41.281
   45.490   90.723  807.300    0.216   40.573
   45.740   89.498  849.161    0.227   41.370
   45.990  112.239  890.541    0.215   43.762
   46.240  123.919  901.407    0.207   46.279
   46.490  113.475  891.825    0.207   42.297
   46.740  114.708  872.018    0.207   40.050
   46.990  114.710  862.435    0.207   38.647
   47.240  104.266  863.237    0.202   40.881
   47.490   98.738  874.264    0.189   43.245
   47.740   97.512  875.066    0.184   44.106
   47.990  109.806  865.163    0.186   40.289
   48.240  120.258  865.805    0.197   37.465
   48.490  110.427  907.666    0.209   36.162
   48.740  107.357  918.532    0.214   33.626
   48.990  109.819  908.789    0.218   29.061
   49.240  108.593  909.591    0.221   29.093
   49.490  108.597  920.297    0.239   25.616
   49.740  116.589  961.998    0.229   23.393
   49.990  112.290  942.191    0.226   26.154
   50.240   93.241  871.421    0.240   27.155
   50.490   87.099  892.512    0.233   27.689
   50.740   82.800  913.603    0.241   28.248
   50.990   80.960  924.469    0.233   28.279
   51.240   72.974  915.047    0.223   27.794
   51.490   64.987  915.689    0.229   26.332
   51.740   74.823  926.716    0.252   26.367
   51.990   83.430  937.261    0.279   26.382
   52.240   88.350  948.128    0.292   25.936
   52.490   96.957  969.540    0.333   20.827
   52.740  116.012  980.406    0.364   15.539
   52.990  106.797 1001.500    0.371   13.184
   53.240  117.862 1012.360    0.361   11.187
   53.490  127.084 1023.070    0.359   10.795
   53.740  120.327 1034.260    0.378   11.217
   53.990  116.642 1034.740    0.367   11.435
   54.240  120.948 1045.600    0.363   11.662
   54.490  124.024 1056.630    0.375   11.672
   54.740  128.329 1057.110    0.375   11.472
   54.990  116.655 1057.920    0.361   11.275
   55.240  110.512 1058.560    0.354   11.927
   55.490   95.766 1059.360    0.362   12.623
   55.740   90.239 1049.780    0.378   12.407
   55.990   97.002 1040.190    0.388   11.972
   56.240  102.536 1040.840    0.391   11.553
   56.490  110.528 1010.800    0.389   11.562
   56.740  106.844  980.933    0.394   12.467
   56.990  111.764  971.511    0.372   12.247
   57.240  106.850  971.831    0.359   11.603
   57.490  108.697  962.249    0.368   10.406
   57.740  105.627  932.378    0.364   10.807
   57.990   93.954  902.185    0.381   11.640
   58.240   93.957  872.153    0.391   10.063
   58.490  104.408  832.057    0.385    8.538
