~VERSION INFORMATION
 VERS.                 2.0:   CWLS LOG ASCII STANDARD -VERSION 2.0
 WRAP.                  NO:   ONE LINE PER DEPTH STEP
~WELL INFORMATION BLOCK
#MNEM.UNIT           DATA                    DESCRIPTION OF MNEMONIC
#---------    -------------------            -------------------------------
# Generated from Intellog Unique Number	CN_91_93/WELL/3550
WELL.         10-24-093-08W4                 : Well_name    - WELL
LOC .         AA/10-24-093-08W4/0            : Location     - LOCATION
UWI .         AA/10-24-093-08W400            : Uwi          - UNIQUE WELL ID
ENTR.         JOETTE                         : Entered      - ENTERED BY
SRVC.         SCHLUMBERGER                   : Scn          - SERVICE COMPANY
DATE.         03/16/92                       : Date         - LOG DATE
STRT.M        5                              : top_depth    - START DEPTH
STOP.M        225                            : bot_depth    - STOP DEPTH
STEP.M        0.25                           : increment    - STEP LENGTH
 NULL. -999.2500:NULL Value
~CURVE INFORMATION BLOCK
#MNEM UNIT       ERCB CURVE CODE    CURVE DESCRIPTION
#-----------   ------------------   ----------------------------------
DEPT.M        00 001 00 00         : DEPTH        - DEPTH
GR  .API      00 310 00 00         : GR           - GAMMA RAY
CALI.MM       00 280 01 00         : CAL          - CALIPER
NPHI.V/V      00 330 00 00         : PHIN         - NEUTRON POROSITY (SANDSTONE)
DPHI.V/V      00 890 00 00         : PHID         - DENSITY POROSITY (SANDSTONE)
ILD .OHMM     00 120 00 00         : RESD         - DEEP RESISTIVITY (DIL)
~PARAMETER INFORMATION
#MNEM.UNIT           DATA             DESCRIPTION OF MNEMONIC
#---------         -----------     ------------------------------
GL  .M        486.6                : gl           - GROUND LEVEL ELEVATION
EREF.M        486.6                : kb           - ELEVATION OF DEPTH REFERENCE
DATM.M        486.6                : datum        - DATUM ELEVATION
TDD .M        226.7                : tdd          - TOTAL DEPTH DRILLER
RUN .         ONE                  : Run          - RUN NUMBER
ENG .         BILL                 : Engineer     - RECORDING ENGINEER
WIT .         JIM                  : Witness      - WITNESSED BY
MUD .         GEL                  : Mud_type     - MUD TYPE
MATR.         SANDSTONE            : Logunit      - NEUTRON MATRIX
TMAX.C        18                   : BHT          - MAXIMUM RECORDED TEMPERATURE
BHTD.M        226.7                : BHTDEP       - MAXIMUM RECORDED TEMPERATURE
RMT .C        16                   : MDTP         - TEMPERATURE OF MUD
MUDD.KG/M     1.01                 : MWT          - MUD DENSITY
NEUT.         1                    : NEUTRON      - NEUTRON TYPE
RESI.         0                    : RESIST       - RESISTIVITY TYPE
RM  .OHMM     4.5                  : RM           - RESISTIVITY OF MUD
RMC .OHMM     4.5                  : RMC          - RESISTIVITY OF MUD CAKE
RMF .OHMM     4.5                  : RMF          - RESISTIVITY OF MUD FILTRATE
SUFT.C        4                    : SUFT         - SURFACE TEMPERATURE
~A  DEPTH       GR      CAL     PHIN     PHID     RESD
# ...
  114.500   95.739  181.373    0.467    0.297    3.881
  114.750   93.817  181.270    0.465    0.284    3.889
  115.000   90.631  181.141    0.460    0.291    4.034
  115.250   93.069  181.064    0.460    0.297    4.330
  115.500   91.742  180.987    0.462    0.310    4.485
  115.750   91.665  180.884    0.460    0.312    4.730
  116.000   89.119  180.756    0.446    0.268    5.075
  116.250   82.808  180.653    0.434    0.301    5.444
  116.500   78.356  181.591    0.442    0.325    6.043
  116.750   82.684  181.489    0.456    0.327    6.056
  117.000   89.481  181.386    0.470    0.309    5.481
  117.250   93.169  182.350    0.483    0.294    4.956
  117.500   87.499  183.263    0.495    0.291    4.483
  117.750   81.172  183.160    0.465    0.308    4.056
  118.000   81.111  184.099    0.455    0.312    4.277
  118.250   84.173  183.996    0.441    0.165    5.736
  118.500   85.987  183.893    0.441    0.227    5.841
  118.750   87.175  183.790    0.450    0.299    5.957
  119.000   89.628  183.687    0.463    0.264    6.072
  119.250   92.051  184.575    0.456    0.245    6.186
  119.500   94.489  184.472    0.441    0.145    6.306
  119.750   83.178  185.436    0.390    0.240    6.427
  120.000   65.618  186.401    0.445    0.280    6.555
  120.250   67.431  187.288    0.452    0.312    6.345
  120.500   81.743  188.252    0.463    0.287    5.457
  120.750   91.055  190.258    0.475    0.290    5.019
  121.000   92.853  192.187    0.484    0.299    4.465
  121.250   94.057  193.126    0.494    0.308    4.247
  121.500  100.885  193.074    0.503    0.315    3.779
  121.750  108.322  195.029    0.508    0.315    3.479
  122.000  110.760  195.967    0.513    0.309    3.255
  122.250  101.309  196.932    0.501    0.302    3.098
  122.500   94.373  197.871    0.497    0.296    3.106
  122.750   89.937  198.784    0.495    0.290    3.164
  123.000   87.360  199.722    0.479    0.284    3.225
  123.250   90.438  199.645    0.462    0.279    3.179
  123.500   94.736  199.542    0.467    0.276    3.079
  123.750   97.799  199.439    0.504    0.308    2.982
  124.000  100.252  200.378    0.523    0.320    2.886
  124.250  105.174  201.265    0.541    0.318    2.703
  124.500  107.628  201.188    0.545    0.326    2.530
  124.750  107.566  202.153    0.554    0.334    2.328
  125.000  108.129  204.056    0.568    0.337    2.142
  125.250  111.192  205.020    0.569    0.326    1.971
  125.500  107.366  204.943    0.568    0.317    1.876
  125.750  114.178  205.907    0.562    0.327    1.818
  126.000  112.882  206.820    0.565    0.322    1.821
  126.250  106.555  207.733    0.551    0.299    1.734
  126.500  103.994  208.698    0.488    0.295    1.829
  126.750  103.932  208.569    0.471    0.288    1.962
  127.000   99.481  205.342    0.470    0.286    1.966
  127.250   97.544  203.156    0.474    0.293    2.004
  127.500   99.982  199.928    0.484    0.308    2.113
  127.750   98.655  197.716    0.502    0.329    2.345
  128.000   98.624  196.598    0.511    0.328    3.142
  128.250  102.312  196.495    0.494    0.289    3.043
  128.500  101.000  195.325    0.469    0.253    2.848
  128.750  101.564  194.232    0.445    0.245    3.216
  129.000  102.752  188.869    0.447    0.231    4.458
  129.250  103.315  185.642    0.444    0.265    5.208
  129.500   98.863  185.565    0.339    0.156    6.296
  129.750   80.053  184.420    0.277    0.058    8.014
  130.000   68.103  184.317    0.286    0.052   10.023
  130.250   69.291  184.189    0.368    0.106   11.317
  130.500   83.618  184.112    0.456    0.212    7.036
  130.750   94.805  183.983    0.473    0.279    5.364
  131.000   91.619  184.922    0.467    0.285    4.234
  131.250   87.807  184.845    0.463    0.295    3.639
  131.500   90.870  186.825    0.459    0.245    3.292
  131.750   90.809  189.847    0.460    0.148    3.245
  132.000   86.982  192.843    0.456    0.215    3.306
  132.250   84.420  194.797    0.443    0.234    3.370
  132.500   86.249  196.803    0.453    0.265    3.321
  132.750   93.686  198.758    0.469    0.276    3.272
  133.000   99.874  200.764    0.468    0.282    3.117
  133.250  104.187  201.728    0.474    0.299    3.069
  133.500  102.235  202.667    0.485    0.304    3.022
  133.750  100.314  204.596    0.488    0.290    2.830
  134.000   97.752  205.560    0.482    0.273    2.785
  134.250  103.300  208.556    0.499    0.261    2.607
  134.500  104.488  209.521    0.502    0.244    2.400
  134.750  106.941  210.485    0.473    0.251    2.247
  135.000  109.379  211.398    0.452    0.258    2.174
  135.250  104.943  212.362    0.444    0.268    2.142
  135.500   97.351  213.224    0.441    0.279    2.221
  135.750   96.040  215.256    0.492    0.291    2.342
  136.000  103.477  216.117    0.521    0.308    2.429
  136.250  100.931  217.133    0.524    0.300    2.273
  136.500  100.244  218.020    0.517    0.310    2.022
  136.750  100.808  218.985    0.530    0.314    1.708
  137.000  109.495  219.949    0.534    0.282    1.519
  137.250  108.168  220.836    0.506    0.276    1.351
  137.500  106.216  221.826    0.504    0.281    1.161
  137.750  105.560  222.739    0.495    0.302    1.183
  138.000  108.623  222.662    0.531    0.306    1.431
  138.250  107.936  221.492    0.536    0.285    1.434
  138.500  108.500  220.373    0.484    0.291    1.342
  138.750  102.813  218.136    0.510    0.304    1.300
  139.000  105.252  216.992    0.523    0.292    1.303
  139.250  106.440  215.873    0.496    0.281    1.305
  139.500   93.864  213.687    0.490    0.287    1.308
  139.750   93.802  212.542    0.484    0.302    1.225
  140.000   96.865  212.414    0.491    0.301    1.186
  140.250   97.428  212.337    0.498    0.290    1.110
  140.500   95.492  212.208    0.504    0.279    1.057
  140.750   92.930  212.131    0.479    0.262    1.173
  141.000  100.993  212.028    0.472    0.236    1.238
  141.250  109.680  210.832    0.465    0.261    1.159
  141.500  107.119  210.781    0.460    0.235    1.084
  141.750  106.432  207.528    0.436    0.229    1.124
  142.000  113.229  204.300    0.411    0.228    1.186
  142.250  106.933  202.140    0.364    0.103    1.293
  142.500   95.623  195.762    0.400    0.026    1.733
  142.750   81.797  195.633    0.449    0.271    2.527
  143.000   88.610  195.556    0.456    0.247    3.563
  143.250  104.187  195.402    0.457    0.248    3.758
  143.500  101.625  196.392    0.453    0.249    3.017
  143.750   98.408  198.346    0.447    0.241    2.422
  144.000   98.362  199.285    0.450    0.234    2.153
  144.250  103.315  201.240    0.483    0.266    1.948
  144.500  108.237  202.230    0.536    0.288    1.762
  144.750  100.051  204.210    0.562    0.370    1.540
  145.000   91.241  205.123    0.553    0.410    1.324
  145.250   87.414  208.145    0.550    0.389    1.137
  145.500   85.477  212.234    0.541    0.373    0.839
  145.750   83.541  211.064    0.536    0.341    0.639
  146.000   82.229  208.903    0.542    0.332    0.522
  146.250   84.042  206.717    0.541    0.323    0.497
  146.500   88.996  205.547    0.535    0.355    0.581
  146.750   92.683  204.403    0.534    0.383    0.534
  147.000   91.997  203.258    0.523    0.390    0.467
  147.250   89.389  204.197    0.495    0.264    0.648
  147.500   88.718  206.177    0.458    0.266    0.672
  147.750   91.796  203.966    0.452    0.268    0.558
  148.000   96.109  201.831    0.471    0.297    0.674
  148.250   99.812  196.469    0.492    0.383    0.984
  148.500  102.860  192.226    0.445    0.382    1.038
  148.750   95.299  187.931    0.391    0.242    0.847
  149.000   86.488  188.895    0.371    0.088    0.646
  149.250   80.802  192.959    0.430    0.215    0.943
  149.500   78.850  197.022    0.448    0.313    1.220
  149.750   95.052  198.976    0.471    0.374    1.938
  150.000   96.865  199.941    0.490    0.318    1.583
  150.250   99.303  200.880    0.511    0.326    0.761
  150.500  103.600  202.834    0.526    0.333    0.552
  150.750  103.554  205.856    0.500    0.284    0.553
