~VERSION INFORMATION
 VERS.                 2.0:   CWLS LOG ASCII STANDARD -VERSION 2.0
 WRAP.                  NO:   ONE LINE PER DEPTH STEP
~WELL INFORMATION BLOCK
#MNEM.UNIT           DATA                    DESCRIPTION OF MNEMONIC
#---------    -------------------            -------------------------------
# Generated from Intellog Unique Number	CC_80_83/WELL/2355
NULL.         -999.25                        : NULL_VALUE
WELL.         PEX PCEJ HANGST OV             : Well_name    - WELL
LOC .         10-14-082-10W4                 : Location     - LOCATION          
UWI .         AA/10-14-082-10W400            : Uwi          - UNIQUE WELL ID    
ENTR.         DW                             : Entered      - ENTERED BY        
SRVC.         DRESSER ATLAS                  : Scn          - SERVICE COMPANY   
DATE.         24 FEB 80                      : Date         - LOG DATE
STRT.M        250                            : top_depth    - START DEPTH       
STOP.M        484.891                        : bot_depth    - STOP DEPTH        
STEP.M        0.3                            : increment    - STEP LENGTH       
~CURVE INFORMATION BLOCK
#MNEM UNIT       ERCB CURVE CODE    CURVE DESCRIPTION
#-----------   ------------------   ----------------------------------
DEPT.M        00 001 00 00         : DEPTH        - DEPTH                       
GR  .API      00 310 00 00         : GR           - GAMMA RAY                   
ILD .OHMM     00 120 00 00         : RESD         - DEEP RESISTIVITY (DIL)      
DPHI.V/V      00 890 00 00         : PHID         - DENSITY POROSITY (LIMESTONE)
NPHI.V/V      00 330 00 00         : PHIN         - NEUTRON POROSITY (LIMESTONE)
~PARAMETER INFORMATION       
#MNEM.UNIT           DATA             DESCRIPTION OF MNEMONIC
#---------         -----------     ------------------------------
GL  .M        706.79               : gl           - GROUND LEVEL ELEVATION      
EREF.M        710.48               : kb           - ELEVATION OF DEPTH REFERENCE
DATM.M        710.48               : datum        - DATUM ELEVATION             
TDD .M        496                  : tdd          - TOTAL DEPTH DRILLER         
RUN .         ONE                  : Run          - RUN NUMBER                  
ENG .         BILL                 : Engineer     - RECORDING ENGINEER          
WIT .         JIM                  : Witness      - WITNESSED BY                
MUD .         GEL                  : Mud_type     - MUD TYPE                    
MATR.         LIMESTONE            : Logunit      - NEUTRON MATRIX              
TMAX.C        17                   : BHT          - MAXIMUM RECORDED TEMPERATURE
BHTD.M        496                  : BHTDEP       - MAXIMUM RECORDED TEMPERATURE
MATR.         1                    : LOGUNIT      - NEUTRON MATRIX              
RMT .C        25                   : MDTP         - TEMPERATURE OF MUD          
NEUT.         1                    : NEUTRON      - NEUTRON TYPE                
RESI.         0                    : RESIST       - RESISTIVITY TYPE            
RMC .OHMM     0.25                 : RMC          - RESISTIVITY OF MUD CAKE     
RMF .OHMM     0.25                 : RMF          - RESISTIVITY OF MUD FILTRATE 
SUFT.C        15                   : SUFT         - SURFACE TEMPERATURE         
~A  DEPTH       GR     RESD     PHID     PHIN
# ...
  458.792   91.030    6.520    0.109    0.293
  459.092   92.909    6.643    0.127    0.306
  459.392   97.900    6.895    0.137    0.324
  459.692   98.532    6.894    0.141    0.307
  459.992   91.078    6.893    0.132    0.309
  460.292   94.824    6.892    0.128    0.317
  460.592   99.814    6.637    0.131    0.316
  460.892  102.318    6.635    0.133    0.296
  461.192   93.615    6.760    0.143    0.288
  461.492   88.650    6.887    0.158    0.296
  461.792   79.325    7.563    0.172    0.323
  462.092   76.850    7.851    0.155    0.299
  462.392   73.749    7.998    0.196    0.293
  462.692   67.539    7.997    0.192    0.299
  462.992   74.397    7.701    0.144    0.305
  463.292   99.303    7.556    0.152    0.309
  463.592   91.225    7.414    0.165    0.304
  463.892   71.322    7.554    0.167    0.300
  464.192   88.138    8.141    0.155    0.298
  464.492  100.598    8.451    0.154    0.331
  464.792   83.183    9.107    0.163    0.329
  465.092   67.014    9.454    0.197    0.332
  465.392   58.314    9.814    0.221    0.300
  465.692   72.019    9.998    0.170    0.304
  465.992   70.788    9.997    0.197    0.315
  466.292   64.576    9.809    0.195    0.299
  466.591   70.817    9.808    0.181    0.306
  466.891   68.957    9.805    0.181    0.308
  467.191   65.234    9.990    0.176    0.314
  467.491   69.605    9.988    0.187    0.306
  467.791   67.127    9.986    0.190    0.301
  468.091   68.386    9.616    0.178    0.291
  468.391   75.865    9.435    0.166    0.283
  468.691   82.725    9.258    0.162    0.295
  468.991   76.512    9.256    0.166    0.300
  469.291   81.506    9.083    0.170    0.295
  469.591   82.137    9.081    0.180    0.299
  469.891   60.366    8.911    0.191    0.305
  470.191   68.470    8.909    0.167    0.300
  470.491   77.818    9.076    0.167    0.290
  470.791   77.831    9.600    0.189    0.301
  471.091   65.396   10.347    0.188    0.308
  471.391   66.652   11.363    0.181    0.310
  471.691   58.575   12.479    0.196    0.303
  471.991   54.230   14.228    0.224    0.318
  472.291   56.109   15.921    0.224    0.321
  472.591   51.765   18.154    0.231    0.312
  472.891   41.197   18.150    0.258    0.296
  473.191   54.279   19.198    0.203    0.300
  473.491   63.627   21.889    0.234    0.338
  473.791   38.123   24.038    0.282    0.334
  474.091   39.382   23.587    0.277    0.296
  474.391   41.883   21.470    0.264    0.308
  474.691   49.985   19.180    0.206    0.314
  474.991   58.712   17.790    0.202    0.308
  475.291   50.633   17.456    0.224    0.309
  475.591   48.781   18.464    0.233    0.314
  475.891   50.040   21.451    0.233    0.318
  476.191   49.424   25.393    0.249    0.325
  476.491   44.458   28.953    0.249    0.330
  476.791   42.603   30.053    0.256    0.315
  477.091   41.994   30.049    0.265    0.319
  477.391   39.516   29.483    0.267    0.323
  477.691   37.038   29.480    0.252    0.321
  477.991   34.562   30.035    0.266    0.327
  478.291   34.575   27.856    0.284    0.331
  478.591   42.679   23.085    0.266    0.313
  478.891   35.221   20.622    0.294    0.327
  479.191   37.725   19.860    0.292    0.330
  479.491   40.226   18.418    0.261    0.315
  479.791   36.503   18.074    0.266    0.308
  480.091   29.669   17.405    0.245    0.298
  480.391   29.682   17.731    0.002    0.277
  480.691   35.297   18.407    0.000    0.245
  480.991   44.644   16.136    0.000    0.211
  481.291   72.664   15.540    0.000    0.182
  481.591   63.963   14.685    0.004    0.140
  481.891   60.863   14.684    0.004    0.089
  482.191   52.784   21.369    0.003    0.074
  482.491   51.552   30.519    0.003    0.068
  482.791   27.917   32.893    0.004    0.071
  483.091   33.529   28.301    0.005    0.082
  483.391   54.079   23.454    0.009    0.178
  483.691   66.539   18.031    0.015    0.190
  483.991   53.481   14.392    0.010    0.171
  484.291   66.564   13.348    0.003    0.148
  484.591   64.088   14.387    0.001    0.121
  484.891   39.826   22.150    0.002    0.089
