~Version : LASO    vs 4.00
VERS.                2.00:   CWLS Log ASCII Standard -VERSION 2.0
WRAP.                  NO:
~Well Information Block
#MNEM.UNIT       Data                        Description of Mnemonic
#----.----      -------------------------- : -----------------------------
STRT.M            21.0000:
STOP.M           215.4000:
STEP.M             0.2000:
NULL.           -999.2500:
COMP.  MOBIL OIL CANADA                 :COMPANY
WELL.  MOBIL CLARKE OV PROG. 2-81       :WELL
FLD.                                    :FIELD
LOC.   13-28-089-07W4                   :LOCATION
CTRY.  CANADA                           :COUNTRY
PROV.  ALBERTA                          :PROVINCE
SRVC.  SCHLUMBERGER                     :SERVICE COMPANY
DATE.  31-JAN-81                        :LOG DATE
UWI.   AA/13-28-089-07W400              :UNIQUE WELL ID
~Parameter Information Block
#MNEM.UNIT       Data                        Description of Mnemonic
#----.----      -------------------------- : -----------------------------
RUN .                   1                 : Run Number
GL  .M           458.5000                 : Ground Level Elevation
DREF.                  GD                 : Depth Reference
EREF.M           458.5000                 : Elevation of Depth Reference
TDL .M           216.0000                 : Total Depth Logger
TDD .M           216.0000                 : Total Depth Driller
CSGL.M            22.0000                 : Casing Bottom Logger
CSGD.M            22.0000                 : Casing Bottom Driller
CSGS.MM          219.0000                 : Casing Size
CSGW.KG/M          0.0000                 : Casing Weight
BHT .DEGC         12.0000                 : Bottom Hole Temperature
BS  .MM          171.0000                 : Bit Size
DFD .           9999.0000                 : Mud Weight (Density)
DFV .             45.0000                 : Mud Viscosity
DFPH.             11.0000                 : Mud pH
RM  .OHMM          5.7400                 : Mud Resistivity
RMT .DEGC         12.0000                 : Mud Resistivity Temperature
~Curve Information Block
#MNEM.UNIT        API CODE    Curve Description
#---------    ------------    -------------------------------------------
DEPT.M                    :   DEPTH
CALI.MM       42 280  1  1:   3 DENSITY CALIPER
DPHI.V/V                  :   DPHI
DT  .US/M     60 520  0  1:   2 SONIC INTERVAL TRANSIT TIME (COMPENSATED)
GR  .GAPI     42 310  1  1:   4 GAMMA RAY
ILD .OHMM      5 120 46  1:   7 DEEP INDUCTION
ILM .OHMM      5 120 44  1:   8 MEDIUM INDUCTION
NPHI.V/V      42 890  3  1:   5 NEUTRON POROSITY (SANDSTONE)
RHOB.K/M3     42 350  1  1:   6 BULK DENSITY
SFLU.OHMM      5 220  1  1:   9 FOCUSSED RESISTIVITY
SP  .MV        5  10  1  1:   10 SPONTANEOUS POTENTIAL
~A  Depth           CALI        DPHI          DT          GR         ILD         ILM        NPHI        RHOB        SFLU          SP
# ...
155.2000        175.9250      0.2074    432.2000     76.4100     16.8978     17.0228      0.3920   2331.7000     20.6172    -86.8350
155.4000        174.7500      0.2152    446.6800     78.7500     15.4110     14.1589      0.3905   2322.3999     18.2907    -83.3400
155.6000        175.8000      0.2069    447.7200     80.4600     15.2697     13.6468      0.3875   2305.0000     14.1198    -80.8650
155.8000        176.4250      0.1978    441.9600     83.4450     14.9910     13.7730      0.3929   2290.3999     12.4117    -79.1100
156.0000        177.1750      0.1946    436.0000     83.9700     14.5824     14.1589      0.3982   2331.3999     13.3607    -79.3650
156.2000        181.5500      0.1907    428.3600     81.0600     14.3163     13.6468      0.3986   2312.3999     22.3991    -80.8650
156.4000        183.1250      0.1906    448.3600     79.6500     14.5824     13.6468      0.3941   2302.2000     23.0266    -80.6100
156.6000        177.0500      0.1865    456.2400     79.1100     15.2697     14.1589      0.3889   2292.6001     18.1230    -79.3650
156.8000        178.2750      0.1899    456.4800     77.3400     15.8427     15.2416      0.4041   2368.3000     18.1230    -79.3650
157.0000        176.5750      0.1870    440.9200     75.1800     16.4373     15.5249      0.4111   2361.1001     19.5088    -80.6100
157.2000        178.4250      0.1832    438.3600     72.9900     17.3712     16.2566      0.4108   2350.0000     18.4599    -81.8550
157.4000        175.5750      0.1931    441.5600     71.7900     18.6995     19.1880      0.4102   2342.3999     20.6172    -83.5950
157.6000        173.6000      0.2019    433.4400     72.4950     18.6995     20.0923      0.4099   2335.0000     26.1957    -83.3400
157.8000        173.7250      0.2130    428.7600     73.1850     18.0231     20.0923      0.4032   2326.7000     32.7062    -83.8500
158.0000        174.4000      0.2182    431.3200     74.1000     16.2866     16.2566      0.3796   2316.3000     26.1957    -84.0900
158.2000        175.5500      0.2229    456.8800     75.4200     15.1297     14.4221      0.3732   2315.1001     18.1230    -82.0950
158.4000        174.7750      0.2179    478.2000     77.5650     14.0550     13.1532      0.3698   2320.8000     13.3607    -79.1100
158.6000        175.6500      0.2074    481.6000     82.6500     12.0179     11.4559      0.3830   2392.1001     11.3196    -76.8750
158.8000        181.4000      0.1946    459.4400     85.4550     11.2676     10.8400      0.3973   2408.8999     11.6367    -75.8850
159.0000        177.4000      0.1825    434.9600     86.4150     10.8600     10.5446      0.4072   2398.0000     12.0734    -76.3800
159.2000        179.8000      0.1716    427.7200     87.1950     10.6618     10.2572      0.4133   2383.2000     11.7444    -77.1300
159.4000        185.2500      0.1629    440.2800     87.9300     10.6618     10.1632      0.4153   2359.8000     11.8530    -79.3650
159.6000        183.3750      0.1848    448.8000     88.0950     10.7604     10.1632      0.4175   2390.7000     12.0734    -80.1150
159.8000        181.9250      0.1883    452.0000     88.3350     10.7604     10.3521      0.4159   2381.3000     11.6367    -81.3600
160.0000        180.7000      0.1825    453.9200     88.1550     10.9605     10.6422      0.3934   2367.8000     12.0734    -82.3500
160.2000        182.0750      0.1771    447.9600     86.1000     11.1643     10.7406      0.3907   2364.8000     12.7594    -82.6050
160.4000        181.4000      0.1731    439.8400     84.9450     11.4770     10.8400      0.3945   2364.3999     12.7594    -81.3600
160.6000        178.2750      0.1703    423.2400     83.4000     12.0179     11.7769      0.4003   2361.0000     11.4243    -79.8600
160.8000        176.9750      0.1749    414.7200     81.6300     12.1291     12.3319      0.4051   2359.5000     12.9966    -81.3600
161.0000        176.3000      0.1808    414.7200     81.8250     12.2414     12.3319      0.4121   2350.3999     15.4821    -83.1000
161.2000        176.8750      0.1850    418.7600     81.7350     12.2414     11.9958      0.4040   2330.7000     15.7699    -83.1000
161.4000        171.1000      0.1878    417.2800     80.7000     12.4690     11.7769      0.3935   2341.7000     13.9904    -81.8550
161.6000        170.6000      0.1785    415.7600     81.0750     12.5843     11.7769      0.3844   2379.8000     12.7594    -81.8550
161.8000        174.4250      0.1704    412.1600     82.7850     12.8183     12.4460      0.3797   2370.1001     11.7444    -81.6000
162.0000        176.4750      0.1744    412.8000     81.9750     12.7008     13.1532      0.3812   2357.1001     12.2979    -81.3600
162.2000        179.1000      0.1817    407.0400     81.1500     12.3546     13.3977      0.3862   2359.2000     16.2118    -82.3500
162.4000        181.7750      0.1779    404.9200     80.3400     12.2414     12.6774      0.3921   2386.3999     21.7886    -83.3400
162.6000        173.8000      0.1760    405.3200     79.0050     12.1291     11.5619      0.3868   2344.2000     15.6254    -82.8450
162.8000        172.0500      0.1724    408.7600     80.2950     12.0179     11.2468      0.3747   2352.2000     12.1851    -81.8550
163.0000        173.3000      0.1749    413.0000     83.4000     11.7986     10.9403      0.3706   2387.3000     10.5155    -81.1050
163.2000        177.9750      0.1719    419.8400     84.5400     11.2676     10.9403      0.3803   2402.1001     10.4191    -80.6100
163.4000        183.1000      0.1749    429.8400     83.3850     11.1643     10.9403      0.3859   2389.2000     11.9627    -83.5950
163.6000        186.9750      0.1703    431.5600     82.2300     11.2676     10.9403      0.3891   2378.5000     13.2382    -84.5850
163.8000        177.8250      0.1822    425.5600     80.3850     12.0179     11.5619      0.3866   2367.3000     12.5265    -83.8500
164.0000        175.2750      0.1957    415.5600     79.1400     12.4690     11.7769      0.3899   2432.8999     13.2382    -85.5900
164.2000        175.2000      0.1967    406.4000     76.3050     12.9369     12.4460      0.3941   2411.5000     13.3607    -87.5700
164.4000        175.8000      0.1878    404.9200     73.4550     13.6719     14.1589      0.3941   2400.3999     15.6254    -91.5600
164.6000        174.9250      0.1731    408.3200     71.0250     13.6719     14.4221      0.3924   2359.6001     23.2397    -94.2900
164.8000        173.6250      0.1620    411.9600     68.9550     13.9261     14.1589      0.3906   2339.5000     29.2840    -95.2950
165.0000        170.1500      0.1645    411.0800     70.6950     14.5824     14.0291      0.3822   2323.2000     16.6659    -93.5400
165.2000        170.1500      0.1717    408.7600     72.5100     14.9910     14.4221      0.3851   2360.3999     14.1198    -93.7950
165.4000        171.5250      0.1909    403.0000     72.1200     15.2697     14.6903      0.3889   2329.3000     14.2505    -95.2950
165.6000        171.6750      0.1865    402.7600     70.2900     15.4110     15.2416      0.3921   2312.6001     15.9159    -98.0250
165.8000        170.8000      0.1774    411.0800     65.7000     15.6975     16.5588      0.3927   2280.0000     27.4303   -101.2650
166.0000        170.4750      0.1877    417.9200     64.6800     15.9893     16.7121      0.3939   2263.0000     33.9336   -100.2600
166.2000        170.1750      0.2036    427.0800     64.0350     16.1373     16.7121      0.3947   2251.3000     33.3142    -98.7750
166.4000        169.8750      0.2206    425.5600     66.0600     16.4373     16.1076      0.3912   2275.5000     23.8908    -98.0250
166.6000        169.8500      0.2348    415.3600     67.2150     16.1373     15.6686      0.3917   2272.3000     20.0553    -97.7700
166.8000        169.8250      0.2414    409.1600     68.2050     15.8427     15.5249      0.3935   2281.1001     17.1487    -96.7800
167.0000        169.7500      0.2346    416.8400     69.0300     15.1297     15.3826      0.3934   2314.2000     18.8031    -96.2850
167.2000        169.7000      0.2268    415.3600     67.7550     14.7174     15.2416      0.3923   2287.7000     19.8715    -96.0300
