~VERSION INFORMATION
 VERS.                 2.0:   CWLS LOG ASCII STANDARD -VERSION 2.0
 WRAP.                  NO:   ONE LINE PER DEPTH STEP
~WELL INFORMATION BLOCK
#MNEM.UNIT           DATA                    DESCRIPTION OF MNEMONIC
#---------    -------------------            -------------------------------
# Generated from Intellog Unique Number	CW_79_81/WELL/2485
WELL.         GAO JOLI FOU OV                : Well_name    - WELL
LOC .         AA/11-14-081-20W4/0            : Location     - LOCATION
UWI .         AA/11-14-081-20W4/0            : Uwi          - UNIQUE WELL ID
ENTR.         MAX                            : Entered      - ENTERED BY
SRVC.         SCHLUMBERGER                   : Scn          - SERVICE COMPANY
STRT.M        175                            : top_depth    - START DEPTH
STOP.M        374.75                         : bot_depth    - STOP DEPTH
STEP.M        0.25                           : increment    - STEP LENGTH
 NULL. -999.2500:NULL Value
~CURVE INFORMATION BLOCK
#MNEM UNIT       ERCB CURVE CODE    CURVE DESCRIPTION
#-----------   ------------------   ----------------------------------
DEPT.M        00 001 00 00         : DEPTH        - DEPTH
ILD .OHMM     00 120 00 00         : RESD         - DEEP RESISTIVITY (DIL)
NPHI.V/V      00 330 00 00         : PHIN         - NEUTRON POROSITY (SANDSTONE)
DPHI.V/V      00 890 00 00         : PHID         - DENSITY POROSITY (SANDSTONE)
GR  .API      00 310 00 00         : GR           - GAMMA RAY
CALI.MM       00 280 01 00         : CAL          - CALIPER
~PARAMETER INFORMATION
#MNEM.UNIT           DATA             DESCRIPTION OF MNEMONIC
#---------         -----------     ------------------------------
GL  .M        580.1                : gl           - GROUND LEVEL ELEVATION
EREF.M        583.6                : kb           - ELEVATION OF DEPTH REFERENCE
DATM.M        580.1                : datum        - DATUM ELEVATION
TDD .M        381                  : tdd          - TOTAL DEPTH DRILLER
RUN .         ONE                  : Run          - RUN NUMBER
ENG .         BILL                 : Engineer     - RECORDING ENGINEER
WIT .         JIM                  : Witness      - WITNESSED BY
MUD .         GEL                  : Mud_type     - MUD TYPE
MATR.         SANDSTONE            : Logunit      - NEUTRON MATRIX
TMAX.C        22.2                 : BHT          - MAXIMUM RECORDED TEMPERATURE
BHTD.M        381                  : BHTDEP       - MAXIMUM RECORDED TEMPERATURE
MATR.         1                    : LOGUNIT      - NEUTRON MATRIX
RMT .C        13.3                 : MDTP         - TEMPERATURE OF MUD
NEUT.         1                    : NEUTRON      - NEUTRON TYPE
RESI.         0                    : RESIST       - RESISTIVITY TYPE
RMC .OHMM     3.98                 : RMC          - RESISTIVITY OF MUD CAKE
RMF .OHMM     2.14                 : RMF          - RESISTIVITY OF MUD FILTRATE
SUFT.C        -20                  : SUFT         - SURFACE TEMPERATURE
~A  DEPTH     RESD     PHIN     PHID       GR      CAL
# ...
  248.000   19.379    0.439    0.356   47.806  255.168
  248.250   19.403    0.448    0.361   49.489  254.298
  248.500   19.548    0.457    0.362   49.495  253.891
  248.750   19.689    0.442    0.356   50.697  253.900
  249.000   19.832    0.422    0.341   51.002  253.908
  249.250   19.975    0.415    0.331   49.930  254.116
  249.500   20.119    0.423    0.331   47.720  254.424
  249.750   20.294    0.426    0.336   44.932  254.434
  250.000   20.446    0.421    0.338   42.942  254.443
  250.250   20.595    0.422    0.327   42.468  254.451
  250.500   20.512    0.425    0.323   43.790  254.161
  250.750   20.279    0.436    0.319   46.549  253.970
  251.000   20.050    0.447    0.312   49.009  253.680
  251.250   20.013    0.438    0.301   47.459  252.243
  251.500   19.854    0.433    0.303   44.471  251.005
  251.750   19.265    0.460    0.315   43.997  249.418
  252.000   19.013    0.473    0.332   45.499  249.027
  252.250   18.867    0.473    0.349   47.181  249.236
  252.500   18.616    0.468    0.360   48.084  249.645
  252.750   17.983    0.477    0.367   47.841  250.055
  253.000   17.566    0.478    0.374   46.599  250.063
  253.250   17.431    0.465    0.371   44.928  249.672
  253.500   17.201    0.457    0.373   44.155  249.580
  253.750   17.006    0.448    0.376   44.041  249.788
  254.000   16.908    0.441    0.379   44.285  251.094
  254.250   16.902    0.445    0.378   44.531  255.179
  254.500   16.898    0.453    0.376   44.536  255.604
  254.750   16.894    0.450    0.372   44.301  255.214
  255.000   16.889    0.453    0.370   44.067  255.123
  255.250   16.759    0.452    0.372   43.474  253.735
  255.500   16.570    0.448    0.375   42.401  251.249
  255.750   16.539    0.456    0.380   40.772  249.580
  256.000   16.407    0.450    0.382   39.780  249.172
  256.250   16.282    0.462    0.381   38.827  249.181
  256.500   16.157    0.472    0.381   39.131  249.190
  256.750   16.153    0.476    0.381   40.214  249.398
  257.000   16.300    0.470    0.381   42.014  249.706
  257.250   16.540    0.454    0.381   44.945  249.635
  257.500   16.534    0.447    0.381   45.200  249.226
  257.750   16.530    0.464    0.380   45.445  248.438
  258.000   16.526    0.480    0.379   46.947  247.649
  258.250   16.460    0.489    0.379   48.389  247.059
  258.500   16.365    0.489    0.378   49.471  246.668
  258.750   16.361    0.473    0.373   51.164  246.195
  259.000   16.357    0.463    0.373   52.416  245.788
  259.250   16.474    0.483    0.371   53.859  245.399
  259.500   16.686    0.499    0.368   54.762  244.709
  259.750   16.931    0.503    0.360   55.007  244.119
  260.000   17.181    0.493    0.346   54.712  243.829
  260.250   17.513    0.470    0.322   54.539  244.420
  260.500   17.922    0.439    0.307   56.041  247.340
  260.750   18.320    0.451    0.307   59.639  246.950
  261.000   18.419    0.470    0.305   62.877  247.159
  261.250   18.415    0.485    0.304   64.918  248.565
  261.500   18.341    0.494    0.303   65.582  251.167
  261.750   18.037    0.496    0.303   65.250  254.703
  262.000   17.893    0.478    0.302   64.755  256.374
  262.250   17.624    0.468    0.312   62.366  258.779
  262.500   17.458    0.464    0.318   57.642  260.285
  262.750   17.195    0.466    0.323   54.533  260.893
  263.000   16.811    0.477    0.328   54.239  260.900
  263.250   16.410    0.494    0.337   55.203  261.160
  263.500   16.280    0.495    0.337   55.209  262.416
  263.750   16.276    0.496    0.330   56.651  262.025
  264.000   16.363    0.503    0.324   58.812  260.439
  264.250   16.420    0.502    0.326   60.134  258.651
  264.500   16.354    0.491    0.335   60.020  257.363
  264.750   16.108    0.480    0.335   58.429  256.975
  265.000   16.104    0.465    0.314   56.439  256.982
  265.250   16.831    0.435    0.227   55.965  256.992
  265.500   17.688    0.380    0.155   60.341  257.300
  265.750   18.227    0.367    0.174   65.255  257.707
  266.000   18.256    0.406    0.269   69.032  258.014
  266.250   17.897    0.452    0.338   71.882  258.025
  266.500   17.482    0.465    0.321   68.146  258.034
  266.750   17.349    0.463    0.274   62.883  258.444
  267.000   17.312    0.450    0.260   57.978  258.551
  267.250   17.372    0.438    0.281   55.708  258.560
  267.500   17.399    0.426    0.309   56.552  258.569
  267.750   17.111    0.404    0.292   58.844  258.412
  268.000   16.975    0.420    0.304   57.103  257.591
  268.250   16.971    0.454    0.325   54.474  257.200
  268.500   16.872    0.470    0.333   53.102  257.109
  268.750   16.428    0.469    0.333   52.269  257.118
  269.000   15.739    0.457    0.329   51.855  256.927
  269.250   15.139    0.454    0.317   52.590  256.055
  269.500   15.019    0.488    0.292   53.843  255.650
  269.750   14.793    0.478    0.286   52.890  256.456
  270.000   14.735    0.455    0.299   54.093  256.664
  270.250   14.731    0.444    0.322   56.014  256.673
  270.500   14.726    0.449    0.342   57.755  256.682
  270.750   14.768    0.445    0.341   58.759  256.692
  271.000   14.995    0.448    0.334   57.767  256.701
  271.250   14.991    0.471    0.333   58.011  258.306
  271.500   14.988    0.479    0.332   58.975  259.314
  271.750   14.928    0.471    0.331   59.579  259.921
  272.000   14.814    0.456    0.330   59.225  260.428
  272.250   14.700    0.461    0.326   57.744  261.322
  272.500   14.695    0.466    0.319   57.499  261.747
  272.750   14.583    0.473    0.317   58.702  261.754
  273.000   14.552    0.484    0.317   60.264  261.462
  273.250   14.494    0.489    0.317   60.749  260.873
  273.500   14.410    0.484    0.318   59.796  260.284
  273.750   14.406    0.474    0.321   57.777  260.210
  274.000   14.403    0.478    0.320   56.035  259.803
  274.250   14.399    0.462    0.319   55.562  259.812
  274.500   14.395    0.451    0.320   56.166  259.820
  274.750   14.392    0.450    0.324   57.488  259.829
  275.000   14.362    0.455    0.329   59.409  259.839
  275.250   14.251    0.456    0.329   62.051  259.766
  275.500   14.247    0.453    0.322   62.056  259.359
  275.750   14.350    0.457    0.323   61.582  258.968
  276.000   14.373    0.457    0.316   61.108  258.577
  276.250   14.369    0.456    0.309   60.634  258.586
  276.500   14.365    0.458    0.306   60.161  258.995
  276.750   14.339    0.468    0.316   59.739  259.405
  277.000   14.225    0.464    0.330   59.993  259.412
  277.250   14.116    0.466    0.329   59.040  259.422
  277.500   14.007    0.467    0.327   58.805  259.131
  277.750   14.004    0.474    0.325   59.290  258.741
  278.000   14.131    0.484    0.324   60.133  258.351
  278.250   14.405    0.483    0.319   60.469  258.046
  278.500   14.741    0.465    0.304   59.725  258.470
  278.750   14.847    0.443    0.276   59.970  258.479
  279.000   14.788    0.418    0.257   63.627  258.187
  279.250   14.565    0.417    0.243   68.303  258.396
  279.500   14.019    0.439    0.236   72.618  258.804
  279.750   12.338    0.455    0.244   76.815  258.016
  280.000   10.053    0.476    0.257   79.815  258.025
  280.250    8.119    0.458    0.259   80.539  258.033
  280.500    7.487    0.452    0.256   80.544  258.042
  280.750    7.241    0.459    0.253   80.430  258.052
  281.000    7.120    0.475    0.251   80.375  258.161
  281.250    7.172    0.486    0.252   80.191  258.568
  281.500    7.454    0.490    0.262   80.446  258.578
  281.750    7.790    0.466    0.258   77.817  259.385
  282.000    8.099    0.458    0.267   73.931  259.893
  282.250    8.434    0.450    0.274   71.422  260.301
  282.500    8.849    0.443    0.270   71.427  260.708
  282.750    9.421    0.452    0.251   74.536  261.283
  283.000    9.566    0.444    0.236   79.281  262.124
  283.250    9.564    0.446    0.238   82.160  262.931
  283.500    9.191    0.458    0.242   83.064  263.738
  283.750    8.621    0.482    0.246   83.668  264.546
  284.000    8.082    0.502    0.248   84.632  265.154
  284.250    7.762    0.492    0.248   85.496  265.330
