~VERSION INFORMATION
 VERS.                 2.0:   CWLS LOG ASCII STANDARD -VERSION 2.0
 WRAP.                  NO:   ONE LINE PER DEPTH STEP
~WELL INFORMATION BLOCK
#MNEM.UNIT           DATA                    DESCRIPTION OF MNEMONIC
#---------    -------------------            -------------------------------
# Generated from Intellog Unique Number	CN_94_101/WELL/5061
WELL.         16-34-099-13W4                 : Well_name    - WELL
LOC .         AA/16-34-099-13W4/0            : Location     - LOCATION
UWI .         AA/16-34-099-13W400            : Uwi          - UNIQUE WELL ID
ENTR.         TIM                            : Entered      - ENTERED BY
SRVC.         SCHLUMBERGER                   : Scn          - SERVICE COMPANY
DATE.         08/13/92                       : Date         - LOG DATE
STRT.M        344.424                        : top_depth    - START DEPTH
STOP.M        557.674                        : bot_depth    - STOP DEPTH
STEP.M        0.25                           : increment    - STEP LENGTH
 NULL. -999.2500:NULL Value
~CURVE INFORMATION BLOCK
#MNEM UNIT       ERCB CURVE CODE    CURVE DESCRIPTION
#-----------   ------------------   ----------------------------------
DEPT.M        00 001 00 00         : DEPTH        - DEPTH
NPHI.V/V      00 330 00 00         : PHIN         - NEUTRON POROSITY (SANDSTONE)
ILD .OHMM     00 120 00 00         : RESD         - DEEP RESISTIVITY (DIL)
GR  .API      00 310 00 00         : GR           - GAMMA RAY
~PARAMETER INFORMATION
#MNEM.UNIT           DATA             DESCRIPTION OF MNEMONIC
#---------         -----------     ------------------------------
GL  .M        802.081              : gl           - GROUND LEVEL ELEVATION
EREF.M        805.099              : kb           - ELEVATION OF DEPTH REFERENCE
DATM.M        805.099              : datum        - DATUM ELEVATION
TDD .M        560.832              : tdd          - TOTAL DEPTH DRILLER
RUN .         ONE                  : Run          - RUN NUMBER
ENG .         BILL                 : Engineer     - RECORDING ENGINEER
WIT .         JIM                  : Witness      - WITNESSED BY
MUD .         GEL                  : Mud_type     - MUD TYPE
MATR.         SANDSTONE            : Logunit      - NEUTRON MATRIX
TMAX.C        21.1111              : BHT          - MAXIMUM RECORDED TEMPERATURE
BHTD.M        560.832              : BHTDEP       - MAXIMUM RECORDED TEMPERATURE
RMT .C        21.1111              : MDTP         - TEMPERATURE OF MUD
MUDD.KG/M     1090                 : MWT          - MUD DENSITY
NEUT.         1                    : NEUTRON      - NEUTRON TYPE
RESI.         0                    : RESIST       - RESISTIVITY TYPE
RM  .OHMM     6                    : RM           - RESISTIVITY OF MUD
RMC .OHMM     6                    : RMC          - RESISTIVITY OF MUD CAKE
RMF .OHMM     6                    : RMF          - RESISTIVITY OF MUD FILTRATE
SUFT.C        4                    : SUFT         - SURFACE TEMPERATURE
~A  DEPTH     PHIN     RESD       GR
# ...
  452.924    0.376    3.886   86.582
  453.174    0.371    3.962   87.809
  453.424    0.371    4.120   88.628
  453.674    0.372    4.122   90.267
  453.924    0.371    4.203   90.280
  454.174    0.372    4.127   89.889
  454.424    0.432    3.975   89.906
  454.674    0.472    3.686   89.912
  454.924    0.489    3.418   89.521
  455.174    0.471    3.292   89.534
  455.424    0.435    3.231   89.959
  455.674    0.418    3.296   89.976
  455.924    0.417    3.361   89.983
  456.174    0.419    3.429   91.621
  456.424    0.424    3.431   92.032
  456.674    0.459    3.243   92.450
  456.924    0.489    3.123   92.059
  457.174    0.491    3.007   90.461
  457.424    0.498    2.842   88.856
  457.674    0.504    2.844   87.659
  457.924    0.468    2.900   87.261
  458.174    0.431    3.015   86.465
  458.424    0.405    3.195   87.291
  458.674    0.379    3.321   88.114
  458.924    0.364    3.453   87.722
  459.174    0.399    3.454   86.519
  459.424    0.422    3.328   87.345
  459.674    0.420    3.086   88.976
  459.924    0.433    2.860   90.608
  460.174    0.461    2.601   92.243
  460.424    0.489    2.278   92.253
  460.674    0.520    1.848   91.457
  460.924    0.544    1.557   90.665
  461.174    0.556    1.288   90.678
  461.424    0.529    1.150   91.905
  461.674    0.540    1.107   92.728
  461.924    0.555    1.087   93.550
  462.174    0.563    1.067   93.564
  462.424    0.569    1.047   91.959
  462.674    0.579    1.048   89.949
  462.924    0.578    1.154   88.344
  463.174    0.563    1.371   85.934
  463.424    0.540    2.087   87.973
  463.674    0.501    2.254   90.815
  463.924    0.445    2.342   94.069
  464.174    0.383    2.679   95.700
  464.424    0.331    3.064   95.714
  464.674    0.367    3.185   94.918
  464.924    0.421    3.187   94.530
  465.174    0.479    3.250   94.540
  465.424    0.481    3.315   94.554
  465.674    0.476    3.381   94.570
  465.924    0.458    3.383   94.183
  466.174    0.476    3.385   94.189
  466.424    0.478    3.387   94.203
  466.674    0.453    3.455   95.028
  466.924    0.450    3.524   96.256
  467.174    0.437    3.526   93.437
  467.424    0.427    3.596   87.786
  467.674    0.412    3.667   84.567
  467.924    0.381    3.741   86.195
  468.174    0.344    3.815   90.254
  468.424    0.356    3.892   92.293
  468.674    0.426    3.969   93.116
  468.924    0.448    4.048   93.537
  469.174    0.468    4.050   93.547
  469.424    0.491    4.130   91.538
  469.674    0.483    4.133   90.341
  469.924    0.492    3.982   91.160
  470.174    0.512    3.909   92.391
  470.424    0.524    3.838   94.437
  470.674    0.536    3.767   94.851
  470.924    0.547    3.698   95.263
  471.174    0.552    3.630   95.276
  471.424    0.552    3.497   95.293
  471.674    0.556    3.433   95.303
  471.924    0.520    3.371   94.915
  472.174    0.464    3.308   93.307
  472.424    0.377    3.375   87.656
  472.674    0.385    3.377   87.268
  472.924    0.391    3.446   87.282
  473.174    0.391    3.514   85.680
  473.424    0.374    3.515   82.858
  473.674    0.361    3.654   78.017
  473.924    0.348    3.726   67.511
  474.174    0.330    3.948   64.693
  474.424    0.242    4.346   65.515
  474.674    0.203    4.784   74.025
  474.924    0.130    5.367   85.369
  475.174    0.136    5.909   90.241
  475.424    0.273    6.026   92.274
  475.674    0.470    6.029   93.906
  475.924    0.495    5.485   96.350
  476.174    0.510    3.969   96.363
  476.424    0.513    3.041   95.163
  476.674    0.514    2.662   93.962
  476.924    0.517    2.376   91.555
  477.174    0.520    2.423   90.756
  477.424    0.525    2.520   89.552
  477.674    0.529    2.521   88.352
  477.924    0.534    2.522   87.556
  478.174    0.537    2.338   94.451
  478.424    0.541    2.127   95.681
  478.674    0.535    1.899   96.099
  478.924    0.547    1.695   98.135
  479.174    0.605    1.483   99.359
  479.424    0.607    1.299   99.376
  479.674    0.592    1.181   96.149
  479.924    0.591    1.205   91.716
  480.174    0.592    1.326   90.515
  480.424    0.591    1.546   92.552
  480.674    0.565    1.872   92.565
  480.924    0.511    2.100   92.578
  481.174    0.525    2.312   90.973
  481.424    0.547    2.403   91.398
  481.674    0.559    2.546   91.809
  481.924    0.557    2.648   92.234
  482.174    0.555    2.700   91.438
  482.424    0.548    2.807   91.050
  482.674    0.517    2.918   91.462
  482.924    0.473    2.976   92.291
  483.174    0.422    3.094   92.702
  483.424    0.427    3.155   92.311
  483.674    0.508    3.218   92.732
  483.924    0.546    3.283   94.364
  484.174    0.532    3.284   97.209
  484.424    0.484    3.286   99.653
  484.674    0.447    3.226   99.259
  484.924    0.475    3.168   98.062
  485.174    0.537    3.052   96.457
  485.424    0.542    2.995   95.257
  485.674    0.530    2.885   94.869
  485.924    0.496    2.832   94.073
  486.174    0.526    2.728   93.274
  486.424    0.536    2.579   91.669
  486.674    0.552    2.531   90.469
  486.924    0.551    2.485   89.673
  487.174    0.558    2.394   88.473
  487.424    0.569    2.349   88.088
  487.674    0.577    2.306   88.102
  487.924    0.587    2.353   88.516
  488.174    0.589    2.354   89.339
  488.424    0.594    2.311   89.757
  488.674    0.597    2.312   90.990
  488.924    0.595    2.270   91.405
  489.174    0.590    2.186   92.636
  489.424    0.583    2.147   93.458
  489.674    0.574    1.775   94.281
  489.924    0.570    1.615   95.106
  490.174    0.571    1.647   95.518
  490.424    0.572    1.745   95.936
  490.674    0.573    1.779   97.571
  490.924    0.568    1.922   98.798
  491.174    0.556    1.998  100.430
  491.424    0.506    2.199  104.084
  491.674    0.310    2.286  108.147
  491.924    0.362    2.331  104.920
  492.174    0.425    2.334   98.865
  492.424    0.425    2.380   94.023
  492.674    0.372    2.381   91.609
  492.924    0.361    2.125   90.409
  493.174    0.322    1.508   88.811
  493.424    0.376    1.031   86.805
  493.674    0.445    0.836   85.601
  493.924    0.571    0.761   83.187
  494.174    0.592    0.719   80.769
  494.424    0.598    0.719   76.737
  494.674    0.596    0.734   72.705
  494.924    0.591    0.763   65.436
  495.174    0.581    0.808   60.190
  495.424    0.413    0.873   53.730
  495.674    0.397    1.057   52.938
  495.924    0.393    1.329   52.948
  496.174    0.389    2.142   51.343
  496.424    0.387    2.450   50.142
  496.674    0.381    3.802   50.564
  496.924    0.379    5.678   50.581
  497.174    0.382    7.563   50.597
  497.424    0.384    9.158   50.607
  497.674    0.392   10.082   53.449
  497.924    0.406   10.282   72.885
  498.174    0.445   10.094   80.586
  498.424    0.491    6.270   85.859
  498.674    0.529    3.344   86.280
  498.924    0.523    1.888   84.267
  499.174    0.497    1.532   80.235
  499.424    0.391    1.593   79.038
  499.674    0.369    1.624   85.929
  499.924    0.420    1.625   88.774
  500.174    0.454    1.565   90.413
  500.424    0.496    1.508   90.419
  500.674    0.530    1.452   90.028
  500.924    0.525    1.426   88.430
  501.174    0.514    1.454   86.420
  501.424    0.508    1.455   83.599
  501.674    0.510    1.542   73.902
  501.924    0.504    1.542   62.183
  502.174    0.491    1.573   51.270
  502.424    0.480    1.635   47.244
  502.674    0.400    2.307   48.872
  502.924    0.341    3.445   52.527
  503.174    0.348    5.048   56.990
  503.424    0.371    6.986   62.263
  503.674    0.376    7.839   74.822
  503.924    0.355    7.698   74.430
  504.174    0.332    7.412   76.062
  504.424    0.328    6.742   75.671
  504.674    0.353    5.575   71.234
  504.924    0.422    4.610   64.774
  505.174    0.448    3.740   57.910
  505.424    0.427    2.865   57.519
  505.674    0.394    2.813   59.154
  505.924    0.380    3.217   59.976
  506.174    0.366    3.678   59.993
  506.424    0.363    4.995   59.602
  506.674    0.363    6.653   59.207
  506.924    0.363    9.206   57.609
