~Version : LASO    vs 4.00 
VERS.                2.00:   CWLS Log ASCII Standard -VERSION 2.0
WRAP.                  NO:
~Well Information Block
#MNEM.UNIT       Data                        Description of Mnemonic
#----.----      -------------------------- : -----------------------------
STRT.M             1.0000:
STOP.M           202.5000:
STEP.M             0.1000:
NULL.           -999.2500:
COMP.  MOBIL OIL CANADA                    :COMPANY
WELL.  MOBIL 90 CLARKE CREEK 16-31         :WELL
FLD.   CLARKE CREEK                        :FIELD
LOC.   16-31-089-07W4                      :LOCATION
CTRY.  CANADA                              :COUNTRY
PROV.  ALBERTA                             :PROVINCE
SRVC.  BRITISH PLASTERBOARD                :SERVICE COMPANY
DATE.  22-JAN-90                           :LOG DATE
UWI.   AA/16-31-089-07W400                 :UNIQUE WELL ID
~Parameter Information Block
#MNEM.UNIT       Data                        Description of Mnemonic
#----.----      -------------------------- : -----------------------------
RUN .                   1                 : Run Number
GL  .M           453.6000                 : Ground Level Elevation
DREF.                  GD                 : Depth Reference
EREF.M           453.6000                 : Elevation of Depth Reference
TDL .M           204.5000                 : Total Depth Logger
TDD .M           204.5000                 : Total Depth Driller
~Curve Information Block
#MNEM.UNIT        API CODE    Curve Description
#---------    ------------    -------------------------------------------
DEPT.M                    :   DEPTH
CALI.mm                   :   CALI
DPHI.V/V                  :   DPHI
DT  .US/M     60 520  0  1:   2 SONIC INTERVAL TRANSIT TIME (COMPENSATED)
GR  .API                  :   GR
ILD .Ohmm                 :   ILD
NPHI.V/V                  :   NPHI
RHOB.K/M3     45 350  1  1:   3 BULK DENSITY
~A  Depth           CALI        DPHI          DT          GR         ILD        NPHI        RHOB
# ...
25.9000         163.9295      0.4848   -999.2500     30.4865   -999.2500      0.4440   1801.0000
26.0000         164.0526      0.4708   -999.2500     29.4930   -999.2500      0.4521   1792.8000
26.1000         164.0952      0.4495   -999.2500     29.7989   -999.2500      0.4779   1781.8000
26.2000         164.1292      0.4216   -999.2500     29.9758   -999.2500      0.5128   1827.5000
26.3000         164.1619      0.3983   -999.2500     30.5773   -999.2500      0.4752   1766.3000
26.4000         164.1944      0.3382   -999.2500     31.1982   -999.2500      0.4370   1925.0000
26.5000         163.9411      0.2671   -999.2500     32.3182   -999.2500      0.4022   2064.5000
26.6000         163.8754      0.2122   -999.2500     33.1988   -999.2500      0.3674   1977.7000
26.7000         163.8918      0.2002   -999.2500     37.2478   -999.2500      0.3402   2031.7000
26.8000         163.9202      0.1942   -999.2500     41.8718   -999.2500      0.3001   2068.8000
26.9000         163.9525      0.1687   -999.2500     47.0488   -999.2500      0.2888   2004.0000
27.0000         163.9849      0.1534   -999.2500     53.2791   -999.2500      0.2929   2067.3999
27.1000         163.6869      0.1401   -999.2500     58.8814   -999.2500      0.2964   2158.0000
27.2000         163.6617      0.1322   -999.2500     61.8174   -999.2500      0.2903   2168.1001
27.3000         163.3021      0.1274   -999.2500     58.2184   -999.2500      0.2883   2152.3999
27.4000         163.3144      0.1205   -999.2500     52.7624   -999.2500      0.2842   2166.8000
27.5000         163.3413      0.1828   -999.2500     47.6170   -999.2500      0.2887   2177.1001
27.6000         163.0460      0.2455   -999.2500     44.1167   -999.2500      0.2878   2166.8000
27.7000         163.0280      0.2843   -999.2500     43.4994   -999.2500      0.3001   2138.5000
27.8000         163.0344      0.3314   -999.2500     44.0244   -999.2500      0.3048   2034.9000
27.9000         163.0648      0.3579   -999.2500     43.7072   -999.2500      0.3022   1892.5000
28.0000         163.0970      0.3394   -999.2500     43.6202   -999.2500      0.2930   1913.7000
28.1000         163.1294      0.2665   -999.2500     43.6354   -999.2500      0.2825   1934.6000
28.2000         163.1618      0.1828   -999.2500     43.1352   -999.2500      0.2710   1823.7000
28.3000         163.1942      0.1521   -999.2500     42.6125   -999.2500      0.2739   1951.7000
28.4000         163.2266      0.1228   -999.2500     42.0878   -999.2500      0.2827   2111.7000
28.5000         163.2591      0.1202   -999.2500     42.0117   -999.2500      0.3020   2175.3999
28.6000         163.2915      0.1065   -999.2500     41.4919   -999.2500      0.3100   2184.3000
28.7000         162.9447      0.1042   -999.2500     40.9673   -999.2500      0.3079   2225.3999
28.8000         162.9550      0.1088   -999.2500     41.9815   -999.2500      0.3111   2212.2000
28.9000         162.9851      0.1125   -999.2500     43.6435   -999.2500      0.3098   2189.7000
29.0000         163.0173      0.1301   -999.2500     47.0202   -999.2500      0.3086   2195.3000
29.1000         162.6559      0.1509   -999.2500     50.5197   -999.2500      0.2969   2182.3000
29.2000         162.6787      0.1674   -999.2500     53.4843   -999.2500      0.2862   2167.3000
29.3000         162.7106      0.1637   -999.2500     54.3652   -999.2500      0.3016   2193.5000
29.4000         162.7428      0.1511   -999.2500     52.1045   -999.2500      0.3119   2147.6001
29.5000         162.7752      0.1446   -999.2500     49.2758   -999.2500      0.3073   2158.0000
29.6000         162.8076      0.1421   -999.2500     46.4617   -999.2500      0.3078   2151.3999
29.7000         162.8400      0.1353   -999.2500     45.7426   -999.2500      0.3156   2147.0000
29.8000         162.8725      0.1262   -999.2500     45.6932   -999.2500      0.3210   2202.7000
29.9000         162.9049      0.1188   -999.2500     45.1171   -999.2500      0.3088   2213.6001
30.0000         162.9373      0.1088   -999.2500     43.4500   -999.2500      0.2981   2282.2000
30.1000         162.9697      0.0960   -999.2500     42.3210   -999.2500      0.2968   2225.3999
30.2000         163.2953      0.0894   -999.2500     40.7049   -999.2500      0.2950   2243.6001
30.3000         163.4224      0.0875   -999.2500     39.0422   -999.2500      0.2926   2249.5000
30.4000         163.1947      0.0919   -999.2500     37.5209   -999.2500      0.2858   2306.8999
30.5000         162.8129      0.1010   -999.2500     37.5313   -999.2500      0.2787   2228.2000
30.6000         162.3607      0.1091   -999.2500     37.5772   -999.2500      0.2687   2230.8000
30.7000         162.3666      0.1109   -999.2500     38.6411   -999.2500      0.2627   2227.2000
30.8000         162.0504      0.1091   -999.2500     39.8180   -999.2500      0.2568   2196.5000
30.9000         162.0299      0.1027   -999.2500     40.7189   -999.2500      0.2519   2198.6001
31.0000         162.0498      0.0809   -999.2500     40.7926   -999.2500      0.2606   2201.2000
31.1000         162.0818      0.0534   -999.2500     41.3754   -999.2500      0.2608   2248.8999
31.2000         161.7628      0.0244   -999.2500     41.4910   -999.2500      0.2549   2264.8000
31.3000         162.0868      0.0138   -999.2500     42.5107   -999.2500      0.2490   2269.8999
31.4000         161.6290      0.0158   -999.2500     43.3762   -999.2500      0.2452   2273.8999
31.5000         161.4167      0.0280   -999.2500     43.4646   -999.2500      0.2526   2270.2000
31.6000         161.4372      0.0480   -999.2500     44.0369   -999.2500      0.2602   2252.8999
31.7000         161.1222      0.0547   -999.2500     45.6468   -999.2500      0.2695   2302.0000
31.8000         161.1072      0.0500   -999.2500     47.8346   -999.2500      0.2754   2320.7000
31.9000         160.7314      0.0396   -999.2500     50.7525   -999.2500      0.2775   2329.8999
32.0000         160.7590      0.0431   -999.2500     51.5066   -999.2500      0.2703   2303.3999
32.1000         160.7900      0.0620   -999.2500     50.5968   -999.2500      0.2555   2266.8999
32.2000         160.8223      0.0717   -999.2500     51.3426   -999.2500      0.2303   2279.0000
32.3000         161.1235      0.0858   -999.2500     51.1370   -999.2500      0.2334   2275.0000
32.4000         161.2870      0.0750   -999.2500     47.8238   -999.2500      0.2469   2297.8000
32.5000         161.3233      0.0729   -999.2500     43.9163   -999.2500      0.2637   2286.6001
32.6000         161.7095      0.0776   -999.2500     41.9789   -999.2500      0.2725   2267.8999
32.7000         162.1212      0.0933   -999.2500     40.2658   -999.2500      0.2661   2225.8000
32.8000         162.5359      0.0747   -999.2500     39.8808   -999.2500      0.2581   2240.0000
32.9000         163.0476      0.0615   -999.2500     41.0058   -999.2500      0.2680   2305.2000
33.0000         163.4668      0.0577   -999.2500     41.6743   -999.2500      0.2847   2299.0000
33.1000         163.8824      0.0613   -999.2500     43.8003   -999.2500      0.2824   2292.8000
33.2000         164.2976      0.0705   -999.2500     44.2926   -999.2500      0.2735   2279.8000
33.3000         164.4109      0.0638   -999.2500     43.8872   -999.2500      0.2641   2263.8999
33.4000         164.7488      0.0524   -999.2500     43.8029   -999.2500      0.2617   2284.6001
33.5000         164.8529      0.0397   -999.2500     43.8405   -999.2500      0.2693   2257.8999
33.6000         164.9085      0.0307   -999.2500     43.3934   -999.2500      0.2695   2260.3999
33.7000         164.6729      0.0497   -999.2500     43.9214   -999.2500      0.2619   2267.7000
33.8000         163.9740      0.0615   -999.2500     43.4198   -999.2500      0.2548   2264.1001
33.9000         164.1521      0.0699   -999.2500     41.8321   -999.2500      0.2889   2237.8000
34.0000         164.5851      0.0860   -999.2500     41.6913   -999.2500      0.3208   2198.6001
34.1000         164.6622      0.1138   -999.2500     40.7420   -999.2500      0.3196   2143.1001
