~VERSION INFORMATION
 VERS.                 2.0:   CWLS LOG ASCII STANDARD -VERSION 2.0
 WRAP.                  NO:   ONE LINE PER DEPTH STEP
~WELL INFORMATION BLOCK
#MNEM.UNIT           DATA                    DESCRIPTION OF MNEMONIC
#---------    -------------------            -------------------------------
# Generated from Intellog Unique Number	CC_80_83/WELL/2372
NULL.         -999.25                        : NULL_VALUE
WELL.         PEX PCEJU KEANE OV             : Well_name    - WELL              
LOC .         10-26-080-14W4                 : Location     - LOCATION          
UWI .         AA/10-26-080-14W4/0            : Uwi          - UNIQUE WELL ID    
ENTR.         DW                             : Entered      - ENTERED BY        
SRVC.         SCHLUMBERGER                   : Scn          - SERVICE COMPANY   
DATE.         25 JAN 81                      : Date         - LOG DATE
STRT.M        240                            : top_depth    - START DEPTH       
STOP.M        484.791                        : bot_depth    - STOP DEPTH        
STEP.M        0.3                            : increment    - STEP LENGTH       
~CURVE INFORMATION BLOCK
#MNEM UNIT       ERCB CURVE CODE    CURVE DESCRIPTION
#-----------   ------------------   ----------------------------------
DEPT.M        00 001 00 00         : DEPTH        - DEPTH                       
DPHI.V/V      00 890 00 00         : PHID         - DENSITY POROSITY (LIMESTONE)
NPHI.V/V      00 330 00 00         : PHIN         - NEUTRON POROSITY (LIMESTONE)
GR  .API      00 310 00 00         : GR           - GAMMA RAY                   
ILD .OHMM     00 120 00 00         : RESD         - DEEP RESISTIVITY (DIL)      
~PARAMETER INFORMATION       
#MNEM.UNIT           DATA             DESCRIPTION OF MNEMONIC
#---------         -----------     ------------------------------
GL  .M        669.37               : gl           - GROUND LEVEL ELEVATION      
EREF.M        672.27               : kb           - ELEVATION OF DEPTH REFERENCE
DATM.M        672.27               : datum        - DATUM ELEVATION             
TDD .M        492                  : tdd          - TOTAL DEPTH DRILLER         
RUN .         ONE                  : Run          - RUN NUMBER                  
ENG .         BILL                 : Engineer     - RECORDING ENGINEER          
WIT .         JIM                  : Witness      - WITNESSED BY                
MUD .         GEL                  : Mud_type     - MUD TYPE                    
MATR.         LIMESTONE            : Logunit      - NEUTRON MATRIX              
TMAX.C        28                   : BHT          - MAXIMUM RECORDED TEMPERATURE
BHTD.M        492                  : BHTDEP       - MAXIMUM RECORDED TEMPERATURE
MATR.         1                    : LOGUNIT      - NEUTRON MATRIX              
RMT .C        25                   : MDTP         - TEMPERATURE OF MUD          
NEUT.         1                    : NEUTRON      - NEUTRON TYPE                
RESI.         0                    : RESIST       - RESISTIVITY TYPE            
RMC .OHMM     0.25                 : RMC          - RESISTIVITY OF MUD CAKE     
RMF .OHMM     0.25                 : RMF          - RESISTIVITY OF MUD FILTRATE 
SUFT.C        4                    : SUFT         - SURFACE TEMPERATURE         
~A  DEPTH     PHID     PHIN       GR     RESD
# ...
  448.792    0.220    0.361   62.855   40.728
  449.092    0.260    0.319   50.962   68.658
  449.392    0.297    0.301   52.807  111.358
  449.692    0.304    0.303   54.022   85.062
  449.992    0.304    0.308   35.885   55.676
  450.292    0.293    0.324   35.858   45.057
  450.592    0.218    0.328   40.829   28.374
  450.892    0.226    0.336   77.642   25.294
  451.192    0.202    0.375   84.485   23.001
  451.492    0.180    0.374   90.701   22.134
  451.792    0.195    0.373  120.026   20.923
  452.092    0.210    0.366  107.506   20.134
  452.392    0.208    0.375  104.982   20.157
  452.692    0.248    0.386  115.571   20.565
  452.992    0.207    0.391  122.412   20.982
  453.292    0.230    0.355  105.517   21.002
  453.592    0.210    0.355   83.008   19.087
  453.892    0.206    0.392   92.974   19.860
  454.192    0.199    0.385   89.198   17.363
  454.492    0.175    0.394   96.665   16.398
  454.792    0.168    0.412  109.126   15.193
  455.092    0.164    0.418  115.343   13.031
  455.392    0.157    0.437  117.816   11.841
  455.692    0.160    0.430  125.904   11.852
  455.992    0.170    0.413  129.000   11.636
  456.292    0.170    0.424  115.856   12.827
  456.592    0.173    0.427  122.696   14.416
  456.892    0.181    0.416  117.669   16.518
  457.192    0.187    0.405  113.900   18.560
  457.492    0.187    0.390  110.116   21.266
  457.792    0.193    0.352  108.847   24.366
  458.092    0.209    0.355   90.706   27.918
  458.392    0.221    0.364   86.308   30.776
  458.692    0.242    0.340   75.039   31.405
  458.992    0.241    0.339   71.262   30.244
  459.292    0.220    0.334   66.865   28.563
  459.592    0.212    0.332   64.958   26.981
  459.892    0.201    0.340   70.555   26.495
  460.192    0.211    0.362   86.136   27.032
  460.492    0.248    0.375   94.854   28.117
  460.792    0.256    0.367   74.217   30.402
  461.092    0.260    0.359   66.696   32.246
  461.392    0.272    0.352   80.407   36.946
  461.692    0.292    0.341   57.892   42.332
  461.992    0.298    0.335   54.121   48.504
  462.292    0.308    0.321   58.460   44.941
  462.592    0.321    0.338   54.689   40.835
  462.892    0.241    0.326   56.536   36.403
  463.192    0.204    0.360   87.108   34.386
  463.492    0.212    0.358   83.326   33.760
  463.792    0.238    0.358   76.434   34.444
  464.092    0.243    0.361   84.525   35.833
  464.392    0.254    0.345   80.121   38.006
  464.692    0.258    0.342   74.476   40.317
  464.992    0.242    0.356   66.954   42.761
  465.292    0.232    0.366   70.049   44.478
  465.592    0.248    0.377   63.773   46.264
  465.892    0.262    0.387   60.001   48.130
  466.192    0.275    0.397   56.847   51.048
  466.492    0.288    0.395   51.201   53.107
  466.792    0.266    0.386   52.421   56.326
  467.092    0.267    0.348   59.264   58.599
  467.392    0.271    0.329   59.227   59.785
  467.692    0.299    0.324   56.706   57.575
  467.992    0.306    0.327   49.185   55.446
  468.292    0.276    0.319   59.771   52.374
  468.592    0.277    0.308   47.882   50.428
  468.892    0.286    0.305   46.604   47.634
  469.191    0.290    0.320   62.813   36.386
  469.491    0.284    0.325   70.902   33.713
  469.791    0.228    0.331   77.742   30.048
  470.091    0.231    0.330   82.088   26.274
  470.391    0.241    0.341   82.055   22.104
  470.691    0.250    0.334   72.661   17.549
  470.991    0.256    0.349   65.763   15.946
  471.291    0.259    0.364   60.740   12.180
  471.591    0.260    0.383   54.465    9.859
  471.891    0.253    0.381   54.440    9.493
  472.191    0.227    0.356   71.897    9.501
  472.491    0.237    0.359   72.493    9.696
  472.791    0.246    0.364   71.218   10.087
  473.091    0.222    0.369   80.558   10.494
  473.391    0.228    0.371   83.021   10.917
  473.691    0.248    0.373   77.376   10.925
  473.991    0.259    0.379   67.983   10.935
  474.291    0.263    0.381   61.083   11.159
  474.591    0.246    0.380   62.932   11.609
  474.891    0.205    0.374   77.267   11.620
  475.191    0.219    0.365   74.112   11.409
  475.491    0.231    0.352   69.091   10.985
  475.791    0.214    0.351   82.177    9.792
  476.091    0.219    0.378   74.656    9.614
  476.391    0.204    0.372   80.249   10.002
  476.691    0.206    0.387   92.085   10.813
  476.991    0.279    0.374   45.844   12.631
  477.291    0.282    0.342   36.447   15.335
  477.591    0.233    0.341   54.528   18.262
  477.891    0.198    0.321   53.878   22.172
  478.191    0.154    0.275   20.123   31.416
  478.491    0.000    0.171   19.475   61.806
  478.791    0.000    0.156   36.934  110.404
  479.091    0.003    0.166   41.276  112.661
  479.391    0.011    0.181   14.396  110.610
  479.691    0.008    0.192    8.120   94.886
  479.991    0.005    0.178    8.093   82.937
  480.291    0.008    0.176   18.683   67.130
  480.591    0.019    0.203   24.898   65.908
  480.891    0.032    0.190   57.969   71.266
  481.191    0.043    0.161   12.974   78.548
  481.491    0.050    0.166   12.947   95.365
  481.791    0.045    0.162   16.037   90.083
  482.091    0.004    0.153   39.122   72.914
  482.391    0.005    0.146   55.331   60.168
  482.691    0.012    0.192   69.040   61.387
  482.991    0.008    0.212   97.739   65.108
  483.291    0.002    0.174   42.755   70.401
  483.591    0.006    0.139   27.737   74.669
  483.891    0.011    0.145   28.331   71.908
  484.191    0.021    0.165   33.304   67.925
  484.491    0.029    0.206   58.255   62.923
  484.791    0.029    0.221   69.468   52.936
