~Version : LASO    vs 4.00 - DATA COPYRIGHT - RILEYS DATASHARE INTERNATIONAL
 VERS.                2.0 :   CWLS Log ASCII Standard -VERSION 2.0
 WRAP.                 NO :   One line per depth step
~Well Information Block
#MNEM.UNIT       Data                        Description of Mnemonic
#----.----      -------------------------- : -----------------------------
 STRT.FT           30.0000                 : Start Depth
 STOP.FT          463.0000                 : End Depth
 STEP.FT            0.5000                 : Depth Increment
 NULL.           -999.25                   : NULL Value
 COMP.    PACIFIC PETROLEUMS LIMITED       : COMPANY
 WELL.    BAYSEL-ASHLAND STPBK CH#21 13-30 : WELL NAME
 FLD .    STPBK. OIL SANDS                 : FIELD NAME
 LOC .    13-30-091-08W4                     : WELL LOCATION
 PROV.    ALBERTA                          : PROVINCE
 SRVC.    SCHLUMBERGER                     : LOGGING SERVICE COMPANY
 DATE.    01-MAR-73                        : DATE LOGGED
 UWI .    AA/13-30-091-08W400              : UNIQUE WELL ID
~Curve Information Block
#MNEM.UNIT        API CODE                   Curve Description
#----.----      LG--CV-CL--M               : -----------------
 DEPT.FT         0   1  0  0               : 1 DEPTH
 CALI.IN        45 280  1  1               : 2 DENSITY CALIPER
 DPHI.%         45 890 12  1               : 3 DENSITY POROSITY (SANDSTONE)
 GR  .GAPI      45 310  1  1               : 4 GAMMA RAY
 RHOB.G/C3      45 350  1  1               : 5 BULK DENSITY
 LLS .OHMM      11 220  9  1               : 6 FOCUSSED RESISTIVITY
 SP  .MV        11  10  1  1               : 7 SPONTANEOUS POTENTIAL
 NPHI.%         41 890  3  1               : 8 NEUTRON POROSITY (SANDSTONE)
~Parameter Information Block
#MNEM.UNIT       Data                        Description of Mnemonic
#----.----      -------------------------- : -----------------------------
 RUN .                   1                 : Run Number
 GL  .FT         1240.0000                 : Ground Level Elevation
 DREF.                  KB                 : Depth Reference
 EREF.FT         1244.0000                 : Elevation of Depth Reference
 TDL .FT          464.0000                 : Total Depth Logger
 TDD .FT          455.0000                 : Total Depth Driller
 CSGL.FT            0.0000                 : Casing Bottom Logger
 CSGD.FT            0.0000                 : Casing Bottom Driller
 CSGS.IN          219.0000                 : Casing Size
 CSGW.LBS           0.0000                 : Casing Weight
 BHT .DEGF         52.0000                 : Bottom Hole Temperature
 BS  .IN            6.2500                 : Bit Size
 DFD .           1110.0000                 : Mud Weight (Density)
 DFV .             89.0000                 : Mud Viscosity
 DFL .              4.5000                 : Mud Fluid Loss
 DFPH.              9.0000                 : Mud pH
 RM  .OHMM          4.6200                 : Mud Resistivity
 RMT .DEGF         49.0000                 : Mud Resistivity Temperature
 RMF .OHMM          5.0000                 : Mud Filtrate Resistivity
 RMFT.DEGF         20.0000                 : RMF Temperature
 RMC .OHMM          5.3000                 : Mud Cake Resistivity
 RMCT.DEGF         20.0000                 : RMC Temperature
~Asc DEPTH      CALI       DPHI       GR         RHOB       LLS        SP         NPHI 
# ...
  121.0000     7.2290    30.0420    78.7000     2.1519     5.7469    73.4400    48.2940
  121.5000     7.2320    30.5160    78.5000     2.1437     5.3141    74.7000    51.4380
  122.0000     7.2330    31.6440    79.5700     2.1241     4.8914    75.4350    55.8540
  122.5000     7.2340    32.5920    82.2300     2.1058     4.9412    76.5750    57.4860
  123.0000     7.2350    33.2040    80.9400     2.0970     5.0470    78.8250    52.6980
  123.5000     7.2450    32.9460    78.7900     2.0995     5.1836    81.1200    51.7200
  124.0000     7.2610    32.1960    77.1800     2.1059     5.9187    80.3700    47.8320
  124.5000     7.2770    31.2960    75.7800     2.1191     6.8396    80.1450    47.0580
  125.0000     7.2970    30.3660    74.6800     2.1323     7.9037    78.9300    48.1260
  125.5000     7.3380    29.4660    73.9400     2.1652     8.8681    76.3800    46.4700
  126.0000     7.3790    28.8240    73.2600     2.1770    10.2383    75.5100    44.3160
  126.5000     7.4120    28.4580    74.7700     2.1810    10.1726    75.1200    45.5760
  127.0000     7.4390    28.3860    76.4800     2.1829    10.1072    74.8800    46.8360
  127.5000     7.4590    28.9140    73.7800     2.1680    10.3521    74.6400    47.9100
  128.0000     7.4310    28.7580    74.2600     2.1759    11.0314    74.3850    47.8020
  128.5000     7.3930    29.0160    73.7100     2.1660    12.1627    74.1300    46.9620
  129.0000     7.2490    29.2080    72.5400     2.1667    13.9646    73.8750    46.3020
  129.5000     7.0440    28.9800    71.1600     2.1678    16.1521    73.3950    44.8500
  130.0000     7.0150    28.6020    69.8800     2.1731    17.9900    72.8850    43.5300
  130.5000     6.9950    27.9720    68.9800     2.1866    15.1018    72.2400    44.1960
  131.0000     7.0400    27.2700    70.5900     2.2057    13.1410    73.8300    44.9760
  131.5000     7.1380    26.4060    73.4400     2.2143    11.4454    75.4800    43.8900
  132.0000     7.2390    25.5180    74.4500     2.2318    10.2951    73.2750    42.2700
  132.5000     7.3410    24.6060    75.2100     2.2519    13.2504    71.2650    40.5600
  133.0000     7.3950    23.6940    74.1000     2.2632    16.2716    69.5550    39.0180
  133.5000     7.4200    22.8000    74.4100     2.2732    17.3392    68.4600    37.5780
  134.0000     7.1430    22.0380    74.6100     2.2831    17.7922    67.3500    36.5520
  134.5000     7.0160    21.4860    73.7800     2.2921    17.3872    66.1350    36.4380
  135.0000     7.0310    21.2700    76.3300     2.2966    16.0927    65.2050    35.9520
  135.5000     6.9890    21.1260    77.1900     2.2991    15.5679    65.7600    35.6760
  136.0000     6.9360    21.1860    75.0600     2.2996    15.7119    65.3400    35.9880
  136.5000     6.9040    20.8140    71.8400     2.3007    14.3559    65.0100    32.8320
  137.0000     6.9050    19.9980    68.4300     2.3113    22.2756    64.6800    32.0880
  137.5000     6.9060    18.3840    63.3500     2.3428    33.1917    64.5450    30.6840
  138.0000     6.9070    15.8400    61.6300     2.4027    57.1518    66.5100    28.4160
  138.5000     6.9090    12.5040    60.0600     2.4678    43.8763    68.1750    26.1480
  139.0000     6.9130     8.6880    60.2100     2.5329    29.0155    69.4200    23.7960
  139.5000     6.9170     4.4880    62.0100     2.5784    19.1880    69.2400    28.6560
  140.0000     6.9210    10.2420    64.3600     2.4376    12.8065    67.6200    33.7200
  140.5000     6.9250    16.6380    66.0700     2.3293    12.8775    66.3450    38.1660
  141.0000     6.9290    23.0340    67.3500     2.2429    12.9966    66.0000    40.5120
  141.5000     6.9320    26.1360    66.8500     2.2211    13.1410    65.8200    40.0800
  142.0000     6.9370    26.4480    66.7200     2.2148    12.4231    67.3050    38.9280
  142.5000     6.9420    26.4540    69.9700     2.2118    11.8749    68.7750    39.2880
  143.0000     6.9470    26.4000    68.5400     2.2113    12.0069    69.1050    38.6940
  143.5000     6.9520    26.3100    70.1700     2.2105    11.7228    69.6750    39.8700
  144.0000     6.9460    26.0700    72.1500     2.2139    11.9737    71.0550    42.2220
  144.5000     6.9410    25.5420    70.7500     2.2205    12.0734    73.4550    42.4500
  145.0000     6.9360    24.9900    68.0000     2.2303    12.0290    76.6200    44.7000
  145.5000     6.9240    24.7740    65.6000     2.2381    11.9848    76.1100    42.9180
  146.0000     6.9020    25.0740    64.0000     2.2347    13.4968    74.3850    40.4880
  146.5000     6.8850    25.3200    58.9100     2.2353    13.6593    72.7350    40.1580
  147.0000     6.8760    24.9660    59.2300     2.2390    13.1169    71.4000    39.4860
  147.5000     6.9420    24.1800    61.4300     2.2490    11.7444    71.4150    38.4180
  148.0000     7.0720    22.7280    65.0600     2.2621    11.0619    71.4600    37.5420
  148.5000     7.2250    20.9820    68.4000     2.3063    10.7406    71.1450    38.6820
  149.0000     7.3470    21.7980    70.4200     2.2922    10.7803    70.6950    39.8040
  149.5000     7.4110    22.6620    72.1100     2.2741    10.8002    70.3950    39.4860
  150.0000     7.4620    23.9400    73.9900     2.2506    10.6422    70.1400    39.2520
  150.5000     7.4910    23.9280    75.0800     2.2517    10.5349    70.8600    39.4080
  151.0000     7.5260    23.9040    76.7400     2.2532    10.3046    71.7300    39.3840
  151.5000     7.5640    23.8800    78.3800     2.2547    10.1258    72.1350    41.9400
  152.0000     7.6040    23.8200    79.3500     2.2565     9.8862    72.5400    42.8100
  152.5000     7.6580    23.5200    79.6900     2.2618     9.4326    72.9300    42.3900
  153.0000     7.6520    23.5620    77.9900     2.2595     8.9749    73.2600    41.8500
  153.5000     7.6140    23.6280    75.8800     2.2576     8.8192    72.9750    41.2980
  154.0000     7.6700    22.8180    77.2600     2.2640    11.0111    72.5850    41.8980
  154.5000     7.6510    22.2480    78.7400     2.2722    13.3116    72.3450    39.9540
  155.0000     7.6070    21.7020    78.1400     2.2824    15.5679    72.1650    38.0340
  155.5000     7.5130    21.5040    77.6200     2.2922    16.9914    72.1200    36.0120
  156.0000     7.4280    21.8640    76.2800     2.2879    12.3774    73.2600    37.3740
  156.5000     7.4590    22.1400    77.3000     2.2838     9.8862    72.4800    38.6340
  157.0000     7.4860    23.2620    78.8800     2.2715    10.2572    72.7050    40.5060
  157.5000     7.5200    23.9280    79.0900     2.2534    10.9706    73.0050    40.9080
  158.0000     7.5740    23.1960    79.3000     2.2647    11.1232    73.6800    41.1840
  158.5000     7.5470    22.7100    79.4500     2.2745    10.5543    75.4200    42.6060
  159.0000     7.5040    23.6580    78.3700     2.2556     9.9044    76.4400    42.1920
  159.5000     7.4770    24.5040    77.1200     2.2387     9.4500    76.0650    42.7500
  160.0000     7.4500    25.5120    71.4000     2.2248     9.2264    75.7650    41.6460
  160.5000     7.4440    24.3660    71.9600     2.2378     8.4223    75.3300    43.7640
  161.0000     7.4410    24.3960    73.3200     2.2438     7.7594    74.6100    43.2120
  161.5000     7.4380    24.4500    75.5400     2.2451     7.7309    73.9200    42.7020
  162.0000     7.4330    24.7500    77.8300     2.2397     9.5903    73.3350    42.2760
  162.5000     7.4280    25.0140    79.1900     2.2351    10.6422    72.7500    41.5380
  163.0000     7.4230    24.5580    79.8900     2.2433    11.7660    72.3150    40.8000
  163.5000     7.4200    24.5580    76.2600     2.2427    10.4191    72.0150    40.6920
  164.0000     7.4680    24.6660    74.4900     2.2413     9.0413    71.8950    41.5260
  164.5000     7.4980    24.4740    76.3700     2.2401     7.7025    71.1000    40.9500
  165.0000     7.5110    24.3300    78.2500     2.2508     7.2482    71.3250    40.8000
  165.5000     7.5030    24.1920    79.5700     2.2490     7.2482    71.5800    44.0280
  166.0000     7.4790    24.4680    76.2900     2.2455     9.6256    70.8600    43.1220
