~VERSION INFORMATION
 VERS.                 2.0:   CWLS LOG ASCII STANDARD -VERSION 2.0
 WRAP.                  NO:   ONE LINE PER DEPTH STEP
~WELL INFORMATION BLOCK
#MNEM.UNIT           DATA                    DESCRIPTION OF MNEMONIC
#---------    -------------------            -------------------------------
# Generated from Intellog Unique Number	CC_80_83/WELL/2426
NULL.         -999.25                        : NULL_VALUE
WELL.         ARCO ACI MCMURRAY OV           : Well_name    - WELL
LOC .         12-08-083-10W4                 : Location     - LOCATION          
UWI .         AA/12-08-083-10W400            : Uwi          - UNIQUE WELL ID    
ENTR.         DW                             : Entered      - ENTERED BY        
SRVC.         SCHLUMBERGER                   : Scn          - SERVICE COMPANY   
DATE.         12 MAR 74                      : Date         - LOG DATE
STRT.M        262.128                        : top_depth    - START DEPTH       
STOP.M        499.879                        : bot_depth    - STOP DEPTH        
STEP.M        0.305                          : increment    - STEP LENGTH       
~CURVE INFORMATION BLOCK
#MNEM UNIT       ERCB CURVE CODE    CURVE DESCRIPTION
#-----------   ------------------   ----------------------------------
DEPT.M        00 001 00 00         : DEPTH        - DEPTH                       
DPHI.V/V      00 890 00 00         : PHID         - DENSITY POROSITY (LIMESTONE)
GR  .API      00 310 00 00         : GR           - GAMMA RAY                   
ILD .OHMM     00 120 00 00         : RESD         - DEEP RESISTIVITY (DIL)      
NPHI.V/V      00 330 00 00         : PHIN         - NEUTRON POROSITY (LIMESTONE)
~PARAMETER INFORMATION       
#MNEM.UNIT           DATA             DESCRIPTION OF MNEMONIC
#---------         -----------     ------------------------------
GL  .M        729.844              : gl           - GROUND LEVEL ELEVATION      
EREF.M        732.892              : kb           - ELEVATION OF DEPTH REFERENCE
DATM.M        732.892              : datum        - DATUM ELEVATION             
TDD .M        501.701              : tdd          - TOTAL DEPTH DRILLER         
RUN .         ONE                  : Run          - RUN NUMBER                  
ENG .         BILL                 : Engineer     - RECORDING ENGINEER          
WIT .         JIM                  : Witness      - WITNESSED BY                
MUD .         GEL                  : Mud_type     - MUD TYPE                    
MATR.         LIMESTONE            : Logunit      - NEUTRON MATRIX              
TMAX.C        28.8889              : BHT          - MAXIMUM RECORDED TEMPERATURE
BHTD.M        501.701              : BHTDEP       - MAXIMUM RECORDED TEMPERATURE
MATR.         1                    : LOGUNIT      - NEUTRON MATRIX              
RMT .C        25                   : MDTP         - TEMPERATURE OF MUD          
NEUT.         1                    : NEUTRON      - NEUTRON TYPE                
RESI.         0                    : RESIST       - RESISTIVITY TYPE            
RMC .OHMM     0.25                 : RMC          - RESISTIVITY OF MUD CAKE     
RMF .OHMM     0.25                 : RMF          - RESISTIVITY OF MUD FILTRATE 
SUFT.C        15                   : SUFT         - SURFACE TEMPERATURE         
~A  DEPTH     PHID       GR     RESD     PHIN
# ...
  421.239    0.247   80.561    8.842    0.374
  421.543    0.246   82.201    9.523    0.342
  421.848    0.248   81.424   10.069    0.349
  422.153    0.281   79.426    9.522    0.420
  422.458    0.320   78.649    8.840    0.451
  422.763    0.351   79.481    8.517    0.461
  423.067    0.371   81.132    8.360    0.457
  423.372    0.306   80.344    8.676    0.364
  423.677    0.244   75.116    9.520    0.366
  423.982    0.249   72.715    9.698    0.352
  424.287    0.265   69.105    9.172    0.348
  424.591    0.302   67.517    9.171    0.394
  424.896    0.335   78.458    8.514    0.421
  425.201    0.401   80.914    7.759    0.458
  425.506    0.372   72.045    6.325    0.502
  425.811    0.336   70.460    5.764    0.501
  426.116    0.309   72.912    4.787    0.510
  426.420    0.310   72.535    4.282    0.536
  426.725    0.296   80.645    4.125    0.446
  427.030    0.279   82.702    4.281    0.419
  427.335    0.288   82.723    5.060    0.401
  427.640    0.271   82.348    5.980    0.372
  427.944    0.256   81.969    7.755    0.360
  428.249    0.232   76.743    8.509    0.370
  428.554    0.243   69.083    8.995    0.361
  428.859    0.233   64.265    9.164    0.326
  429.164    0.183   63.073   10.435    0.267
  429.468    0.058   62.702   13.283    0.098
  429.773    0.004   61.512   15.410    0.081
  430.078    0.040   55.877   16.908    0.128
  430.383    0.092   40.941   17.224    0.294
  430.688    0.165   42.587   15.696    0.348
  430.992    0.235   52.727   13.035    0.393
  431.297    0.260   63.265    9.159    0.428
  431.602    0.279   73.815    8.503    0.449
  431.907    0.291   75.454    7.606    0.443
  432.212    0.298   78.717    7.466    0.476
  432.517    0.256   80.361    7.465    0.472
  432.821    0.236   75.941    7.747    0.446
  433.126    0.277   75.160    7.892    0.437
  433.431    0.287   72.356    7.892    0.426
  433.736    0.300   74.814    7.746    0.434
  434.041    0.308   80.098    7.326    0.459
  434.345    0.335   80.125    6.801    0.489
  434.650    0.367   78.529    5.544    0.537
  434.955    0.432   77.750    3.550    0.539
  435.260    0.313   76.158    3.060    0.535
  435.565    0.287   72.547    2.948    0.489
  435.869    0.270   62.063    3.060    0.436
  436.174    0.316   60.471    3.895    0.411
  436.479    0.277   62.924    4.777    0.385
  436.784    0.257   66.590    5.860    0.402
  437.089    0.259   63.791    6.195    0.380
  437.393    0.301   60.987    6.311    0.379
  437.698    0.299   65.064    5.645    0.400
  438.003    0.354   67.915    4.688    0.448
  438.308    0.337   68.348    3.893    0.527
  438.613    0.326   73.229    3.751    0.545
  438.918    0.295   74.872    4.116    0.507
  439.222    0.275   74.095    4.775    0.418
  439.527    0.209   70.883    5.643    0.340
  439.832    0.160   67.675    5.643    0.288
  440.137    0.265   61.637    4.774    0.456
  440.442    0.313   57.216    4.192    0.493
  440.746    0.303   58.455    3.613    0.505
  441.051    0.323   74.254    3.292    0.495
  441.356    0.305   81.965    3.232    0.489
  441.661    0.287   81.183    3.354    0.484
  441.966    0.282   78.784    3.891    0.475
  442.270    0.285   79.221    4.113    0.493
  442.575    0.265   79.248    4.190    0.481
  442.880    0.244   82.911    4.113    0.461
  443.185    0.227   83.749    4.113    0.430
  443.490    0.194   78.115    4.348    0.421
  443.794    0.172   75.716    4.597    0.444
  444.099    0.274   72.105    4.597    0.461
  444.404    0.307   74.963    4.429    0.474
  444.709    0.291   83.480    4.036    0.494
  445.014    0.274   90.383    3.888    0.460
  445.319    0.262   91.624    4.266    0.424
  445.623    0.314   85.586    4.858    0.396
  445.928    0.286   84.010    5.431    0.369
  446.233    0.272   83.619    6.184    0.390
  446.538    0.275   76.771    6.913    0.377
  446.843    0.262   74.782    7.445    0.371
  447.147    0.188   74.803    7.584    0.330
  447.452    0.153   72.412    7.584    0.335
  447.757    0.323   67.579    7.870    0.339
  448.062    0.285   58.711    8.636    0.322
  448.367    0.295   63.593    9.130    0.325
  448.671    0.327   68.472    9.129    0.336
  448.976    0.333   70.526    8.961    0.397
  449.281    0.325   68.933    8.633    0.444
  449.586    0.299   77.452    8.474    0.398
  449.891    0.260   80.318    8.165    0.379
  450.195    0.240   78.721    8.014    0.392
  450.500    0.231   87.239    8.317    0.398
  450.805    0.231   94.952    8.631    0.385
  451.110    0.254   92.552    8.792    0.370
  451.415    0.242   90.963    8.792    0.335
  451.720    0.203   90.186    8.956    0.331
  452.024    0.222   91.016   10.199    0.332
  452.329    0.240   92.661   11.400    0.290
  452.634    0.234   93.099   12.743    0.280
  452.939    0.239   90.693   14.244    0.286
  453.244    0.234   75.757   15.341    0.290
  453.548    0.262   81.044   15.921    0.296
  453.853    0.235   78.644   15.920    0.310
  454.158    0.226   68.156   15.919    0.301
  454.463    0.223   69.406   15.337    0.298
  454.768    0.223   73.069   15.055    0.325
  455.072    0.224   76.331   13.219    0.329
  455.377    0.214   77.972   12.502    0.332
  455.682    0.226   79.213   12.271    0.327
  455.987    0.238   80.860   13.217    0.298
  456.292    0.250   82.511   15.050    0.292
  456.596    0.225   80.916   15.912    0.299
  456.901    0.246   63.146   16.513    0.316
  457.206    0.240   72.129   12.738    0.316
  457.511    0.260   70.129   12.053    0.344
  457.816    0.251   62.887   12.515    0.341
  458.121    0.258   61.295   15.361    0.322
  458.425    0.297   73.418   22.280    0.361
  458.730    0.364   77.473   69.210    0.377
  459.035    0.352   56.918   81.846    0.337
  459.340    0.334   34.347   83.430    0.328
  459.645    0.338   31.141   78.941    0.336
  459.949    0.332   39.243   71.995    0.354
  460.254    0.327   40.464   72.024    0.332
  460.559    0.345   43.309   66.895    0.333
  460.864    0.341   46.150   49.725    0.329
  461.169    0.324   42.537   32.453    0.356
  461.473    0.309   43.767   29.048    0.366
  461.778    0.301   51.455   29.607    0.372
  462.083    0.304   61.558   35.013    0.349
  462.388    0.318   61.177   48.035    0.333
  462.693    0.334   39.010   52.735    0.324
  462.997    0.336   30.963   48.088    0.315
  463.302    0.313   29.371   39.221    0.300
  463.607    0.291   29.387   29.698    0.292
  463.912    0.262   33.041   21.271    0.287
  464.217    0.237   44.354   18.687    0.278
  464.522    0.223   63.739   13.890    0.275
  464.826    0.218   73.037   10.716    0.276
  465.131    0.208   79.916    9.771    0.315
  465.436    0.203   82.355    9.421    0.327
  465.741    0.199   86.010    9.424    0.354
  466.046    0.206   90.464    9.431    0.396
  466.350    0.247   92.906    9.435    0.384
  466.655    0.242   85.260    9.097    0.370
  466.960    0.239   78.423    9.099    0.377
  467.265    0.233   87.724   10.177    0.385
  467.570    0.239   84.522   12.490    0.357
  467.874    0.298   84.138   17.137    0.326
  468.179    0.288   83.345   21.032    0.315
  468.484    0.282   62.792   21.437    0.324
  468.789    0.271   65.235   17.486    0.303
  469.094    0.243   69.691   14.000    0.305
  469.398    0.225   73.745   12.073    0.281
  469.703    0.239   82.239   12.080    0.274
  470.008    0.245   89.519   13.260    0.294
  470.313    0.272   96.401   18.193    0.303
  470.618    0.329   94.804   23.176    0.323
  470.923    0.304   69.006   23.189    0.299
  471.227    0.283   47.243   18.564    0.281
  471.532    0.266   53.716   15.425    0.263
  471.837    0.258   64.225   16.624    0.255
  472.142    0.252   66.266   21.570    0.263
  472.447    0.263   65.477   27.474    0.297
  472.751    0.340   59.447   36.322    0.344
  473.056    0.336   35.666   37.716    0.328
  473.361    0.335   28.832   28.036    0.330
  473.666    0.343   27.235   22.866    0.353
  473.971    0.346   35.326   18.652    0.356
