~VERSION INFORMATION
 VERS.                 2.0:   CWLS LOG ASCII STANDARD -VERSION 2.0
 WRAP.                  NO:   ONE LINE PER DEPTH STEP
~WELL INFORMATION BLOCK
#MNEM.UNIT           DATA                    DESCRIPTION OF MNEMONIC
#---------    -------------------            -------------------------------
# Generated from Intellog Unique Number	CW_79_81/WELL/2480
WELL.         11-02-081-22W4                 : Well_name    - WELL
LOC .         AA/11-02-081-22W4/0            : Location     - LOCATION
UWI .         AA/11-02-081-22W4/0            : Uwi          - UNIQUE WELL ID
ENTR.         MAX                            : Entered      - ENTERED BY
SRVC.         SCHLUMBERGER                   : Scn          - SERVICE COMPANY
STRT.M        190                            : top_depth    - START DEPTH
STOP.M        430                            : bot_depth    - STOP DEPTH
STEP.M        0.25                           : increment    - STEP LENGTH
 NULL. -999.2500:NULL Value
~CURVE INFORMATION BLOCK
#MNEM UNIT       ERCB CURVE CODE    CURVE DESCRIPTION
#-----------   ------------------   ----------------------------------
DEPT.M        00 001 00 00         : DEPTH        - DEPTH
ILD .OHMM     00 120 00 00         : RESD         - DEEP RESISTIVITY (DIL)
NPHI.V/V      00 330 00 00         : PHIN         - NEUTRON POROSITY (SANDSTONE)
DPHI.V/V      00 890 00 00         : PHID         - DENSITY POROSITY (SANDSTONE)
GR  .API      00 310 00 00         : GR           - GAMMA RAY
CALI.MM       00 280 01 00         : CAL          - CALIPER
~PARAMETER INFORMATION
#MNEM.UNIT           DATA             DESCRIPTION OF MNEMONIC
#---------         -----------     ------------------------------
GL  .M        607                  : gl           - GROUND LEVEL ELEVATION
EREF.M        610.7                : kb           - ELEVATION OF DEPTH REFERENCE
DATM.M        607                  : datum        - DATUM ELEVATION
TDD .M        435                  : tdd          - TOTAL DEPTH DRILLER
RUN .         ONE                  : Run          - RUN NUMBER
ENG .         BILL                 : Engineer     - RECORDING ENGINEER
WIT .         JIM                  : Witness      - WITNESSED BY
MUD .         GEL                  : Mud_type     - MUD TYPE
MATR.         SANDSTONE            : Logunit      - NEUTRON MATRIX
TMAX.C        29                   : BHT          - MAXIMUM RECORDED TEMPERATURE
BHTD.M        435                  : BHTDEP       - MAXIMUM RECORDED TEMPERATURE
MATR.         1                    : LOGUNIT      - NEUTRON MATRIX
RMT .C        20                   : MDTP         - TEMPERATURE OF MUD
NEUT.         1                    : NEUTRON      - NEUTRON TYPE
RESI.         0                    : RESIST       - RESISTIVITY TYPE
RMC .OHMM     1.22                 : RMC          - RESISTIVITY OF MUD CAKE
RMF .OHMM     2.93                 : RMF          - RESISTIVITY OF MUD FILTRATE
SUFT.C        -20                  : SUFT         - SURFACE TEMPERATURE
~A  DEPTH     RESD     PHIN     PHID       GR      CAL
# ...
  226.500    2.871    0.543    0.275  101.198  210.155
  226.750    2.991    0.558    0.271  101.096  209.984
  227.000    2.996    0.550    0.268  103.159  208.250
  227.250    2.944    0.530    0.268  105.947  207.598
  227.500    2.900    0.528    0.272  106.934  210.061
  227.750    2.837    0.524    0.277  103.904  212.031
  228.000    2.791    0.516    0.279  100.349  213.129
  228.250    2.770    0.511    0.282   98.140  212.567
  228.500    2.819    0.507    0.284   97.569  210.247
  228.750    3.140    0.494    0.287   96.129  206.604
  229.000    3.808    0.476    0.289   90.045  205.810
  229.250    4.516    0.452    0.276   79.991  205.053
  229.500    5.208    0.421    0.209   68.007  204.587
  229.750    5.578    0.375    0.172   63.455  204.219
  230.000    5.637    0.348    0.201   67.565  203.754
  230.250    6.001    0.415    0.289   72.216  202.840
  230.500    6.628    0.449    0.324   66.132  202.053
  230.750    8.708    0.419    0.333   60.996  201.296
  231.000   12.957    0.411    0.344   57.615  200.537
  231.250   21.462    0.407    0.356   55.171  199.781
  231.500   35.965    0.403    0.365   53.429  199.026
  231.750   47.392    0.404    0.365   52.598  198.104
  232.000   53.160    0.425    0.360   51.878  197.315
  232.250   57.130    0.453    0.364   52.828  196.948
  232.500   61.094    0.451    0.364   52.901  196.875
  232.750   65.676    0.434    0.364   51.392  197.290
  233.000   71.053    0.418    0.365   49.591  198.191
  233.250   77.253    0.420    0.373   50.682  199.550
  233.500   81.479    0.414    0.379   50.207  200.390
  233.750   85.702    0.428    0.380   49.754  200.801
  234.000   89.203    0.460    0.377   49.475  201.799
  234.250   92.175    0.474    0.374   49.372  202.798
  234.500   94.559    0.461    0.371   49.211  203.602
  234.750   95.202    0.432    0.366   48.280  204.168
  235.000   91.671    0.431    0.362   47.077  202.968
  235.250   83.304    0.439    0.354   48.493  201.040
  235.500   78.353    0.461    0.350   51.493  199.697
  235.750   77.248    0.476    0.352   52.678  198.551
  236.000   78.667    0.472    0.358   51.344  197.503
  236.250   79.238    0.445    0.359   49.294  196.588
  236.500   79.233    0.425    0.356   48.331  195.799
  236.750   80.387    0.423    0.352   48.111  195.825
  237.000   81.119    0.424    0.351   48.944  196.725
  237.250   78.425    0.430    0.350   50.715  198.113
  237.500   73.226    0.439    0.348   52.778  199.989
  237.750   68.579    0.447    0.349   53.819  202.829
  238.000   66.036    0.446    0.364   53.104  203.255
  238.250   64.132    0.423    0.360   53.117  202.500
  238.500   61.942    0.420    0.359   53.831  202.327
  238.750   61.499    0.421    0.362   54.194  202.352
  239.000   61.349    0.424    0.366   53.975  202.475
  239.250   49.332    0.432    0.370   54.539  202.889
  239.500   29.388    0.447    0.372   58.454  202.918
  239.750   15.454    0.453    0.361   66.428  202.939
  240.000   10.203    0.451    0.347   72.120  202.960
  240.250    8.014    0.459    0.336   72.486  202.982
  240.500    7.459    0.475    0.332   67.348  202.518
  240.750    9.351    0.471    0.344   59.795  200.190
  241.000   13.079    0.467    0.345   61.761  198.177
  241.250   16.388    0.454    0.354   64.820  195.473
  241.500   19.139    0.434    0.352   64.891  194.228
  241.750   20.640    0.418    0.338   65.490  193.860
  242.000   20.904    0.412    0.322   67.611  193.980
  242.250   20.411    0.414    0.319   68.418  194.480
  242.500   19.507    0.413    0.334   61.846  194.911
  242.750   15.357    0.406    0.332   59.987  196.885
  243.000   11.542    0.404    0.326   62.166  199.444
  243.250    9.650    0.408    0.318   64.053  201.223
  243.500    9.163    0.419    0.317   61.843  201.829
  243.750   10.256    0.432    0.329   49.919  201.857
  244.000   12.835    0.408    0.332   38.225  201.879
  244.250   15.540    0.388    0.335   35.431  201.514
  244.500   18.684    0.379    0.343   38.254  201.440
  244.750   22.129    0.383    0.353   42.014  201.270
  245.000   24.311    0.396    0.358   44.838  200.903
  245.250   19.087    0.411    0.343   49.078  200.537
  245.500   11.297    0.410    0.313   56.165  200.563
  245.750    9.669    0.416    0.294   66.715  200.584
  246.000    9.079    0.433    0.297   71.295  200.611
  246.250    8.917    0.448    0.316   69.905  200.634
  246.500    8.900    0.450    0.336   64.006  200.751
  246.750    8.781    0.429    0.335   57.605  201.250
  247.000    8.519    0.417    0.319   62.983  201.678
  247.250    7.741    0.419    0.305   76.109  202.092
  247.500    6.720    0.435    0.292   85.547  202.214
  247.750    5.814    0.451    0.280   90.947  202.434
  248.000    5.142    0.462    0.269   92.834  202.750
  248.250    4.702    0.475    0.265   92.957  202.859
  248.500    4.631    0.483    0.263   94.680  203.287
  248.750    5.568    0.487    0.271   95.161  203.705
  249.000    6.680    0.492    0.291   86.335  204.118
  249.250    8.312    0.488    0.312   72.418  204.336
  249.500   10.710    0.470    0.326   58.383  204.653
  249.750   13.197    0.437    0.336   49.630  206.416
  250.000   16.384    0.416    0.340   47.937  209.285
  250.250   19.702    0.424    0.330   51.462  210.869
  250.500   15.130    0.425    0.306   59.027  209.820
  250.750   10.223    0.419    0.284   72.035  207.305
  251.000    7.396    0.415    0.269   86.450  205.376
  251.250    5.950    0.432    0.254   93.618  207.211
  251.500    5.601    0.453    0.256   97.778  208.455
  251.750    6.020    0.437    0.268   96.855  211.600
  252.000    6.642    0.429    0.281   94.176  214.745
  252.250    7.308    0.439    0.290   92.084  217.695
  252.500    7.825    0.459    0.292   91.338  219.767
  252.750    8.093    0.458    0.290   90.972  219.063
  253.000    8.279    0.427    0.292   90.255  215.426
  253.250    8.960    0.409    0.278   87.692  211.935
  253.500   10.317    0.388    0.271   82.145  209.909
  253.750   12.236    0.382    0.276   72.091  207.786
  254.000   14.126    0.384    0.285   60.046  205.469
  254.250   14.316    0.363    0.281   55.058  204.330
  254.500   13.279    0.356    0.269   67.511  204.349
  254.750   11.800    0.364    0.256   75.954  204.373
  255.000    9.779    0.383    0.247   83.168  204.399
  255.250    8.572    0.395    0.246   86.578  204.425
  255.500    8.065    0.395    0.251   86.006  204.544
  255.750    7.749    0.396    0.254   84.365  205.202
  256.000    7.351    0.407    0.257   87.792  206.446
  256.250    6.630    0.418    0.255   92.959  206.079
  256.500    6.471    0.427    0.257   91.801  205.126
  256.750    6.635    0.421    0.257   89.825  204.370
  257.000    6.970    0.403    0.253   89.605  204.200
  257.250    7.282    0.389    0.253   90.646  204.699
  257.500    7.282    0.374    0.257   89.928  205.124
  257.750    7.072    0.394    0.260   89.707  205.931
  258.000    6.679    0.412    0.247   91.594  206.440
  258.250    6.063    0.431    0.216   96.877  207.050
  258.500    5.227    0.449    0.178  104.616  207.758
  258.750    4.076    0.462    0.169  112.487  208.253
  259.000    3.361    0.466    0.201  116.649  208.681
  259.250    3.146    0.467    0.231  117.130  206.753
  259.500    3.181    0.489    0.258  117.436  205.707
  259.750    3.549    0.493    0.291  115.342  205.147
  260.000    4.324    0.471    0.319  109.327  204.974
  260.250    5.463    0.438    0.313   97.256  205.957
  260.500    6.891    0.412    0.308   90.686  208.829
  260.750    7.565    0.401    0.306   91.870  211.192
  261.000    7.712    0.391    0.301   90.596  214.435
  261.250    7.600    0.408    0.294   89.089  217.190
  261.500    7.530    0.444    0.290   88.576  216.627
  261.750    8.045    0.458    0.301   87.830  207.568
  262.000    9.910    0.459    0.326   80.528  203.118
  262.250   13.550    0.440    0.342   69.537  200.407
  262.500   20.541    0.418    0.352   62.234  198.871
  262.750   31.334    0.410    0.359   58.617  198.114
