~VERSION INFORMATION
 VERS.                 2.0:   CWLS LOG ASCII STANDARD -VERSION 2.0
 WRAP.                  NO:   ONE LINE PER DEPTH STEP
~WELL INFORMATION BLOCK
#MNEM.UNIT           DATA                    DESCRIPTION OF MNEMONIC
#---------    -------------------            -------------------------------
# Generated from Intellog Unique Number	CX_WELLS/WELL/3697
WELL.         HANGINGSTONE OV 11-6           : Well_name    - WELL
LOC .         AA/11-06-085-11W4/0            : Location     - LOCATION
UWI .         AA/11-06-085-11W400            : Uwi          - UNIQUE WELL ID
ENTR.         T                              : Entered      - ENTERED BY
SRVC.         SCHLUMBERGER                   : Scn          - SERVICE COMPANY
STRT.M        95                             : top_depth    - START DEPTH
STOP.M        285                            : bot_depth    - STOP DEPTH
STEP.M        0.25                           : increment    - STEP LENGTH
 NULL. -999.2500:NULL Value
~CURVE INFORMATION BLOCK
#MNEM UNIT       ERCB CURVE CODE    CURVE DESCRIPTION
#-----------   ------------------   ----------------------------------
DEPT.M        00 001 00 00         : DEPTH        - DEPTH
GR  .API      00 310 00 00         : GR           - GAMMA RAY
NPHI.V/V      00 330 00 00         : PHIN         - NEUTRON POROSITY (SANDSTONE)
DPHI.V/V      00 890 00 00         : PHID         - DENSITY POROSITY (SANDSTONE)
ILD .OHMM     00 120 00 00         : RESD         - DEEP RESISTIVITY (OTHER)
~PARAMETER INFORMATION
#MNEM.UNIT           DATA             DESCRIPTION OF MNEMONIC
#---------         -----------     ------------------------------
GL  .M        532                  : gl           - GROUND LEVEL ELEVATION
EREF.M        537.2                : kb           - ELEVATION OF DEPTH REFERENCE
DATM.M        537.2                : datum        - DATUM ELEVATION
TDD .M        292                  : tdd          - TOTAL DEPTH DRILLER
RUN .         ONE                  : Run          - RUN NUMBER
ENG .         BILL                 : Engineer     - RECORDING ENGINEER
WIT .         JIM                  : Witness      - WITNESSED BY
MUD .         GEL                  : Mud_type     - MUD TYPE
MATR.         SANDSTONE            : Logunit      - NEUTRON MATRIX
TMAX.C        20                   : BHT          - MAXIMUM RECORDED TEMPERATURE
BHTD.M        292                  : BHTDEP       - MAXIMUM RECORDED TEMPERATURE
MATR.         1                    : LOGUNIT      - NEUTRON MATRIX
RMT .C        25                   : MDTP         - TEMPERATURE OF MUD
NEUT.         1                    : NEUTRON      - NEUTRON TYPE
RESI.         3.4                  : RESIST       - RESISTIVITY TYPE
RMC .OHMM     2.9                  : RMC          - RESISTIVITY OF MUD CAKE
RMF .OHMM     2.07                 : RMF          - RESISTIVITY OF MUD FILTRATE
SUFT.C        4                    : SUFT         - SURFACE TEMPERATURE
~A  DEPTH       GR     PHIN     PHID     RESD
   95.000  103.623    0.409    0.276   12.899
   95.250  101.815    0.402    0.287   12.665
   95.500  103.689    0.408    0.297   12.207
   95.750  106.197    0.424    0.292   11.985
   96.000  113.005    0.456    0.264   11.769
   96.250  121.055    0.445    0.242   11.557
   96.500  126.654    0.431    0.202   10.729
   96.750  122.362    0.422    0.164    9.955
   97.000  116.221    0.428    0.155    8.898
   97.250  110.704    0.442    0.186    7.806
   97.500  118.761    0.454    0.212    6.979
   97.750  125.578    0.457    0.234    6.599
   98.000  125.619    0.460    0.242    6.012
   98.250  126.268    0.466    0.214    5.793
   98.500  128.768    0.475    0.209    5.377
   98.750  128.184    0.475    0.195    5.086
   99.000  128.834    0.449    0.193    4.811
   99.250  126.409    0.430    0.247    4.635
   99.500  125.192    0.416    0.291    4.552
   99.750  122.766    0.401    0.323    4.554
  100.000  119.708    0.387    0.360    5.296
  100.250  104.324    0.387    0.377    6.517
  100.500   89.557    0.391    0.377   11.902
  100.750   91.440    0.407    0.369   19.784
  101.000  105.040    0.412    0.343   22.160
  101.250  114.323    0.414    0.312   23.909
  101.500  106.956    0.423    0.317   23.041
  101.750  100.206    0.436    0.325   20.983
  102.000  100.239    0.433    0.323   19.851
  102.250  100.272    0.417    0.324   19.858
  102.500   99.079    0.410    0.324   19.870
  102.750   98.496    0.400    0.320   20.650
  103.000   99.762    0.406    0.316   20.660
  103.250  102.270    0.422    0.310   20.673
  103.500  105.386    0.433    0.295   20.304
  103.750  108.494    0.432    0.278   18.494
  104.000  110.994    0.429    0.283   15.919
  104.250  111.643    0.427    0.290   10.935
  104.500  112.301    0.424    0.309    9.962
  104.750  113.568    0.421    0.315    9.245
  105.000  111.134    0.422    0.321    8.583
  105.250  109.317    0.429    0.329    9.258
  105.500  106.875    0.434    0.338   11.180
  105.750  101.983    0.429    0.338   12.760
  106.000   97.691    0.429    0.327   14.565
  106.250   97.724    0.430    0.317   15.713
  106.500  101.465    0.426    0.311   16.634
  106.750  102.115    0.421    0.307   17.283
  107.000  100.906    0.415    0.299   17.624
  107.250   99.706    0.410    0.282   17.632
  107.500   97.889    0.408    0.285   17.978
  107.750   94.222    0.408    0.292   16.686
  108.000   86.863    0.409    0.298   15.487
  108.250   87.505    0.411    0.299   15.211
  108.500   88.154    0.414    0.300   15.504
  108.750   87.571    0.415    0.300   16.113
  109.000   88.220    0.405    0.301   16.738
  109.250   88.262    0.412    0.304   17.074
  109.500   87.686    0.422    0.304   16.764
  109.750   87.102    0.423    0.298   16.460
  110.000   90.219    0.422    0.294   16.166
  110.250   93.952    0.413    0.288   16.478
  110.500   96.443    0.402    0.285   16.803
  110.750   97.709    0.403    0.280   16.811
  111.000   97.751    0.409    0.278   17.141
  111.250   97.159    0.418    0.284   15.912
  111.500   96.583    0.425    0.292   13.956
  111.750   96.616    0.421    0.298   12.015
  112.000   94.791    0.428    0.300   10.740
  112.250   89.274    0.434    0.301   10.159
  112.500   85.607    0.430    0.302    9.976
  112.750   85.648    0.420    0.266   10.170
  113.000   87.531    0.399    0.161   10.973
  113.250   85.097    0.374    0.096   11.190
  113.500   83.281    0.326    0.107   11.195
  113.750   83.305    0.415    0.155   11.850
  114.000   77.788    0.427    0.231   14.045
  114.250   76.596    0.422    0.282   15.152
  114.500   80.337    0.417    0.315   15.454
  114.750   79.129    0.410    0.332   15.461
  115.000   78.545    0.396    0.304   16.066
  115.250   79.811    0.387    0.293   16.375
  115.500   79.228    0.402    0.295   18.000
  115.750   75.561    0.422    0.301   19.057
  116.000   74.985    0.422    0.307   18.713
  116.250   78.110    0.419    0.308   18.376
  116.500   79.360    0.429    0.310   18.388
  116.750   81.859    0.444    0.315   17.726
  117.000   81.276    0.454    0.323   17.731
  117.250   80.692    0.458    0.321   17.088
  117.500   81.341    0.451    0.316   16.470
  117.750   86.308    0.440    0.308   15.002
  118.000   93.132    0.415    0.307   12.915
  118.250  101.182    0.420    0.309   11.766
  118.500  106.765    0.432    0.313   11.995
  118.750  110.506    0.454    0.312   12.230
  119.000  106.831    0.454    0.309   12.473
  119.250  104.397    0.442    0.299   12.479
  119.500  101.972    0.433    0.292   12.966
  119.750   99.538    0.431    0.263   14.254
  120.000   97.096    0.437    0.258   14.807
  120.250   97.754    0.444    0.262   15.971
  120.500  102.104    0.454    0.284   17.232
  120.750  105.212    0.461    0.283   17.570
  121.000  108.336    0.455    0.283   16.616
  121.250  108.369    0.434    0.289   15.420
  121.500  108.402    0.427    0.297   14.312
  121.750  104.743    0.417    0.302   13.286
  122.000  101.076    0.431    0.307   13.044
  122.250  102.959    0.431    0.308   12.813
  122.500  107.309    0.425    0.311   13.060
  122.750  111.042    0.415    0.316   13.571
  123.000  113.533    0.413    0.317   13.835
  123.250  111.116    0.409    0.318   14.109
  123.500  109.283    0.408    0.312   14.386
  123.750  106.232    0.409    0.302   14.668
  124.000  105.649    0.417    0.290   14.677
  124.250  106.915    0.420    0.281   14.967
  124.500  106.948    0.419    0.287   14.974
  124.750  100.814    0.417    0.293   15.560
  125.000   92.214    0.420    0.303   16.475
  125.250   82.997    0.422    0.314   16.796
  125.500   80.572    0.422    0.321   18.121
  125.750   80.605    0.426    0.322   18.824
  126.000   78.779    0.437    0.316   20.310
  126.250   76.971    0.445    0.309   21.095
  126.500   81.312    0.448    0.299   22.332
  126.750   85.045    0.444    0.300   21.522
  127.000   80.145    0.433    0.323   20.744
  127.250   70.311    0.422    0.327   21.548
  127.500   64.177    0.411    0.335   23.249
  127.750   62.360    0.388    0.315   24.617
  128.000   62.402    0.346    0.103   26.061
  128.250   60.576    0.260    0.068   28.648
  128.500   55.068    0.223    0.058   32.088
  128.750   51.401    0.383    0.163   34.615
  129.000   57.592    0.397    0.194   35.958
  129.250   61.325    0.400    0.227   38.074
  129.500   59.508    0.403    0.277   37.382
  129.750   58.308    0.410    0.302   35.360
  130.000   59.574    0.415    0.320   34.082
  130.250   62.082    0.422    0.321   34.092
  130.500   63.965    0.415    0.310   34.119
  130.750   63.998    0.402    0.315   34.140
  131.000   63.414    0.397    0.319   33.525
  131.250   59.755    0.402    0.322   32.916
  131.500   57.930    0.408    0.321   31.131
  131.750   56.730    0.412    0.323   28.902
  132.000   62.313    0.407    0.327   28.377
  132.250   67.904    0.402    0.333   27.871
  132.500   68.553    0.402    0.329   26.863
  132.750   68.586    0.401    0.326   26.375
  133.000   66.769    0.401    0.323   25.900
  133.250   67.419    0.403    0.312   25.433
  133.500   73.619    0.409    0.290   24.975
  133.750   80.435    0.414    0.264   23.181
  134.000   87.259    0.409    0.269   21.515
  134.250   90.367    0.405    0.276   19.969
  134.500   94.717    0.407    0.281   17.850
  134.750   96.600    0.409    0.287   16.565
  135.000   98.483    0.410    0.283   15.964
  135.250  100.991    0.411    0.264   15.676
  135.500  102.882    0.412    0.262   15.109
  135.750  105.390    0.414    0.261   14.561
  136.000  106.648    0.416    0.260   13.769
  136.250  109.772    0.416    0.254   12.543
  136.500  111.022    0.416    0.246   11.644
  136.750  113.522    0.420    0.244   11.218
  137.000  115.405    0.421    0.248   10.611
  137.250  117.904    0.424    0.255   10.226
  137.500  121.637    0.424    0.258    9.669
  137.750  122.912    0.418    0.248    9.319
  138.000  118.012    0.413    0.237    8.983
  138.250  119.278    0.407    0.228    8.987
