~VERSION INFORMATION
 VERS.                 2.0:   CWLS LOG ASCII STANDARD -VERSION 2.0
 WRAP.                  NO:   ONE LINE PER DEPTH STEP
~WELL INFORMATION BLOCK
#MNEM.UNIT           DATA                    DESCRIPTION OF MNEMONIC
#---------    -------------------            -------------------------------
# Generated from Intellog Unique Number	CW_79_81/WELL/2478
WELL.         10-35-081-19W4                 : Well_name    - WELL
LOC .         AA/10-35-081-19W4/0            : Location     - LOCATION
UWI .         AA/10-35-081-19W400            : Uwi          - UNIQUE WELL ID
ENTR.         MAX                            : Entered      - ENTERED BY
SRVC.         SCHLUMBERGER                   : Scn          - SERVICE COMPANY
STRT.M        167.64                         : top_depth    - START DEPTH
STOP.M        365.64                         : bot_depth    - STOP DEPTH
STEP.M        0.25                           : increment    - STEP LENGTH
 NULL. -999.2500:NULL Value
~CURVE INFORMATION BLOCK
#MNEM UNIT       ERCB CURVE CODE    CURVE DESCRIPTION
#-----------   ------------------   ----------------------------------
DEPT.M        00 001 00 00         : DEPTH        - DEPTH
ILD .OHMM     00 120 00 00         : RESD         - DEEP RESISTIVITY (DIL)
NPHI.V/V      00 330 00 00         : PHIN         - NEUTRON POROSITY (SANDSTONE)
DPHI.V/V      00 890 00 00         : PHID         - DENSITY POROSITY (SANDSTONE)
GR  .API      00 310 00 00         : GR           - GAMMA RAY
CALI.MM       00 280 01 00         : CAL          - CALIPER
~PARAMETER INFORMATION
#MNEM.UNIT           DATA             DESCRIPTION OF MNEMONIC
#---------         -----------     ------------------------------
GL  .M        574.548              : gl           - GROUND LEVEL ELEVATION
EREF.M        577.596              : kb           - ELEVATION OF DEPTH REFERENCE
DATM.M        574.548              : datum        - DATUM ELEVATION
TDD .M        365.455              : tdd          - TOTAL DEPTH DRILLER
RUN .         ONE                  : Run          - RUN NUMBER
ENG .         BILL                 : Engineer     - RECORDING ENGINEER
WIT .         JIM                  : Witness      - WITNESSED BY
MUD .         GEL                  : Mud_type     - MUD TYPE
MATR.         SANDSTONE            : Logunit      - NEUTRON MATRIX
TMAX.C        23.8889              : BHT          - MAXIMUM RECORDED TEMPERATURE
BHTD.M        365.455              : BHTDEP       - MAXIMUM RECORDED TEMPERATURE
MATR.         1                    : LOGUNIT      - NEUTRON MATRIX
RMT .C        7.22222              : MDTP         - TEMPERATURE OF MUD
NEUT.         1                    : NEUTRON      - NEUTRON TYPE
RESI.         0                    : RESIST       - RESISTIVITY TYPE
RMC .OHMM     5.71                 : RMC          - RESISTIVITY OF MUD CAKE
RMF .OHMM     6.9                  : RMF          - RESISTIVITY OF MUD FILTRATE
SUFT.C        -20                  : SUFT         - SURFACE TEMPERATURE
~A  DEPTH     RESD     PHIN     PHID       GR      CAL
  167.640    3.354    0.512    0.251  111.560  182.460
  167.890    3.427    0.504    0.252  105.569  180.542
  168.140    3.534    0.502    0.247  101.415  179.112
  168.390    3.661    0.498    0.237  100.072  177.497
  168.640    3.793    0.494    0.227  101.327  175.662
  168.890    3.935    0.504    0.229  102.299  173.716
  169.140    3.961    0.501    0.234  100.901  173.194
  169.390    4.015    0.506    0.229  100.336  173.995
  169.640    3.961    0.516    0.223   97.629  173.473
  169.890    3.802    0.519    0.226   93.820  172.957
  170.140    3.659    0.506    0.245   89.365  172.117
  170.390    3.779    0.468    0.289   82.447  167.667
  170.640    4.012    0.444    0.309   74.019  161.174
  170.890    4.493    0.438    0.303   66.447  158.901
  171.140    5.398    0.435    0.310   61.994  155.304
  171.390    6.902    0.431    0.320   60.524  151.051
  171.640    9.480    0.427    0.326   60.609  147.021
  171.890   15.674    0.432    0.326   59.191  144.109
  172.140   22.205    0.450    0.331   57.518  143.114
  172.390   24.344    0.451    0.332   57.991  143.045
  172.640   24.387    0.446    0.331   58.655  143.623
  172.890   23.933    0.439    0.329   58.867  144.420
  173.140   23.784    0.432    0.329   58.563  144.782
  173.390   23.834    0.419    0.327   58.414  143.811
  173.640   24.176    0.408    0.328   59.173  143.730
  173.890   24.682    0.418    0.331   58.873  144.532
  174.140   25.202    0.422    0.332   59.153  145.010
  174.390   25.733    0.424    0.329   59.234  145.152
  174.640   26.180    0.419    0.323   59.380  145.179
  174.890   26.343    0.406    0.316   61.045  145.527
  175.140   26.320    0.420    0.313   61.818  145.455
  175.390   26.106    0.446    0.311   62.550  144.931
  175.640   26.037    0.449    0.317   63.863  144.748
  175.890   26.110    0.447    0.327   62.776  144.671
  176.140   26.185    0.447    0.337   59.550  144.478
  176.390   25.973    0.454    0.339   57.518  143.947
  176.640   25.950    0.463    0.330   56.665  143.875
  176.890   25.926    0.454    0.326   56.355  143.798
  177.140   26.326    0.440    0.323   54.691  143.386
  177.390   26.594    0.429    0.321   53.219  143.089
  177.640   26.428    0.427    0.319   52.847  143.124
  177.890   25.841    0.444    0.318   53.843  143.470
  178.140   24.674    0.454    0.323   54.753  143.933
  178.390   23.379    0.449    0.328   54.981  144.310
  178.640   22.995    0.444    0.335   56.160  144.657
  178.890   22.977    0.440    0.337   57.541  145.458
  179.140   23.126    0.438    0.334   58.465  146.370
  179.390   23.373    0.436    0.329   58.079  146.278
  179.640   23.887    0.438    0.330   56.420  146.206
  179.890   24.212    0.440    0.329   55.337  146.121
  180.140   24.410    0.436    0.329   55.421  146.042
  180.390   24.480    0.434    0.328   55.760  145.961
  180.640   24.507    0.438    0.327   56.163  145.882
  180.890   24.659    0.445    0.330   57.313  145.896
  181.140   24.633    0.452    0.330   58.081  146.273
  181.390   24.617    0.446    0.328   57.517  146.196
  181.640   24.596    0.442    0.329   57.147  146.108
  181.890   24.485    0.442    0.331   56.453  146.027
  182.140   24.289    0.446    0.331   55.434  145.953
  182.390   23.945    0.446    0.327   54.704  145.853
  182.640   23.217    0.435    0.322   55.197  145.772
  182.890   21.724    0.434    0.324   57.486  146.135
  183.140   19.321    0.430    0.299   58.799  146.832
  183.390   16.882    0.425    0.284   57.716  147.641
  183.640   15.328    0.419    0.289   55.470  148.554
  183.890   15.827    0.415    0.299   57.505  149.949
  184.140   17.454    0.419    0.287   65.293  150.800
  184.390   18.340    0.422    0.275   74.071  151.602
  184.640   18.764    0.430    0.257   81.091  151.738
  184.890   18.817    0.441    0.240   84.154  151.661
  185.140   18.246    0.451    0.230   83.652  151.914
  185.390   15.968    0.461    0.232   81.809  153.210
  185.640   13.364    0.452    0.253   77.983  153.603
  185.890   10.854    0.452    0.278   65.743  153.087
  186.140   10.192    0.447    0.284   57.587  151.582
  186.390   10.399    0.424    0.296   53.000  149.744
  186.640   11.328    0.395    0.315   51.269  148.236
  186.890   13.903    0.395    0.315   51.850  147.618
  187.140   17.909    0.401    0.314   53.690  147.073
  187.390   22.850    0.406    0.311   55.464  146.996
  187.640   25.867    0.411    0.306   56.649  147.248
  187.890   26.530    0.416    0.295   57.638  148.045
  188.140   25.846    0.419    0.282   58.891  149.394
  188.390   24.481    0.417    0.277   60.807  151.712
  188.640   22.533    0.412    0.278   60.220  154.826
  188.890   20.172    0.410    0.262   61.216  156.521
  189.140   18.380    0.412    0.259   64.349  157.876
  189.390   17.289    0.419    0.264   67.546  158.677
  189.640   16.601    0.424    0.269   70.029  158.929
  189.890   15.503    0.414    0.269   73.118  158.833
  190.140   14.269    0.410    0.268   77.119  158.737
  190.390   13.649    0.407    0.273   78.894  159.107
  190.640   13.057    0.406    0.284   80.665  160.129
  190.890   12.725    0.406    0.293   82.562  161.154
  191.140   12.846    0.409    0.294   84.460  162.179
  191.390   13.617    0.416    0.285   86.291  164.477
  191.640   13.202    0.432    0.273   87.869  167.608
  191.890   12.176    0.447    0.250   90.418  171.915
  192.140   10.058    0.449    0.234   92.775  175.575
  192.390    7.883    0.450    0.228   96.751  178.357
  192.640    6.541    0.450    0.231  100.919  180.585
  192.890    6.544    0.434    0.236  100.543  183.673
  193.140    7.107    0.408    0.235  100.235  186.322
  193.390    8.127    0.416    0.217   99.930  188.010
  193.640    9.305    0.414    0.212  100.014  188.709
  193.890   10.173    0.410    0.215  100.099  188.855
  194.140   10.483    0.408    0.220   99.988  188.886
  194.390   10.704    0.409    0.217   99.404  189.043
  194.640   11.105    0.410    0.219   98.005  188.056
  194.890   11.668    0.422    0.231   93.805  184.897
  195.140   12.132    0.420    0.248   87.080  182.408
  195.390   12.656    0.411    0.254   78.473  180.139
  195.640   13.349    0.398    0.250   69.021  178.301
  195.890   14.303    0.385    0.261   60.683  177.755
  196.140   14.615    0.387    0.270   63.342  177.682
  196.390   14.501    0.392    0.263   69.522  177.605
  196.640   14.227    0.394    0.252   74.336  177.858
  196.890   14.063    0.395    0.240   77.924  178.000
  197.140   13.975    0.394    0.231   81.192  178.035
  197.390   13.557    0.386    0.223   86.995  178.480
  197.640   13.048    0.384    0.215   92.891  178.858
  197.890   12.210    0.395    0.210  101.150  179.659
  198.140   11.300    0.416    0.205  108.823  181.448
  198.390   10.227    0.443    0.199  115.135  182.466
  198.640    8.744    0.473    0.188  120.214  182.053
  198.890    6.492    0.503    0.168  124.704  180.553
  199.140    5.166    0.506    0.157  122.766  180.023
  199.390    4.728    0.508    0.145  122.461  179.484
  199.640    4.603    0.500    0.147  122.931  179.308
  199.890    4.599    0.490    0.155  123.272  178.800
  200.140    4.636    0.484    0.165  123.488  177.950
  200.390    4.706    0.484    0.183  124.748  177.424
  200.640    4.738    0.489    0.187  126.042  177.336
  200.890    4.666    0.493    0.191  126.265  177.259
  201.140    4.495    0.518    0.199  125.696  177.176
  201.390    4.171    0.525    0.211  125.391  177.318
  201.640    3.828    0.505    0.223  125.611  177.684
  201.890    3.679    0.471    0.233  125.163  178.118
  202.140    3.760    0.446    0.220  121.878  178.511
  202.390    4.094    0.427    0.220  115.344  178.434
  202.640    4.622    0.419    0.217  113.086  177.692
  202.890    5.367    0.428    0.215  113.040  176.949
  203.140    6.362    0.445    0.214  113.715  176.540
  203.390    7.808    0.449    0.215  114.719  176.188
  203.640    8.743    0.449    0.216  117.373  174.735
  203.890    8.302    0.450    0.215  119.926  169.811
