~VERSION INFORMATION
 VERS.                 2.0:   CWLS LOG ASCII STANDARD -VERSION 2.0
 WRAP.                  NO:   ONE LINE PER DEPTH STEP
~WELL INFORMATION BLOCK
#MNEM.UNIT           DATA                    DESCRIPTION OF MNEMONIC
#---------    -------------------            -------------------------------
# Generated from Intellog Unique Number	CC_80_83/WELL/2429
NULL.         -999.25                        : NULL_VALUE
WELL.         ARCO ACI McMURRAY              : Well_name    - WELL              
LOC .         12-11-083-12W4                 : Location     - LOCATION          
UWI .         AA/12-11-083-12W400            : Uwi          - UNIQUE WELL ID    
ENTR.         DW                             : Entered      - ENTERED BY        
SRVC.         SCHLUMBERGER                   : Scn          - SERVICE COMPANY   
DATE.         17 MAR 74                      : Date         - LOG DATE
STRT.M        137.16                         : top_depth    - START DEPTH       
STOP.M        399.29                         : bot_depth    - STOP DEPTH        
STEP.M        0.305                          : increment    - STEP LENGTH       
~CURVE INFORMATION BLOCK
#MNEM UNIT       ERCB CURVE CODE    CURVE DESCRIPTION
#-----------   ------------------   ----------------------------------
DEPT.M        00 001 00 00         : DEPTH        - DEPTH                       
DPHI.V/V      00 890 00 00         : PHID         - DENSITY POROSITY (LIMESTONE)
GR  .API      00 310 00 00         : GR           - GAMMA RAY                   
NPHI.V/V      00 330 00 00         : PHIN         - NEUTRON POROSITY (LIMESTONE)
ILD .OHMM     00 120 00 00         : RESD         - DEEP RESISTIVITY (DLL)      
~PARAMETER INFORMATION       
#MNEM.UNIT           DATA             DESCRIPTION OF MNEMONIC
#---------         -----------     ------------------------------
GL  .M        630.631              : gl           - GROUND LEVEL ELEVATION      
EREF.M        632.308              : kb           - ELEVATION OF DEPTH REFERENCE
DATM.M        632.308              : datum        - DATUM ELEVATION             
TDD .M        399.288              : tdd          - TOTAL DEPTH DRILLER         
RUN .         ONE                  : Run          - RUN NUMBER                  
ENG .         BILL                 : Engineer     - RECORDING ENGINEER          
WIT .         JIM                  : Witness      - WITNESSED BY                
MUD .         GEL                  : Mud_type     - MUD TYPE                    
MATR.         LIMESTONE            : Logunit      - NEUTRON MATRIX              
TMAX.C        21.1111              : BHT          - MAXIMUM RECORDED TEMPERATURE
BHTD.M        399.288              : BHTDEP       - MAXIMUM RECORDED TEMPERATURE
MATR.         1                    : LOGUNIT      - NEUTRON MATRIX              
RMT .C        25                   : MDTP         - TEMPERATURE OF MUD          
NEUT.         0                    : NEUTRON      - NEUTRON TYPE                
RESI.         1                    : RESIST       - RESISTIVITY TYPE            
RMC .OHMM     0.25                 : RMC          - RESISTIVITY OF MUD CAKE     
RMF .OHMM     0.25                 : RMF          - RESISTIVITY OF MUD FILTRATE 
SUFT.C        4                    : SUFT         - SURFACE TEMPERATURE         
~A  DEPTH     PHID       GR     PHIN     RESD
# ...
  190.194    0.297   69.006    0.331   14.255
  190.499    0.291   51.987    0.355   19.883
  190.804    0.323   42.664    0.329   29.864
  191.109    0.343   37.797    0.333   30.946
  191.413    0.360   34.955    0.322   27.103
  191.718    0.349   35.758    0.316   21.633
  192.023    0.348   37.778    0.321   17.275
  192.328    0.346   43.038    0.329   12.335
  192.633    0.322   60.045    0.341   11.009
  192.937    0.266   78.266    0.361   11.183
  193.242    0.255   79.475    0.381   11.595
  193.547    0.256   71.772    0.321   12.235
  193.852    0.275   70.146    0.329   12.672
  194.157    0.291   68.924    0.354   12.415
  194.461    0.304   68.514    0.361   11.711
  194.766    0.281   75.799    0.345   10.255
  195.071    0.272   81.059    0.329    9.869
  195.376    0.273   81.457    0.334    9.848
  195.681    0.269   83.071    0.339   10.394
  195.985    0.271   76.179    0.331   11.169
  196.290    0.298   68.477    0.324   11.357
  196.595    0.299   74.546    0.324   11.129
  196.900    0.290   78.996    0.334   11.307
  197.204    0.288   75.749    0.356   11.496
  197.509    0.299   73.717    0.370   11.265
  197.814    0.299   74.521    0.376   11.030
  198.119    0.305   75.731    0.371   11.007
  198.424    0.304   76.131    0.353   10.994
  198.728    0.294   71.263    0.341   10.964
  199.033    0.293   77.333    0.335   11.149
  199.338    0.281   78.137    0.334   11.553
  199.643    0.297   73.674    0.354   12.412
  199.948    0.300   73.669    0.332   13.346
  200.252    0.298   71.638    0.335   14.615
  200.557    0.317   57.860    0.348   15.721
  200.862    0.346   60.284    0.365   17.532
  201.167    0.338   70.404    0.338   18.156
  201.472    0.331   75.663    0.343   17.796
  201.776    0.328   76.063    0.360   17.424
  202.081    0.327   69.170    0.359   16.762
  202.386    0.325   75.240    0.359   15.240
  202.691    0.317   82.930    0.360   13.604
  202.996    0.300   90.214    0.359   11.919
  203.300    0.256   88.183    0.355   10.247
  203.605    0.261   80.481    0.389    8.978
  203.910    0.264   76.829    0.385    7.720
  204.215    0.247   81.684    0.323    6.893
  204.520    0.181   90.185    0.326    6.151
  204.824    0.212   95.039    0.359    5.590
  205.129    0.197   93.413    0.379    5.584
  205.434    0.205   89.761    0.403    5.569
  205.739    0.185   88.540    0.389    5.665
  206.044    0.206   85.293    0.389    5.868
  206.348    0.188   92.173    0.370    5.745
  206.653    0.204  101.078    0.356    5.423
  206.958    0.229  105.528    0.363    5.025
  207.263    0.237   99.445    0.368    4.321
  207.567    0.226   98.629    0.381    3.648
  207.872    0.240  103.484    0.397    3.442
  208.177    0.251  102.261    0.415    3.770
  208.482    0.263   99.825    0.438    5.459
  208.787    0.271   94.554    0.439    8.672
  209.091    0.297   87.257    0.417   12.791
  209.396    0.332   81.175    0.353   14.272
  209.701    0.333   79.144    0.336   14.778
  210.006    0.301   82.378    0.342   14.471
  210.311    0.290   81.561    0.345   14.453
  210.615    0.295   76.695    0.328   13.889
  210.920    0.331   76.688    0.341   13.607
  211.225    0.332   75.467    0.352   12.377
  211.530    0.318   75.056    0.346   10.255
  211.835    0.292   89.632    0.346    8.186
  212.139    0.247  102.182    0.340    7.585
  212.444    0.236   96.505    0.350    7.854
  212.749    0.250   84.752    0.328    9.440
  213.054    0.293   79.480    0.332   11.998
  213.359    0.317   81.094    0.348   12.898
  213.663    0.311   83.924    0.362   13.363
  213.968    0.309   84.728    0.387   13.585
  214.273    0.313   83.101    0.339   13.061
  214.578    0.316   75.804    0.337   12.326
  214.883    0.316   74.988    0.314   12.070
  215.187    0.288   72.957    0.325   12.050
  215.492    0.284   66.065    0.344   12.953
  215.797    0.310   59.172    0.365   15.003
  216.102    0.331   56.330    0.374   18.368
  216.407    0.357   57.134    0.367   19.753
  216.711    0.359   53.078    0.361   19.351
  217.016    0.354   53.071    0.354   17.266
  217.321    0.351   55.090    0.343   14.578
  217.626    0.348   60.755    0.350   12.537
  217.930    0.345   69.256    0.369   11.181
  218.235    0.334   68.035    0.381   10.755
  218.540    0.325   67.623    0.375   10.343
  218.845    0.312   70.048    0.377    9.948
  219.150    0.310   70.041    0.366   10.300
  219.454    0.310   68.819    0.362    9.904
  219.759    0.307   71.244    0.367    9.001
  220.064    0.304   76.099    0.355    8.343
  220.369    0.289   83.789    0.356    7.587
  220.674    0.258   87.428    0.357    6.896
  220.978    0.245   89.448    0.362    6.511
  221.283    0.247   93.897    0.376    5.920
  221.588    0.246   96.725    0.377    5.694
  221.893    0.246   97.123    0.380    5.576
  222.198    0.251   94.283    0.382    5.565
  222.502    0.254   89.822    0.380    5.983
  222.807    0.257   82.929    0.369    6.928
  223.112    0.265   81.303    0.367    8.330
  223.417    0.285   82.917    0.362   10.584
  223.722    0.298   81.291    0.372   10.759
  224.026    0.304   80.068    0.384   10.537
  224.331    0.309   81.683    0.365    9.942
  224.636    0.291   82.892    0.376    9.382
  224.941    0.286   82.076    0.364    9.195
  225.246    0.290   71.539    0.357    9.006
  225.550    0.297   74.367    0.352    8.989
  225.855    0.314   75.171    0.359    9.315
  226.160    0.309   77.190    0.348   10.781
  226.465    0.307   78.805    0.355   12.258
  226.770    0.315   77.988    0.348   13.681
  227.074    0.320   71.097    0.367   15.265
  227.379    0.340   58.128    0.366   16.712
  227.684    0.354   50.426    0.312   17.308
  227.989    0.374   49.609    0.337   17.931
  228.294    0.381   50.414    0.376   18.215
  228.598    0.383   50.811    0.372   18.534
  228.903    0.379   50.402    0.362   18.830
  229.208    0.377   47.560    0.358   18.810
  229.513    0.367   47.149    0.356   18.766
  229.817    0.366   50.789    0.340   18.385
  230.122    0.372   52.401    0.353   18.002
  230.427    0.378   49.966    0.358   17.296
  230.732    0.379   48.744    0.380   16.952
  231.037    0.374   49.954    0.387   16.928
  231.341    0.372   51.162    0.386   16.263
  231.646    0.372   52.370    0.380   16.245
  231.951    0.376   54.796    0.396   15.908
  232.256    0.382   58.435    0.382   15.875
  232.561    0.389   55.593    0.384   16.135
  232.865    0.385   45.460    0.355   16.097
  233.170    0.383   47.479    0.377   16.078
  233.475    0.387   49.500    0.357   16.043
  233.780    0.389   50.303    0.359   16.317
  234.085    0.393   49.487    0.368   16.258
  234.389    0.395   49.885    0.365   16.225
  234.694    0.395   51.094    0.365   16.200
  234.999    0.388   52.709    0.374   16.178
  235.304    0.382   55.133    0.371   16.439
  235.609    0.375   53.912    0.373   16.720
  235.913    0.366   49.450    0.375   18.322
  236.218    0.354   44.583    0.390   23.287
  236.523    0.331   40.931    0.378   31.295
  236.828    0.295   41.330    0.340   33.023
  237.133    0.215   42.539    0.319   31.747
  237.437    0.241   44.153    0.354   29.413
  237.742    0.369   45.767    0.401   24.823
  238.047    0.404   41.710    0.390   21.354
  238.352    0.413   40.488    0.388   19.411
  238.657    0.411   41.293    0.394   19.021
  238.961    0.397   41.287    0.379   33.164
  239.266    0.377   40.063    0.344   61.146
  239.571    0.327   39.249    0.062  128.392
  239.876    0.250   35.597    0.060  125.803
  240.180    0.001   33.567    0.061  108.177
  240.485    0.000   31.535    0.066   73.034
  240.790    0.000   31.124    0.072   44.935
  241.095    0.000   31.927    0.090   31.500
  241.400    0.000   31.112    0.114   23.341
  241.704    0.000   31.106    0.184   19.696
  242.009    0.092   36.365    0.251   18.592
  242.314    0.196   41.220    0.356   17.878
  242.619    0.315   42.429    0.389   17.506
  242.924    0.365   41.612    0.388   17.158
