~Version : LASO    vs 4.00 
VERS.                2.00:   CWLS Log ASCII Standard -VERSION 2.0
WRAP.                  NO:
~Well Information Block
#MNEM.UNIT       Data                        Description of Mnemonic
#----.----      -------------------------- : -----------------------------
STRT.M             1.0000:
STOP.M           202.5000:
STEP.M             0.1000:
NULL.           -999.2500:
COMP.  MOBIL OIL CANADA                    :COMPANY
WELL.  MOBIL 90 CLARKE CREEK 16-31         :WELL
FLD.   CLARKE CREEK                        :FIELD
LOC.   16-31-089-07W4                      :LOCATION
CTRY.  CANADA                              :COUNTRY
PROV.  ALBERTA                             :PROVINCE
SRVC.  BRITISH PLASTERBOARD                :SERVICE COMPANY
DATE.  22-JAN-90                           :LOG DATE
UWI.   AA/16-31-089-07W400                 :UNIQUE WELL ID
~Parameter Information Block
#MNEM.UNIT       Data                        Description of Mnemonic
#----.----      -------------------------- : -----------------------------
RUN .                   1                 : Run Number
GL  .M           453.6000                 : Ground Level Elevation
DREF.                  GD                 : Depth Reference
EREF.M           453.6000                 : Elevation of Depth Reference
TDL .M           204.5000                 : Total Depth Logger
TDD .M           204.5000                 : Total Depth Driller
~Curve Information Block
#MNEM.UNIT        API CODE    Curve Description
#---------    ------------    -------------------------------------------
DEPT.M                    :   DEPTH
CALI.mm                   :   CALI
DPHI.V/V                  :   DPHI
DT  .US/M     60 520  0  1:   2 SONIC INTERVAL TRANSIT TIME (COMPENSATED)
GR  .API                  :   GR
ILD .Ohmm                 :   ILD
NPHI.V/V                  :   NPHI
RHOB.K/M3     45 350  1  1:   3 BULK DENSITY
~A  Depth           CALI        DPHI          DT          GR         ILD        NPHI        RHOB
# ...
167.0000        139.7569      0.2846    406.1200     80.4984     75.9076      0.3805   1128.8000
167.1000        140.0698      0.2823    405.5600     79.0340     78.3016      0.3695   1123.1000
167.2000        140.2223      0.2839    405.3200     75.4636     78.5307      0.3659   1248.3000
167.3000        140.5996      0.2891    415.8400     71.2870     78.6988      0.3802   1181.3000
167.4000        140.9835      0.2939    415.7600     67.0912     78.8420      0.3957   1221.1001
167.5000        140.3467      0.2930    420.6800     62.8944     78.9822      0.3995   1176.1001
167.6000        139.5857      0.3004    426.8400     59.2542     83.4410      0.3960   1197.4000
167.7000        138.6055      0.3139    432.0800     55.6649     99.5667      0.3952   1225.9000
167.8000        138.2009      0.3261    434.8000     51.5513    128.2110      0.3929   1169.4000
167.9000        137.4416      0.3402    419.5600     47.3672    235.8186      0.3917   1077.5000
168.0000        136.3045      0.3508    405.6800     42.6591    391.9935      0.3926   1107.1000
168.1000        135.8142      0.3556    391.7200     39.1317    522.5559      0.3917   1084.5000
168.2000        135.7098      0.3603    381.6800     36.1563    669.5073      0.3822   1058.2000
168.3000        135.7079      0.3596    377.4800     36.0555    839.8981      0.3752   1050.3000
168.4000        136.0735      0.3575    378.6800     34.9643    914.1718      0.3755   1083.6000
168.5000        136.8027      0.3546    377.0800     33.2719    969.4386      0.3932   1110.3000
168.6000        137.4310      0.3535    379.5600     33.0694    986.8744      0.4081   1094.9000
168.7000        138.1310      0.3556    382.6400     34.7508   1026.7909      0.4146   1110.1000
168.8000        138.1506      0.3580    381.7600     38.6394   1050.0961      0.4150   1097.0000
168.9000        138.5073      0.3573    380.3200     37.4465   1118.3922      0.3977   1089.7000
169.0000        138.5490      0.3611    379.3200     36.7794   1161.7395      0.4019   1131.1000
169.1000        138.8791      0.3620    378.9600     37.8554   1166.0548      0.4117   1149.5000
169.2000        139.2530      0.3621    378.6000     39.0066   1187.4355      0.4295   1131.5000
169.3000        139.3585      0.3589    378.2400     38.5297   1210.8877      0.4359   1124.7000
169.4000        139.3665      0.3545    377.8800     40.1733   1240.7995      0.4149   1108.1000
169.5000        139.3657      0.3511    377.0800     41.2610   1288.3592      0.3986   1065.1000
169.6000        139.3644      0.3545    376.2800     43.2636   1315.6636      0.3774   1074.5000
169.7000        139.3625      0.3591    375.4800     44.9992   1342.1310      0.3758   1087.9000
169.8000        139.7264      0.3585    369.8800     41.4292   1364.6519      0.3868   1108.0000
169.9000        139.7546      0.3564    366.2000     40.9952   1377.0576      0.4111   1120.3000
170.0000        139.7634      0.3548    365.6400     40.9239   1404.0689      0.4232   1128.5000
170.1000        139.7639      0.3559    365.0400     42.0707   1432.0854      0.4156   1147.7000
170.2000        139.7621      0.3549    367.5200     42.1222   1415.3415      0.4008   1143.9000
170.3000        139.7602      0.3517    371.5200     45.7314   1361.4296      0.3959   1078.1000
170.4000        139.7583      0.3496    379.7200     47.2568   1315.8070      0.3871   1095.4000
170.5000        139.7564      0.3486    375.2400     45.8439   1250.6793      0.3712   1108.3000
170.6000        139.7545      0.3498    378.4400     46.3644   1183.7742      0.3653   1060.3000
170.7000        139.7526      0.3498    380.9600     46.9369   1070.6757      0.3681   1024.7000
170.8000        139.7508      0.3447    376.6000     46.4925   1027.3168      0.3781   1061.0000
170.9000        139.7489      0.3433    382.3600     46.4201    999.1445      0.3877   1100.1000
171.0000        139.7470      0.3449    389.2000     46.4005    951.1177      0.3921   1063.7000
171.1000        139.7451      0.3483    387.5600     44.6977    863.7771      0.3869   1122.5000
171.2000        139.7432      0.3497    385.2400     44.5707    844.3397      0.3823   1099.5000
171.3000        139.7413      0.3478    381.6800     45.5763    904.8359      0.3777   1122.7000
171.4000        139.3953      0.3446    377.6000     45.2438    882.8865      0.3710   1137.5000
171.5000        139.3412      0.3403    377.0800     43.9717    816.1262      0.3648   1142.5000
171.6000        139.3296      0.3401    376.5600     44.3926    719.6662      0.3636   1123.7000
171.7000        139.3250      0.3411    373.3200     45.0544    605.6739      0.3668   1130.3000
171.8000        139.3230      0.3393    371.0800     45.6417    558.8596      0.3746   1143.5000
171.9000        139.3211      0.3389    373.8800     46.9800    536.3126      0.3829   1117.7000
172.0000        139.3192      0.3398    372.5200     47.5610    531.6718      0.3892   1132.5000
172.1000        139.3173      0.3401    375.2400     48.1381    510.8112      0.3967   1159.7000
172.2000        139.3154      0.3401    380.7200     44.4517    481.0191      0.3933   1117.3000
172.3000        139.3135      0.3426    379.7200     40.3187    508.0975      0.3824   1121.2000
172.4000        139.3116      0.3414    377.6000     37.7001    588.0593      0.3770   1154.3000
172.5000        139.3097      0.3379    374.6400     34.7859    694.6369      0.3746   1135.3000
172.6000        139.3079      0.3355    371.6800     32.2879    738.0029      0.3712   1129.7000
172.7000        139.3060      0.3353    370.2000     29.9162    707.2746      0.3666   1126.8000
172.8000        139.3041      0.3393    372.6800     27.5465    670.0845      0.3509   1125.1000
172.9000        139.3022      0.3450    374.3200     23.4990    691.1461      0.3522   1141.3000
173.0000        139.3003      0.3474    374.8800     19.3173    771.4258      0.3584   1132.6000
173.1000        139.2984      0.3487    375.1600     19.8518    847.0830      0.3621   1119.5000
173.2000        139.6644      0.3499    372.8400     22.9815    945.0087      0.3667   1129.3000
173.3000        139.6978      0.3500    375.6400     25.2801   1006.2599      0.3683   1102.7000
173.4000        139.7007      0.3501    371.8000     29.1174   1081.8462      0.3695   1111.5000
173.5000        139.6997      0.3466    365.3600     35.8799   1131.1633      0.3650   1107.5000
173.6000        139.6980      0.3367    363.5600     41.4721   1187.3437      0.3581   1120.2000
173.7000        139.6961      0.3325    362.2400     46.0696   1155.4939      0.3481   1136.1000
173.8000        139.6942      0.3352    366.0400     47.2544    931.5312      0.3350   1171.9000
173.9000        139.6924      0.3389    369.8000     46.9416    728.9508      0.3438   1112.9000
174.0000        139.6905      0.3368    372.6000     44.0508    599.9804      0.3545   1160.3000
174.1000        139.6886      0.3281    375.4000     44.4249    518.2748      0.3699   1170.1001
174.2000        139.6867      0.3190    377.3200     43.9393    512.0596      0.3891   1130.7000
174.3000        139.6848      0.3099    366.6000     44.8609    626.1669      0.3884   1168.9000
174.4000        139.6829      0.3029    362.8400     45.0709    825.6566      0.3563   1155.5000
174.5000        139.6811      0.3001    358.7200     45.0735    911.5770      0.3246   1186.3000
174.6000        139.2984      0.2987    361.8400     46.6740    912.6059      0.3041   1167.6001
174.7000        139.2715      0.2960    364.9600     53.6626    834.5143      0.3094   1146.9000
174.8000        138.5699      0.2948    365.0400     63.5359    734.4293      0.3204   1130.0000
174.9000        136.4250      0.2948    365.1200     74.2118    579.4894      0.3360   1116.3000
175.0000        134.4160      0.2876    359.2800     81.8204    454.8349      0.3516   1239.2000
175.1000        132.7369      0.2816    364.0800     86.0498    341.5560      0.3493   1269.8000
175.2000        133.3313      0.2836    370.8000     87.6287    217.8932      0.3459   1281.7000
