~VERSION INFORMATION
 VERS.                 2.0:   CWLS LOG ASCII STANDARD -VERSION 2.0
 WRAP.                  NO:   ONE LINE PER DEPTH STEP
~WELL INFORMATION BLOCK
#MNEM.UNIT           DATA                    DESCRIPTION OF MNEMONIC
#---------    -------------------            -------------------------------
# Generated from Intellog Unique Number	CX_WELLS/WELL/2306
WELL.         11-28-088-08W4                 : Well_name    - WELL
LOC .         AA/11-28-088-08W4/0            : Location     - LOCATION
UWI .         AA/11-28-088-08W400            : Uwi          - UNIQUE WELL ID
ENTR.         DW                             : Entered      - ENTERED BY
SRVC.         SCHLUMBERGER                   : Scn          - SERVICE COMPANY
STRT.M        12                             : top_depth    - START DEPTH
STOP.M        120                            : bot_depth    - STOP DEPTH
STEP.M        0.25                           : increment    - STEP LENGTH
 NULL. -999.2500:NULL Value
~CURVE INFORMATION BLOCK
#MNEM UNIT       ERCB CURVE CODE    CURVE DESCRIPTION
#-----------   ------------------   ----------------------------------
DEPT.M        00 001 00 00         : DEPTH        - DEPTH
GR  .API      00 310 00 00         : GR           - GAMMA RAY
NPHI.V/V      00 330 00 00         : PHIN         - NEUTRON POROSITY (SANDSTONE)
DPHI.V/V      00 890 00 00         : PHID         - DENSITY POROSITY (SANDSTONE)
ILD .OHMM     00 120 00 00         : RESD         - DEEP RESISTIVITY (DIL)
~PARAMETER INFORMATION
#MNEM.UNIT           DATA             DESCRIPTION OF MNEMONIC
#---------         -----------     ------------------------------
GL  .M        362.2                : gl           - GROUND LEVEL ELEVATION
EREF.M        363.725              : kb           - ELEVATION OF DEPTH REFERENCE
DATM.M        363.725              : datum        - DATUM ELEVATION
TDD .M        121                  : tdd          - TOTAL DEPTH DRILLER
RUN .         ONE                  : Run          - RUN NUMBER
ENG .         BILL                 : Engineer     - RECORDING ENGINEER
WIT .         JIM                  : Witness      - WITNESSED BY
MUD .         GEL                  : Mud_type     - MUD TYPE
MATR.         SANDSTONE            : Logunit      - NEUTRON MATRIX
TMAX.C        16                   : BHT          - MAXIMUM RECORDED TEMPERATURE
BHTD.M        121                  : BHTDEP       - MAXIMUM RECORDED TEMPERATURE
MATR.         1                    : LOGUNIT      - NEUTRON MATRIX
RMT .C        25                   : MDTP         - TEMPERATURE OF MUD
NEUT.         1                    : NEUTRON      - NEUTRON TYPE
RESI.         0                    : RESIST       - RESISTIVITY TYPE
RMC .OHMM     0.25                 : RMC          - RESISTIVITY OF MUD CAKE
RMF .OHMM     0.25                 : RMF          - RESISTIVITY OF MUD FILTRATE
SUFT.C        4                    : SUFT         - SURFACE TEMPERATURE
~A  DEPTH       GR     PHIN     PHID     RESD
# ...
   55.500   72.426    0.425    0.316   22.753
   55.750   68.206    0.463    0.340   24.124
   56.000   68.832    0.491    0.350   26.059
   56.250   76.144    0.535    0.372   27.077
   56.500   79.206    0.536    0.401   27.643
   56.750   80.445    0.509    0.433   28.767
   57.000   80.476    0.476    0.431   29.922
   57.250   79.292    0.435    0.388   32.306
   57.500   78.096    0.431    0.373   32.965
   57.750   76.298    0.430    0.366   36.298
   58.000   70.857    0.412    0.351   38.466
   58.250   62.992    0.389    0.333   40.742
   58.500   56.937    0.380    0.326   44.011
   58.750   52.711    0.380    0.328   47.494
   59.000   52.735    0.379    0.330   53.282
   59.250   61.263    0.370    0.314   58.610
   59.500   64.330    0.368    0.307   66.923
   59.750   62.532    0.370    0.309   77.854
   60.000   60.122    0.371    0.315   90.571
   60.250   56.508    0.371    0.338  109.370
   60.500   55.926    0.377    0.349  124.882
   60.750   58.380    0.380    0.352  125.200
   61.000   62.656    0.376    0.346  112.112
   61.250   65.109    0.374    0.333   96.763
   61.500   69.385    0.376    0.315   80.457
   61.750   74.876    0.381    0.304   54.459
   62.000   81.587    0.387    0.294   44.445
   62.250   83.440    0.393    0.287   38.360
   62.500   80.422    0.405    0.291   35.674
   62.750   71.944    0.386    0.297   36.420
   63.000   67.110    0.371    0.318   50.141
   63.250   63.497    0.371    0.328   60.548
   63.500   62.307    0.374    0.343   80.306
   63.750   64.153    0.382    0.351   95.182
   64.000   66.000    0.387    0.351  110.729
   64.250   67.239    0.391    0.347  113.043
   64.500   66.055    0.394    0.342  113.274
   64.750   64.853    0.384    0.340  109.347
   65.000   61.234    0.375    0.340   99.810
   65.250   60.044    0.379    0.336   87.768
   65.500   74.043    0.383    0.331   72.978
   65.750   77.711    0.387    0.326   60.680
   66.000   80.773    0.389    0.320   52.373
   66.250   85.656    0.386    0.308   46.054
   66.500   94.189    0.379    0.291   41.261
   66.750   97.864    0.365    0.259   37.643
   67.000   99.097    0.366    0.240   33.725
   67.250   95.484    0.369    0.247   29.671
   67.500   92.472    0.371    0.250   27.083
   67.750   91.282    0.372    0.234   25.174
   68.000   91.313    0.374    0.218   22.979
   68.250   91.325    0.372    0.208   21.772
   68.500   91.356    0.369    0.210   20.629
   68.750   89.558    0.367    0.219   20.289
   69.000   87.761    0.369    0.245   20.330
   69.250   88.399    0.375    0.238   20.776
   69.500   89.025    0.377    0.230   21.599
   69.750   92.098    0.383    0.228   22.900
   70.000   92.718    0.389    0.233   23.367
   70.250   92.141    0.393    0.237   24.763
   70.500   90.945    0.384    0.250   26.241
   70.750   88.553    0.371    0.256   28.881
   71.000   89.172    0.358    0.261   34.231
   71.250   88.590    0.373    0.264   39.822
   71.500   86.185    0.372    0.281   45.493
   71.750   78.314    0.363    0.312   50.985
   72.000   69.836    0.363    0.322   56.113
   72.250   67.432    0.373    0.308   60.584
   72.500   73.536    0.379    0.295   65.411
   72.750   78.419    0.375    0.285   70.587
   73.000   66.297    0.370    0.302   76.250
   73.250   52.960    0.374    0.346   83.875
   73.500   42.053    0.373    0.338   94.049
   73.750   34.182    0.371    0.332  101.491
   74.000   28.134    0.371    0.332  115.945
   74.250   26.956    0.370    0.340  140.011
   74.500   26.974    0.370    0.344  175.501
   74.750   26.386    0.371    0.344  215.920
   75.000   25.803    0.376    0.347  256.049
   75.250   24.613    0.378    0.348  256.570
   75.500   24.637    0.376    0.349  252.340
   75.750   25.269    0.372    0.345  243.592
   76.000   25.294    0.372    0.347  222.347
   76.250   25.319    0.373    0.354  195.522
   76.500   25.343    0.378    0.355  175.170
   76.750   25.380    0.383    0.362  169.184
   77.000   26.006    0.388    0.368  175.973
   77.250   26.030    0.389    0.361  186.388
   77.500   26.061    0.385    0.361  208.996
   77.750   26.080    0.384    0.362  234.228
   78.000   25.497    0.382    0.367  272.486
   78.250   25.522    0.380    0.364  305.382
   78.500   27.976    0.382    0.362  342.250
   78.750   31.043    0.378    0.357  376.478
   79.000   32.282    0.378    0.358  422.358
   79.250   32.914    0.379    0.358  447.582
   79.500   32.331    0.379    0.359  482.999
   79.750   30.540    0.380    0.362  531.304
   80.000   28.136    0.385    0.362  618.400
   80.250   27.547    0.384    0.360  706.468
   80.500   27.571    0.382    0.364  791.356
   80.750   27.596    0.382    0.366  920.613
   81.000   28.835    0.386    0.364 1154.550
   81.250   30.087    0.388    0.364 1502.230
   81.500   30.111    0.392    0.366 2068.180
   81.750   30.130    0.390    0.370 2405.990
   82.000   29.547    0.388    0.372 2550.970
   82.250   28.357    0.387    0.371 2372.340
   82.500   26.560    0.389    0.371 2290.100
   82.750   24.155    0.393    0.373 2252.340
   83.000   23.572    0.399    0.372 2214.080
   83.250   23.603    0.402    0.370 2260.370
   83.500   24.842    0.400    0.371 2224.230
   83.750   26.689    0.394    0.372 1954.890
   84.000   27.934    0.394    0.372 1656.080
   84.250   27.959    0.394    0.370 1402.940
   84.500   27.376    0.385    0.368 1329.270
   84.750   24.965    0.387    0.367 1331.970
   85.000   22.561    0.389    0.363 1360.510
   85.250   22.591    0.389    0.366 1388.950
   85.500   25.045    0.390    0.377 1417.270
   85.750   26.892    0.395    0.378 1475.650
   86.000   28.131    0.402    0.385 1506.500
   86.250   28.156    0.405    0.389 1596.460
   86.500   28.180    0.407    0.386 1629.010
   86.750   29.420    0.416    0.387 1967.140
   87.000   31.272    0.429    0.391 1972.140
   87.250   33.119    0.440    0.396 1867.640
   87.500   34.358    0.430    0.401 1337.600
   87.750   34.990    0.418    0.397  905.833
   88.000   34.407    0.406    0.387  925.241
   88.250   32.610    0.393    0.380  979.999
   88.500   30.813    0.391    0.375 1058.080
   88.750   29.015    0.383    0.368 1163.900
   89.000   27.825    0.385    0.364 1694.640
   89.250   26.635    0.387    0.360 2008.560
   89.500   26.660    0.383    0.355 2252.190
   89.750   26.684    0.378    0.350 2256.770
   90.000   27.317    0.378    0.348 2097.680
   90.250   28.562    0.380    0.354 1950.790
   90.500   30.415    0.379    0.364 1780.650
   90.750   31.642    0.378    0.368 1078.170
   91.000   33.494    0.382    0.371 1060.390
   91.250   34.740    0.388    0.370 1063.630
   91.500   34.758    0.393    0.363 1064.710
   91.750   34.783    0.400    0.354 1066.880
   92.000   34.807    0.401    0.350 1109.690
   92.250   36.047    0.398    0.344 1132.890
   92.500   40.323    0.388    0.342 1014.970
   92.750   47.040    0.379    0.331  481.952
   93.000   53.132    0.380    0.297  160.546
   93.250   61.052    0.389    0.249   82.141
   93.500   69.579    0.412    0.230   65.764
   93.750   88.437    0.402    0.225   49.812
   94.000  101.216    0.390    0.235   35.015
   94.250  101.848    0.378    0.243   28.034
   94.500  100.056    0.376    0.228   25.116
   94.750   99.468    0.386    0.227   23.357
   95.000   98.885    0.393    0.234   22.131
   95.250   98.915    0.399    0.238   21.375
   95.500   98.940    0.401    0.244   21.012
   95.750   95.934    0.404    0.248   21.054
   96.000   93.523    0.409    0.253   21.119
   96.250   91.119    0.414    0.249   21.172
   96.500   91.751    0.418    0.239   21.215
   96.750   92.996    0.418    0.244   21.237
   97.000   92.407    0.417    0.251   21.280
   97.250   96.683    0.421    0.250   21.334
   97.500   97.315    0.425    0.236   21.378
   97.750   96.732    0.417    0.244   21.036
   98.000   92.512    0.409    0.255   21.068
   98.250   84.635    0.396    0.272   21.100
   98.500   74.942    0.383    0.296   21.165
   98.750   74.360    0.380    0.329   21.186
