~VERSION INFORMATION
 VERS.                 2.0:   CWLS LOG ASCII STANDARD -VERSION 2.0
 WRAP.                  NO:   ONE LINE PER DEPTH STEP
~WELL INFORMATION BLOCK
#MNEM.UNIT           DATA                    DESCRIPTION OF MNEMONIC
#---------    -------------------            -------------------------------
# Generated from Intellog Unique Number	CN_94_101/WELL/1076
WELL.         11-33-094-06W4                 : Well_name    - WELL
LOC .         AA/11-33-094-06W4/0            : Location     - LOCATION
UWI .         AA/11-33-094-06W400            : Uwi          - UNIQUE WELL ID
ENTR.         JOETTE                         : Entered      - ENTERED BY
SRVC.         SCHLUMBERGER                   : Scn          - SERVICE COMPANY
DATE.         04/14/92                       : Date         - LOG DATE
STRT.M        100                            : top_depth    - START DEPTH
STOP.M        330                            : bot_depth    - STOP DEPTH
STEP.M        0.25                           : increment    - STEP LENGTH
 NULL. -999.2500:NULL Value
~CURVE INFORMATION BLOCK
#MNEM UNIT       ERCB CURVE CODE    CURVE DESCRIPTION
#-----------   ------------------   ----------------------------------
DEPT.M        00 001 00 00         : DEPTH        - DEPTH
ILD .OHMM     00 120 00 00         : RESD         - DEEP RESISTIVITY (DIL)
DPHI.V/V      00 890 00 00         : PHID         - DENSITY POROSITY (SANDSTONE)
NPHI.V/V      00 330 00 00         : PHIN         - NEUTRON POROSITY (SANDSTONE)
GR  .API      00 310 00 00         : GR           - GAMMA RAY
CALI.MM       00 280 01 00         : CAL          - CALIPER
~PARAMETER INFORMATION
#MNEM.UNIT           DATA             DESCRIPTION OF MNEMONIC
#---------         -----------     ------------------------------
GL  .M        597.57               : gl           - GROUND LEVEL ELEVATION
EREF.M        600.27               : kb           - ELEVATION OF DEPTH REFERENCE
DATM.M        600.27               : datum        - DATUM ELEVATION
TDD .M        335                  : tdd          - TOTAL DEPTH DRILLER
RUN .         ONE                  : Run          - RUN NUMBER
ENG .         BILL                 : Engineer     - RECORDING ENGINEER
WIT .         JIM                  : Witness      - WITNESSED BY
MUD .         GEL                  : Mud_type     - MUD TYPE
MATR.         SANDSTONE            : Logunit      - NEUTRON MATRIX
TMAX.C        16                   : BHT          - MAXIMUM RECORDED TEMPERATURE
BHTD.M        335                  : BHTDEP       - MAXIMUM RECORDED TEMPERATURE
RMT .C        19                   : MDTP         - TEMPERATURE OF MUD
MUDD.KG/M     1030                 : MWT          - MUD DENSITY
NEUT.         1                    : NEUTRON      - NEUTRON TYPE
RESI.         0                    : RESIST       - RESISTIVITY TYPE
RM  .OHMM     8.1                  : RM           - RESISTIVITY OF MUD
RMC .OHMM     8.1                  : RMC          - RESISTIVITY OF MUD CAKE
RMF .OHMM     8.1                  : RMF          - RESISTIVITY OF MUD FILTRATE
SUFT.C        4                    : SUFT         - SURFACE TEMPERATURE
~A  DEPTH     RESD     PHID     PHIN       GR      CAL
# ...
  136.500   53.714    0.308    0.353   40.194  181.044
  136.750   45.283    0.275    0.338   40.228  183.090
  137.000   36.744    0.258    0.317   40.261  186.117
  137.250   28.697    0.208    0.300   43.272  194.148
  137.500   25.620    0.175    0.314   55.247  194.203
  137.750   28.223    0.142    0.329   55.289  194.259
  138.000   29.933    0.181    0.343   52.925  192.324
  138.250   29.403    0.209    0.324   52.362  188.399
  138.500   27.272    0.202    0.309   57.180  187.446
  138.750   25.777    0.203    0.304   59.602  181.544
  139.000   23.020    0.253    0.325   59.635  188.552
  139.250   25.350    0.280    0.357   58.475  195.574
  139.500   33.165    0.236    0.332   63.285  181.711
  139.750   37.969    0.194    0.320   65.109  180.758
  140.000   38.737    0.182    0.315   61.560  183.799
  140.250   35.952    0.158    0.307   56.817  179.874
  140.500   33.327    0.154    0.299   54.470  178.948
  140.750   30.328    0.292    0.314   55.092  180.994
  141.000   25.567    0.332    0.382   56.917  180.055
  141.250   25.122    0.394    0.398   59.936  187.076
  141.500   25.152    0.359    0.363   63.560  195.093
  141.750   26.669    0.346    0.380   63.593  195.149
  142.000   33.582    0.290    0.386   63.038  186.248
  142.250   37.707    0.229    0.379   63.063  176.366
  142.500   32.402    0.180    0.392   63.097  182.379
  142.750   26.292    0.252    0.390   63.138  190.396
  143.000   25.352    0.250    0.381   63.769  190.451
  143.250   27.919    0.209    0.381   63.810  190.521
  143.500   35.824    0.228    0.382   63.247  190.577
  143.750   60.101    0.256    0.355   62.069  178.676
  144.000   86.511    0.222    0.321   59.126  169.775
  144.250   84.977    0.203    0.290   60.959  169.845
  144.500   71.639    0.167    0.277   60.975  169.901
  144.750   60.394    0.168    0.274   61.606  167.966
  145.000   65.270    0.178    0.279   64.625  168.008
  145.250   70.540    0.183    0.280   61.672  166.073
  145.500   72.032    0.191    0.281   58.729  166.128
  145.750   72.098    0.176    0.279   58.762  170.179
  146.000   72.186    0.168    0.238   60.587  171.243
  146.250   72.252    0.178    0.235   61.217  171.313
  146.500   82.742    0.180    0.263   61.251  170.359
  146.750   79.713    0.179    0.262   60.687  170.415
  147.000   65.949    0.167    0.262   60.729  170.485
  147.250   56.636    0.151    0.257   60.762  170.512
  147.500   49.606    0.171    0.280   60.198  169.573
  147.750   67.447    0.233    0.382   57.238  168.633
  148.000   99.018    0.269    0.393   51.897  166.713
  148.250  106.948    0.302    0.391   46.557  164.778
  148.500  120.121    0.327    0.382   41.216  165.829
  148.750  117.992    0.348    0.385   35.876  165.884
  149.000  109.410    0.346    0.381   31.729  166.949
  149.250  122.849    0.328    0.376   32.957  166.977
  149.500  146.122    0.295    0.341   38.364  167.032
  149.750  149.122    0.256    0.311   43.771  167.102
  150.000  133.132    0.240    0.315   49.776  166.176
  150.250  110.111    0.291    0.341   45.032  165.237
  150.500   92.828    0.308    0.353   39.700  164.297
  150.750   87.763    0.302    0.356   41.525  164.353
  151.000  104.389    0.261    0.311   44.535  164.409
  151.250  102.538    0.164    0.249   51.137  161.479
  151.500  110.784    0.050    0.209   63.137  163.525
  151.750  108.819    0.087    0.261   58.974  171.528
  152.000   93.508    0.139    0.277   51.254  179.545
  152.250   78.831    0.180    0.271   54.264  175.620
  152.500   58.138    0.272    0.277   56.694  172.690
  152.750   49.027    0.266    0.342   55.534  171.750
  153.000   43.744    0.274    0.410   53.170  173.796
  153.250   37.589    0.299    0.450   53.809  180.818
  153.500   32.300    0.333    0.455   56.820  182.878
  153.750   27.230    0.331    0.426   61.630  179.948
  154.000   23.399    0.297    0.420   67.046  181.994
  154.250   23.887    0.282    0.427   71.856  181.055
  154.500   27.330    0.270    0.445   73.083  172.168
  154.750   38.607    0.272    0.451   68.340  169.224
  155.000   43.349    0.290    0.446   62.402  169.293
  155.250   49.628    0.306    0.435   62.435  169.349
  155.500   49.688    0.311    0.429   62.469  167.428
  155.750   38.061    0.314    0.430   61.308  166.461
  156.000   30.299    0.319    0.431   55.968  166.516
  156.250   25.543    0.304    0.431   57.792  166.572
  156.500   41.247    0.282    0.438   65.588  166.628
  156.750   49.992    0.284    0.441   73.981  167.678
  157.000   49.105    0.303    0.420   72.231  167.734
  157.250   39.080    0.316    0.420   71.668  168.827
  157.500   24.736    0.306    0.426   73.492  168.854
  157.750   21.256    0.293    0.423   70.540  168.896
  158.000   24.796    0.232    0.415   73.551  168.966
  158.250   30.053    0.279    0.428   80.757  171.993
  158.500   26.323    0.273    0.468   78.403  176.043
  158.750   17.985    0.239    0.425   79.630  176.113
  159.000   14.879    0.276    0.442   84.440  180.149
  159.250   21.418    0.287    0.475   85.668  176.210
  159.500   30.829    0.280    0.456   66.594  169.313
  159.750   43.564    0.283    0.439   59.470  166.370
  160.000   46.162    0.321    0.438   59.504  166.425
  160.250   48.959    0.325    0.456   58.932  165.486
  160.500   47.181    0.328    0.455   56.577  165.569
  160.750   45.454    0.333    0.447   53.028  165.597
  161.000   42.173    0.333    0.445   52.464  165.680
  161.250   39.885    0.329    0.450   53.094  165.708
  161.500   36.995    0.339    0.447   57.316  165.778
  161.750   36.317    0.330    0.441   60.326  165.820
  162.000   37.063    0.300    0.432   66.339  166.898
  162.250   38.553    0.306    0.433   63.976  166.940
  162.500   40.902    0.324    0.443   55.650  168.005
  162.750   42.534    0.336    0.421   50.309  169.041
  163.000   44.245    0.311    0.421   53.925  169.097
  163.250   45.154    0.284    0.428   61.124  169.167
  163.500   45.222    0.295    0.437   62.948  168.227
  163.750   45.264    0.318    0.432   52.234  167.288
  164.000   43.646    0.348    0.420   45.699  166.348
  164.250   42.048    0.310    0.408   52.898  166.404
  164.500   40.509    0.283    0.418   65.479  166.445
  164.750   38.299    0.283    0.424   58.347  166.501
  165.000   32.920    0.311    0.413   57.783  167.552
  165.250   29.948    0.303    0.403   64.385  169.612
  165.500   26.231    0.257    0.394   74.569  171.658
  165.750   20.881    0.225    0.403   82.962  174.699
  166.000   16.944    0.209    0.437   93.751  178.735
  166.250   14.560    0.231    0.457   96.778  183.753
  166.500   14.310    0.235    0.466   99.192  187.817
  166.750   14.595    0.233    0.445   95.642  186.877
  167.000   15.774    0.233    0.432   92.102  184.957
  167.250   18.053    0.238    0.451   90.941  182.994
  167.500   20.271    0.249    0.475   89.174  180.064
  167.750   24.568    0.312    0.465   57.553  175.144
  168.000   27.064    0.332    0.444   46.242  169.242
  168.250   24.162    0.342    0.432   50.455  171.274
  168.500   21.571    0.295    0.423   57.653  175.311
  168.750   19.636    0.246    0.444   72.025  181.337
  169.000   17.868    0.228    0.463   94.152  180.426
  169.250   17.225    0.233    0.446   93.588  179.472
  169.500   17.235    0.237    0.417   85.262  178.533
  169.750   17.589    0.234    0.405   84.698  181.574
  170.000   18.308    0.232    0.415   84.731  180.620
  170.250   19.044    0.234    0.423   83.571  175.700
  170.500   20.581    0.230    0.426   88.389  181.727
  170.750   22.243    0.215    0.434   84.840  182.778
  171.000   23.131    0.246    0.430   76.514  175.881
  171.250   24.525    0.257    0.439   71.762  171.942
  171.500   26.012    0.277    0.442   70.601  169.012
  171.750   27.580    0.294    0.415   74.831  169.068
  172.000   28.680    0.283    0.411   71.871  170.133
  172.250   29.278    0.270    0.426   65.933  169.193
  172.500   29.314    0.281    0.418   56.404  166.263
  172.750   28.258    0.301    0.401   64.208  166.319
