~VERSION INFORMATION
 VERS.                 2.0:   CWLS LOG ASCII STANDARD -VERSION 2.0
 WRAP.                  NO:   ONE LINE PER DEPTH STEP
~WELL INFORMATION BLOCK
#MNEM.UNIT           DATA                    DESCRIPTION OF MNEMONIC
#---------    -------------------            -------------------------------
# Generated from Intellog Unique Number	CN_94_101/WELL/5029
WELL.         12-12-099-15W4                 : Well_name    - WELL
LOC .         AA/12-12-099-15W4/0            : Location     - LOCATION
UWI .         AA/12-12-099-15W400            : Uwi          - UNIQUE WELL ID
ENTR.         TIM                            : Entered      - ENTERED BY
SRVC.         SCHLUMBERGER                   : Scn          - SERVICE COMPANY
DATE.         08/13/92                       : Date         - LOG DATE
STRT.M        295                            : top_depth    - START DEPTH
STOP.M        495                            : bot_depth    - STOP DEPTH
STEP.M        0.25                           : increment    - STEP LENGTH
 NULL. -999.2500:NULL Value
~CURVE INFORMATION BLOCK
#MNEM UNIT       ERCB CURVE CODE    CURVE DESCRIPTION
#-----------   ------------------   ----------------------------------
DEPT.M        00 001 00 00         : DEPTH        - DEPTH
GR  .API      00 310 00 00         : GR           - GAMMA RAY
ILD .OHMM     00 120 00 00         : RESD         - DEEP RESISTIVITY (DIL)
NPHI.V/V      00 330 00 00         : PHIN         - NEUTRON POROSITY (SANDSTONE)
DPHI.V/V      00 890 00 00         : PHID         - DENSITY POROSITY (SANDSTONE)
~PARAMETER INFORMATION
#MNEM.UNIT           DATA             DESCRIPTION OF MNEMONIC
#---------         -----------     ------------------------------
GL  .M        740.9                : gl           - GROUND LEVEL ELEVATION
EREF.M        744.35               : kb           - ELEVATION OF DEPTH REFERENCE
DATM.M        744.35               : datum        - DATUM ELEVATION
TDD .M        497.5                : tdd          - TOTAL DEPTH DRILLER
RUN .         ONE                  : Run          - RUN NUMBER
ENG .         BILL                 : Engineer     - RECORDING ENGINEER
WIT .         JIM                  : Witness      - WITNESSED BY
MUD .         GEL                  : Mud_type     - MUD TYPE
MATR.         SANDSTONE            : Logunit      - NEUTRON MATRIX
TMAX.C        25                   : BHT          - MAXIMUM RECORDED TEMPERATURE
BHTD.M        497.5                : BHTDEP       - MAXIMUM RECORDED TEMPERATURE
RMT .C        10                   : MDTP         - TEMPERATURE OF MUD
MUDD.KG/M     1100                 : MWT          - MUD DENSITY
NEUT.         1                    : NEUTRON      - NEUTRON TYPE
RESI.         0                    : RESIST       - RESISTIVITY TYPE
RM  .OHMM     0.52                 : RM           - RESISTIVITY OF MUD
RMC .OHMM     0.72                 : RMC          - RESISTIVITY OF MUD CAKE
RMF .OHMM     0.72                 : RMF          - RESISTIVITY OF MUD FILTRATE
SUFT.C        4                    : SUFT         - SURFACE TEMPERATURE
~A  DEPTH       GR     RESD     PHIN     PHID
# ...
  382.000   83.012    6.681    0.480    0.312
  382.250   84.767    6.189    0.486    0.315
  382.500   87.113    5.415    0.522    0.333
  382.750   87.681    4.562    0.542    0.339
  383.000   86.491    4.306    0.548    0.346
  383.250   82.928    4.916    0.548    0.352
  383.500   79.361    5.403    0.540    0.358
  383.750   78.166    6.168    0.530    0.367
  384.000   75.194    7.042    0.506    0.375
  384.250   72.813    7.594    0.489    0.383
  384.500   68.646    7.733    0.464    0.322
  384.750   66.864    7.584    0.450    0.295
  385.000   64.483    7.161    0.441    0.257
  385.250   66.238    6.631    0.442    0.284
  385.500   72.129    6.262    0.454    0.308
  385.750   77.429    5.689    0.472    0.335
  386.000   80.957    5.476    0.509    0.341
  386.250   81.530    5.169    0.525    0.367
  386.500   81.513    4.880    0.539    0.385
  386.750   81.495    4.695    0.552    0.382
  387.000   82.659    4.518    0.562    0.354
  387.250   85.005    4.430    0.558    0.338
  387.500   86.760    4.344    0.548    0.354
  387.750   85.561    4.259    0.549    0.370
  388.000   82.589    4.258    0.554    0.370
  388.250   81.389    4.175    0.569    0.380
  388.500   80.776    4.417    0.588    0.394
  388.750   80.754    4.674    0.605    0.392
  389.000   81.336    4.945    0.558    0.370
  389.250   81.910    5.233    0.510    0.343
  389.500   84.251    5.536    0.500    0.336
  389.750   86.010    5.533    0.512    0.315
  390.000   88.352    5.427    0.505    0.354
  390.250   90.107    4.931    0.495    0.336
  390.500   91.275    4.656    0.486    0.307
  390.750   92.440    4.230    0.503    0.294
  391.000   94.181    4.150    0.517    0.299
  391.250   94.763    3.993    0.525    0.322
  391.500   95.923    3.841    0.535    0.344
  391.750   97.083    3.695    0.547    0.325
  392.000   98.251    3.694    0.572    0.310
  392.250   99.415    3.623    0.584    0.314
  392.500   99.993    3.620    0.580    0.321
  392.750  101.157    3.688    0.570    0.330
  393.000  101.731    3.828    0.563    0.329
  393.250  101.118    4.128    0.550    0.328
  393.500   98.741    4.286    0.544    0.321
  393.750   95.764    4.450    0.533    0.312
  394.000   93.388    4.364    0.521    0.288
  394.250   93.370    4.198    0.514    0.276
  394.500   95.716    4.443    0.522    0.246
  394.750   99.830    5.268    0.527    0.253
  395.000   99.812    6.247    0.532    0.282
  395.250   98.613    7.267    0.523    0.318
  395.500   98.004    7.988    0.502    0.288
  395.750   99.169    8.612    0.488    0.266
  396.000   99.746    9.113    0.456    0.260
  396.250  100.320    9.462    0.449    0.282
  396.500   97.343    9.822    0.450    0.310
  396.750   93.780    9.818    0.443    0.333
  397.000   91.399    9.626    0.432    0.352
  397.250   90.200    9.087    0.414    0.330
  397.500   90.182    8.417    0.410    0.301
  397.750   90.160    7.945    0.424    0.304
  398.000   90.147    7.793    0.448    0.329
  398.250   88.939    7.642    0.457    0.353
  398.500   88.339    7.933    0.467    0.376
  398.750   88.317    8.081    0.472    0.329
  399.000   88.299    8.388    0.460    0.320
  399.250   88.286    8.385    0.446    0.342
  399.500   88.264    8.381    0.432    0.331
  399.750   88.251    8.064    0.428    0.300
  400.000   88.229    7.758    0.422    0.257
  400.250   88.216    7.751    0.415    0.256
  400.500   88.189    7.749    0.416    0.254
  400.750   88.180    8.045    0.433    0.249
  401.000   88.754    8.511    0.432    0.242
  401.250   87.545    8.669    0.395    0.226
  401.500   85.755    8.833    0.364    0.206
  401.750   85.147    8.496    0.391    0.186
  402.000   88.088    8.176    0.414    0.294
  402.250   92.797    7.719    0.420    0.291
  402.500   95.734    7.287    0.419    0.283
  402.750   93.348    6.879    0.420    0.281
  403.000   90.972    6.618    0.423    0.281
  403.250   91.540    6.491    0.428    0.280
  403.500   93.295    6.611    0.436    0.277
  403.750   93.869    6.864    0.446    0.277
  404.000   93.256    7.262    0.473    0.277
  404.250   92.061    7.398    0.478    0.280
  404.500   91.452    7.680    0.488    0.284
  404.750   90.839    7.676    0.496    0.290
  405.000   90.826    7.245    0.491    0.292
  405.250   91.404    7.105    0.462    0.302
  405.500   91.973    6.969    0.449    0.329
  405.750   92.546    6.579    0.474    0.320
  406.000   93.119    6.093    0.483    0.314
  406.250   93.106    5.752    0.511    0.311
  406.500   94.270    5.640    0.539    0.318
  406.750   93.662    5.637    0.563    0.369
  407.000   90.685    5.851    0.566    0.364
  407.250   87.709    5.962    0.518    0.356
  407.500   86.514    6.308    0.462    0.344
  407.750   85.901    6.549    0.445    0.313
  408.000   85.879    6.671    0.456    0.305
  408.250   85.870    6.062    0.463    0.298
  408.500   86.443    5.405    0.466    0.304
  408.750   87.603    4.914    0.471    0.318
  409.000   88.767    4.300    0.481    0.340
  409.250   90.522    3.622    0.506    0.393
  409.500   90.504    3.169    0.528    0.399
  409.750   89.305    2.991    0.552    0.398
  410.000   86.333    2.933    0.571    0.397
  410.250   85.129    2.876    0.598    0.397
  410.500   85.112    2.767    0.584    0.400
  410.750   85.689    2.663    0.581    0.407
  411.000   88.035    2.562    0.572    0.409
  411.250   89.786    2.418    0.562    0.412
  411.500   89.768    2.418    0.562    0.406
  411.750   89.164    2.509    0.562    0.403
  412.000   88.546    2.606    0.565    0.396
  412.250   88.538    2.864    0.559    0.388
  412.500   89.111    3.269    0.549    0.382
  412.750   89.680    3.877    0.539    0.382
  413.000   89.067    4.685    0.526    0.383
  413.250   89.058    5.149    0.511    0.385
  413.500   89.040    5.991    0.493    0.385
  413.750   92.564    6.461    0.484    0.354
  414.000   94.319    7.235    0.490    0.311
  414.250   94.892    7.512    0.487    0.293
  414.500   94.879    7.800    0.452    0.247
  414.750   94.270    8.097    0.436    0.166
  415.000   96.616    8.404    0.437    0.244
  415.250   95.417    8.401    0.440    0.259
  415.500   93.626    8.558    0.445    0.258
  415.750   92.427    8.552    0.444    0.246
  416.000   92.996    8.547    0.436    0.238
  416.250   92.983    8.544    0.429    0.246
  416.500   92.965    8.700    0.421    0.251
  416.750   91.757    8.862    0.411    0.244
  417.000   91.748    9.029    0.392    0.196
  417.250   92.912    9.194    0.361    0.185
  417.500   95.840    9.190    0.366    0.169
  417.750   97.009    9.014    0.397    0.163
  418.000   98.759    8.838    0.412    0.214
  418.250   98.746    8.502    0.420    0.236
  418.500   96.947    8.500    0.429    0.246
  418.750   95.752    8.023    0.438    0.251
  419.000   94.557    7.869    0.430    0.254
  419.250   92.767    7.717    0.418    0.254
  419.500   93.335    7.565    0.418    0.258
  419.750   93.913    7.562    0.429    0.264
  420.000   94.478    7.559    0.437    0.271
  420.250   94.469    7.410    0.446    0.283
  420.500   94.451    7.408    0.451    0.289
  420.750   92.652    7.403    0.454    0.300
  421.000   92.048    7.399    0.459    0.315
  421.250   90.849    7.537    0.484    0.345
  421.500   89.654    7.533    0.488    0.314
  421.750   90.818    7.673    0.496    0.287
  422.000   93.746    7.816    0.470    0.272
  422.250   94.919    7.811    0.422    0.269
  422.500   94.897    7.957    0.407    0.273
  422.750   91.920    8.104    0.414    0.272
  423.000   90.721    8.256    0.421    0.276
  423.250   88.926    8.407    0.426    0.278
  423.500   88.326    8.403    0.430    0.286
  423.750   87.718    8.559    0.431    0.292
  424.000   87.109    8.720    0.433    0.288
  424.250   86.496    8.881    0.398    0.265
  424.500   85.302    9.046    0.400    0.256
  424.750   84.102    9.042    0.402    0.241
  425.000   82.303    9.211    0.403    0.210
  425.250   81.699    9.205    0.402    0.199
