~VERSION INFORMATION
 VERS.                 2.0:   CWLS LOG ASCII STANDARD -VERSION 2.0
 WRAP.                  NO:   ONE LINE PER DEPTH STEP
~WELL INFORMATION BLOCK
#MNEM.UNIT           DATA                    DESCRIPTION OF MNEMONIC
#---------    -------------------            -------------------------------
# Generated from Intellog Unique Number	CS_77_79/WELL/969
WELL.         PEX PCEJ ALGAR OV              : Well_name    - WELL
LOC .         AA/10-26-079-15W4/0            : Location     - LOCATION
UWI .         AA/10-26-079-15W4/0            : Uwi          - UNIQUE WELL ID
ENTR.         JHS                            : Entered      - ENTERED BY
SRVC.         SCHLUMBERGER                   : Scn          - SERVICE COMPANY
STRT.M        225                            : top_depth    - START DEPTH
STOP.M        470                            : bot_depth    - STOP DEPTH
STEP.M        0.25                           : increment    - STEP LENGTH
 NULL. -999.2500:NULL Value
~CURVE INFORMATION BLOCK
#MNEM UNIT       ERCB CURVE CODE    CURVE DESCRIPTION
#-----------   ------------------   ----------------------------------
DEPT.M        00 001 00 00         : DEPTH        - DEPTH
DPHI.V/V      00 890 00 00         : PHID         - DENSITY POROSITY (LIMESTONE)
NPHI.V/V      00 330 00 00         : PHIN         - NEUTRON POROSITY (LIMESTONE)
GR  .API      00 310 00 00         : GR           - GAMMA RAY
ILD .OHMM     00 120 00 00         : RESD         - DEEP RESISTIVITY (DIL)
RHOB.KG/M3    00 350 00 00         : DENS         - BULK DENSITY
~PARAMETER INFORMATION
#MNEM.UNIT           DATA             DESCRIPTION OF MNEMONIC
#---------         -----------     ------------------------------
GL  .M        640.8                : gl           - GROUND LEVEL ELEVATION
EREF.M        644                  : kb           - ELEVATION OF DEPTH REFERENCE
DATM.M        644                  : datum        - DATUM ELEVATION
TDD .M        477                  : tdd          - TOTAL DEPTH DRILLER
RUN .         ONE                  : Run          - RUN NUMBER
ENG .         BILL                 : Engineer     - RECORDING ENGINEER
WIT .         JIM                  : Witness      - WITNESSED BY
MUD .         GEL                  : Mud_type     - MUD TYPE
MATR.         LIMESTONE            : Logunit      - NEUTRON MATRIX
TMAX.C        28                   : BHT          - MAXIMUM RECORDED TEMPERATURE
BHTD.M        477                  : BHTDEP       - MAXIMUM RECORDED TEMPERATURE
MATR.         1                    : LOGUNIT      - NEUTRON MATRIX
RMT .C        25                   : MDTP         - TEMPERATURE OF MUD
NEUT.         1                    : NEUTRON      - NEUTRON TYPE
RESI.         0                    : RESIST       - RESISTIVITY TYPE
RMC .OHMM     0.25                 : RMC          - RESISTIVITY OF MUD CAKE
RMF .OHMM     0.25                 : RMF          - RESISTIVITY OF MUD FILTRATE
SUFT.C        15                   : SUFT         - SURFACE TEMPERATURE
~A  DEPTH     PHID     PHIN       GR     RESD     DENS
# ...
  298.000    0.294    0.366   61.058   22.503    0.000
  298.250    0.299    0.364   55.543   19.344    0.000
  298.500    0.303    0.359   58.659   18.278    0.000
  298.750    0.304    0.363   59.318   16.315    0.000
  299.000    0.305    0.375   55.031   15.413    0.000
  299.250    0.304    0.387   54.456   14.559    0.000
  299.500    0.305    0.387   56.953   14.282    0.000
  299.750    0.303    0.381   61.306   14.007    0.000
  300.000    0.293    0.393   57.023   14.001    0.000
  300.250    0.291    0.398   55.209   13.993    0.000
  300.500    0.295    0.400   57.103   13.988    0.000
  300.750    0.295    0.398   56.519   13.979    0.000
  301.000    0.293    0.394   55.934   13.974    0.000
  301.250    0.289    0.374   55.973   14.231    0.000
  301.500    0.296    0.406   54.156   14.225    0.000
  301.750    0.303    0.395   52.339   14.215    0.000
  302.000    0.303    0.390   52.381   14.210    0.000
  302.250    0.300    0.402   49.328   14.205    0.000
  302.500    0.299    0.401   51.838   14.469    0.000
  302.750    0.299    0.402   50.632   14.459    0.000
  303.000    0.300    0.410   48.202   14.728    0.000
  303.250    0.301    0.410   46.996   14.719    0.000
  303.500    0.301    0.423   51.970   14.715    0.000
  303.750    0.301    0.410   56.334   14.432    0.000
  304.000    0.299    0.403   55.127   14.700    0.000
  304.250    0.294    0.389   50.843   14.690    0.000
  304.500    0.291    0.376   50.270   14.686    0.000
  304.750    0.291    0.385   50.915   14.676    0.000
  305.000    0.291    0.396   49.100   14.672    0.000
  305.250    0.291    0.373   50.994   14.665    0.000
  305.500    0.291    0.383   47.936   14.934    0.000
  305.750    0.289    0.377   46.119   14.929    0.000
  306.000    0.288    0.396   49.247   14.921    0.000
  306.250    0.286    0.417   51.136   14.912    0.000
  306.500    0.287    0.391   51.792   14.907    0.000
  306.750    0.290    0.389   59.224   14.897    0.000
  307.000    0.293    0.403   55.557   14.892    0.000
  307.250    0.288    0.396   51.271   14.882    0.000
  307.500    0.282    0.396   51.309   14.877    0.000
  307.750    0.280    0.391   53.819   14.869    0.000
  308.000    0.283    0.396   53.848   14.859    0.000
  308.250    0.285    0.382   55.118   15.138    0.000
  308.500    0.286    0.387   48.363   14.849    0.000
  308.750    0.286    0.397   55.190   15.124    0.000
  309.000    0.280    0.400   52.140   15.117    0.000
  309.250    0.275    0.408   50.946   15.107    0.000
  309.500    0.277    0.399   50.976   15.100    0.000
  309.750    0.282    0.375   58.420   15.094    0.000
  310.000    0.282    0.368   60.313   15.372    0.000
  310.250    0.275    0.377   63.432   15.655    0.000
  310.500    0.271    0.369   54.211   15.944    0.000
  310.750    0.271    0.373   56.097   16.243    0.000
  311.000    0.272    0.365   62.300   16.544    0.000
  311.250    0.271    0.366   65.433   16.849    0.000
  311.500    0.271    0.374   61.142   16.840    0.000
  311.750    0.274    0.369   61.792   16.515    0.000
  312.000    0.275    0.388   65.528   16.510    0.000
  312.250    0.274    0.375   63.714   15.892    0.000
  312.500    0.272    0.361   56.962   15.885    0.000
  312.750    0.269    0.360   61.937   15.582    0.000
  313.000    0.269    0.367   63.206   15.570    0.000
  313.250    0.269    0.376   62.625   15.276    0.000
  313.500    0.265    0.373   62.664   15.265    0.000
  313.750    0.265    0.362   64.557   15.262    0.000
  314.000    0.272    0.360   63.975   14.968    0.000
  314.250    0.271    0.369   62.149   14.960    0.000
  314.500    0.269    0.366   62.192   14.676    0.000
  314.750    0.266    0.364   60.386   14.668    0.000
  315.000    0.259    0.369   60.404   14.661    0.000
  315.250    0.256    0.364   62.291   14.653    0.000
  315.500    0.256    0.363   66.032   14.373    0.000
  315.750    0.256    0.360   70.394   14.368    0.000
  316.000    0.251    0.350   64.873   14.092    0.000
  316.250    0.249    0.342   59.350   13.563    0.000
  316.500    0.247    0.332   65.556   13.305    0.000
  316.750    0.246    0.312   68.063   13.551    0.000
  317.000    0.242    0.289   62.554   13.800    0.000
  317.250    0.243    0.267   59.492   13.796    0.000
  317.500    0.236    0.243   65.092   14.590    0.000
  317.750    0.129    0.209   60.798   16.635    0.000
  318.000    0.075    0.157   58.985   18.969    0.000
  318.250    0.033    0.141   49.766   22.042    0.000
  318.500    0.028    0.138   41.773   31.503    0.000
  318.750    0.030    0.145   44.286   40.217    0.000
  319.000    0.045    0.159   52.956   44.161    0.000
  319.250    0.103    0.224   59.779   44.140    0.000
  319.500    0.207    0.337   63.521   37.246    0.000
  319.750    0.232    0.374   67.880   22.394    0.000
  320.000    0.238    0.386   70.376   17.198    0.000
  320.250    0.236    0.393   69.178   15.068    0.000
  320.500    0.235    0.384   71.683   14.235    0.000
  320.750    0.234    0.380   70.485   13.447    0.000
  321.000    0.224    0.375   74.223   12.703    0.000
  321.250    0.213    0.370   73.641   12.227    0.000
  321.500    0.205    0.373   71.209   11.769    0.000
  321.750    0.205    0.383   78.035   11.763    0.000
  322.000    0.219    0.405   74.368   11.758    0.000
  322.250    0.233    0.400   72.553   11.751    0.000
  322.500    0.235    0.396   75.675   11.527    0.000
  322.750    0.239    0.399   78.800   11.523    0.000
  323.000    0.242    0.393   79.451   10.882    0.000
  323.250    0.236    0.398   75.781   10.675    0.000
  323.500    0.232    0.390   83.846   10.473    0.000
  323.750    0.232    0.402   89.435    9.705    0.000
  324.000    0.234    0.406   88.850    9.522    0.000
  324.250    0.245    0.397   95.673    9.166    0.000
  324.500    0.266    0.395   90.157    8.824    0.000
  324.750    0.272    0.374   76.613    9.331    0.000
  325.000    0.273    0.363   64.925   10.440    0.000
  325.250    0.271    0.360   51.997   11.466    0.000
  325.500    0.268    0.363   55.125   13.321    0.000
  325.750    0.263    0.367   58.856   13.827    0.000
  326.000    0.261    0.383   60.743   13.562    0.000
  326.250    0.263    0.402   68.803   12.572    0.000
  326.500    0.273    0.384   62.668   11.876    0.000
  326.750    0.276    0.397   50.976   11.011    0.000
  327.000    0.270    0.382   55.950   10.599    0.000
  327.250    0.273    0.376   53.521   10.200    0.000
  327.500    0.276    0.369   56.026   10.005    0.000
  327.750    0.275    0.378   54.840   10.001    0.000
  328.000    0.274    0.388   55.476   10.577    0.000
  328.250    0.270    0.394   57.367   11.396    0.000
  328.500    0.262    0.395   59.869   11.829    0.000
  328.750    0.262    0.383   59.909   12.747    0.000
  329.000    0.268    0.375   57.477   12.985    0.000
  329.250    0.271    0.370   55.036   13.475    0.000
  329.500    0.271    0.382   65.570   13.220    0.000
  329.750    0.268    0.397   67.458   11.801    0.000
  330.000    0.267    0.392   67.487   10.537    0.000
  330.250    0.263    0.392   65.057    9.230    0.000
  330.500    0.263    0.386   63.860    9.055    0.000
  330.750    0.267    0.404   64.516    9.576    0.000
  331.000    0.356    0.442   67.017   10.127    0.000
  331.250    0.354    0.469   76.309    9.934    0.000
  331.500    0.345    0.481   80.061    8.868    0.000
  331.750    0.355    0.513   80.084    8.068    0.000
  332.000    0.360    0.480   88.145    7.340    0.000
  332.250    0.290    0.449   94.971    6.311    0.000
  332.500    0.294    0.477   99.940    5.633    0.000
  332.750    0.329    0.520  101.213    5.222    0.000
  333.000    0.359    0.521   98.783    4.752    0.000
  333.250    0.340    0.537   93.258    3.719    0.000
  333.500    0.332    0.537   90.212    2.910    0.000
  333.750    0.347    0.534   94.566    2.502    0.000
  334.000    0.354    0.527   91.516    2.319    0.000
  334.250    0.350    0.529   93.403    2.318    0.000
