~VERSION INFORMATION
 VERS.                 2.0:   CWLS LOG ASCII STANDARD -VERSION 2.0
 WRAP.                  NO:   ONE LINE PER DEPTH STEP
~WELL INFORMATION BLOCK
#MNEM.UNIT           DATA                    DESCRIPTION OF MNEMONIC
#---------    -------------------            -------------------------------
# Generated from Intellog Unique Number	CW_79_81/WELL/924
WELL.         12-29-079-22W4                 : Well_name    - WELL
LOC .         AA/12-29-079-22W4/0            : Location     - LOCATION
UWI .         AA/12-29-079-22W4/0            : Uwi          - UNIQUE WELL ID
ENTR.         MAX                            : Entered      - ENTERED BY
SRVC.         SCHLUMBERGER                   : Scn          - SERVICE COMPANY
STRT.M        215                            : top_depth    - START DEPTH
STOP.M        450                            : bot_depth    - STOP DEPTH
STEP.M        0.25                           : increment    - STEP LENGTH
 NULL. -999.2500:NULL Value
~CURVE INFORMATION BLOCK
#MNEM UNIT       ERCB CURVE CODE    CURVE DESCRIPTION
#-----------   ------------------   ----------------------------------
DEPT.M        00 001 00 00         : DEPTH        - DEPTH
ILD .OHMM     00 120 00 00         : RESD         - DEEP RESISTIVITY (DIL)
NPHI.V/V      00 330 00 00         : PHIN         - NEUTRON POROSITY (SANDSTONE)
DPHI.V/V      00 890 00 00         : PHID         - DENSITY POROSITY (SANDSTONE)
CALI.MM       00 280 01 00         : CAL          - CALIPER
GR  .API      00 310 00 00         : GR           - GAMMA RAY
~PARAMETER INFORMATION
#MNEM.UNIT           DATA             DESCRIPTION OF MNEMONIC
#---------         -----------     ------------------------------
GL  .M        568.6                : gl           - GROUND LEVEL ELEVATION
EREF.M        573.2                : kb           - ELEVATION OF DEPTH REFERENCE
DATM.M        568.6                : datum        - DATUM ELEVATION
TDD .M        458                  : tdd          - TOTAL DEPTH DRILLER
RUN .         ONE                  : Run          - RUN NUMBER
ENG .         BILL                 : Engineer     - RECORDING ENGINEER
WIT .         JIM                  : Witness      - WITNESSED BY
MUD .         GEL                  : Mud_type     - MUD TYPE
MATR.         SANDSTONE            : Logunit      - NEUTRON MATRIX
TMAX.C        21                   : BHT          - MAXIMUM RECORDED TEMPERATURE
BHTD.M        458                  : BHTDEP       - MAXIMUM RECORDED TEMPERATURE
RMT .C        14.4                 : MDTP         - TEMPERATURE OF MUD
MUDD.KG/M     1070                 : MWT          - MUD DENSITY
NEUT.         1                    : NEUTRON      - NEUTRON TYPE
RESI.         0                    : RESIST       - RESISTIVITY TYPE
RM  .OHMM     0.89                 : RM           - RESISTIVITY OF MUD
RMC .OHMM     0                    : RMC          - RESISTIVITY OF MUD CAKE
RMF .OHMM     0.77                 : RMF          - RESISTIVITY OF MUD FILTRATE
SUFT.C        -20                  : SUFT         - SURFACE TEMPERATURE
~A  DEPTH     RESD     PHIN     PHID      CAL       GR
# ...
  361.000   14.585    0.462    0.181  286.610   83.163
  361.250   14.463    0.461    0.178  286.651   82.291
  361.500   14.878    0.461    0.179  286.197   82.320
  361.750   15.441    0.459    0.180  286.244   82.644
  362.000   16.630    0.452    0.173  285.791   82.975
  362.250   17.582    0.442    0.166  284.849   82.710
  362.500   18.083    0.433    0.171  284.402   82.735
  362.750   17.768    0.444    0.165  283.431   86.059
  363.000   12.669    0.448    0.168  281.489   90.287
  363.250   12.565    0.433    0.182  278.036   87.915
  363.500   13.407    0.430    0.196  274.089   80.443
  363.750   15.966    0.422    0.170  274.624   77.175
  364.000   19.544    0.411    0.138  274.176   78.707
  364.250   14.723    0.426    0.131  272.217   83.231
  364.500   13.694    0.423    0.157  269.264   86.858
  364.750   14.346    0.417    0.173  267.311   87.193
  365.000   15.448    0.428    0.190  266.363   84.814
  365.250   19.259    0.445    0.188  265.410   78.543
  365.500   22.317    0.442    0.185  264.957   75.575
  365.750   28.863    0.418    0.172  264.521   72.599
  366.000   29.964    0.392    0.132  264.056   69.335
  366.250   24.736    0.372    0.134  262.097   69.359
  366.500   20.238    0.388    0.165  260.643   69.690
  366.750   18.480    0.385    0.178  260.696   70.318
  367.000   19.009    0.413    0.234  262.742   72.750
  367.250   20.471    0.429    0.227  266.289   75.474
  367.500   21.842    0.421    0.226  268.335   80.602
  367.750   19.943    0.423    0.226  268.888   82.433
  368.000   19.065    0.421    0.208  268.934   78.558
  368.250   21.100    0.405    0.146  268.981   72.586
  368.500   23.571    0.397    0.109  268.533   70.814
  368.750   22.324    0.426    0.071  267.080   79.541
  369.000   18.433    0.434    0.164  266.121   84.376
  369.250   18.279    0.416    0.185  265.173   76.601
  369.500   18.975    0.412    0.186  265.226   72.733
  369.750   20.431    0.419    0.150  265.267   73.357
  370.000   22.004    0.416    0.163  265.308   76.985
  370.250   22.016    0.402    0.173  265.366   80.316
  370.500   23.493    0.396    0.160  265.401   76.445
  370.750   28.237    0.386    0.125  265.465   70.169
  371.000   35.205    0.368    0.085  266.000   63.898
  371.250   40.792    0.343    0.099  266.046   57.326
  371.500   51.803    0.304    0.115  266.099   51.355
  371.750   56.819    0.270    0.077  266.140   48.386
  372.000   57.911    0.264    0.066  266.192   47.211
  372.250   61.791    0.248    0.084  266.245   43.643
  372.500   65.924    0.236    0.086  266.285   42.471
  372.750   76.393    0.235    0.059  266.832   42.199
  373.000  107.290    0.232    0.018  267.379   42.527
  373.250  137.506    0.247    0.020  267.931   44.355
  373.500  148.095    0.263    0.042  268.472   47.686
  373.750  117.848    0.286    0.046  269.530   54.610
  374.000   85.577    0.311    0.070  270.577   57.341
  374.250   51.745    0.360    0.146  271.117   60.972
  374.500   37.236    0.402    0.171  272.670   63.104
  374.750   26.796    0.437    0.194  274.210   64.628
  375.000   21.721    0.434    0.203  275.763   66.452
  375.250   22.967    0.419    0.200  275.809   66.484
  375.500   24.503    0.421    0.195  275.862   67.115
  375.750   27.123    0.433    0.180  275.908   66.843
  376.000   28.415    0.418    0.148  276.955   66.871
  376.250   28.174    0.408    0.163  278.007   67.196
  376.500   25.491    0.426    0.183  278.042   65.131
  376.750   20.289    0.443    0.197  279.095   65.155
  377.000   19.396    0.450    0.193  280.641   67.583
  377.250   20.888    0.444    0.182  280.694   70.611
  377.500   22.494    0.424    0.168  281.234   70.646
  377.750   22.511    0.416    0.171  281.281   71.270
  378.000   21.712    0.434    0.180  281.333   72.795
  378.250   18.766    0.439    0.177  281.374   76.126
  378.500   15.925    0.446    0.181  280.921   79.754
  378.750   15.224    0.465    0.173  279.479   83.688
  379.000   15.517    0.458    0.155  278.026   84.013
  379.250   16.257    0.450    0.155  277.567   84.037
  379.500   16.416    0.463    0.164  277.113   87.068
  379.750   16.133    0.470    0.170  276.666   84.097
  380.000   15.995    0.454    0.170  277.213   83.225
  380.250   16.009    0.441    0.155  277.759   85.052
  380.500   15.163    0.426    0.156  278.312   85.680
  380.750   14.364    0.439    0.174  278.864   83.009
  381.000   14.241    0.451    0.182  278.899   78.537
  381.250   14.252    0.434    0.153  277.457   78.868
  381.500   14.525    0.430    0.134  275.998   79.500
  381.750   14.669    0.420    0.118  275.045   78.335
  382.000   14.285    0.395    0.075  273.592   78.356
  382.250   14.163    0.392    0.115  272.633   79.587
  382.500   14.436    0.404    0.166  271.685   82.011
  382.750   14.986    0.392    0.183  268.738   84.746
  383.000   15.991    0.391    0.194  267.784   83.574
  383.250   17.220    0.405    0.191  267.831   81.195
  383.500   19.410    0.409    0.164  268.878   79.424
  383.750   21.485    0.412    0.152  269.424   80.358
  384.000   19.261    0.395    0.176  269.465   83.079
  384.250   13.611    0.395    0.189  269.512   86.707
  384.500   13.250    0.418    0.188  274.064   87.942
  384.750   14.400    0.404    0.175  276.616   85.867
  385.000   17.626    0.382    0.147  277.663   82.598
  385.250   23.008    0.372    0.131  278.709   84.129
  385.500   23.672    0.398    0.164  279.256   84.451
  385.750   21.809    0.417    0.184  279.302   88.682
  386.000   16.735    0.418    0.189  278.355   91.109
  386.250   15.707    0.421    0.187  276.907   86.938
  386.500   16.157    0.421    0.185  274.943   81.566
  386.750   20.141    0.414    0.182  271.995   78.294
  387.000   24.658    0.404    0.182  269.542   79.526
  387.250   25.597    0.415    0.194  267.083   80.450
  387.500   24.921    0.395    0.179  264.136   77.478
  387.750   26.593    0.379    0.150  261.682   71.207
  388.000   29.974    0.340    0.131  260.723   71.538
  388.250   35.376    0.320    0.159  260.782   75.166
  388.500   40.616    0.366    0.185  261.834   79.094
  388.750   34.784    0.398    0.194  261.869   81.228
  389.000   28.982    0.406    0.194  260.916   81.253
  389.250   25.052    0.401    0.191  261.968   81.881
  389.500   23.513    0.414    0.190  264.009   80.109
  389.750   23.744    0.419    0.188  269.061   78.034
  390.000   25.570    0.407    0.158  271.107   75.369
  390.250   28.822    0.394    0.108  271.154   71.790
  390.500   27.054    0.392    0.086  270.700   71.818
  390.750   21.728    0.414    0.111  268.253   70.650
  391.000   20.964    0.391    0.150  265.294   62.275
  391.250   22.368    0.359    0.233  263.347   53.003
  391.500   26.885    0.336    0.251  263.388   48.535
  391.750   28.424    0.312    0.275  265.446   45.260
  392.000   30.889    0.300    0.290  264.487   41.388
  392.250   34.824    0.305    0.299  261.539   36.616
  392.500   39.982    0.310    0.306  258.592   38.144
  392.750   49.849    0.307    0.310  257.127   38.476
  393.000   59.925    0.300    0.315  256.179   36.404
  393.250   70.712    0.286    0.318  255.732   33.735
  393.500   84.998    0.277    0.321  255.279   31.370
  393.750  105.007    0.286    0.323  255.819   31.088
  394.000  118.394    0.292    0.323  257.372   31.716
  394.250  113.155    0.298    0.321  258.418   31.451
  394.500   81.427    0.314    0.311  257.965   31.172
  394.750   60.783    0.330    0.301  257.012   32.407
  395.000   50.640    0.406    0.294  257.052   34.835
  395.250   54.539    0.400    0.273  251.099   37.259
  395.500   59.815    0.387    0.263  247.664   37.890
  395.750   61.525    0.383    0.255  247.199   38.218
  396.000   61.008    0.399    0.246  249.251   40.046
  396.250   59.398    0.409    0.246  253.297   41.274
  396.500   57.834    0.410    0.259  253.850   43.405
  396.750   56.302    0.386    0.283  254.385   47.333
  397.000   54.326    0.379    0.279  254.431   46.761
  397.250   51.927    0.368    0.261  254.496   46.186
