~VERSION INFORMATION
 VERS.                 2.0:   CWLS LOG ASCII STANDARD -VERSION 2.0
 WRAP.                  NO:   ONE LINE PER DEPTH STEP
~WELL INFORMATION BLOCK
#MNEM.UNIT           DATA                    DESCRIPTION OF MNEMONIC
#---------    -------------------            -------------------------------
# Generated from Intellog Unique Number	CN_94_101/WELL/3202
NULL.         -999.25                        : NULL_VALUE
WELL.         SHELL ELLS OV                  : Well_name    - WELL              
LOC .         13-11-095-15W4                 : Location     - LOCATION          
UWI .         AA/13-11-095-15W4/0            : Uwi          - UNIQUE WELL ID    
ENTR.         JOETTE                         : Entered      - ENTERED BY        
SRVC.         SCHLUMBERGER                   : Scn          - SERVICE COMPANY   
DATE.         15 MAR 71                      : Date         - LOG DATE          
STRT.F        300                            : top_depth    - START DEPTH       
STOP.F        906.955                        : bot_depth    - STOP DEPTH        
STEP.F        0.82                           : increment    - STEP LENGTH       
~CURVE INFORMATION BLOCK
#MNEM UNIT       ERCB CURVE CODE    CURVE DESCRIPTION
#-----------   ------------------   ----------------------------------
DEPT.F        00 001 00 00         : DEPTH        - DEPTH                       
GR  .API      00 310 00 00         : GR           - GAMMA RAY                   
DPHI.V/V      00 890 00 00         : PHID         - DENSITY POROSITY (SANDSTONE)
ILD .OHMM     00 120 00 00         : RESD         - DEEP RESISTIVITY (DIL)      
~PARAMETER INFORMATION       
#MNEM.UNIT           DATA             DESCRIPTION OF MNEMONIC
#---------         -----------     ------------------------------
GL  .M        535.534              : gl           - GROUND LEVEL ELEVATION      
EREF.M        539.496              : kb           - ELEVATION OF DEPTH REFERENCE
DATM.M        539.496              : datum        - DATUM ELEVATION             
TDD .M        281.94               : tdd          - TOTAL DEPTH DRILLER         
RUN .         ONE                  : Run          - RUN NUMBER                  
ENG .         BILL                 : Engineer     - RECORDING ENGINEER          
WIT .         JIM                  : Witness      - WITNESSED BY                
MUD .         GEL                  : Mud_type     - MUD TYPE                    
MATR.         SANDSTONE            : Logunit      - NEUTRON MATRIX              
TMAX.F        84                   : BHT          - MAXIMUM RECORDED TEMPERATURE
BHTD.F        925                  : BHTDEP       - MAXIMUM RECORDED TEMPERATURE
RMT .F        79                   : MDTP         - TEMPERATURE OF MUD          
MUDD.LB/G     9.8                  : MWT          - MUD DENSITY                 
NEUT.         1                    : NEUTRON      - NEUTRON TYPE                
RESI.         0                    : RESIST       - RESISTIVITY TYPE            
RM  .OHMM     4.97                 : RM           - RESISTIVITY OF MUD          
RMC .OHMM     4.97                 : RMC          - RESISTIVITY OF MUD CAKE     
RMF .OHMM     4.97                 : RMF          - RESISTIVITY OF MUD FILTRATE 
SUFT.F        39.2                 : SUFT         - SURFACE TEMPERATURE         
~A  DEPTH       GR     PHID     RESD
# ...
  477.986   86.339    0.237    2.817
  478.806   80.332    0.187    2.922
  479.626   80.329    0.219    3.088
  480.446   83.928    0.302    3.204
  481.266   88.727    0.313    3.203
  482.087   89.924    0.309    3.028
  482.907   89.922    0.298    2.917
  483.727   89.918    0.298    2.863
  484.547   84.512    0.314    2.862
  485.367   81.505    0.285    2.860
  486.188   80.302    0.281    2.860
  487.008   80.298    0.292    2.912
  487.828   82.696    0.302    3.021
  488.648   85.695    0.310    3.134
  489.469   86.894    0.303    3.251
  490.289   86.289    0.296    3.373
  491.109   83.884    0.293    3.434
  491.929   82.680    0.285    3.563
  492.749   82.076    0.276    3.696
  493.570   79.672    0.260    3.835
  494.390   74.265    0.235    4.128
  495.210   68.859    0.204    4.445
  496.030   62.851    0.278    5.154
  496.850   62.847    0.295    5.758
  497.671   67.647    0.289    6.315
  498.491   68.245    0.287    5.970
  499.311   71.243    0.291    5.646
  500.131   73.041    0.281    5.241
  500.951   76.641    0.270    5.143
  501.772   80.239    0.287    5.853
  502.592   77.833    0.284    6.420
  503.412   71.227    0.253    7.173
  504.232   63.418    0.247    7.866
  505.052   62.214    0.264    8.159
  505.873   64.613    0.281    8.157
  506.693   64.008    0.302    8.154
  507.513   66.407    0.303    7.854
  508.333   67.004    0.269    7.427
  509.154   61.597    0.225    7.155
  509.974   51.387    0.174    8.296
  510.794   46.580    0.172   10.168
  511.614   47.779    0.220   10.746
  512.434   48.374    0.298    8.761
  513.255   45.969    0.273    7.982
  514.075   44.766    0.174    9.085
  514.895   44.163    0.198   10.732
  515.715   48.963    0.251   10.727
  516.535   56.765    0.312    9.774
  517.356   61.565    0.335   10.720
  518.176   62.761    0.302   11.977
  518.996   65.760    0.290    9.764
  519.816   69.960    0.272    7.529
  520.636   74.159    0.284    5.806
  521.457   76.558    0.295    5.097
  522.277   76.555    0.298    4.910
  523.097   76.550    0.295    4.730
  523.917   77.748    0.290    4.641
  524.738   78.346    0.278    4.554
  525.558   80.142    0.258    4.553
  526.378   80.740    0.214    4.550
  527.198   80.737    0.187    4.635
  528.018   80.734    0.179    4.633
  528.839   78.928    0.166    4.380
  529.659   78.925    0.215    4.066
  530.479   82.525    0.247    3.917
  531.299   86.724    0.264    3.568
  532.119   89.123    0.283    3.437
  532.940   90.921    0.275    3.311
  533.760   90.915    0.274    3.249
  534.580   90.314    0.284    3.188
  535.400   87.909    0.290    3.129
  536.220   86.705    0.284    3.128
  537.041   89.103    0.277    3.127
  537.861   93.303    0.281    3.125
  538.681   93.900    0.292    3.242
  539.501   87.891    0.292    3.490
  540.322   85.487    0.285    3.622
  541.142   81.882    0.297    3.899
  541.962   78.276    0.284    4.120
  542.782   72.268    0.272    4.354
  543.602   70.464    0.274    4.434
  544.423   72.862    0.269    4.432
  545.243   76.462    0.251    4.270
  546.063   75.858    0.228    4.269
  546.883   65.048    0.219    4.595
  547.703   57.840    0.187    5.134
  548.524   51.232    0.160    6.293
  549.344   57.232    0.248    7.163
  550.164   64.434    0.267    6.773
  550.984   69.234    0.289    5.947
  551.804   78.236    0.300    5.221
  552.625   80.034    0.302    4.584
  553.445   82.432    0.307    4.668
  554.265   80.028    0.310    5.025
  555.085   71.018    0.311    5.410
  555.906   58.407    0.306    5.718
  556.726   56.001    0.293    5.407
  557.546   59.000    0.278    5.018
  558.366   64.401    0.294    4.745
  559.186   68.000    0.279    4.487
  560.007   69.196    0.293    4.403
  560.827   70.394    0.291    4.320
  561.647   73.993    0.289    4.319
  562.467   73.990    0.296    4.318
  563.287   70.986    0.300    4.237
  564.108   68.581    0.288    4.006
  564.928   74.581    0.278    3.931
  565.748   78.780    0.280    3.930
  566.568   78.777    0.288    4.002
  567.388   74.570    0.274    4.229
  568.209   72.166    0.282    4.307
  569.029   73.964    0.287    4.386
  569.849   76.363    0.285    4.466
  570.669   76.958    0.276    4.548
  571.490   72.752    0.258    4.632
  572.310   67.947    0.240    5.080
  573.130   61.940    0.269    5.270
  573.950   64.338    0.287    5.468
  574.770   76.343    0.311    5.075
  575.591   83.544    0.240    4.539
  576.411   86.542    0.205    3.985
  577.231   81.736    0.169    3.768
  578.051   76.329    0.141    3.698
  578.871   71.523    0.132    3.908
  579.692   79.325    0.159    3.906
  580.512   87.127    0.223    3.833
  581.332   94.327    0.249    3.624
  582.152   92.523    0.262    3.364
  582.972   91.319    0.258    3.301
  583.793   95.518    0.271    3.300
  584.613   89.512    0.271    3.299
  585.433   82.304    0.273    3.359
  586.253   82.901    0.273    3.358
  587.073   90.101    0.261    3.420
  587.894   88.296    0.247    3.483
  588.714   87.693    0.245    3.546
  589.534   87.090    0.235    3.679
  590.354   87.087    0.227    3.817
  591.175   84.682    0.219    4.033
  591.995   81.075    0.222    4.263
  592.815   78.671    0.255    4.422
  593.635   76.867    0.249    4.850
  594.455   75.062    0.237    5.419
  595.276   73.858    0.240    5.943
  596.096   72.653    0.251    6.399
  596.916   73.249    0.252    7.283
  597.736   75.048    0.243    7.697
  598.556   74.445    0.237    7.694
  599.377   72.041    0.239    7.275
  600.197   70.836    0.221    7.139
  601.017   70.833    0.185    7.545
  601.837   71.430    0.166    7.684
  602.657   72.627    0.190    7.000
  603.478   74.425    0.249    6.869
  604.298   74.422    0.266    6.741
  605.118   75.619    0.254    6.737
  605.938   75.016    0.270    6.861
  606.759   75.614    0.278    6.860
  607.579   74.408    0.278    7.116
  608.399   73.205    0.260    7.803
  609.219   73.802    0.245    8.097
  610.039   70.196    0.222    8.879
  610.860   64.790    0.186    8.877
  611.680   56.981    0.124    6.974
  612.500   53.975    0.201    6.473
  613.320   58.775    0.275    6.351
  614.140   64.176    0.278    6.712
  614.961   69.575    0.277    7.093
  615.781   72.575    0.273    7.091
  616.601   73.772    0.266    6.831
  617.421   73.769    0.253    6.579
  618.241   73.765    0.245    6.578
  619.062   71.961    0.246    6.697
  619.882   69.556    0.246    6.821
  620.702   71.354    0.260    7.076
  621.522   70.150    0.271    7.073
  622.343   70.747    0.277    6.688
  623.163   73.746    0.281    6.687
  623.983   72.541    0.267    6.322
  624.803   74.339    0.232    6.320
  625.623   73.736    0.243    6.435
  626.444   70.130    0.265    6.433
  627.264   73.129    0.261    6.551
  628.084   76.728    0.249    6.671
  628.904   76.724    0.259    6.670
  629.724   75.520    0.288    6.792
  630.545   70.113    0.287    6.789
  631.365   74.913    0.276    5.961
  632.185   80.314    0.260    5.850
  633.005   89.317    0.251    5.531
  633.825   88.112    0.258    5.427
  634.646   86.908    0.260    5.527
  635.466   84.503    0.259    5.733
  636.286   79.697    0.244    5.949
  637.106   77.892    0.210    6.286
  637.927   75.488    0.171    6.285
  638.747   68.880    0.181    5.416
  639.567   71.878    0.220    4.668
  640.387   76.678    0.253    3.735
  641.207   80.877    0.276    3.734
  642.028   80.875    0.272    3.874
  642.848   76.669    0.265    4.248
  643.668   74.864    0.271    4.327
  644.488   76.661    0.281    3.275
  645.308   79.060    0.283    2.720
  646.129   83.858    0.280    2.344
  646.949   82.055    0.283    2.300
  647.769   83.251    0.283    2.476
  648.589   84.451    0.281    2.666
  649.409   82.046    0.278    3.268
  650.230   77.838    0.276    3.652
  651.050   80.236    0.274    4.313
  651.870   82.035    0.267    5.094
  652.690   79.630    0.258    5.587
  653.510   77.225    0.242    5.689
  654.331   77.223    0.238    5.184
  655.151   82.022    0.237    5.087
