~VERSION INFORMATION
 VERS.                 2.0:   CWLS LOG ASCII STANDARD -VERSION 2.0
 WRAP.                  NO:   ONE LINE PER DEPTH STEP
~WELL INFORMATION BLOCK
#MNEM.UNIT           DATA                    DESCRIPTION OF MNEMONIC
#---------    -------------------            -------------------------------
# Generated from Intellog Unique Number	CC_80_83/WELL/2438
NULL.         -999.25                        : NULL_VALUE
WELL.         GULF RESDELN                   : Well_name    - WELL              
LOC .         14-36-082-07W4                 : Location     - LOCATION          
UWI .         AA/14-36-082-07W4/0            : Uwi          - UNIQUE WELL ID    
ENTR.         DW                             : Entered      - ENTERED BY        
SRVC.         SCHLUMBERGER                   : Scn          - SERVICE COMPANY   
DATE.         01 MAR 81                      : Date         - LOG DATE
STRT.M        160                            : top_depth    - START DEPTH       
STOP.M        419.794                        : bot_depth    - STOP DEPTH        
STEP.M        0.3                            : increment    - STEP LENGTH       
~CURVE INFORMATION BLOCK
#MNEM UNIT       ERCB CURVE CODE    CURVE DESCRIPTION
#-----------   ------------------   ----------------------------------
DEPT.M        00 001 00 00         : DEPTH        - DEPTH                       
DPHI.V/V      00 890 00 00         : PHID         - DENSITY POROSITY (LIMESTONE)
NPHI.V/V      00 330 00 00         : PHIN         - NEUTRON POROSITY (LIMESTONE)
GR  .API      00 310 00 00         : GR           - GAMMA RAY                   
ILD .OHMM     00 120 00 00         : RESD         - DEEP RESISTIVITY (DIL)      
~PARAMETER INFORMATION       
#MNEM.UNIT           DATA             DESCRIPTION OF MNEMONIC
#---------         -----------     ------------------------------
GL  .M        627.75               : gl           - GROUND LEVEL ELEVATION      
EREF.M        631.5                : kb           - ELEVATION OF DEPTH REFERENCE
DATM.M        631.5                : datum        - DATUM ELEVATION             
TDD .M        461                  : tdd          - TOTAL DEPTH DRILLER         
RUN .         ONE                  : Run          - RUN NUMBER                  
ENG .         BILL                 : Engineer     - RECORDING ENGINEER          
WIT .         JIM                  : Witness      - WITNESSED BY                
MUD .         GEL                  : Mud_type     - MUD TYPE                    
MATR.         LIMESTONE            : Logunit      - NEUTRON MATRIX              
TMAX.C        17.8                 : BHT          - MAXIMUM RECORDED TEMPERATURE
BHTD.M        461                  : BHTDEP       - MAXIMUM RECORDED TEMPERATURE
MATR.         1                    : LOGUNIT      - NEUTRON MATRIX              
RMT .C        25                   : MDTP         - TEMPERATURE OF MUD          
NEUT.         1                    : NEUTRON      - NEUTRON TYPE                
RESI.         0                    : RESIST       - RESISTIVITY TYPE            
RMC .OHMM     0.25                 : RMC          - RESISTIVITY OF MUD CAKE     
RMF .OHMM     0.25                 : RMF          - RESISTIVITY OF MUD FILTRATE 
SUFT.C        4                    : SUFT         - SURFACE TEMPERATURE         
~A  DEPTH     PHID     PHIN       GR     RESD
# ...
  212.201    0.287    0.425   66.660   11.775
  212.501    0.269    0.422   69.117   11.994
  212.801    0.262    0.430   65.412   12.219
  213.101    0.261    0.430   69.718   11.982
  213.401    0.287    0.415   71.561   11.530
  213.701    0.268    0.412   72.169   10.678
  214.001    0.279    0.416   73.395   10.471
  214.301    0.292    0.427   67.223   10.667
  214.601    0.300    0.427   64.748   10.868
  214.901    0.318    0.431   65.973   11.723
  215.201    0.296    0.440   68.430   12.172
  215.501    0.299    0.441   72.122   11.935
  215.801    0.292    0.443   78.279   11.268
  216.101    0.265    0.450   83.204    9.856
  216.401    0.247    0.452   87.511    8.958
  216.701    0.236    0.442   88.735    7.987
  217.001    0.247    0.439   81.947    7.982
  217.301    0.279    0.411   77.008    8.289
  217.601    0.271    0.414   79.466    7.823
  217.901    0.272    0.430   85.622    7.528
  218.201    0.224    0.440   91.163    6.711
  218.501    0.239    0.466   88.073    6.336
  218.801    0.254    0.463   87.447    5.869
  219.101    0.250    0.454   89.906    5.866
  219.401    0.237    0.446   92.981    5.753
  219.701    0.260    0.457   96.055    5.973
  220.001    0.251    0.467   94.815    6.202
  220.301    0.264    0.457   85.560    6.318
  220.601    0.265    0.465   85.552    6.559
  220.901    0.267    0.449   79.997    7.075
  221.201    0.283    0.426   68.276    8.081
  221.501    0.290    0.428   55.322   10.953
  221.801    0.302    0.424   50.381   17.622
  222.101    0.286    0.410   53.457   19.372
  222.401    0.276    0.398   57.149   17.603
  222.701    0.284    0.395   60.223   15.109
  223.001    0.313    0.410   63.297   14.264
  223.301    0.297    0.423   63.290   13.211
  223.601    0.308    0.445   58.965   12.956
  223.901    0.328    0.444   57.109   12.948
  224.201    0.327    0.407   58.951   13.445
  224.501    0.296    0.412   62.025   14.228
  224.801    0.297    0.422   62.635   14.494
  225.101    0.319    0.434   52.762   14.488
  225.401    0.309    0.439   52.756   15.043
  225.701    0.283    0.427   65.077   15.324
  226.001    0.290    0.450   59.520   15.611
  226.301    0.319    0.458   58.280   15.902
  226.601    0.337    0.443   59.504   15.896
  226.901    0.336    0.425   63.195   15.587
  227.201    0.296    0.421   66.887   15.288
  227.501    0.296    0.432   71.811   14.160
  227.801    0.285    0.439   79.201   12.386
  228.101    0.285    0.436   97.071   10.835
  228.401    0.238    0.447  101.995   10.035
  228.701    0.239    0.447  101.987    9.841
  229.001    0.247    0.455  105.061    9.651
  229.301    0.249    0.473  103.205    9.464
  229.601    0.255    0.455   98.265    9.641
  229.901    0.303    0.447   94.558   10.203
  230.201    0.299    0.439   97.016   11.432
  230.501    0.287    0.421   95.775   13.056
  230.801    0.284    0.407   90.219   14.353
  231.101    0.282    0.388   87.128   14.622
  231.401    0.269    0.386   85.888   14.068
  231.701    0.268    0.391   90.195   13.796
  232.001    0.241    0.422   96.969   13.024
  232.301    0.226    0.447  100.660   12.063
  232.601    0.243    0.464   96.953   11.386
  232.901    0.249    0.478   89.548   11.381
  233.201    0.287    0.447   81.526   11.595
  233.501    0.329    0.435   76.588   12.271
  233.801    0.343    0.425   62.401   14.014
  234.101    0.358    0.433   59.926   16.625
  234.401    0.359    0.425   59.920   18.627
  234.701    0.346    0.409   59.295   18.268
  235.001    0.329    0.424   63.602   16.600
  235.301    0.312    0.424   69.143   13.457
  235.601    0.293    0.406   78.382   12.462
  235.901    0.273    0.422   75.291   12.939
  236.201    0.289    0.442   64.804   13.183
  236.501    0.311    0.430   59.248   14.493
  236.801    0.318    0.409   54.308   18.204
  237.101    0.323    0.394   51.216   21.597
  237.401    0.334    0.389   49.977   24.200
  237.701    0.334    0.400   49.353   25.607
  238.001    0.336    0.423   49.962   26.089
  238.301    0.326    0.423   54.887   25.584
  238.601    0.332    0.414   56.110   25.088
  238.901    0.332    0.387   53.636   24.600
  239.201    0.337    0.388   51.164   24.593
  239.501    0.342    0.394   48.691   25.050
  239.801    0.349    0.393   51.765   25.034
  240.101    0.347    0.402   52.374   25.027
  240.401    0.339    0.414   51.131   25.010
  240.701    0.339    0.436   52.358   25.002
  241.001    0.343    0.454   54.200   24.987
  241.301    0.346    0.448   52.343   24.975
  241.601    0.339    0.441   48.634   24.968
  241.901    0.343    0.423   49.243   24.484
  242.201    0.345    0.409   49.853   24.009
  242.501    0.343    0.412   48.612   23.542
  242.801    0.337    0.423   50.454   23.534
  243.101    0.341    0.424   53.529   23.077
  243.401    0.332    0.420   57.837   21.787
  243.701    0.331    0.424   63.377   20.179
  244.001    0.325    0.470   69.534   19.048
  244.301    0.324    0.474   78.156   18.327
  244.601    0.326    0.443   80.615   17.635
  244.901    0.317    0.434   84.304   17.626
  245.201    0.299    0.455   87.996   18.300
  245.501    0.304    0.481   91.070   17.948
  245.801    0.306    0.498   91.062   16.942
  246.101    0.293    0.488   94.753   16.935
  246.401    0.281    0.463   92.896   18.263
  246.701    0.269    0.382   78.094   19.700
  247.001    0.278    0.358   51.578   20.849
  247.301    0.310    0.375   52.802   22.486
  247.601    0.341    0.402   54.645   23.350
  247.901    0.332    0.408   54.021   23.786
  248.201    0.311    0.396   49.698   23.324
  248.501    0.318    0.406   48.457   23.312
  248.801    0.315    0.401   52.147   23.750
  249.101    0.320    0.390   54.606   24.663
  249.401    0.341    0.408   55.215   25.122
  249.701    0.352    0.420   53.356   25.108
  250.001    0.356    0.432   53.965   24.624
  250.301    0.335    0.427   50.258   24.145
  250.601    0.328    0.427   52.100   23.683
  250.901    0.328    0.418   52.708   23.221
  251.201    0.315    0.402   50.853   22.773
  251.501    0.273    0.384   47.763   23.201
  251.801    0.215    0.338   44.672   25.505
  252.101    0.062    0.293   46.513   30.837
  252.401    0.069    0.310   48.973   31.419
  252.701    0.160    0.400   52.663   26.966
  253.001    0.330    0.392   58.204   18.771
  253.301    0.303    0.395   67.443   13.066
  253.601    0.263    0.431   86.546    8.924
  253.901    0.238    0.443   86.538    7.956
  254.201    0.263    0.432   81.598    7.952
  254.501    0.258    0.437   83.439    7.948
  254.801    0.263    0.432   82.199    8.410
  255.101    0.263    0.439   80.342    9.071
  255.401    0.260    0.434   83.416    9.420
  255.701    0.250    0.431   87.724    9.968
  256.001    0.257    0.439   80.935   10.155
  256.301    0.251    0.425   79.694   10.148
  256.601    0.252    0.418   84.618   10.145
  256.901    0.252    0.418   87.693   10.142
  257.201    0.239    0.421   88.301    9.757
  257.501    0.236    0.432   85.826    9.386
  257.801    0.252    0.446   83.971    9.562
  258.101    0.254    0.451   81.496    9.558
  258.401    0.240    0.438   80.873    9.738
  258.701    0.250    0.428   81.479    9.919
  259.001    0.246    0.426   82.088    9.728
  259.301    0.251    0.433   85.781    9.360
  259.601    0.241    0.456   88.240    9.007
  259.901    0.279    0.465   80.834    8.503
  260.201    0.274    0.458   80.208    6.032
  260.501    0.240    0.441   85.750    1.782
  260.801    0.226    0.453   93.140    1.589
  261.101    0.222    0.474  102.379    1.682
  261.401    0.219    0.485  111.001    1.849
  261.701    0.230    0.495  109.761    2.367
  262.001    0.244    0.512   99.889    4.351
  262.301    0.261    0.527  102.348    4.693
  262.601    0.253    0.522  102.339    4.873
  262.901    0.248    0.516   99.248    4.779
  263.201    0.243    0.510   98.008    4.343
  263.501    0.245    0.530   98.618    3.946
  263.801    0.248    0.516   96.143    4.020
  264.101    0.240    0.499   94.904    4.095
