~VERSION INFORMATION
 VERS.                 2.0:   CWLS LOG ASCII STANDARD -VERSION 2.0
 WRAP.                  NO:   ONE LINE PER DEPTH STEP
~WELL INFORMATION BLOCK
#MNEM.UNIT           DATA                    DESCRIPTION OF MNEMONIC
#---------    -------------------            -------------------------------
# Generated from Intellog Unique Number	CC_80_83/WELL/2337
NULL.         -999.25                        : NULL_VALUE
WELL.         PEX PCEJU HOUSE OV             : Well_name    - WELL              
LOC .         10-08-081-13W4                 : Location     - LOCATION          
UWI .         AA/10-08-081-13W400            : Uwi          - UNIQUE WELL ID    
ENTR.         DW                             : Entered      - ENTERED BY        
SRVC.         DRESSER ATLAS                  : Scn          - SERVICE COMPANY   
DATE.         31 JAN 81                      : Date         - LOG DATE
STRT.M        225                            : top_depth    - START DEPTH       
STOP.M        474.891                        : bot_depth    - STOP DEPTH        
STEP.M        0.3                            : increment    - STEP LENGTH       
~CURVE INFORMATION BLOCK
#MNEM UNIT       ERCB CURVE CODE    CURVE DESCRIPTION
#-----------   ------------------   ----------------------------------
DEPT.M        00 001 00 00         : DEPTH        - DEPTH                       
DPHI.V/V      00 890 00 00         : PHID         - DENSITY POROSITY (LIMESTONE)
NPHI.V/V      00 330 00 00         : PHIN         - NEUTRON POROSITY (LIMESTONE)
GR  .API      00 310 00 00         : GR           - GAMMA RAY                   
ILD .OHMM     00 120 00 00         : RESD         - DEEP RESISTIVITY (DIL)      
~PARAMETER INFORMATION       
#MNEM.UNIT           DATA             DESCRIPTION OF MNEMONIC
#---------         -----------     ------------------------------
GL  .M        667.8                : gl           - GROUND LEVEL ELEVATION      
EREF.M        670.7                : kb           - ELEVATION OF DEPTH REFERENCE
DATM.M        670.7                : datum        - DATUM ELEVATION             
TDD .M        477                  : tdd          - TOTAL DEPTH DRILLER         
RUN .         ONE                  : Run          - RUN NUMBER                  
ENG .         BILL                 : Engineer     - RECORDING ENGINEER          
WIT .         JIM                  : Witness      - WITNESSED BY                
MUD .         GEL                  : Mud_type     - MUD TYPE                    
MATR.         LIMESTONE            : Logunit      - NEUTRON MATRIX              
TMAX.C        18                   : BHT          - MAXIMUM RECORDED TEMPERATURE
BHTD.M        4772                 : BHTDEP       - MAXIMUM RECORDED TEMPERATURE
MATR.         1                    : LOGUNIT      - NEUTRON MATRIX              
RMT .C        25                   : MDTP         - TEMPERATURE OF MUD          
NEUT.         1                    : NEUTRON      - NEUTRON TYPE                
RESI.         0                    : RESIST       - RESISTIVITY TYPE            
RMC .OHMM     0.25                 : RMC          - RESISTIVITY OF MUD CAKE     
RMF .OHMM     0.25                 : RMF          - RESISTIVITY OF MUD FILTRATE 
SUFT.C        4                    : SUFT         - SURFACE TEMPERATURE         
~A  DEPTH     PHID     PHIN       GR     RESD
# ...
  277.199    0.283    0.495  126.049    7.983
  277.499    0.253    0.502  137.286    7.400
  277.799    0.242    0.486  139.112    7.696
  278.099    0.252    0.450  133.421    8.313
  278.399    0.260    0.446  132.114    9.329
  278.699    0.262    0.435  133.949   10.675
  278.999    0.260    0.438  126.363   11.533
  279.299    0.265    0.460  123.819   11.764
  279.599    0.260    0.433  110.602   11.550
  279.899    0.247    0.414  118.080   11.339
  280.199    0.243    0.431  119.906   11.348
  280.499    0.244    0.407  110.454   11.574
  280.799    0.244    0.408   89.091   12.268
  281.099    0.258    0.431   86.519   12.510
  281.399    0.266    0.449   90.239   12.287
  281.699    0.272    0.456   95.831   11.610
  281.999    0.282    0.434  100.802   11.394
  282.299    0.272    0.428   91.348   11.186
  282.599    0.256    0.408   87.532   10.778
  282.899    0.263    0.449  100.651   10.783
  283.199    0.266    0.439   99.347   10.590
  283.499    0.267    0.436  104.932   10.396
  283.799    0.262    0.426  104.260   10.402
  284.099    0.260    0.433  104.211   10.212
  284.399    0.257    0.476  112.311    9.651
  284.699    0.258    0.460  116.648    9.294
  284.999    0.243    0.452  120.351    8.781
  285.299    0.236    0.487  120.937    8.622
  285.599    0.245    0.491  100.825    9.137
  285.899    0.252    0.464  107.673    9.144
  286.199    0.236    0.476  112.011    8.809
  286.499    0.231    0.500  113.215    8.486
  286.799    0.231    0.490  118.806    8.329
  287.099    0.233    0.464  121.257    8.336
  287.399    0.233    0.468  114.306    8.502
  287.699    0.229    0.471  116.149    8.671
  287.999    0.224    0.476  106.068    9.549
  288.299    0.233    0.472  114.784    9.743
  288.599    0.243    0.465  121.634    9.748
  288.899    0.252    0.469  121.590    9.758
  289.199    0.262    0.459  114.641    9.579
  289.499    0.272    0.440  120.233    9.584
  289.799    0.282    0.439  116.423    9.590
  290.099    0.285    0.419  113.863    9.973
  290.399    0.294    0.415  108.800   10.370
  290.699    0.303    0.429  115.016   10.781
  290.999    0.290    0.466  113.712   11.208
  291.299    0.273    0.462   90.470   11.219
  291.599    0.265    0.422  109.220   11.012
  291.899    0.273    0.443  117.324   10.208
  292.199    0.302    0.461  112.880    8.936
  292.499    0.315    0.507  109.702    7.823
  292.799    0.291    0.522   94.605    7.681
  293.099    0.319    0.494   73.244    8.138
  293.399    0.317    0.434   58.771    9.861
  293.699    0.316    0.441   61.233   12.415
  293.999    0.310    0.435   64.314   14.477
  294.299    0.306    0.444   56.745   16.562
  294.599    0.305    0.440   57.315   16.898
  294.899    0.307    0.454   71.684   16.588
  295.199    0.305    0.442   61.602   15.678
  295.499    0.304    0.436   63.428   15.391
  295.799    0.302    0.441   60.253   15.108
  296.099    0.302    0.436   58.324   14.550
  296.399    0.303    0.435   67.046   15.721
  296.699    0.310    0.429   66.998   16.661
  296.999    0.316    0.435   70.708   16.048
  297.299    0.317    0.413   66.899   15.455
  297.599    0.315    0.406   58.065   15.769
  297.899    0.313    0.423   59.264   16.396
  298.199    0.315    0.437   61.098   16.092
  298.499    0.317    0.433   63.565   16.104
  298.799    0.322    0.431   63.509   15.813
  299.099    0.327    0.416   68.471   16.130
  299.399    0.329    0.453   64.036   16.451
  299.699    0.323    0.442   62.722   16.783
  299.999    0.321    0.446   63.296   16.478
  300.299    0.326    0.461   63.876   16.490
  300.599    0.322    0.469   61.951   16.191
  300.898    0.312    0.480   63.157   15.891
  301.198    0.312    0.466   62.484   15.903
  301.498    0.316    0.448   61.805   15.320
  301.798    0.323    0.440   56.103   15.041
  302.098    0.325    0.428   57.307   14.768
  302.398    0.323    0.442   59.141   15.062
  302.698    0.318    0.451   59.095   15.076
  302.998    0.316    0.435   56.520   15.084
  303.298    0.313    0.452   55.867   15.093
  303.598    0.316    0.445   59.574   15.398
  303.898    0.320    0.432   63.287   15.406
  304.198    0.326    0.442   60.099   15.417
  304.498    0.327    0.454   53.155   15.430
  304.798    0.321    0.440   59.376   15.444
  305.098    0.320    0.445   62.459   15.452
  305.398    0.323    0.442   63.660   15.469
  305.698    0.325    0.449   71.132   15.478
  305.998    0.328    0.432   61.054   15.489
  306.298    0.333    0.456   58.498   15.202
  306.598    0.329    0.466   54.675   14.926
  306.898    0.326    0.457   56.508   14.656
  307.198    0.326    0.461   55.212   14.391
  307.498    0.327    0.464   58.913   14.397
  307.798    0.325    0.476   59.485   14.408
  308.098    0.319    0.464   58.181   15.270
  308.398    0.316    0.450   57.511   14.995
  308.698    0.316    0.451   58.095   14.722
  308.998    0.319    0.458   55.535   14.729
  309.298    0.319    0.469   51.729   14.742
  309.598    0.319    0.464   48.535   14.748
  309.898    0.319    0.468   52.882   14.761
  310.198    0.320    0.466   56.582   14.770
  310.498    0.322    0.467   52.772   15.073
  310.798    0.324    0.455   57.119   15.081
  311.098    0.327    0.441   53.309   15.088
  311.398    0.330    0.444   49.493   14.815
  311.698    0.330    0.452   57.596   14.548
  311.998    0.327    0.476   51.279   14.281
  312.298    0.326    0.458   54.363   14.288
  312.598    0.325    0.468   59.950   14.579
  312.898    0.323    0.480   56.768   14.586
  313.198    0.323    0.479   51.703   14.600
  313.498    0.323    0.472   54.162   14.608
  313.798    0.323    0.449   54.112   14.620
  314.098    0.321    0.443   54.688   14.628
  314.398    0.316    0.450   56.506   14.925
  314.698    0.316    0.465   56.467   14.940
  314.998    0.321    0.474   49.520   15.235
  315.298    0.317    0.460   57.616   15.243
  315.598    0.320    0.464   57.570   15.259
  315.898    0.321    0.455   59.395   15.265
  316.198    0.320    0.426   61.854   15.280
  316.498    0.313    0.429   58.048   15.287
  316.798    0.309    0.430   57.985   15.304
  317.098    0.307    0.442   54.812   15.311
  317.398    0.303    0.463   56.014   15.327
  317.698    0.304    0.462   60.967   15.335
  317.998    0.309    0.452   67.201   15.342
  318.298    0.314    0.453   65.268   15.359
  318.598    0.317    0.451   61.454   15.366
  318.898    0.315    0.446   63.901   15.383
  319.198    0.308    0.442   61.350   15.098
  319.498    0.312    0.440   61.301   15.108
  319.798    0.311    0.476   64.377   14.832
  320.098    0.311    0.467   65.589   14.845
  320.398    0.314    0.460   67.420   14.577
  320.698    0.314    0.457   69.254   14.584
  320.998    0.309    0.454   67.313   14.597
  321.298    0.300    0.469   65.392   14.606
  321.598    0.279    0.480   64.085   14.613
  321.898    0.296    0.490   67.172   14.910
  322.198    0.299    0.478   73.387   15.208
  322.498    0.296    0.471   68.949   15.217
  322.798    0.298    0.479   81.438   14.381
  323.098    0.310    0.464   82.643   13.587
  323.398    0.306    0.479   73.192   12.840
  323.698    0.299    0.465   68.119   12.850
  323.998    0.295    0.454   68.077   13.105
  324.298    0.296    0.458   72.412   13.116
  324.598    0.299    0.474   78.009   12.395
  324.898    0.302    0.483   76.694   11.710
  325.198    0.298    0.469   77.895   11.279
  325.497    0.291    0.451   78.483   11.505
  325.797    0.287    0.438   68.401   12.196
  326.097    0.287    0.457   68.976   12.682
  326.397    0.295    0.472   80.839   13.182
  326.697    0.293    0.482   75.142   13.449
  326.997    0.291    0.488   81.366   13.456
  327.297    0.292    0.484   86.325   13.725
  327.597    0.291    0.469   81.889   13.736
  327.897    0.296    0.470   79.956   13.485
  328.197    0.298    0.477   84.292   12.744
  328.497    0.284    0.472   77.982   12.273
  328.797    0.258    0.471   91.724   11.820
  329.097    0.277    0.456   86.653   10.958
