~Version : LASO    vs 4.00
VERS.                2.00:   CWLS Log ASCII Standard -VERSION 2.0
WRAP.                  NO:
~Well Information Block
#MNEM.UNIT       Data                        Description of Mnemonic
#----.----      -------------------------- : -----------------------------
STRT.M            21.0000:
STOP.M           215.4000:
STEP.M             0.2000:
NULL.           -999.2500:
COMP.  MOBIL OIL CANADA                 :COMPANY
WELL.  MOBIL CLARKE OV PROG. 2-81       :WELL
FLD.                                    :FIELD
LOC.   13-28-089-07W4                   :LOCATION
CTRY.  CANADA                           :COUNTRY
PROV.  ALBERTA                          :PROVINCE
SRVC.  SCHLUMBERGER                     :SERVICE COMPANY
DATE.  31-JAN-81                        :LOG DATE
UWI.   AA/13-28-089-07W400              :UNIQUE WELL ID
~Parameter Information Block
#MNEM.UNIT       Data                        Description of Mnemonic
#----.----      -------------------------- : -----------------------------
RUN .                   1                 : Run Number
GL  .M           458.5000                 : Ground Level Elevation
DREF.                  GD                 : Depth Reference
EREF.M           458.5000                 : Elevation of Depth Reference
TDL .M           216.0000                 : Total Depth Logger
TDD .M           216.0000                 : Total Depth Driller
CSGL.M            22.0000                 : Casing Bottom Logger
CSGD.M            22.0000                 : Casing Bottom Driller
CSGS.MM          219.0000                 : Casing Size
CSGW.KG/M          0.0000                 : Casing Weight
BHT .DEGC         12.0000                 : Bottom Hole Temperature
BS  .MM          171.0000                 : Bit Size
DFD .           9999.0000                 : Mud Weight (Density)
DFV .             45.0000                 : Mud Viscosity
DFPH.             11.0000                 : Mud pH
RM  .OHMM          5.7400                 : Mud Resistivity
RMT .DEGC         12.0000                 : Mud Resistivity Temperature
~Curve Information Block
#MNEM.UNIT        API CODE    Curve Description
#---------    ------------    -------------------------------------------
DEPT.M                    :   DEPTH
CALI.MM       42 280  1  1:   3 DENSITY CALIPER
DPHI.V/V                  :   DPHI
DT  .US/M     60 520  0  1:   2 SONIC INTERVAL TRANSIT TIME (COMPENSATED)
GR  .GAPI     42 310  1  1:   4 GAMMA RAY
ILD .OHMM      5 120 46  1:   7 DEEP INDUCTION
ILM .OHMM      5 120 44  1:   8 MEDIUM INDUCTION
NPHI.V/V      42 890  3  1:   5 NEUTRON POROSITY (SANDSTONE)
RHOB.K/M3     42 350  1  1:   6 BULK DENSITY
SFLU.OHMM      5 220  1  1:   9 FOCUSSED RESISTIVITY
SP  .MV        5  10  1  1:   10 SPONTANEOUS POTENTIAL
~A  Depth           CALI        DPHI          DT          GR         ILD         ILM        NPHI        RHOB        SFLU          SP
# ...
204.0000        166.4000      0.0007    341.0000     69.6000     26.7812     26.2440      0.2561   2689.0000     30.6641    -71.6550
204.2000        167.7500      0.0006    342.7200     72.4950     25.8125     26.0034      0.2552   2677.8999     32.4063    -71.6550
204.4000        168.6500      0.0066    345.2400     73.3200     25.5758     25.5288      0.2540   2662.7000     33.3142    -71.1600
204.6000        168.9250      0.0085    348.0400     74.1300     25.5758     25.0628      0.2547   2643.8999     32.1092    -70.9050
204.8000        168.4750      0.0058    338.6400     76.9950     26.2924     25.5288      0.2572   2653.6001     28.7495    -70.4100
205.0000        168.3000      0.0010    329.4800     78.8400     26.5357     26.4868      0.2593   2648.7000     29.2840    -69.6600
205.2000        168.2500   -999.2500    326.2800     80.5050     26.7812     26.9793      0.2581   2646.3999     30.9478    -68.9250
205.4000        168.1250   -999.2500    316.2800     84.2100     27.2791     27.9917      0.2495   2674.2000     40.0525    -67.6800
205.6000        168.1250   -999.2500    311.6000     87.6000     27.5315     28.2507      0.2470   2686.8000     40.0525    -67.4250
205.8000        168.1500   -999.2500    307.1200     90.1350     28.3028     28.2507      0.2458   2687.1001     35.8616    -66.9300
206.0000        168.1750   -999.2500    305.8400     94.2000     29.9109     29.0422      0.2428   2685.3999     31.5232    -66.6750
206.2000        168.1500   -999.2500    306.9200     95.2650     31.9029     30.1044      0.2394   2676.0000     30.3829    -66.9300
206.4000        168.1000   -999.2500    308.8400     91.7850     34.9808     33.0088      0.2347   2668.6001     29.2840    -68.1750
206.6000        168.0750   -999.2500    309.6800     87.1650     40.1634     44.3231      0.2253   2663.8000     35.5328    -68.9250
206.8000        168.3500   -999.2500    287.0800     72.5100     51.0305     66.4706      0.1925   2680.3000     86.9821    -68.9250
207.0000        168.5250   -999.2500    254.7200     57.8250     58.5909     82.1542      0.1734   2678.2000    186.9950    -69.1650
207.2000        168.6750   -999.2500    223.2000     43.9650     70.4417     99.6850      0.1509   2676.0000    319.3228    -71.1600
207.4000        168.8250   -999.2500    179.5200     42.4950     94.5867    125.3805      0.1208   2701.7000    253.6471    -74.1450
207.6000        168.8250   -999.2500    179.9200     46.0800    101.8193    138.7490      0.1219   2691.1001    158.4273    -73.3950
207.8000        168.8000   -999.2500    186.3200     51.1350    101.8193    150.7405      0.1262   2701.2000    139.2611    -72.9000
208.0000        168.6500   -999.2500    196.5600     58.4550     94.5867    141.3286      0.1337   2703.0000    209.0403    -74.3850
208.2000        168.4250   -999.2500    195.7200     60.0750     94.5867    134.9677      0.1333   2700.2000    203.1561    -73.6500
208.4000        168.1750   -999.2500    193.8000   -999.2500     92.8603    137.4770      0.1324   2704.0000    165.8937    -72.4050
208.6000        167.7000   -999.2500    194.6400   -999.2500     87.0623    127.7115      0.1327   2709.0000    180.2312    -71.4000
208.8000        167.5000   -999.2500    196.5600   -999.2500     82.3815    106.3237      0.1358   2704.8000    159.8932    -70.9050
209.0000        167.3000   -999.2500    197.2000   -999.2500     79.4017     99.6850      0.1395   2708.3000    136.7193    -69.9150
209.2000        166.9250   -999.2500    203.6000   -999.2500     74.4440     89.2545      0.1453   2728.0000     95.3740    -68.4150
209.4000        166.8250   -999.2500    208.9200   -999.2500     73.7615     86.8220      0.1495   2731.1001     91.9242    -68.1750
209.6000        166.8000   -999.2500    214.0400   -999.2500     73.0853     89.2545      0.1533   2729.0000     91.9242    -68.1750
209.8000        166.7500   -999.2500    215.9600   -999.2500     73.0853     90.9138      0.1531   2753.3000     92.7748    -67.9200
210.0000        166.8250   -999.2500    212.9600   -999.2500     70.4417     91.7550      0.1459   2766.8000    121.1797    -68.1750
210.2000        167.0000   -999.2500    210.8400   -999.2500     66.6546     84.4559      0.1422   2754.3999    139.2611    -69.4200
210.4000        167.1750   -999.2500    207.0000   -999.2500     62.4928     68.9652      0.1385   2740.7000    120.0687    -69.4200
210.6000        167.4750   -999.2500    209.7600   -999.2500     59.1330     58.4292      0.1306   2759.3999     61.2393    -66.4350
210.8000        167.5750   -999.2500    218.7200   -999.2500     58.5909     57.8935      0.1276   2731.7000     50.9366    -65.9250
211.0000        167.6750   -999.2500    228.7200   -999.2500     57.5215     58.9698   -999.2500   2707.7000     48.6441    -65.9250
211.2000        167.8750   -999.2500    242.8000   -999.2500     59.6802     64.0663   -999.2500   2691.8999     62.9550    -67.1700
211.4000        167.9750   -999.2500    240.8800   -999.2500     63.6546     72.2154   -999.2500   2717.1001     79.3286    -68.1750
211.6000        168.0750   -999.2500    235.9600   -999.2500     66.0435     76.3185   -999.2500   2730.8000     91.9242    -68.9250
211.8000        168.2750   -999.2500    224.2400   -999.2500     64.2436     74.9256   -999.2500   2718.8000    122.3010    -69.9150
212.0000        168.3250   -999.2500    217.2400   -999.2500     60.2324     67.0857   -999.2500   2703.7000    116.7965    -70.1550
212.2000        168.3500   -999.2500    216.1600   -999.2500     56.9941     55.7995   -999.2500   2691.3999     96.2565    -70.4100
212.4000        168.3750   -999.2500    307.1200   -999.2500     53.4355     43.5141   -999.2500   2657.3999     41.5556    -73.1400
212.6000        168.3750   -999.2500   -999.2500   -999.2500     53.4355     45.1471   -999.2500   2645.5000     31.2342    -75.3900
212.8000        168.3000   -999.2500   -999.2500   -999.2500     53.9299     48.5993   -999.2500   2643.5000     32.4063    -78.8700
213.0000        168.1750   -999.2500   -999.2500   -999.2500     56.9941     54.2788   -999.2500   2640.5000     43.5141    -82.6050
213.2000        167.9500   -999.2500   -999.2500   -999.2500     59.6802     77.0247   -999.2500   2696.3999     79.3286    -89.0700
213.4000        167.8250   -999.2500   -999.2500   -999.2500     59.1330     91.7550   -999.2500   2665.6001    125.8433    -93.0450
213.6000        167.7000   -999.2500   -999.2500   -999.2500     59.1330    105.3489   -999.2500   2650.8999    168.9779    -97.0350
213.8000        167.4250   -999.2500   -999.2500   -999.2500     58.0537    119.7374   -999.2500   2702.3999    130.5659    -97.5300
214.0000        167.3500   -999.2500   -999.2500   -999.2500     56.9941    118.6397   -999.2500   2721.3999    107.5053    -95.0400
214.2000        167.2500   -999.2500   -999.2500   -999.2500     56.9941    111.3345   -999.2500   2712.6001    107.5053    -93.3000
214.4000        166.4750   -999.2500   -999.2500   -999.2500     57.5215    109.3025   -999.2500   2712.1001    107.5053    -88.3200
214.6000        165.9750   -999.2500   -999.2500   -999.2500     57.5215    110.3138   -999.2500   2698.2000    107.5053    -85.3350
214.8000        165.8250   -999.2500   -999.2500   -999.2500     57.5215    110.3138   -999.2500   2693.3000    107.5053    -83.1000
215.0000        165.7000   -999.2500   -999.2500   -999.2500     57.5215    109.3025   -999.2500   2688.5000    107.5053    -82.7100
215.2000        165.5500   -999.2500   -999.2500   -999.2500   -999.2500   -999.2500   -999.2500   2709.2000   -999.2500   -999.2500
215.4000        165.4250   -999.2500   -999.2500   -999.2500   -999.2500   -999.2500   -999.2500   2730.0000   -999.2500   -999.2500
