~VERSION INFORMATION
 VERS.                 2.0:   CWLS LOG ASCII STANDARD -VERSION 2.0
 WRAP.                  NO:   ONE LINE PER DEPTH STEP
~WELL INFORMATION BLOCK
#MNEM.UNIT           DATA                    DESCRIPTION OF MNEMONIC
#---------    -------------------            -------------------------------
# Generated from Intellog Unique Number	CS_77_79/WELL/944
LOC .         AA/10-11-077-08W4/0            : Location     - LOCATION
UWI .         AA/10-11-077-08W4/0            : Uwi          - UNIQUE WELL ID
ENTR.         SP                             : Entered      - ENTERED BY
SRVC.         SCHLUMBERGER                   : Scn          - SERVICE COMPANY
STRT.M        140                            : top_depth    - START DEPTH
STOP.M        385                            : bot_depth    - STOP DEPTH
STEP.M        0.25                           : increment    - STEP LENGTH
 NULL. -999.2500:NULL Value
~CURVE INFORMATION BLOCK
#MNEM UNIT       ERCB CURVE CODE    CURVE DESCRIPTION
#-----------   ------------------   ----------------------------------
DEPT.M        00 001 00 00         : DEPTH        - DEPTH
ILD .OHMM     00 120 00 00         : RESD         - DEEP RESISTIVITY (DIL)
DPHI.V/V      00 890 00 00         : PHID         - DENSITY POROSITY (LIMESTONE)
NPHI.V/V      00 330 00 00         : PHIN         - NEUTRON POROSITY (LIMESTONE)
GR  .API      00 310 00 00         : GR           - GAMMA RAY
~PARAMETER INFORMATION
#MNEM.UNIT           DATA             DESCRIPTION OF MNEMONIC
#---------         -----------     ------------------------------
GL  .M        566.83               : gl           - GROUND LEVEL ELEVATION
EREF.M        570.4                : kb           - ELEVATION OF DEPTH REFERENCE
DATM.M        566.83               : datum        - DATUM ELEVATION
TDD .M        391                  : tdd          - TOTAL DEPTH DRILLER
RUN .         ONE                  : Run          - RUN NUMBER
ENG .         BILL                 : Engineer     - RECORDING ENGINEER
WIT .         JIM                  : Witness      - WITNESSED BY
MUD .         GEL                  : Mud_type     - MUD TYPE
MATR.         LIMESTONE            : Logunit      - NEUTRON MATRIX
TMAX.C        16                   : BHT          - MAXIMUM RECORDED TEMPERATURE
BHTD.M        391                  : BHTDEP       - MAXIMUM RECORDED TEMPERATURE
MATR.         1                    : LOGUNIT      - NEUTRON MATRIX
RMT .C        25                   : MDTP         - TEMPERATURE OF MUD
NEUT.         1                    : NEUTRON      - NEUTRON TYPE
RESI.         0                    : RESIST       - RESISTIVITY TYPE
RMC .OHMM     0.25                 : RMC          - RESISTIVITY OF MUD CAKE
RMF .OHMM     0.25                 : RMF          - RESISTIVITY OF MUD FILTRATE
SUFT.C        15                   : SUFT         - SURFACE TEMPERATURE
~A  DEPTH     RESD     PHID     PHIN       GR
  140.000    3.597    0.000    1.048   98.764
  140.250    3.597    0.257    0.471   95.057
  140.500    3.531    0.256    0.480   92.584
  140.750    3.401    0.257    0.490   98.752
  141.000    3.276    0.262    0.471  100.601
  141.250    3.215    0.265    0.457   97.511
  141.500    3.156    0.267    0.456   98.742
  141.750    3.156    0.271    0.453   95.652
  142.000    3.098    0.273    0.460   91.944
  142.250    3.040    0.277    0.475   89.472
  142.500    3.041    0.276    0.487   91.320
  142.750    3.042    0.273    0.495  102.427
  143.000    3.042    0.273    0.501  106.745
  143.250    3.042    0.276    0.490  102.420
  143.500    3.043    0.281    0.469   95.626
  143.750    3.043    0.283    0.459   91.302
  144.000    3.102    0.281    0.467   96.853
  144.250    3.102    0.276    0.481   94.380
  144.500    3.103    0.266    0.494   91.907
  144.750    3.162    0.262    0.496   93.138
  145.000    3.223    0.260    0.489   91.284
  145.250    3.223    0.257    0.491   88.809
  145.500    3.285    0.255    0.467   88.807
  145.750    3.285    0.250    0.457   98.060
  146.000    3.286    0.238    0.441   99.910
  146.250    3.287    0.233    0.458   96.820
  146.500    3.349    0.233    0.464   93.113
  146.750    3.350    0.229    0.450   95.577
  147.000    3.414    0.227    0.462   94.958
  147.250    3.546    0.223    0.478   94.953
  147.500    3.613    0.218    0.477   95.567
  147.750    3.824    0.213    0.469   96.798
  148.000    3.897    0.210    0.444   99.880
  148.250    4.047    0.207    0.437   99.877
  148.500    4.125    0.205    0.446   95.553
  148.750    4.204    0.202    0.457   93.080
  149.000    4.285    0.205    0.448   91.224
  149.250    4.205    0.217    0.418   93.689
  149.500    4.127    0.224    0.412   94.303
  149.750    4.051    0.228    0.436   92.448
  150.000    3.976    0.231    0.431   93.061
  150.250    4.053    0.227    0.429   90.587
  150.500    4.130    0.220    0.426   92.436
  150.750    4.209    0.221    0.440   95.520
  151.000    4.290    0.221    0.430   92.430
  151.250    4.290    0.216    0.444   86.254
  151.500    4.373    0.213    0.429   93.040
  151.750    4.541    0.223    0.442  103.529
  152.000    4.897    0.225    0.427  101.674
  152.250    5.086    0.210    0.414   96.732
  152.500    5.382    0.188    0.407   76.358
  152.750    5.804    0.167    0.367   71.417
  153.000    6.142    0.147    0.367   64.623
  153.250    6.260    0.146    0.358   70.792
  153.500    6.260    0.167    0.381   93.011
  153.750    5.807    0.205    0.390   92.390
  154.000    5.387    0.222    0.396   87.447
  154.250    5.287    0.227    0.395   86.208
  154.500    5.702    0.210    0.386   84.970
  154.750    6.629    0.198    0.362   80.647
  155.000    8.004    0.160    0.336   84.347
  155.250    9.663    0.176    0.348   83.725
  155.500   11.448    0.212    0.351   78.784
  155.750   13.063    0.222    0.339   73.225
  156.000   14.355    0.222    0.330   66.430
  156.250   14.357    0.215    0.323   73.217
  156.500   14.091    0.204    0.335   78.769
  156.750   13.573    0.205    0.330   80.617
  157.000   13.574    0.204    0.334   76.293
  157.250   13.835    0.199    0.340   77.523
  157.500   14.100    0.200    0.351   73.816
  157.750   13.839    0.204    0.340   68.874
  158.000   13.584    0.209    0.348   78.747
  158.250   13.331    0.211    0.342   78.126
  158.500   13.085    0.222    0.330   72.567
  158.750   12.844    0.226    0.325   76.267
  159.000   13.089    0.227    0.330   83.671
  159.250   12.848    0.220    0.353   85.519
  159.500   12.610    0.193    0.358   84.898
  159.750   12.376    0.197    0.351   81.807
  160.000   11.481    0.210    0.357   81.804
  160.250   11.268    0.200    0.363   83.035
  160.500   11.271    0.198    0.373   79.945
  160.750   11.272    0.193    0.362   83.028
  161.000   11.274    0.187    0.358   89.814
  161.250   11.709    0.187    0.355   90.428
  161.500   11.933    0.191    0.357   83.633
  161.750   12.161    0.194    0.357   80.544
  162.000   12.394    0.194    0.357   79.306
  162.250   12.871    0.197    0.344   74.981
  162.500   13.881    0.200    0.336   68.188
  162.750   14.147    0.207    0.336   73.739
  163.000   14.149    0.213    0.336   80.525
  163.250   14.150    0.221    0.353   81.756
  163.500   13.630    0.231    0.364   86.691
  163.750   13.632    0.240    0.361   86.070
  164.000   14.426    0.246    0.371   81.745
  164.250   16.461    0.257    0.349   70.013
  164.500   17.419    0.269    0.341   58.899
  164.750   20.254    0.286    0.343   60.129
  165.000   21.840    0.298    0.338   68.768
  165.250   22.258    0.295    0.350   68.762
  165.500   22.263    0.289    0.351   69.377
  165.750   21.850    0.284    0.332   71.843
  166.000   21.449    0.280    0.335   79.247
  166.250   21.051    0.278    0.335   76.157
  166.500   21.454    0.274    0.358   79.855
  166.750   21.457    0.256    0.368   81.705
  167.000   21.869    0.246    0.387   98.368
  167.250   22.288    0.243    0.393   90.957
  167.500   22.715    0.246    0.361   79.842
  167.750   23.151    0.253    0.373   74.283
  168.000   23.594    0.279    0.356   69.958
  168.250   24.045    0.284    0.359   66.868
  168.500   24.504    0.286    0.351   61.309
  168.750   24.974    0.291    0.341   54.516
  169.000   24.979    0.296    0.338   56.981
  169.250   24.060    0.297    0.343   62.532
  169.500   23.615    0.290    0.345   58.826
  169.750   23.179    0.292    0.352   56.969
  170.000   22.749    0.299    0.352   55.730
  170.250   21.102    0.297    0.365   55.728
  170.500   17.159    0.290    0.372   76.094
  170.750   15.043    0.283    0.354   82.881
  171.000   13.188    0.267    0.357   89.668
  171.250   11.346    0.259    0.365   99.540
  171.500    9.947    0.246    0.378  106.326
  171.750    8.088    0.230    0.415  111.261
  172.000    7.091    0.215    0.428  114.344
  172.250    5.875    0.196    0.425  113.722
  172.500    5.055    0.184    0.420  115.571
  172.750    4.689    0.193    0.421  111.246
  173.000    4.602    0.234    0.433  107.539
  173.250    4.517    0.237    0.437  114.943
  173.500    4.871    0.257    0.425  103.211
  173.750    5.558    0.290    0.387   85.306
  174.000    7.235    0.294    0.369   80.981
  174.250    9.242    0.262    0.342   82.212
  174.500   13.468    0.245    0.331   78.505
  174.750   15.659    0.227    0.332   74.180
  175.000   16.886    0.211    0.342   70.473
  175.250   16.574    0.208    0.355   69.852
  175.500   16.576    0.211    0.333   71.700
  175.750   17.543    0.266    0.328   71.696
  176.000   18.565    0.276    0.332   67.372
  176.250   19.646    0.276    0.337   71.071
  176.500   20.022    0.273    0.354   76.006
  176.750   20.408    0.273    0.358   71.064
  177.000   20.410    0.272    0.349   68.592
  177.250   20.032    0.272    0.355   67.970
  177.500   18.583    0.268    0.355   69.202
  177.750   17.236    0.252    0.356   90.186
  178.000   14.016    0.244    0.359   97.589
  178.250   12.287    0.232    0.375  100.054
  178.500   10.571    0.207    0.397  108.075
  178.750    9.268    0.191    0.402  114.245
  179.000    7.973    0.169    0.399  123.500
  179.250    6.990    0.152    0.413  124.731
  179.500    6.363    0.139    0.408  116.086
  179.750    6.129    0.148    0.416  109.291
  180.000    6.016    0.146    0.410  109.288
  180.250    6.017    0.164    0.413  106.815
  180.500    6.132    0.201    0.398  112.367
  180.750    6.490    0.222    0.396  117.301
  181.000    7.404    0.237    0.403  112.360
  181.250    8.772    0.250    0.419  108.653
  181.500   10.793    0.262    0.403  104.328
  181.750   11.859    0.271    0.363   98.151
  182.000   13.789    0.281    0.346   91.974
  182.250   15.734    0.271    0.337   95.675
  182.500   16.338    0.246    0.339   92.584
  182.750   16.342    0.234    0.347   95.050
  183.000   14.327    0.232    0.365  100.602
  183.250   13.799    0.230    0.384   95.660
