~VERSION INFORMATION
 VERS.                 2.0:   CWLS LOG ASCII STANDARD -VERSION 2.0
 WRAP.                  NO:   ONE LINE PER DEPTH STEP
~WELL INFORMATION BLOCK
#MNEM.UNIT           DATA                    DESCRIPTION OF MNEMONIC
#---------    -------------------            -------------------------------
# Generated from Intellog Unique Number	CC_88_90/WELL/1183
WELL.         10-26-089-14W4                 : Well_name    - WELL
LOC .         AA/10-26-089-14W4/0            : Location     - LOCATION
UWI .         AA/10-26-089-14W400            : Uwi          - UNIQUE WELL ID
ENTR.         DW                             : Entered      - ENTERED BY
SRVC.         SCHLUMBERGER                   : Scn          - SERVICE COMPANY
STRT.M        70                             : top_depth    - START DEPTH
STOP.M        219.75                         : bot_depth    - STOP DEPTH
STEP.M        0.25                           : increment    - STEP LENGTH
 NULL. -999.2500:NULL Value
~CURVE INFORMATION BLOCK
#MNEM UNIT       ERCB CURVE CODE    CURVE DESCRIPTION
#-----------   ------------------   ----------------------------------
DEPT.M        00 001 00 00         : DEPTH        - DEPTH
GR  .API      00 310 00 00         : GR           - GAMMA RAY
DPHI.V/V      00 890 00 00         : PHID         - DENSITY POROSITY (SANDSTONE)
NPHI.V/V      00 330 00 00         : PHIN         - NEUTRON POROSITY (SANDSTONE)
ILD .OHMM     00 120 00 00         : RESD         - DEEP RESISTIVITY (DIL)
~PARAMETER INFORMATION
#MNEM.UNIT           DATA             DESCRIPTION OF MNEMONIC
#---------         -----------     ------------------------------
GL  .M        500.2                : gl           - GROUND LEVEL ELEVATION
EREF.M        503.2                : kb           - ELEVATION OF DEPTH REFERENCE
DATM.M        503.2                : datum        - DATUM ELEVATION
TDD .M        227                  : tdd          - TOTAL DEPTH DRILLER
RUN .         ONE                  : Run          - RUN NUMBER
ENG .         BILL                 : Engineer     - RECORDING ENGINEER
WIT .         JIM                  : Witness      - WITNESSED BY
MUD .         GEL                  : Mud_type     - MUD TYPE
MATR.         SANDSTONE            : Logunit      - NEUTRON MATRIX
TMAX.C        25                   : BHT          - MAXIMUM RECORDED TEMPERATURE
BHTD.M        227                  : BHTDEP       - MAXIMUM RECORDED TEMPERATURE
MATR.         1                    : LOGUNIT      - NEUTRON MATRIX
RMT .C        25                   : MDTP         - TEMPERATURE OF MUD
NEUT.         1                    : NEUTRON      - NEUTRON TYPE
RESI.         0                    : RESIST       - RESISTIVITY TYPE
RMC .OHMM     0.25                 : RMC          - RESISTIVITY OF MUD CAKE
RMF .OHMM     0.25                 : RMF          - RESISTIVITY OF MUD FILTRATE
SUFT.C        15                   : SUFT         - SURFACE TEMPERATURE
~A  DEPTH       GR     PHID     PHIN     RESD
# ...
  113.500   77.779    0.309    0.471   13.452
  113.750   77.692    0.313    0.474   12.757
  114.000   78.346    0.317    0.472   12.539
  114.250   77.398    0.318    0.463   12.331
  114.500   74.838    0.313    0.456   12.191
  114.750   74.136    0.304    0.457   12.247
  115.000   76.406    0.300    0.460   12.454
  115.250   78.033    0.299    0.457   12.675
  115.500   78.693    0.302    0.451   12.573
  115.750   79.295    0.309    0.450   12.138
  116.000   85.554    0.313    0.468   10.310
  116.250   95.838    0.317    0.499    7.119
  116.500  100.327    0.315    0.532    4.817
  116.750  101.589    0.266    0.581    4.233
  117.000  100.440    0.269    0.577    4.155
  117.250   98.131    0.269    0.536    4.177
  117.500   89.171    0.235    0.497    4.856
  117.750   81.944    0.228    0.475    6.019
  118.000   91.552    0.258    0.473    6.642
  118.250   98.491    0.238    0.493    6.628
  118.500  104.102    0.264    0.509    5.726
  118.750  109.245    0.301    0.530    4.769
  119.000  115.019    0.289    0.553    4.135
  119.250  119.583    0.265    0.558    3.692
  119.500  117.950    0.272    0.556    3.547
  119.750  114.236    0.251    0.585    3.592
  120.000  111.837    0.236    0.601    3.730
  120.250  109.924    0.246    0.584    4.006
  120.500  109.385    0.245    0.563    4.110
  120.750  112.640    0.221    0.575    3.942
  121.000  119.012    0.218    0.610    3.894
  121.250  122.729    0.250    0.597    3.900
  121.500  113.688    0.276    0.550    3.879
  121.750   97.447    0.267    0.516    4.295
  122.000   86.016    0.232    0.475    4.944
  122.250   81.934    0.223    0.445    6.347
  122.500   80.648    0.264    0.486    9.123
  122.750   84.468    0.281    0.506   10.678
  123.000   88.805    0.279    0.520   11.143
  123.250   85.081    0.278    0.490   11.487
  123.500   77.215    0.288    0.444   12.283
  123.750   74.299    0.275    0.438   13.235
  124.000   76.790    0.231    0.444   13.585
  124.250   80.720    0.250    0.453   13.364
  124.500   81.448    0.235    0.476   13.258
  124.750   88.155    0.225    0.471   12.430
  125.000   89.842    0.241    0.462   11.292
  125.250   82.971    0.255    0.463   10.712
  125.500   86.522    0.265    0.439   10.401
  125.750   90.616    0.252    0.443   10.678
  126.000   94.866    0.242    0.473   11.380
  126.250   95.058    0.243    0.480   11.921
  126.500   92.226    0.233    0.462   12.196
  126.750   90.453    0.211    0.454   12.335
  127.000   89.492    0.210    0.463   12.094
  127.250   90.278    0.240    0.463   11.348
  127.500   92.803    0.249    0.466   10.803
  127.750   94.544    0.242    0.483   10.148
  128.000   95.320    0.234    0.490    9.758
  128.250   98.359    0.215    0.471    9.775
  128.500  101.700    0.186    0.451    9.438
  128.750   96.691    0.185    0.444    9.281
  129.000   98.443    0.215    0.464    9.127
  129.250  101.670    0.246    0.491    9.080
  129.500  101.364    0.267    0.514    9.035
  129.750  100.927    0.280    0.508    8.883
  130.000  100.937    0.277    0.468    8.903
  130.250  100.164    0.272    0.478    8.970
  130.500   96.526    0.268    0.502    8.329
  130.750   92.265    0.235    0.540    8.078
  131.000   86.249    0.215    0.545    8.324
  131.250   78.528    0.237    0.496    8.686
  131.500   73.675    0.240    0.459    9.590
  131.750   71.213    0.231    0.450   10.527
  132.000   72.493    0.247    0.453   11.686
  132.250   75.202    0.264    0.446   12.208
  132.500   79.207    0.273    0.431   11.805
  132.750   86.276    0.274    0.426   10.972
  133.000   95.689    0.255    0.437    9.955
  133.250  104.425    0.255    0.464    8.714
  133.500  106.406    0.253    0.487    6.966
  133.750   98.367    0.262    0.494    6.180
  134.000   89.094    0.224    0.514    6.738
  134.250   84.076    0.171    0.500    7.645
  134.500   83.832    0.227    0.416    8.218
  134.750   99.360    0.272    0.448    8.243
  135.000  102.149    0.278    0.498    8.082
  135.250   97.426    0.272    0.578    7.463
  135.500   98.668    0.272    0.583    6.618
  135.750   95.819    0.251    0.510    6.111
  136.000   82.518    0.214    0.539    6.060
  136.250   87.747    0.255    0.526    6.448
  136.500   95.223    0.299    0.491    6.841
  136.750   92.216    0.281    0.479    7.488
  137.000   84.786    0.219    0.493    8.040
  137.250   84.453    0.193    0.498    8.011
  137.500   93.414    0.243    0.483    7.603
  137.750  103.071    0.273    0.506    6.824
  138.000  107.812    0.281    0.519    5.967
  138.250  107.657    0.282    0.536    4.599
  138.500  105.378    0.288    0.565    3.260
  138.750  103.616    0.302    0.588    2.639
  139.000  104.415    0.306    0.605    2.387
  139.250  107.176    0.291    0.617    2.386
  139.500  101.064    0.266    0.638    2.391
  139.750   91.954    0.212    0.591    3.027
  140.000   89.989    0.152    0.484    4.459
  140.250   97.899    0.156    0.424    6.135
  140.500  107.973    0.227    0.450    7.434
  140.750  106.058    0.232    0.477    7.859
  141.000  101.000    0.226    0.486    7.895
  141.250   99.734    0.230    0.477    8.456
  141.500  101.053    0.239    0.456    9.260
  141.750  101.717    0.241    0.426   10.095
  142.000  100.460    0.225    0.401   11.272
  142.250   97.648    0.224    0.412   11.667
  142.500   97.756    0.240    0.439   11.981
  142.750   99.697    0.257    0.458   12.413
  143.000  100.239    0.275    0.470   12.720
  143.250   95.757    0.277    0.475   12.901
  143.500   86.764    0.245    0.459   13.106
  143.750   83.854    0.238    0.436   13.295
  144.000   87.334    0.269    0.429   13.688
  144.250   85.374    0.262    0.440   14.101
  144.500   75.683    0.244    0.454   14.679
  144.750   69.836    0.261    0.448   15.328
  145.000   74.240    0.275    0.432   15.821
  145.250   76.933    0.279    0.420   17.290
  145.500   73.580    0.146    0.346   19.684
  145.750   70.215    0.083    0.286   21.683
  146.000   71.711    0.148    0.304   22.281
  146.250   77.251    0.223    0.370   20.338
  146.500   82.743    0.255    0.428   15.822
  146.750   84.760    0.200    0.456   12.510
  147.000   88.032    0.207    0.467   11.300
  147.250   90.976    0.251    0.458   10.407
  147.500   94.127    0.224    0.435    9.625
  147.750   99.009    0.149    0.423    9.410
  148.000  102.355    0.148    0.433    9.278
  148.250  100.325    0.202    0.449   10.080
  148.500   88.863    0.182    0.428   11.911
  148.750   84.153    0.169    0.391   13.092
  149.000   87.424    0.199    0.383   14.063
  149.250   88.835    0.231    0.410   15.824
  149.500   88.662    0.250    0.433   17.327
  149.750   86.665    0.222    0.422   17.771
  150.000   84.554    0.227    0.415   16.630
  150.250   84.796    0.237    0.422   15.464
  150.500   85.493    0.229    0.437   14.334
  150.750   83.692    0.234    0.451   13.132
  151.000   80.508    0.260    0.459   13.268
  151.250   77.969    0.256    0.448   14.336
  151.500   75.273    0.162    0.361   15.443
  151.750   78.719    0.143    0.322   15.864
  152.000   87.879    0.184    0.350   14.762
  152.250   93.822    0.191    0.384   12.224
  152.500   90.872    0.196    0.451    9.977
  152.750   82.234    0.138    0.511    9.552
  153.000   74.507    0.099    0.384    9.890
  153.250   75.699    0.129    0.328   10.711
  153.500   88.175    0.173    0.392   11.241
  153.750   99.868    0.203    0.433   10.829
  154.000   99.353    0.252    0.470    9.963
  154.250  100.240    0.254    0.469    8.877
  154.500  101.024    0.242    0.470    8.437
  154.750  101.499    0.213    0.480    8.301
  155.000  101.606    0.171    0.461    8.234
  155.250  101.016    0.168    0.435    8.454
  155.500  101.668    0.217    0.466    8.874
  155.750  104.214    0.206    0.511    9.083
  156.000  106.138    0.180    0.511    8.612
  156.250  106.941    0.208    0.499    8.174
  156.500  107.194    0.251    0.487    7.601
  156.750  107.049    0.255    0.474    6.831
