~Version : LASO    vs 4.00
VERS.                2.00:   CWLS Log ASCII Standard -VERSION 2.0
WRAP.                  NO:
~Well Information Block
#MNEM.UNIT       Data                        Description of Mnemonic
#----.----      -------------------------- : -----------------------------
STRT.M            15.0000:
STOP.M           206.4000:
STEP.M             0.2000:
NULL.           -999.2500:
COMP.  MOBIL OIL OF CANADA     :COMPANY
WELL.  MOBIL CLARKE OV 13-4    :WELL
FLD.                           :FIELD
LOC.   13-04-090-07W4          :LOCATION
CTRY.  CANADA                  :COUNTRY
PROV.  ALBERTA                 :PROVINCE
SRVC.  SCHLUMBERGER            :SERVICE COMPANY
DATE.  06-MAR-81               :LOG DATE
UWI.   AA/13-04-090-07W400     :UNIQUE WELL ID
~Parameter Information Block
#MNEM.UNIT       Data                        Description of Mnemonic
#----.----      -------------------------- : -----------------------------
RUN .                   1                 : Run Number
GL  .M           458.6000                 : Ground Level Elevation
DREF.                  KB                 : Depth Reference
EREF.M           458.6000                 : Elevation of Depth Reference
TDL .M           206.5000                 : Total Depth Logger
TDD .M           207.0000                 : Total Depth Driller
CSGL.M             0.0000                 : Casing Bottom Logger
CSGD.M             8.0000                 : Casing Bottom Driller
CSGS.MM          219.0000                 : Casing Size
CSGW.KG/M          0.0000                 : Casing Weight
BS  .MM          159.0000                 : Bit Size
DFD .            999.0000                 : Mud Weight (Density)
~Curve Information Block
#MNEM.UNIT        API CODE    Curve Description
#---------    ------------    ------------------------------
DEPT.M                    :   DEPTH
CALI.MM       42 280  1  1:   2 DENSITY CALIPER
DPHI.V/V                  :   DPHI
GR  .GAPI     42 310  1  1:   3 GAMMA RAY
LLD .Ohmm                 :   LLD
NPHI.V/V      42 890  3  1:   4 NEUTRON POROSITY (SANDSTONE)
RHOB.K/M3     42 350  1  1:   5 BULK DENSITY
~A  Depth           CALI        DPHI          GR         LLD        NPHI        RHOB
# ...
129.0000        205.1000      0.3162    106.1400     45.9865      0.5084   2214.0000
129.2000        200.8000      0.3045    103.3500     40.2271      0.4912   2214.0000
129.4000        204.0250      0.2969    104.2500     35.6121      0.4888   2233.0000
129.6000        199.7250      0.2923    105.2400     29.3458      0.4902   2259.0000
129.8000        195.4250      0.2842     93.2400     22.8247      0.4750   2315.0000
130.0000        201.8750      0.2754     85.4400     19.5130      0.4738   2384.0000
130.2000        199.7250      0.2799     84.4350     15.4028      0.4660   2410.0000
130.4000        186.8250      0.3000     87.6300     14.8137      0.4492   2444.0000
130.6000        178.2250      0.3202     95.9400     14.5636      0.3820   2509.0000
130.8000        176.0750      0.3326     97.6350     14.5427      0.3862   2378.0000
131.0000        173.9250      0.3422     98.4450     15.8002      0.4206   2294.0000
131.2000        176.0750      0.3564     97.0350     16.4276      0.4626   2249.0000
131.4000        179.3000      0.3903     97.1400     16.5630      0.4670   2237.0000
131.6000        182.5250      0.4074     97.4400     18.3670      0.4694   2265.0000
131.8000        184.6750      0.3879     98.4450     18.6111      0.4672   2254.0000
132.0000        184.6750      0.3766     97.6350     20.5969      0.4628   2255.0000
132.2000        182.5250      0.3775     98.3400     22.2238      0.4598   2256.0000
132.4000        186.8250      0.3682    103.2450     22.6203      0.4550   2253.0000
132.6000        186.8250      0.3558    104.4450     22.6881      0.4560   2257.0000
132.8000        186.8250      0.3432    104.7450     22.7202      0.4542   2303.0000
133.0000        184.6750      0.3449    107.3400     22.7266      0.4478   2325.0000
133.2000        191.1250      0.3327    106.9500     24.7131      0.4424   2276.0000
133.4000        195.4250      0.3192    106.6500     27.2817      0.4316   2259.0000
133.6000        187.9000      0.3055    106.2450     31.8061      0.4266   2265.0000
133.8000        180.3750      0.2986    106.2450     35.2376      0.4336   2277.0000
134.0000        184.6750      0.3093    104.2500     38.5515      0.4448   2237.0000
134.2000        188.9750      0.3061    102.3450     40.8590      0.4618   2222.0000
134.4000        182.5250      0.3166     95.9400     41.0743      0.5318   2151.0000
134.6000        179.3000      0.3095     94.3350     36.3395      0.5734   2155.0000
134.8000        171.7750      0.2982     95.4450     30.2205      0.5980   2158.0000
135.0000        169.6250      0.2915     97.3350     25.5376      0.5734   2114.0000
135.2000        170.7000      0.2812     98.5350     24.8720      0.5694   2133.0000
135.4000        173.9250      0.2672     99.0450     22.8564      0.5680   2122.0000
135.6000        181.4500      0.2494     97.8450     22.7943      0.5506   2120.0000
135.8000        182.5250      0.3182     97.5450     20.1626      0.5486   2125.0000
136.0000        182.5250      0.3296     97.5450     18.9337      0.5486   2125.0000
136.2000        184.6750      0.3302     98.8350     18.7374      0.5694   2168.0000
136.4000        184.6750      0.3295     99.8400     18.7172      0.5726   2179.0000
136.6000        184.6750      0.3313    100.1400     18.7191      0.5582   2193.0000
136.8000        182.5250      0.3315    100.3500     18.7227      0.5452   2216.0000
137.0000        176.0750      0.3446     95.5350     20.3906      0.5434   2265.0000
137.2000        172.8500      0.3225     93.2400     22.0144      0.5200   2292.0000
137.4000        180.3750      0.3265     93.5400     22.7245      0.4876   2293.0000
137.6000        178.2250      0.3345     94.3350     22.7879      0.4662   2270.0000
137.8000        180.3750      0.3413     92.8350     21.2614      0.4598   2236.0000
138.0000        182.5250      0.3570     91.3350     20.8811      0.4598   2216.0000
138.2000        179.3000      0.3561     93.7350     22.4862      0.4590   2212.0000
138.4000        177.1500      0.3419     93.4350     24.1007      0.4818   2213.0000
138.6000        172.8500      0.3471     92.7450     24.7947      0.4992   2234.0000
138.8000        173.9250      0.3387     91.7400     22.9121      0.4760   2284.0000
139.0000        175.0000      0.3367     91.5450     22.8541      0.4756   2244.0000
139.2000        176.0750      0.3332     92.7450     22.8428      0.4816   2235.0000
139.4000        191.1250      0.3233     94.6350     22.8433      0.4760   2279.0000
139.6000        184.6750      0.3184     97.7400     22.8464      0.4712   2312.0000
139.8000        173.9250      0.3245    101.1450     24.7298      0.4678   2315.0000
140.0000        173.9250      0.3238    103.8450     24.8859      0.4636   2269.0000
140.2000        173.9250      0.3130    106.7400     24.8928      0.4884   2260.0000
140.4000        173.9250      0.3062    107.2500     26.5457      0.5104   2218.0000
140.6000        175.0000      0.3093    107.5500     28.5979      0.5182   2205.0000
140.8000        176.0750      0.3060    111.3450     32.5189      0.5148   2219.0000
141.0000        178.2250      0.3002    111.7500     42.2675      0.4984   2229.0000
141.2000        181.4500      0.2960    110.6550     54.6315      0.4824   2241.0000
141.4000        179.3000      0.3021    107.7450     65.3186      0.5060   2225.0000
141.6000        182.5250      0.3110    106.1400     76.3968      0.5180   2206.0000
141.8000        183.6000      0.3040    105.4500     83.9580      0.5282   2222.0000
142.0000        180.3750      0.3001    105.5400     85.6569      0.5378   2236.0000
142.2000        179.3000      0.3082    106.0500     85.9778      0.5400   2232.0000
142.4000        181.4500      0.3087    107.1450     80.4480      0.5494   2203.0000
142.6000        183.6000      0.3120    107.8500     77.0364      0.5526   2218.0000
142.8000        185.7500      0.3068    107.4450     76.1234      0.5270   2228.0000
143.0000        187.9000      0.3017    107.4450     80.8132      0.5132   2221.0000
143.2000        184.6750      0.2989    108.2400     90.1841      0.5158   2223.0000
143.4000        181.4500      0.2988    107.3400     98.8334      0.5108   2237.0000
143.6000        180.3750      0.3008    106.5450    110.8697      0.5054   2254.0000
143.8000        180.3750      0.3001    104.1450    125.2205      0.5018   2290.0000
144.0000        181.4500      0.3075    101.2500    136.1764      0.5318   2261.0000
144.2000        180.3750      0.3212    100.5450    130.9036      0.5384   2242.0000
144.4000        180.3750      0.3606     99.2400    122.7093      0.5316   2231.0000
144.6000        180.3750      0.3871     99.6450    115.8193      0.5318   2256.0000
144.8000        180.3750      0.4118     98.8350    113.5429      0.5288   2277.0000
145.0000        179.3000      0.4098     99.0450    112.6157      0.5270   2272.0000
145.2000        180.3750      0.3894    101.3400    108.4895      0.5034   2287.0000
145.4000        181.4500      0.3730    102.1500    103.5967      0.4982   2288.0000
145.6000        182.5250      0.3604    102.3450     99.1370      0.5052   2261.0000
145.8000        179.3000      0.3406    103.2450     96.5972      0.5138   2272.0000
146.0000        180.3750      0.3307    103.3500     94.3910      0.5154   2299.0000
146.2000        184.6750      0.3267    103.2450     92.2263      0.5132   2270.0000
146.4000        184.6750      0.3219    101.0400     87.3483      0.5120   2243.0000
146.6000        181.4500      0.3147     95.3400     82.8895      0.5136   2250.8999
146.8000        179.3000      0.3072     89.1300     80.3393      0.4988   2258.0000
147.0000        181.4500      0.2974     81.8400     76.2163      0.4730   2260.0000
147.2000        181.4500      0.2852     74.9250     73.9209      0.4608   2340.8999
147.4000        173.9250      0.2727     75.6300     69.0470      0.4470   2335.0000
147.6000        172.8500      0.2760     76.9350     62.8624      0.4340   2314.0000
147.8000        172.8500      0.2750     81.6300     60.0246      0.4378   2313.0000
