~VERSION INFORMATION
 VERS.                 2.0:   CWLS LOG ASCII STANDARD -VERSION 2.0
 WRAP.                  NO:   ONE LINE PER DEPTH STEP
~WELL INFORMATION BLOCK
#MNEM.UNIT           DATA                    DESCRIPTION OF MNEMONIC
#---------    -------------------            -------------------------------
# Generated from Intellog Unique Number	CS_73_76/WELL/3242
WELL.         10-26-076-06W4                 : Well_name    - WELL
LOC .         AA/10-26-076-06W4/0            : Location     - LOCATION
UWI .         AA/10-26-076-06W4/0            : Uwi          - UNIQUE WELL ID
ENTR.         SP                             : Entered      - ENTERED BY
SRVC.         SCHLUMBERGER                   : Scn          - SERVICE COMPANY
STRT.M        145                            : top_depth    - START DEPTH
STOP.M        385                            : bot_depth    - STOP DEPTH
STEP.M        0.25                           : increment    - STEP LENGTH
 NULL. -999.2500:NULL Value
~CURVE INFORMATION BLOCK
#MNEM UNIT       ERCB CURVE CODE    CURVE DESCRIPTION
#-----------   ------------------   ----------------------------------
DEPT.M        00 001 00 00         : DEPTH        - DEPTH
ILD .OHMM     00 120 00 00         : RESD         - DEEP RESISTIVITY (DIL)
DPHI.V/V      00 890 00 00         : PHID         - DENSITY POROSITY (LIMESTONE)
NPHI.V/V      00 330 00 00         : PHIN         - NEUTRON POROSITY (LIMESTONE)
GR  .API      00 310 00 00         : GR           - GAMMA RAY
~PARAMETER INFORMATION
#MNEM.UNIT           DATA             DESCRIPTION OF MNEMONIC
#---------         -----------     ------------------------------
GL  .M        557                  : gl           - GROUND LEVEL ELEVATION
EREF.M        560.67               : kb           - ELEVATION OF DEPTH REFERENCE
DATM.M        557                  : datum        - DATUM ELEVATION
TDD .M        385                  : tdd          - TOTAL DEPTH DRILLER
RUN .         ONE                  : Run          - RUN NUMBER
ENG .         BILL                 : Engineer     - RECORDING ENGINEER
WIT .         JIM                  : Witness      - WITNESSED BY
MUD .         GEL                  : Mud_type     - MUD TYPE
MATR.         LIMESTONE            : Logunit      - NEUTRON MATRIX
TMAX.C        21                   : BHT          - MAXIMUM RECORDED TEMPERATURE
BHTD.M        385                  : BHTDEP       - MAXIMUM RECORDED TEMPERATURE
MATR.         1                    : LOGUNIT      - NEUTRON MATRIX
RMT .C        25                   : MDTP         - TEMPERATURE OF MUD
NEUT.         1                    : NEUTRON      - NEUTRON TYPE
RESI.         0                    : RESIST       - RESISTIVITY TYPE
RMC .OHMM     0.25                 : RMC          - RESISTIVITY OF MUD CAKE
RMF .OHMM     0.25                 : RMF          - RESISTIVITY OF MUD FILTRATE
SUFT.C        15                   : SUFT         - SURFACE TEMPERATURE
~A  DEPTH     RESD     PHID     PHIN       GR
# ...
  188.500   29.053    0.232    0.380   57.123
  188.750   28.520    0.269    0.390   60.787
  189.000   25.981    0.304    0.405   62.012
  189.250   24.116    0.301    0.407   62.630
  189.500   22.382    0.284    0.395   66.294
  189.750   20.773    0.272    0.386   68.737
  190.000   19.280    0.272    0.389   75.453
  190.250   18.928    0.262    0.378   79.117
  190.500   19.295    0.252    0.385   81.561
  190.750   18.941    0.240    0.396   84.005
  191.000   18.596    0.262    0.413   80.964
  191.250   17.589    0.279    0.416   78.530
  191.500   17.266    0.265    0.415   78.535
  191.750   16.636    0.263    0.429   79.760
  192.000   16.031    0.260    0.423   84.036
  192.250   15.739    0.253    0.417   89.530
  192.500   15.165    0.254    0.419   93.194
  192.750   14.889    0.258    0.432   95.638
  193.000   14.348    0.249    0.427   96.864
  193.250   14.351    0.242    0.425   98.088
  193.500   14.355    0.239    0.417   94.437
  193.750   14.909    0.248    0.420   96.881
  194.000   15.193    0.244    0.429  102.374
  194.250   15.487    0.239    0.427  101.161
  194.500   15.492    0.244    0.420   94.459
  194.750   15.207    0.256    0.412   88.368
  195.000   14.653    0.261    0.410   87.764
  195.250   13.601    0.259    0.403   89.601
  195.500   12.161    0.244    0.393   91.434
  195.750   11.499    0.239    0.396   98.758
  196.000   10.673    0.230    0.429  106.080
  196.250    9.723    0.221    0.451  112.184
  196.500    9.546    0.213    0.451  114.019
  196.750    9.913    0.234    0.450  114.024
  197.000   10.688    0.250    0.469  107.326
  197.250   11.962    0.254    0.491  103.063
  197.500   13.140    0.234    0.493  100.627
  197.750   14.434    0.224    0.488   96.975
  198.000   15.855    0.245    0.480   95.762
  198.250   16.777    0.260    0.475   96.987
  198.500   17.099    0.266    0.465   98.213
  198.750   17.104    0.273    0.448   97.609
  199.000   17.108    0.275    0.419   95.785
  199.250   16.799    0.284    0.401   92.743
  199.500   16.490    0.279    0.409   93.358
  199.750   16.189    0.271    0.432   95.802
  200.000   15.896    0.267    0.426   93.980
  200.250   15.605    0.267    0.412   91.546
  200.500   15.321    0.259    0.409   92.772
  200.750   15.615    0.239    0.414   96.437
  201.000   16.215    0.208    0.452   98.881
  201.250   17.813    0.227    0.477   97.057
  201.500   19.939    0.238    0.497   89.746
  201.750   21.899    0.246    0.513   80.605
  202.000   25.447    0.254    0.459   71.466
  202.250   27.431    0.298    0.421   64.765
  202.500   26.433    0.327    0.384   69.040
  202.750   19.968    0.311    0.397   73.923
  203.000   17.196    0.289    0.407   79.417
  203.250   16.883    0.282    0.408   82.471
  203.500   18.204    0.281    0.417   84.306
  203.750   19.260    0.280    0.450   84.922
  204.000   22.378    0.286    0.459   77.610
  204.250   25.999    0.288    0.433   64.201
  204.500   31.955    0.286    0.391   52.622
  204.750   33.811    0.285    0.395   45.311
  205.000   30.231    0.256    0.413   50.806
  205.250   26.525    0.252    0.416   57.520
  205.500   21.595    0.271    0.407   63.623
  205.750   18.253    0.277    0.400   67.285
  206.000   16.320    0.272    0.388   72.779
  206.250   15.148    0.261    0.398   77.053
  206.500   14.324    0.235    0.435   81.938
  206.750   14.063    0.242    0.435   86.212
  207.000   14.067    0.250    0.450   89.268
  207.250   15.166    0.249    0.479   91.101
  207.500   18.294    0.248    0.469   78.303
  207.750   21.256    0.256    0.461   69.772
  208.000   24.240    0.294    0.451   61.242
  208.250   25.649    0.333    0.429   53.931
  208.500   23.808    0.347    0.396   49.668
  208.750   22.514    0.354    0.402   44.796
  209.000   21.292    0.349    0.412   51.509
  209.250   20.517    0.322    0.389   63.101
  209.500   19.768    0.285    0.373   68.594
  209.750   18.694    0.283    0.387   62.502
  210.000   17.029    0.303    0.438   53.363
  210.250   15.513    0.338    0.413   50.928
  210.500   16.414    0.327    0.399   64.350
  210.750   18.719    0.293    0.381   74.112
  211.000   20.560    0.255    0.424   79.605
  211.250   23.890    0.271    0.457   71.074
  211.500   25.278    0.302    0.471   59.495
  211.750   24.820    0.322    0.449   55.841
  212.000   23.913    0.339    0.425   59.508
  212.250   21.783    0.337    0.409   60.731
  212.500   17.084    0.324    0.399   61.347
  212.750   14.172    0.316    0.421   61.353
  213.000   12.436    0.308    0.442   66.238
  213.250   11.542    0.292    0.448   71.734
  213.500   10.127    0.284    0.444   76.008
  213.750    9.399    0.270    0.441   79.672
  214.000   10.520    0.264    0.476   82.115
  214.250   11.997    0.269    0.487   84.559
  214.500   13.940    0.268    0.492   77.248
  214.750   17.458    0.267    0.463   77.255
  215.000   19.537    0.268    0.435   76.650
  215.250   22.701    0.268    0.433   69.949
  215.500   24.473    0.317    0.455   63.857
  215.750   27.395    0.334    0.454   56.547
  216.000   28.446    0.335    0.444   55.332
  216.250   30.100    0.339    0.437   56.559
  216.500   30.676    0.342    0.429   55.954
  216.750   30.688    0.339    0.449   54.741
  217.000   30.696    0.337    0.445   53.526
  217.250   30.709    0.337    0.452   53.535
  217.500   30.720    0.340    0.440   53.538
  217.750   30.730    0.344    0.423   53.545
  218.000   30.738    0.345    0.398   53.552
  218.250   30.176    0.332    0.393   52.946
  218.500   29.626    0.334    0.430   51.735
  218.750   28.018    0.337    0.436   51.740
  219.000   28.027    0.342    0.426   52.965
  219.250   28.038    0.348    0.439   55.410
  219.500   28.044    0.352    0.447   57.855
  219.750   28.588    0.342    0.444   59.079
  220.000   28.596    0.338    0.435   56.646
  220.250   28.602    0.337    0.432   56.044
  220.500   29.153    0.335    0.425   56.658
  220.750   29.159    0.330    0.431   58.498
  221.000   30.280    0.325    0.445   59.112
  221.250   31.448    0.324    0.457   59.115
  221.500   33.275    0.333    0.464   58.512
  221.750   35.211    0.336    0.472   57.298
  222.000   36.564    0.328    0.470   54.256
  222.250   36.576    0.305    0.365   52.431
  222.500   36.589    0.184    0.307   49.390
  222.750   36.599    0.206    0.288   53.663
  223.000   35.264    0.246    0.319   59.765
  223.250   32.730    0.307    0.377   60.993
  223.500   30.379    0.329    0.424   61.607
  223.750   28.199    0.329    0.420   61.614
  224.000   27.171    0.332    0.431   61.618
  224.250   26.675    0.338    0.444   62.235
  224.500   26.188    0.338    0.441   57.364
  224.750   25.709    0.327    0.436   55.539
  225.000   25.721    0.312    0.422   56.154
  225.250   25.727    0.307    0.432   57.991
  225.500   25.734    0.311    0.436   56.776
  225.750   25.742    0.322    0.426   54.344
  226.000   25.276    0.327    0.418   54.959
  226.250   25.282    0.321    0.420   58.014
  226.500   24.822    0.318    0.423   59.848
  226.750   24.370    0.321    0.442   60.464
  227.000   24.378    0.325    0.458   54.374
  227.250   24.846    0.330    0.438   51.329
  227.500   25.321    0.325    0.422   50.726
  227.750   25.810    0.312    0.412   51.342
  228.000   26.306    0.312    0.411   50.128
  228.250   25.345    0.328    0.408   53.185
  228.500   17.436    0.334    0.413   54.407
  228.750   13.420    0.319    0.417   59.291
  229.000   10.329    0.309    0.417   72.103
  229.250    8.410    0.293    0.432   91.010
  229.500    7.661    0.267    0.436   97.114
  229.750    7.246    0.248    0.452   98.341
  230.000    7.113    0.224    0.467   98.955
  230.250    7.249    0.221    0.477   99.571
  230.500    7.253    0.226    0.466   98.356
  230.750    7.393    0.213    0.457   96.535
  231.000    7.395    0.210    0.461   95.929
  231.250    7.397    0.213    0.476   95.935
  231.500    7.538    0.213    0.485   95.333
  231.750    7.542    0.213    0.477   95.947
