~VERSION INFORMATION
 VERS.                 2.0:   CWLS LOG ASCII STANDARD -VERSION 2.0
 WRAP.                  NO:   ONE LINE PER DEPTH STEP
~WELL INFORMATION BLOCK
#MNEM.UNIT           DATA                    DESCRIPTION OF MNEMONIC
#---------    -------------------            -------------------------------
# Generated from Intellog Unique Number	CX_WELLS/WELL/3904
WELL.         PEX PETRO                      : Well_name    - WELL
LOC .         AA/10-08-089-14W4/0            : Location     - LOCATION
UWI .         AA/10-08-089-14W400            : Uwi          - UNIQUE WELL ID
ENTR.         T                              : Entered      - ENTERED BY
SRVC.         SCHLUMBERGER                   : Scn          - SERVICE COMPANY
STRT.M        125                            : top_depth    - START DEPTH
STOP.M        220                            : bot_depth    - STOP DEPTH
STEP.M        0.25                           : increment    - STEP LENGTH
 NULL. -999.2500:NULL Value
~CURVE INFORMATION BLOCK
#MNEM UNIT       ERCB CURVE CODE    CURVE DESCRIPTION
#-----------   ------------------   ----------------------------------
DEPT.M        00 001 00 00         : DEPTH        - DEPTH
GR  .API      00 310 00 00         : GR           - GAMMA RAY
NPHI.V/V      00 330 00 00         : PHIN         - NEUTRON POROSITY (SANDSTONE)
DPHI.V/V      00 890 00 00         : PHID         - DENSITY POROSITY (SANDSTONE)
ILD .OHMM     00 120 00 00         : RESD         - DEEP RESISTIVITY (DIL)
~PARAMETER INFORMATION
#MNEM.UNIT           DATA             DESCRIPTION OF MNEMONIC
#---------         -----------     ------------------------------
GL  .M        493.7                : gl           - GROUND LEVEL ELEVATION
EREF.M        496                  : kb           - ELEVATION OF DEPTH REFERENCE
DATM.M        496                  : datum        - DATUM ELEVATION
TDD .M        225                  : tdd          - TOTAL DEPTH DRILLER
RUN .         ONE                  : Run          - RUN NUMBER
ENG .         BILL                 : Engineer     - RECORDING ENGINEER
WIT .         JIM                  : Witness      - WITNESSED BY
MUD .         GEL                  : Mud_type     - MUD TYPE
MATR.         SANDSTONE            : Logunit      - NEUTRON MATRIX
TMAX.C        22                   : BHT          - MAXIMUM RECORDED TEMPERATURE
BHTD.M        225                  : BHTDEP       - MAXIMUM RECORDED TEMPERATURE
MATR.         1                    : LOGUNIT      - NEUTRON MATRIX
RMT .C        22                   : MDTP         - TEMPERATURE OF MUD
NEUT.         1                    : NEUTRON      - NEUTRON TYPE
RESI.         8                    : RESIST       - RESISTIVITY TYPE
RMC .OHMM     7                    : RMC          - RESISTIVITY OF MUD CAKE
RMF .OHMM     7                    : RMF          - RESISTIVITY OF MUD FILTRATE
SUFT.C        15                   : SUFT         - SURFACE TEMPERATURE
~A  DEPTH       GR     PHIN     PHID     RESD
  125.000   49.755    0.509    0.362   17.923
  125.250   51.784    0.511    0.364   18.004
  125.500   54.463    0.508    0.366   17.786
  125.750   55.269    0.502    0.366   17.883
  126.000   55.502    0.488    0.365   17.947
  126.250   55.736    0.479    0.365   18.028
  126.500   55.931    0.477    0.362   18.109
  126.750   54.825    0.471    0.356   17.874
  127.000   52.652    0.463    0.351   17.922
  127.250   51.624    0.465    0.348   17.674
  127.500   51.779    0.472    0.353   17.460
  127.750   52.624    0.486    0.356   17.203
  128.000   52.858    0.498    0.355   16.965
  128.250   52.363    0.513    0.351   16.730
  128.500   51.947    0.511    0.348   16.512
  128.750   52.180    0.497    0.348   16.284
  129.000   53.025    0.482    0.350   16.072
  129.250   53.831    0.491    0.349   15.821
  129.500   54.065    0.495    0.346   15.907
  129.750   54.221    0.476    0.344   15.714
  130.000   53.804    0.472    0.332   15.771
  130.250   51.553    0.477    0.320   16.123
  130.500   48.691    0.491    0.299   17.777
  130.750   46.440    0.490    0.075   18.529
  131.000   50.992    0.285    0.106   17.954
  131.250   54.244    0.402    0.287   16.751
  131.500   56.234    0.473    0.361   15.629
  131.750   57.079    0.512    0.357   14.583
  132.000   59.758    0.515    0.356   14.105
  132.250   60.525    0.479    0.355   13.667
  132.500   60.720    0.466    0.350   13.741
  132.750   60.342    0.476    0.346   13.778
  133.000   59.275    0.482    0.346   14.111
  133.250   58.286    0.478    0.346   14.734
  133.500   56.685    0.476    0.349   14.774
  133.750   56.230    0.480    0.350   14.841
  134.000   56.463    0.486    0.347   14.934
  134.250   58.531    0.491    0.347   14.181
  134.500   61.171    0.487    0.345   12.507
  134.750   63.772    0.487    0.341    9.875
  135.000   67.713    0.495    0.339    7.116
  135.250   72.187    0.514    0.331    5.316
  135.500   76.701    0.550    0.326    5.146
  135.750   76.856    0.563    0.319    5.785
  136.000   74.644    0.554    0.313    6.491
  136.250   71.782    0.540    0.311    7.699
  136.500   69.531    0.527    0.299    8.334
  136.750   70.338    0.509    0.286    7.626
  137.000   74.239    0.503    0.283    6.488
  137.250   77.452    0.553    0.282    4.937
  137.500   83.188    0.605    0.284    4.283
  137.750   85.867    0.598    0.285    4.306
  138.000   86.751    0.603    0.276    4.321
  138.250   87.518    0.587    0.271    4.337
  138.500   88.324    0.592    0.264    4.057
  138.750   88.558    0.604    0.258    3.846
  139.000   88.102    0.601    0.247    3.591
  139.250   84.056    0.593    0.233    4.112
  139.500   80.505    0.588    0.216    4.439
  139.750   74.586    0.593    0.193    5.575
  140.000   68.666    0.580    0.200    6.861
  140.250   63.359    0.564    0.236    7.988
  140.500   60.458    0.531    0.288    9.659
  140.750   57.634    0.489    0.311   10.848
  141.000   59.663    0.460    0.310   11.100
  141.250   61.731    0.460    0.306   11.170
  141.500   63.148    0.468    0.280   11.200
  141.750   63.916    0.458    0.287   11.261
  142.000   62.926    0.451    0.261   11.105
  142.250   64.344    0.460    0.258   11.155
  142.500   65.761    0.468    0.269   10.990
  142.750   65.995    0.464    0.284   10.848
  143.000   66.150    0.460    0.286   10.697
  143.250   67.607    0.464    0.277   10.366
  143.500   69.675    0.471    0.244   10.222
  143.750   71.703    0.483    0.231   10.089
  144.000   72.510    0.498    0.230    9.932
  144.250   73.354    0.502    0.235    9.794
  144.500   74.122    0.473    0.244    9.667
  144.750   74.355    0.478    0.251    9.541
  145.000   74.550    0.488    0.255    9.584
  145.250   75.395    0.498    0.256    9.628
  145.500   75.590    0.500    0.261    9.662
  145.750   76.357    0.507    0.262    9.706
  146.000   76.629    0.513    0.264    9.571
  146.250   75.562    0.511    0.270    9.615
  146.500   73.962    0.493    0.269    9.325
  146.750   72.934    0.473    0.263    9.367
  147.000   71.333    0.456    0.259    9.229
  147.250   69.043    0.458    0.255    9.109
  147.500   64.880    0.469    0.264    9.142
  147.750   54.032    0.485    0.279   10.080
  148.000   51.781    0.447    0.294   10.911
  148.250   51.403    0.453    0.282   11.372
  148.500   54.082    0.449    0.259   11.009
  148.750   59.207    0.437    0.274   10.272
  149.000   67.388    0.438    0.295    9.400
  149.250   72.474    0.446    0.278    8.610
  149.500   75.725    0.461    0.264    7.750
  149.750   77.143    0.484    0.253    7.635
  150.000   66.333    0.494    0.274    7.812
  150.250   64.732    0.478    0.249    7.994
  150.500   67.945    0.461    0.234    7.890
  150.750   73.681    0.463    0.217    7.788
  151.000   74.487    0.462    0.244    7.680
  151.250   72.236    0.467    0.264    7.865
  151.500   66.356    0.499    0.257    8.041
  151.750   62.232    0.465    0.251    8.227
  152.000   57.536    0.454    0.200    9.766
  152.250   55.285    0.457    0.052   12.242
  152.500   58.497    0.245    0.081   12.084
  152.750   65.456    0.271    0.138   10.856
  153.000   73.026    0.298    0.179    9.228
  153.250   78.801    0.327    0.231    7.159
  153.500   78.384    0.362    0.252    5.763
  153.750   78.579    0.402    0.289    4.809
  154.000   78.774    0.482    0.299    3.731
  154.250   78.969    0.533    0.299    3.888
  154.500   79.163    0.564    0.287    4.612
  154.750   78.785    0.545    0.273    5.474
  155.000   76.534    0.528    0.254    6.498
  155.250   74.245    0.513    0.239    7.292
  155.500   75.090    0.496    0.223    8.040
  155.750   77.730    0.479    0.227    8.242
  156.000   78.575    0.477    0.236    8.271
  156.250   78.119    0.477    0.239    8.309
  156.500   77.781    0.483    0.249    8.660
  156.750   77.325    0.486    0.262    9.026
  157.000   76.297    0.463    0.253    9.779
  157.250   76.491    0.441    0.243    9.997
  157.500   76.114    0.434    0.250   10.042
  157.750   74.435    0.430    0.256   10.466
  158.000   72.796    0.434    0.264   10.919
  158.250   70.545    0.441    0.268   11.370
  158.500   65.237    0.448    0.274   11.432
  158.750   61.114    0.443    0.279   11.483
  159.000   57.640    0.437    0.277   11.545
  159.250   59.708    0.425    0.250   11.608
  159.500   59.330    0.420    0.253   11.650
  159.750   58.302    0.417    0.279   11.692
  160.000   56.623    0.422    0.287   11.744
  160.250   54.411    0.428    0.285   11.797
  160.500   58.236    0.429    0.285   11.644
  160.750   66.417    0.433    0.276   11.087
  161.000   69.096    0.444    0.262   10.923
  161.250   69.330    0.448    0.255   11.177
  161.500   68.913    0.437    0.251   11.856
  161.750   69.069    0.439    0.238   12.610
  162.000   69.914    0.440    0.236   12.891
  162.250   67.013    0.438    0.265   12.961
  162.500   62.316    0.434    0.262   13.019
  162.750   58.843    0.431    0.221   12.839
  163.000   62.706    0.432    0.237   12.649
  163.250   64.201    0.438    0.267   12.955
  163.500   62.639    0.438    0.280   12.312
  163.750   62.145    0.443    0.281   11.071
  164.000   61.728    0.451    0.274   10.132
  164.250   61.350    0.459    0.243   10.000
  164.500   58.449    0.469    0.139   10.617
  164.750   54.976    0.481    0.065   11.707
  165.000   53.297    0.419    0.031   13.630
  165.250   54.715    0.377    0.073   13.947
  165.500   69.088    0.293    0.110   11.659
  165.750   69.894    0.319    0.148   10.475
  166.000   71.311    0.369    0.217    9.419
  166.250   72.729    0.416    0.227    9.119
  166.500   73.535    0.444    0.232    9.008
  166.750   73.768    0.483    0.240    9.049
  167.000   72.779    0.494    0.244    8.908
  167.250   72.284    0.483    0.249    8.784
  167.500   73.207    0.473    0.248    8.670
  167.750   74.586    0.473    0.249    8.401
  168.000   75.353    0.471    0.251    8.119
  168.250   74.975    0.474    0.254    8.006
