~VERSION INFORMATION
 VERS.                 2.0:   CWLS LOG ASCII STANDARD -VERSION 2.0
 WRAP.                  NO:   ONE LINE PER DEPTH STEP
~WELL INFORMATION BLOCK
#MNEM.UNIT           DATA                    DESCRIPTION OF MNEMONIC
#---------    -------------------            -------------------------------
# Generated from Intellog Unique Number	CC_84_87/WELL/2307
NULL.         -999.25                        : NULL_VALUE
WELL.         PEX PCEJ MCMURRAY OV           : Well_name    - WELL
LOC .         10-26-087-16W4                 : Location     - LOCATION          
UWI .         AA/10-26-087-16W400            : Uwi          - UNIQUE WELL ID    
ENTR.         JOHN                           : Entered      - ENTERED BY        
SRVC.         SCHLUMBERGER                   : Scn          - SERVICE COMPANY   
DATE.         07 MAR 79                      : Date         - LOG DATE
STRT.M        100                            : top_depth    - START DEPTH       
STOP.M        265.001                        : bot_depth    - STOP DEPTH        
STEP.M        0.3                            : increment    - STEP LENGTH       
~CURVE INFORMATION BLOCK
#MNEM UNIT       ERCB CURVE CODE    CURVE DESCRIPTION
#-----------   ------------------   ----------------------------------
DEPT.M        00 001 00 00         : DEPTH        - DEPTH                       
DPHI.V/V      00 890 00 00         : PHID         - DENSITY POROSITY (LIMESTONE)
NPHI.V/V      00 330 00 00         : PHIN         - NEUTRON POROSITY (LIMESTONE)
GR  .API      00 310 00 00         : GR           - GAMMA RAY                   
ILD .OHMM     00 120 00 00         : RESD         - DEEP RESISTIVITY (DIL)      
~PARAMETER INFORMATION       
#MNEM.UNIT           DATA             DESCRIPTION OF MNEMONIC
#---------         -----------     ------------------------------
GL  .M        517.6                : gl           - GROUND LEVEL ELEVATION      
EREF.M        521.25               : kb           - ELEVATION OF DEPTH REFERENCE
DATM.M        521.25               : datum        - DATUM ELEVATION             
TDD .M        271                  : tdd          - TOTAL DEPTH DRILLER         
RUN .         ONE                  : Run          - RUN NUMBER                  
ENG .         BILL                 : Engineer     - RECORDING ENGINEER          
WIT .         JIM                  : Witness      - WITNESSED BY                
MUD .         GEL                  : Mud_type     - MUD TYPE                    
MATR.         LIMESTONE            : Logunit      - NEUTRON MATRIX              
TMAX.C        60                   : BHT          - MAXIMUM RECORDED TEMPERATURE
BHTD.M        271                  : BHTDEP       - MAXIMUM RECORDED TEMPERATURE
MATR.         1                    : LOGUNIT      - NEUTRON MATRIX              
RMT .C        25                   : MDTP         - TEMPERATURE OF MUD          
NEUT.         1                    : NEUTRON      - NEUTRON TYPE                
RESI.         0                    : RESIST       - RESISTIVITY TYPE            
RMC .OHMM     0.25                 : RMC          - RESISTIVITY OF MUD CAKE     
RMF .OHMM     0.25                 : RMF          - RESISTIVITY OF MUD FILTRATE 
SUFT.C        15                   : SUFT         - SURFACE TEMPERATURE         
~A  DEPTH     PHID     PHIN       GR     RESD
  100.000    0.355    0.473   78.701   39.626
  100.300    0.349    0.458   78.116   38.184
  100.600    0.350    0.455   77.529   36.111
  100.900    0.360    0.461   80.011   35.451
  101.200    0.362    0.469   86.802   33.525
  101.500    0.357    0.469   86.829   32.302
  101.800    0.339    0.488   85.013   28.339
  102.100    0.325    0.480   87.500   24.859
  102.400    0.292    0.471   88.149   24.870
  102.700    0.281    0.498   86.949   26.323
  103.000    0.343    0.494   85.746   27.861
  103.300    0.352    0.472   84.540   28.403
  103.600    0.358    0.479   82.723   28.415
  103.900    0.346    0.504   82.134   27.377
  104.200    0.347    0.489   82.781   25.889
  104.500    0.342    0.441   80.961   24.947
  104.800    0.330    0.445   85.295   21.078
  105.100    0.333    0.469   90.239   11.564
  105.400    0.347    0.491   96.415    7.800
  105.700    0.333    0.533  105.665    5.163
  106.000    0.300    0.578  111.844    4.047
  106.300    0.305    0.622  114.330    3.551
  106.600    0.299    0.637  115.587    3.358
  106.900    0.301    0.601  114.998    3.235
  107.200    0.281    0.566  108.879    3.298
  107.500    0.288    0.547  105.220    3.426
  107.800    0.281    0.551  108.321    3.983
  108.100    0.297    0.527  106.506    4.544
  108.400    0.307    0.562  101.611    4.901
  108.700    0.317    0.581   98.570    4.722
  109.000    0.277    0.573  102.902    4.465
  109.300    0.298    0.590  101.080    4.552
  109.600    0.301    0.592   98.650    4.909
  109.900    0.294    0.534  102.365    5.815
  110.200    0.304    0.547  100.548    7.710
  110.500    0.300    0.534   94.428   10.613
  110.800    0.319    0.444   82.161   15.168
  111.100    0.331    0.425   81.576   18.654
  111.400    0.347    0.433   79.145   21.284
  111.700    0.331    0.444   76.097   20.899
  112.000    0.342    0.435   77.970   19.763
  112.300    0.348    0.439   77.382   18.340
  112.600    0.339    0.440   76.796   17.344
  112.900    0.344    0.426   79.899   16.401
  113.200    0.343    0.429   82.998   15.804
  113.500    0.329    0.442   81.182   15.517
  113.800    0.317    0.448   76.910   15.234
  114.100    0.306    0.441   77.548   14.681
  114.400    0.303    0.450   79.424   14.147
  114.700    0.329    0.463   76.989   13.889
  115.000    0.338    0.447   72.099   13.636
  115.300    0.344    0.455   74.595   13.389
  115.600    0.341    0.469   77.075   13.146
  115.900    0.335    0.483   79.563   13.153
  116.200    0.334    0.497   78.974   13.158
  116.500    0.329    0.495   77.155   13.412
  116.800    0.334    0.456   74.730   13.419
  117.100    0.323    0.462   73.523   13.425
  117.400    0.331    0.468   73.551   13.430
  117.700    0.338    0.475   75.424   13.186
  118.000    0.338    0.447   75.454   12.706
  118.300    0.337    0.452   73.636   12.245
  118.600    0.339    0.441   71.208   12.249
  118.900    0.333    0.443   71.233   12.487
  119.200    0.340    0.461   74.335   12.728
  119.500    0.331    0.469   73.746   12.975
  119.800    0.343    0.451   71.320   12.983
  120.100    0.327    0.441   71.343   12.746
  120.400    0.333    0.443   69.532   12.281
  120.700    0.323    0.455   68.329   11.833
  121.000    0.334    0.460   68.352   11.619
  121.300    0.328    0.464   71.462   11.625
  121.600    0.317    0.475   73.327   11.850
  121.900    0.302    0.412   71.513   12.542
  122.200    0.258    0.266   70.924   13.781
  122.500    0.066    0.188   66.646   17.271
  122.800    0.040    0.157   62.991   22.473
  123.100    0.019    0.148   64.245   24.695
  123.400    0.004    0.157   62.427   25.174
  123.700    0.010    0.178   63.072   23.364
  124.000    0.051    0.254   67.402   20.115
  124.300    0.177    0.326   73.581   16.370
  124.600    0.232    0.379   77.913   14.092
  124.900    0.316    0.459   81.628   11.686
  125.200    0.310    0.466   79.810   10.846
  125.500    0.299    0.453   74.922   10.450
  125.800    0.295    0.446   73.717   10.456
  126.100    0.315    0.449   74.974   10.460
  126.400    0.301    0.451   79.314   10.464
  126.700    0.321    0.458   81.178   10.667
  127.000    0.323    0.485   78.135   10.475
  127.300    0.305    0.487   77.545   10.284
  127.600    0.300    0.460   77.574   10.097
  127.900    0.307    0.448   78.215    9.913
  128.200    0.301    0.442   80.095    9.733
  128.500    0.297    0.443   80.117    9.737
  128.800    0.300    0.446   81.990   10.307
  129.100    0.312    0.433   80.173   11.116
  129.400    0.323    0.441   78.969   11.987
  129.700    0.329    0.463   82.071   12.927
  130.000    0.318    0.479   80.257   12.933
  130.300    0.319    0.476   82.742   12.463
  130.600    0.324    0.452   80.312   12.007
  130.900    0.316    0.467   79.725   10.937
  131.200    0.305    0.478   82.210   10.343
  131.500    0.315    0.484   81.008    9.967
  131.800    0.322    0.497   81.036    9.972
  132.100    0.334    0.456   84.755    9.975
  132.400    0.326    0.454   85.395    9.979
  132.700    0.317    0.460   83.581    9.983
  133.000    0.317    0.464   81.148    9.988
  133.300    0.324    0.479   79.947   10.182
  133.600    0.328    0.471   80.591    9.997
  133.900    0.327    0.475   80.617   10.001
  134.200    0.314    0.477   83.720   10.006
  134.500    0.311    0.455   85.591   10.010
  134.800    0.317    0.455   85.005   10.015
  135.100    0.320    0.453   86.879   10.019
  135.400    0.308    0.465   86.904   10.024
  135.700    0.325    0.466   86.318   10.218
  136.000    0.326    0.467   88.192   10.417
  136.300    0.325    0.498   90.677   10.619
  136.600    0.320    0.511   89.476   10.624
  136.900    0.309    0.484   87.044   10.629
  137.200    0.319    0.472   87.077   10.633
  137.500    0.326    0.477   85.870   10.638
  137.800    0.320    0.494   82.216   10.643
  138.100    0.313    0.521   82.236   10.647
  138.400    0.312    0.538   84.112   10.651
  138.700    0.296    0.507   83.526   10.858
  139.000    0.314    0.470   83.553   10.864
  139.300    0.318    0.464   86.656   11.074
  139.600    0.327    0.470   88.524   11.289
  139.900    0.324    0.481   88.553   11.506
  140.200    0.327    0.473   85.506   11.731
  140.500    0.315    0.460   84.307   11.303
  140.800    0.321    0.457   86.176   10.490
  141.100    0.319    0.467   91.739    8.698
  141.400    0.308    0.496  103.448    6.566
  141.700    0.281    0.524  112.086    4.347
  142.000    0.290    0.542  110.880    3.471
  142.300    0.282    0.554  110.911    3.674
  142.600    0.303    0.562  108.478    4.114
  142.900    0.292    0.531  103.587    4.966
  143.200    0.287    0.501   99.312    5.882
  143.500    0.261    0.481  101.186    7.654
  143.800    0.271    0.482  104.900    8.733
  144.100    0.287    0.469  104.313    9.071
  144.400    0.286    0.482  101.882    8.578
  144.700    0.250    0.458  104.371    6.723
  145.000    0.288    0.431  110.546    5.575
  145.300    0.284    0.453  119.179    4.537
  145.600    0.240    0.495  126.587    4.132
  145.900    0.235    0.539  128.460    3.836
  146.200    0.207    0.538  126.641    3.910
  146.500    0.223    0.523  122.368    4.061
  146.800    0.222    0.546  121.782    4.463
  147.100    0.199    0.529  121.193    5.489
  147.400    0.203    0.567  117.534    6.878
  147.700    0.259    0.616  112.641    8.302
  148.000    0.249    0.502  102.833   10.405
  148.300    0.264    0.461   99.172   12.325
  148.600    0.298    0.447   99.204   13.046
  148.900    0.276    0.465   98.614   13.051
  149.201    0.285    0.466   97.412   12.575
  149.501    0.282    0.463   95.591   12.582
  149.801    0.277    0.472   93.163   12.587
  150.101    0.285    0.471   93.806   12.832
  150.401    0.271    0.473   92.601   13.329
  150.701    0.277    0.451   91.400   13.587
  151.001    0.250    0.428   93.272   14.112
  151.301    0.275    0.426   92.685   14.387
  151.601    0.290    0.447   93.328   13.863
  151.901    0.282    0.454   96.433   12.865
