~VERSION INFORMATION
 VERS.                 2.0:   CWLS LOG ASCII STANDARD -VERSION 2.0
 WRAP.                  NO:   ONE LINE PER DEPTH STEP
~WELL INFORMATION BLOCK
#MNEM.UNIT           DATA                    DESCRIPTION OF MNEMONIC
#---------    -------------------            -------------------------------
# Generated from Intellog Unique Number	CN_91_93/WELL/3602
WELL.         AOSTRA AO-26                   : Well_name    - WELL
LOC .         AA/16-12-093-13W4/0            : Location     - LOCATION
UWI .         AA/16-12-093-13W400            : Uwi          - UNIQUE WELL ID
ENTR.         JHS                            : Entered      - ENTERED BY
SRVC.         SCHLUMBERGER                   : Scn          - SERVICE COMPANY
STRT.M        15                             : top_depth    - START DEPTH
STOP.M        164.75                         : bot_depth    - STOP DEPTH
STEP.M        0.25                           : increment    - STEP LENGTH
 NULL. -999.2500:NULL Value
~CURVE INFORMATION BLOCK
#MNEM UNIT       ERCB CURVE CODE    CURVE DESCRIPTION
#-----------   ------------------   ----------------------------------
DEPT.M        00 001 00 00         : DEPTH        - DEPTH
NPHI.V/V      00 330 00 00         : PHIN         - NEUTRON POROSITY (SANDSTONE)
DPHI.V/V      00 890 00 00         : PHID         - DENSITY POROSITY (SANDSTONE)
GR  .API      00 310 00 00         : GR           - GAMMA RAY
CALI.MM       00 280 01 00         : CAL          - CALIPER
ILD .OHMM     00 120 00 00         : RESD         - DEEP RESISTIVITY (DIL)
~PARAMETER INFORMATION
#MNEM.UNIT           DATA             DESCRIPTION OF MNEMONIC
#---------         -----------     ------------------------------
GL  .M        430.5                : gl           - GROUND LEVEL ELEVATION
EREF.M        430.5                : kb           - ELEVATION OF DEPTH REFERENCE
DATM.M        430.5                : datum        - DATUM ELEVATION
TDD .M        167                  : tdd          - TOTAL DEPTH DRILLER
RUN .         ONE                  : Run          - RUN NUMBER
ENG .         BILL                 : Engineer     - RECORDING ENGINEER
WIT .         JIM                  : Witness      - WITNESSED BY
MUD .         GEL                  : Mud_type     - MUD TYPE
MATR.         SANDSTONE            : Logunit      - NEUTRON MATRIX
TMAX.C        8.1                  : BHT          - MAXIMUM RECORDED TEMPERATURE
BHTD.M        167                  : BHTDEP       - MAXIMUM RECORDED TEMPERATURE
MATR.         1                    : LOGUNIT      - NEUTRON MATRIX
RMT .C        15                   : MDTP         - TEMPERATURE OF MUD
NEUT.         1                    : NEUTRON      - NEUTRON TYPE
RESI.         0                    : RESIST       - RESISTIVITY TYPE
RMC .OHMM     12.5                 : RMC          - RESISTIVITY OF MUD CAKE
RMF .OHMM     12.5                 : RMF          - RESISTIVITY OF MUD FILTRATE
SUFT.C        15                   : SUFT         - SURFACE TEMPERATURE
~A  DEPTH     PHIN     PHID       GR      CAL     RESD
   15.000    0.603    0.399   94.514  185.929   12.328
   15.250    0.567    0.376  102.318  157.648   14.082
   15.500    0.601    0.431   91.534  152.244   13.053
   15.750    0.632    0.400   74.754  152.255   15.487
   16.000    0.690    0.328   91.554  152.263   16.088
   16.250    0.710    0.397   93.356  151.672   16.089
   16.500    0.671    0.413   97.561  155.295   14.914
   16.750    0.617    0.421   90.974  157.715   15.493
   17.000    0.664    0.436   74.793  155.318   22.225
   17.250    0.705    0.398   74.801  159.543   23.088
   17.500    0.734    0.385   91.599  163.169   20.216
   17.750    0.592    0.382   96.403  158.362   17.701
   18.000    0.568    0.383   91.612  157.172   16.100
   18.250    0.592    0.375   92.220  158.383   17.045
   18.500    0.633    0.372   99.423  158.395   15.800
   18.750    0.661    0.370   97.032  158.406   15.801
   19.000    0.696    0.401  101.237  157.815   18.395
   19.250    0.610    0.416  100.046  157.225   23.104
   19.500    0.615    0.360   98.855  156.034   17.053
   19.750    0.592    0.347  101.261  160.860   13.840
   20.000    0.566    0.350  110.862  155.453   11.667
   20.250    0.553    0.327  105.475  154.261   11.892
   20.500    0.681    0.337  112.077  156.678   12.353
   20.750    0.707    0.344  101.294  153.680   13.329
   21.000    0.663    0.329  102.499  151.885   14.658
   21.250    0.696    0.314  101.310  151.295   16.428
   21.500    0.598    0.113   83.328  157.326   18.065
   21.750    0.528    0.260   78.540  163.359   20.248
   22.000    0.471    0.223  101.331  159.756   13.851
   22.250    0.536    0.214  109.134  162.780   11.242
   22.500    0.603    0.224   95.951  160.983   11.901
   22.750    0.588    0.265  118.145  157.985   11.459
   23.000    0.547    0.317  122.350  161.008   10.826
   23.250    0.534    0.354  123.557  161.618   10.623
   23.500    0.593    0.356  113.975  156.813   10.424
   23.750    0.609    0.366  113.981  155.623   10.425
   24.000    0.552    0.358  107.991  155.030   10.829
   24.250    0.542    0.333  102.003  159.857   11.909
   24.500    0.561    0.318  111.605  161.073   12.371
   24.750    0.529    0.294  108.015  156.868   12.139
   25.000    0.537    0.289   95.432  152.066   11.688
   25.250    0.579    0.290   97.238  155.087   11.254
   25.500    0.566    0.302   96.647  160.514   11.914
   25.750    0.563    0.320   88.262  164.138   12.614
   26.000    0.643    0.324   95.463  157.527   12.857
   26.250    0.716    0.324  107.462  161.753   13.873
   26.500    0.634    0.326  103.275  158.752   13.357
   26.750    0.572    0.352  103.281  157.562   11.696
   27.000    0.618    0.394  102.689  155.767   11.477
   27.250    0.675    0.381   98.500  155.780   12.383
   27.500    0.714    0.360  103.305  155.792   12.622
   27.750    0.727    0.368  112.306  155.201   11.264
   28.000    0.554    0.373  100.924  155.209   12.867
   28.250    0.502    0.309  108.125  151.609   15.559
   28.500    0.575    0.260   83.550  151.620   14.422
   28.750    0.554    0.365   91.952  156.445   12.870
   29.000    0.561    0.358   99.155  156.459   12.392
   29.250    0.605    0.361   94.966  154.062   13.627
   29.500    0.627    0.376   88.378  149.862   14.155
   29.750    0.523    0.378   85.388  148.063   14.428
   30.000    0.515    0.289  102.184  146.871   12.634
   30.250    0.521    0.278  109.988  145.678   11.274
   30.500    0.492    0.275  111.793  146.292   10.855
   30.750    0.480    0.302  106.405  147.507   10.652
   31.000    0.536    0.320  101.016  149.928   11.714
   31.250    0.757    0.310  102.823  149.334   11.715
   31.500    0.686    0.314  112.426  147.543   11.067
   31.750    0.648    0.333  108.237  152.367   10.860
   32.000    0.581    0.327   95.653  149.970   11.281
   32.250    0.499    0.322  106.454  153.593   10.658
   32.500    0.535    0.333  104.663  156.615   10.069
   32.750    0.596    0.349   97.476  153.012   10.263
   33.000    0.635    0.354  115.471  152.422   10.661
   33.250    0.693    0.356  107.085  150.025   11.287
   33.500    0.610    0.284   97.499  156.056   12.650
   33.750    0.623    0.281  103.503  157.874   13.141
   34.000    0.594    0.329  113.104  153.069   13.142
   34.250    0.553    0.341   99.322  154.285   12.182
   34.500    0.590    0.341  104.126  147.074   11.954
   34.750    0.657    0.344  107.731  143.472   12.418
   35.000    0.708    0.341  107.739  143.482   12.657
   35.250    0.582    0.341   92.158  145.901   15.598
   35.500    0.585    0.339   89.168  148.320   13.920
   35.750    0.597    0.332   96.970  150.741   11.959
   36.000    0.541    0.332  107.171  156.169   10.877
   36.250    0.546    0.353  106.579  154.978    9.893
   36.500    0.621    0.384  114.981  152.582    9.525
   36.750    0.585    0.392  117.987  152.591   10.676
   37.000    0.541    0.373  109.601  152.000   11.965
   37.250    0.596    0.339  105.412  156.224   12.429
   37.500    0.634    0.314   93.428  156.235   11.967
   37.750    0.658    0.312   96.434  156.249   11.743
   38.000    0.674    0.307   97.041  158.068   11.523
   38.250    0.648    0.301   92.852  159.279   11.746
   38.500    0.749    0.293  113.245  162.301   12.201
   38.750    0.805    0.312  106.658  158.702   13.165
   39.000    0.696    0.345   97.672  157.506   12.437
   39.250    0.731    0.367  106.074  155.711   10.685
   39.500    0.653    0.374  121.673  153.919    9.719
   39.750    0.588    0.387  110.888  152.724    9.009
   40.000    0.516    0.403  113.294  149.126    9.182
   40.250    0.656    0.356   98.912  150.943   12.209
   40.500    0.596    0.308   98.321  147.943   12.210
   40.750    0.568    0.312   94.731  144.944   13.175
   41.000    0.604    0.268   87.544  143.752   15.931
   41.250    0.607    0.165   85.753  140.151   14.767
   41.500    0.604    0.235   80.964  143.773   14.218
   41.750    0.613    0.184   73.180  146.192   17.522
   42.000    0.571    0.138   81.580  145.601   19.638
   42.250    0.537    0.256   90.581  143.807   15.344
   42.500    0.540    0.284   89.390  146.226   13.956
   42.750    0.574    0.288   95.993  144.432   14.497
   43.000    0.580    0.331  102.596  144.441   13.438
   43.250    0.582    0.350  112.197  150.472   13.960
   43.500    0.592    0.362  113.404  147.476   13.441
   43.750    0.615    0.352  100.221  148.087   11.548
   44.000    0.655    0.337   91.236  148.701   10.305
   44.250    0.628    0.347  105.633  153.530   10.705
   44.500    0.688    0.348  103.842  148.724   10.504
   44.750    0.616    0.348  114.643  151.745    9.737
   45.000    0.582    0.356  124.843  151.154   10.115
   45.250    0.567    0.361  111.061  145.146   10.310
   45.500    0.635    0.316   97.878  142.748   10.311
   45.750    0.743    0.311   95.488  149.381   10.510
   46.000    0.702    0.333  102.091  149.994   11.340
   46.250    0.666    0.350  112.891  142.180   10.713
   46.500    0.692    0.351  103.306  144.599   11.559
   46.750    0.713    0.353  110.510  147.020   11.560
   47.000    0.733    0.338  114.713  147.634   11.131
   47.250    0.653    0.317   97.935  147.641   12.010
   47.500    0.627    0.309  115.930  148.255   14.522
   47.750    0.630    0.318   94.351  140.440   16.276
   48.000    0.592    0.233   97.957  143.462   19.681
   48.250    0.548    0.155   94.369  149.495   36.138
   48.500    0.369    0.201   87.779  155.524   28.236
   48.750    0.383    0.264  102.781  152.526   17.903
   49.000    0.520    0.279  102.187  144.711   15.093
   49.250    0.638    0.285   94.400  146.529   13.469
   49.500    0.646    0.282   90.811  145.334   11.354
   49.750    0.719    0.245   96.814  147.755   10.327
   50.000    0.582    0.241  101.021  151.377    9.943
   50.250    0.556    0.313  105.224  149.584    9.944
   50.500    0.625    0.344  109.429  147.188   11.145
   50.750    0.719    0.288   90.852  153.819   12.730
   51.000    0.633    0.280   95.055  152.024   13.224
   51.250    0.589    0.301   95.065  147.824   12.027
