~VERSION INFORMATION
 VERS.                 2.0:   CWLS LOG ASCII STANDARD -VERSION 2.0
 WRAP.                  NO:   ONE LINE PER DEPTH STEP
~WELL INFORMATION BLOCK
#MNEM.UNIT           DATA                    DESCRIPTION OF MNEMONIC
#---------    -------------------            -------------------------------
# Generated from Intellog Unique Number	CN_91_93/WELL/1061
WELL.         PETRO-CANADA                   : Well_name    - WELL
LOC .         AA/10-26-091-16W4/0            : Location     - LOCATION
UWI .         AA/10-26-091-16W400            : Uwi          - UNIQUE WELL ID
ENTR.         JOETTE                         : Entered      - ENTERED BY
SRVC.         SCHLUMBERGER                   : Scn          - SERVICE COMPANY
DATE.         02/11/92                       : Date         - LOG DATE
STRT.F        250                            : top_depth    - START DEPTH
STOP.F        739.665                        : bot_depth    - STOP DEPTH
STEP.F        0.82                           : increment    - STEP LENGTH
 NULL. -999.2500:NULL Value
~CURVE INFORMATION BLOCK
#MNEM UNIT       ERCB CURVE CODE    CURVE DESCRIPTION
#-----------   ------------------   ----------------------------------
DEPT.F        00 001 00 00         : DEPTH        - DEPTH
GR  .API      00 310 00 00         : GR           - GAMMA RAY
CALI.MM       00 280 01 00         : CAL          - CALIPER
NPHI.V/V      00 330 00 00         : PHIN         - NEUTRON POROSITY (SANDSTONE)
DPHI.V/V      00 890 00 00         : PHID         - DENSITY POROSITY (SANDSTONE)
ILD .OHMM     00 120 00 00         : RESD         - DEEP RESISTIVITY (DIL)
~PARAMETER INFORMATION
#MNEM.UNIT           DATA             DESCRIPTION OF MNEMONIC
#---------         -----------     ------------------------------
GL  .F        1592.8               : gl           - GROUND LEVEL ELEVATION
EREF.F        1604.2               : kb           - ELEVATION OF DEPTH REFERENCE
DATM.F        1604.2               : datum        - DATUM ELEVATION
TDD .F        780                  : tdd          - TOTAL DEPTH DRILLER
RUN .         ONE                  : Run          - RUN NUMBER
ENG .         BILL                 : Engineer     - RECORDING ENGINEER
WIT .         JIM                  : Witness      - WITNESSED BY
MUD .         GEL                  : Mud_type     - MUD TYPE
MATR.         SANDSTONE            : Logunit      - NEUTRON MATRIX
TMAX.F        64                   : BHT          - MAXIMUM RECORDED TEMPERATURE
BHTD.F        780                  : BHTDEP       - MAXIMUM RECORDED TEMPERATURE
RMT .F        60                   : MDTP         - TEMPERATURE OF MUD
MUDD.LB/G     9.7                  : MWT          - MUD DENSITY
NEUT.         1                    : NEUTRON      - NEUTRON TYPE
RESI.         0                    : RESIST       - RESISTIVITY TYPE
RM  .OHMM     3.49                 : RM           - RESISTIVITY OF MUD
RMC .OHMM     3.49                 : RMC          - RESISTIVITY OF MUD CAKE
RMF .OHMM     3.49                 : RMF          - RESISTIVITY OF MUD FILTRATE
SUFT.F        39.2                 : SUFT         - SURFACE TEMPERATURE
~A  DEPTH       GR      CAL     PHIN     PHID     RESD
# ...
  489.501   64.481  168.761    0.344    0.090   32.887
  490.322   66.649  167.899    0.385    0.106   26.078
  491.142   67.600  167.899    0.415    0.141   20.872
  491.962   68.865  167.627    0.414    0.227   18.859
  492.782   69.534  166.698    0.409    0.249   16.418
  493.602   68.984  166.698    0.411    0.264   13.902
  494.423   64.870  166.923    0.417    0.255   13.538
  495.243   59.255  167.029    0.401    0.232   13.808
  496.063   55.148  167.725    0.365    0.189   15.184
  496.883   52.227  167.764    0.277    0.126   17.005
  497.703   51.985  168.865    0.193    0.033   21.116
  498.524   59.219  169.966    0.246   -0.003   23.430
  499.344   71.228  172.048    0.298    0.009   22.397
  500.164   76.969  173.646    0.323    0.050   18.608
  500.984   82.405  174.249    0.351    0.120   16.657
  501.804   85.461  175.350    0.384    0.178   14.910
  502.625   83.435  177.943    0.401    0.197   12.980
  503.445   85.596  181.060    0.417    0.239   11.300
  504.265   86.256  182.134    0.423    0.244   10.699
  505.085   85.424  183.758    0.450    0.228   10.699
  505.906   83.391  184.375    0.449    0.202   10.437
  506.726   81.970  184.454    0.430    0.189   10.255
  507.546   86.204  185.071    0.434    0.162   10.272
  508.366   92.841  185.190    0.432    0.172   10.272
  509.186   95.001  185.190    0.436    0.182   10.303
  510.007   93.565  185.912    0.451    0.178   10.218
  510.827   93.039  186.973    0.447    0.191   10.140
  511.647   94.289  188.584    0.438    0.171   10.140
  512.467   94.078  192.683    0.450    0.146   10.076
  513.287   92.633  196.270    0.456    0.158    9.812
  514.108   90.914  199.347    0.455    0.194    9.731
  514.928   90.969  197.974    0.474    0.220    9.745
  515.748   91.928  192.098    0.499    0.232    9.760
  516.568   91.693  185.254    0.497    0.228    9.682
  517.388   89.079  180.870    0.481    0.202    9.607
  518.209   89.433  180.976    0.438    0.166    9.623
  519.029  101.442  183.569    0.411    0.127    9.545
  519.849  105.385  188.151    0.451    0.111    9.472
  520.669  104.860  202.210    0.472    0.187    9.485
  521.490   99.850  202.303    0.492    0.212    9.497
  522.310   97.816  193.953    0.495    0.219    9.521
  523.130   96.388  190.093    0.485    0.238    9.526
  523.950   95.564  208.603    0.489    0.232    9.538
  524.770   95.321  220.162    0.493    0.224    9.553
  525.591   95.086  197.885    0.476    0.248    9.565
  526.411   97.254  186.538    0.450    0.249    9.492
  527.231   94.318  186.133    0.472    0.173    9.492
  528.051   90.203  191.723    0.474    0.170    9.254
  528.871   90.871  182.365    0.380    0.152    9.254
  529.692   95.412  179.998    0.409    0.133    9.636
  530.512   97.564  188.062    0.430    0.166   10.303
  531.332   98.829  187.670    0.459    0.227   10.709
  532.152  101.280  182.318    0.452    0.232   10.726
  532.972  101.650  179.453    0.456    0.241   10.741
  533.793  101.109  177.543    0.461    0.229   11.271
  534.613   97.591  176.169    0.380    0.192   11.826
  535.433   94.380  177.283    0.366    0.156   11.731
  536.253   95.323  191.290    0.371    0.150   11.110
  537.073  100.177  205.336    0.412    0.189   10.616
  537.894   98.749  197.497    0.483    0.238    9.684
  538.714   96.715  201.569    0.499    0.298    9.344
  539.534   95.294  199.685    0.494    0.244    9.357
  540.354   95.350  185.366    0.506    0.217    9.283
  541.175   93.631  177.501    0.491    0.195    9.470
  541.995   90.113  199.021    0.425    0.136    9.484
  542.815   93.750  207.098    0.456    0.242    8.900
  543.635  101.879  210.699    0.479    0.276    8.503
  544.455  100.152  216.277    0.499    0.249    7.902
  545.276   97.231  216.369    0.525    0.247    7.276
  546.096   94.617  188.097    0.512    0.227    7.287
  546.916   96.761  184.734    0.441    0.202    7.298
  547.736  103.995  198.767    0.460    0.158    7.377
  548.556  101.970  202.368    0.490    0.188    7.249
  549.377   98.751  203.966    0.488    0.212    6.996
  550.197   96.717  209.046    0.476    0.200    7.005
  551.017   94.393  173.810    0.451    0.171    7.016
  551.837   94.465  173.916    0.418    0.133    6.958
  552.657   98.706  203.892    0.432    0.124    6.970
  553.478  101.165  212.480    0.466    0.158    6.915
  554.298   97.341  212.076    0.484    0.204    6.734
  555.118   95.928  211.187    0.494    0.227    6.617
  555.938   95.686  201.332    0.497    0.202    7.076
  556.759   96.040  184.539    0.450    0.201    7.218
  557.579   99.386  188.611    0.428    0.166    7.094
  558.399  101.248  207.644    0.453    0.163    7.375
  559.219   99.819  227.149    0.456    0.213    7.740
  560.039   98.399  233.237    0.437    0.208    7.126
  560.860   96.656  229.861    0.443    0.195    6.621
  561.680   88.363  209.049    0.399    0.168    6.328
  562.500   94.694  187.754    0.335    0.117    7.640
  563.320  100.443  182.389    0.364    0.094    9.574
  564.140  101.402  182.389    0.398    0.137    9.240
  564.961  101.159  195.115    0.424    0.213    8.993
  565.781  100.932  198.636    0.440    0.198    8.596
  566.601  100.690  209.201    0.465    0.207    8.530
  567.421  100.172  202.854    0.460    0.225    8.539
  568.241   99.340  200.472    0.434    0.217    8.555
  569.062   97.299  201.573    0.422    0.195    8.486
  569.882   87.820  210.619    0.436    0.188    8.342
  570.702   85.190  215.215    0.438    0.185    8.275
  571.522   81.366  213.828    0.406    0.160    8.521
  572.343   75.759  201.983    0.423    0.124    8.694
  573.163   69.846  215.035    0.452    0.098    8.708
  573.983   64.538  230.076    0.466    0.124    8.722
  574.803   57.439  232.171    0.467    0.183    8.981
  575.623   53.018  217.853    0.452    0.280   10.060
  576.444   47.112  214.961    0.398    0.292   12.607
  577.264   42.401  222.541    0.398    0.291   13.732
  578.084   39.472  228.118    0.412    0.289   18.200
  578.904   37.447  232.230    0.418    0.299   25.747
  579.724   34.832  234.325    0.418    0.326   33.183
  580.545   33.694  237.415    0.417    0.346   42.368
  581.365   35.847  239.524    0.436    0.352   46.140
  582.185   39.499  239.617    0.440    0.332   47.973
  583.005   42.555  240.233    0.427    0.316   48.041
  583.825   42.611  239.828    0.421    0.319   47.220
  584.646   40.884  238.940    0.424    0.314   47.740
  585.466   40.358  238.077    0.429    0.305   49.627
  586.286   40.358  238.170    0.435    0.308   52.064
  587.106   40.203  238.773    0.439    0.316   55.143
  587.927   40.565  239.376    0.443    0.323   54.220
  588.747   42.112  237.479    0.441    0.329   51.330
  589.567   43.959  235.111    0.423    0.332   48.151
  590.387   46.111  232.730    0.425    0.315   43.506
  591.207   50.070  230.349    0.439    0.300   34.815
  592.028   53.425  228.452    0.440    0.294   21.860
  592.848   56.166  226.582    0.441    0.293   13.595
  593.668   61.311  225.680    0.467    0.316    7.418
  594.488   65.254  225.680    0.502    0.317    4.880
  595.308   60.535  224.950    0.519    0.313    5.169
  596.129   65.381  223.039    0.532    0.311    5.845
  596.949   69.623  222.124    0.542    0.340    5.908
  597.769   74.469  221.235    0.507    0.338    5.700
  598.589   79.308  220.359    0.462    0.289    5.346
  599.409   84.154  213.986    0.457    0.213    4.442
  600.230   83.927  234.001    0.489    0.252    3.690
  601.050   86.072  223.164    0.514    0.251    3.398
  601.870   84.644  219.788    0.527    0.278    3.403
  602.690   68.584  223.376    0.534    0.285    4.384
  603.510   62.380  228.953    0.534    0.261    6.441
  604.331   59.160  218.614    0.519    0.251   11.085
  605.151   53.247  193.837    0.403    0.258   12.188
  605.971   50.923  175.526    0.357    0.266   15.276
  606.791   48.309  171.666    0.338    0.285   16.485
  607.612   47.163  169.298    0.340    0.242   17.294
  608.432   45.153  167.911    0.355    0.245   16.375
