~VERSION INFORMATION
 VERS.                 2.0:   CWLS LOG ASCII STANDARD -VERSION 2.0
 WRAP.                  NO:   ONE LINE PER DEPTH STEP
~WELL INFORMATION BLOCK
#MNEM.UNIT           DATA                    DESCRIPTION OF MNEMONIC
#---------    -------------------            -------------------------------
# Generated from Intellog Unique Number	CX_WELLS/WELL/3411
WELL.         SAN CHEESHAM                   : Well_name    - WELL
LOC .         AA/14-18-085-06W4/0            : Location     - LOCATION
UWI .         AA/14-18-085-06W400            : Uwi          - UNIQUE WELL ID
ENTR.         T                              : Entered      - ENTERED BY
SRVC.         SCHLUMBERGER                   : Scn          - SERVICE COMPANY
STRT.M        100                            : top_depth    - START DEPTH
STOP.M        290                            : bot_depth    - STOP DEPTH
STEP.M        0.25                           : increment    - STEP LENGTH
 NULL. -999.2500:NULL Value
~CURVE INFORMATION BLOCK
#MNEM UNIT       ERCB CURVE CODE    CURVE DESCRIPTION
#-----------   ------------------   ----------------------------------
DEPT.M        00 001 00 00         : DEPTH        - DEPTH
GR  .API      00 310 00 00         : GR           - GAMMA RAY
NPHI.V/V      00 330 00 00         : PHIN         - NEUTRON POROSITY (SANDSTONE)
DPHI.V/V      00 890 00 00         : PHID         - DENSITY POROSITY (SANDSTONE)
ILD .OHMM     00 120 00 00         : RESD         - DEEP RESISTIVITY (OTHER)
~PARAMETER INFORMATION
#MNEM.UNIT           DATA             DESCRIPTION OF MNEMONIC
#---------         -----------     ------------------------------
GL  .M        472.2                : gl           - GROUND LEVEL ELEVATION
EREF.M        472.2                : kb           - ELEVATION OF DEPTH REFERENCE
DATM.M        472.2                : datum        - DATUM ELEVATION
TDD .M        292                  : tdd          - TOTAL DEPTH DRILLER
RUN .         ONE                  : Run          - RUN NUMBER
ENG .         BILL                 : Engineer     - RECORDING ENGINEER
WIT .         JIM                  : Witness      - WITNESSED BY
MUD .         GEL                  : Mud_type     - MUD TYPE
MATR.         SANDSTONE            : Logunit      - NEUTRON MATRIX
TMAX.C        20                   : BHT          - MAXIMUM RECORDED TEMPERATURE
BHTD.M        292                  : BHTDEP       - MAXIMUM RECORDED TEMPERATURE
MATR.         1                    : LOGUNIT      - NEUTRON MATRIX
RMT .C        15.6                 : MDTP         - TEMPERATURE OF MUD
NEUT.         1                    : NEUTRON      - NEUTRON TYPE
RESI.         5                    : RESIST       - RESISTIVITY TYPE
RMC .OHMM     4.5                  : RMC          - RESISTIVITY OF MUD CAKE
RMF .OHMM     3.9                  : RMF          - RESISTIVITY OF MUD FILTRATE
SUFT.C        4                    : SUFT         - SURFACE TEMPERATURE
~A  DEPTH       GR     PHIN     PHID     RESD
  100.000   68.231    0.480    0.313   10.021
  100.250   73.242    0.475    0.305    8.872
  100.500   75.183    0.475    0.300    7.593
  100.750   77.718    0.475    0.299    7.215
  101.000   80.254    0.471    0.297    6.502
  101.250   80.947    0.464    0.293    5.868
  101.500   80.412    0.466    0.292    5.675
  101.750   79.877    0.469    0.294    5.213
  102.000   79.977    0.468    0.295    5.132
  102.250   80.016    0.465    0.295    4.881
  102.500   82.552    0.462    0.287    4.721
  102.750   86.948    0.461    0.277    4.569
  103.000   90.098    0.463    0.287    4.502
  103.250   92.039    0.473    0.290    4.212
  103.500   93.960    0.484    0.289    4.074
  103.750   97.109    0.500    0.283    3.941
  104.000  100.258    0.514    0.283    3.747
  104.250  104.022    0.518    0.287    3.758
  104.500  101.031    0.519    0.285    3.774
  104.750   98.654    0.519    0.299    3.782
  105.000   98.100    0.512    0.299    3.723
  105.250   98.179    0.505    0.285    3.665
  105.500   98.892    0.500    0.283    3.305
  105.750  100.200    0.513    0.285    2.827
  106.000  100.893    0.532    0.289    2.593
  106.250  101.606    0.549    0.289    2.297
  106.500  102.280    0.554    0.286    2.073
  106.750  103.607    0.554    0.288    1.970
  107.000  103.686    0.556    0.294    2.047
  107.250  103.745    0.554    0.322    2.244
  107.500  103.864    0.554    0.309    2.373
  107.750  103.310    0.563    0.294    2.465
  108.000  102.755    0.574    0.296    2.563
  108.250  101.607    0.583    0.298    2.659
  108.500   99.230    0.590    0.301    2.917
  108.750   96.240    0.583    0.299    3.026
  109.000   95.091    0.573    0.292    3.200
  109.250   93.348    0.566    0.288    3.445
  109.500   92.814    0.556    0.285    3.643
  109.750   92.893    0.531    0.279    3.718
  110.000   92.972    0.537    0.275    3.479
  110.250   93.052    0.548    0.271    3.248
  110.500   93.131    0.548    0.270    2.979
  110.750   93.824    0.555    0.276    2.688
  111.000   96.359    0.589    0.288    2.510
  111.250   97.667    0.599    0.304    2.347
  111.500   97.132    0.590    0.297    2.310
  111.750   97.211    0.579    0.295    2.315
  112.000   97.904    0.569    0.290    2.365
  112.250   98.598    0.564    0.287    2.414
  112.500   98.063    0.563    0.290    2.552
  112.750   97.548    0.559    0.300    2.650
  113.000   97.608    0.550    0.293    3.010
  113.250   97.687    0.551    0.289    3.181
  113.500   97.786    0.550    0.293    3.549
  113.750   96.638    0.541    0.297    3.820
  114.000   96.123    0.509    0.303    4.112
  114.250   95.549    0.504    0.298    3.777
  114.500   95.628    0.500    0.293    3.524
  114.750   94.499    0.498    0.288    3.178
  115.000   92.736    0.495    0.283    3.189
  115.250   91.548    0.491    0.293    3.435
  115.500   89.785    0.490    0.307    3.564
  115.750   88.043    0.488    0.311    3.977
  116.000   86.260    0.489    0.302    4.594
  116.250   83.903    0.490    0.282    6.936
  116.500   82.121    0.488    0.248    7.594
  116.750   79.764    0.485    0.229    8.314
  117.000   79.230    0.481    0.305    9.958
  117.250   81.151    0.476    0.322   11.105
  117.500   83.666    0.475    0.322   13.068
  117.750   86.835    0.475    0.305   14.572
  118.000   88.757    0.467    0.285   15.965
  118.250   89.450    0.440    0.245   16.883
  118.500   77.230    0.370    0.210   17.220
  118.750   68.713    0.422    0.309   17.280
  119.000   68.793    0.441    0.336   17.329
  119.250   70.120    0.453    0.338   17.390
  119.500   70.813    0.453    0.339   17.120
  119.750   70.892    0.453    0.340   16.867
  120.000   72.219    0.454    0.340   16.938
  120.250   73.507    0.454    0.335   16.962
  120.500   74.180    0.455    0.331   17.010
  120.750   76.102    0.462    0.328   17.057
  121.000   79.310    0.465    0.326   17.093
  121.250   80.578    0.468    0.323   17.165
  121.500   81.885    0.471    0.321   16.876
  121.750   80.756    0.474    0.319   16.638
  122.000   79.608    0.475    0.315   16.404
  122.250   78.459    0.472    0.299   16.138
  122.500   76.696    0.451    0.145   15.900
  122.750   75.548    0.402    0.130   16.240
  123.000   74.379    0.348    0.149   16.873
  123.250   72.042    0.393    0.183   17.222
  123.500   70.854    0.443    0.281   17.258
  123.750   69.705    0.467    0.331   17.003
  124.000   71.013    0.473    0.329   15.075
  124.250   73.548    0.477    0.329   14.084
  124.500   75.489    0.472    0.335   13.866
  124.750   77.410    0.470    0.339   13.671
  125.000   79.351    0.470    0.338   13.690
  125.250   80.639    0.469    0.337   13.497
  125.500   78.242    0.464    0.336   13.064
  125.750   77.728    0.465    0.339   12.862
  126.000   77.193    0.467    0.343   12.449
  126.250   76.658    0.467    0.344   11.855
  126.500   76.104    0.467    0.342   11.672
  126.750   75.569    0.472    0.336   11.713
  127.000   75.668    0.484    0.333   11.737
  127.250   75.728    0.487    0.328   11.972
  127.500   75.807    0.477    0.325   11.997
  127.750   75.886    0.469    0.323   12.254
  128.000   75.985    0.461    0.319   12.073
  128.250   76.085    0.468    0.318   11.895
  128.500   76.144    0.474    0.320   11.513
  128.750   76.223    0.485    0.325   11.351
  129.000   76.303    0.493    0.324   11.367
  129.250   75.768    0.486    0.323   11.207
  129.500   75.233    0.475    0.323   11.041
  129.750   75.332    0.470    0.328   10.687
  130.000   76.046    0.468    0.331   10.724
  130.250   76.719    0.469    0.335   10.747
  130.500   76.798    0.467    0.330   10.977
  130.750   76.858    0.462    0.323   10.992
  131.000   76.937    0.460    0.321   11.039
  131.250   77.016    0.460    0.314   10.868
  131.500   76.502    0.462    0.312   10.883
  131.750   75.333    0.468    0.313   10.722
  132.000   74.185    0.471    0.314   10.564
  132.250   73.709    0.474    0.315   10.407
  132.500   73.769    0.467    0.321   10.261
  132.750   73.828    0.456    0.324   10.102
  133.000   74.502    0.455    0.328    9.960
  133.250   75.215    0.456    0.323    9.805
  133.500   75.294    0.458    0.319    9.840
  133.750   75.374    0.450    0.315    9.688
  134.000   75.453    0.454    0.318    9.721
  134.250   75.552    0.458    0.325    9.571
  134.500   76.206    0.467    0.328    9.430
  134.750   78.167    0.468    0.332    9.290
  135.000   79.454    0.465    0.327    9.323
  135.250   81.415    0.482    0.318    9.336
  135.500   82.069    0.480    0.311    9.198
  135.750   83.990    0.477    0.302    7.459
  136.000   85.931    0.479    0.303    4.718
  136.250   87.852    0.497    0.300    3.628
  136.500   89.793    0.519    0.289    3.703
  136.750   90.447    0.522    0.275    3.845
  137.000   91.180    0.513    0.264    3.995
  137.250   91.873    0.514    0.260    4.153
  137.500   91.952    0.520    0.255    4.092
  137.750   92.032    0.527    0.276    4.028
  138.000   92.091    0.531    0.289    3.763
  138.250   90.943    0.521    0.295    3.454
  138.500   89.180    0.502    0.292    3.285
  138.750   87.417    0.491    0.295    3.180
  139.000   86.269    0.485    0.302    3.189
  139.250   85.140    0.481    0.306    3.255
  139.500   85.219    0.478    0.302    3.442
  139.750   85.318    0.478    0.301    3.637
  140.000   85.358    0.480    0.305    3.712
  140.250   86.091    0.485    0.308    3.792
  140.500   86.764    0.489    0.304    3.802
  140.750   87.438    0.493    0.290    3.681
  141.000   89.379    0.508    0.284    3.560
  141.250   91.934    0.523    0.293    3.448
  141.500   93.202    0.538    0.303    3.338
  141.750   95.757    0.548    0.305    3.120
  142.000   98.945    0.551    0.292    3.016
  142.250  100.213    0.563    0.293    2.818
  142.500  102.134    0.571    0.296    2.633
  142.750  103.442    0.579    0.299    2.550
  143.000  104.749    0.584    0.310    2.509
  143.250  104.828    0.590    0.322    2.474
