~VERSION INFORMATION
 VERS.                 2.0:   CWLS LOG ASCII STANDARD -VERSION 2.0
 WRAP.                  NO:   ONE LINE PER DEPTH STEP
~WELL INFORMATION BLOCK
#MNEM.UNIT           DATA                    DESCRIPTION OF MNEMONIC
#---------    -------------------            -------------------------------
# Generated from Intellog Unique Number	CS_77_79/WELL/969
WELL.         PEX PCEJ ALGAR OV              : Well_name    - WELL
LOC .         AA/10-26-079-15W4/0            : Location     - LOCATION
UWI .         AA/10-26-079-15W4/0            : Uwi          - UNIQUE WELL ID
ENTR.         JHS                            : Entered      - ENTERED BY
SRVC.         SCHLUMBERGER                   : Scn          - SERVICE COMPANY
STRT.M        225                            : top_depth    - START DEPTH
STOP.M        470                            : bot_depth    - STOP DEPTH
STEP.M        0.25                           : increment    - STEP LENGTH
 NULL. -999.2500:NULL Value
~CURVE INFORMATION BLOCK
#MNEM UNIT       ERCB CURVE CODE    CURVE DESCRIPTION
#-----------   ------------------   ----------------------------------
DEPT.M        00 001 00 00         : DEPTH        - DEPTH
DPHI.V/V      00 890 00 00         : PHID         - DENSITY POROSITY (LIMESTONE)
NPHI.V/V      00 330 00 00         : PHIN         - NEUTRON POROSITY (LIMESTONE)
GR  .API      00 310 00 00         : GR           - GAMMA RAY
ILD .OHMM     00 120 00 00         : RESD         - DEEP RESISTIVITY (DIL)
RHOB.KG/M3    00 350 00 00         : DENS         - BULK DENSITY
~PARAMETER INFORMATION
#MNEM.UNIT           DATA             DESCRIPTION OF MNEMONIC
#---------         -----------     ------------------------------
GL  .M        640.8                : gl           - GROUND LEVEL ELEVATION
EREF.M        644                  : kb           - ELEVATION OF DEPTH REFERENCE
DATM.M        644                  : datum        - DATUM ELEVATION
TDD .M        477                  : tdd          - TOTAL DEPTH DRILLER
RUN .         ONE                  : Run          - RUN NUMBER
ENG .         BILL                 : Engineer     - RECORDING ENGINEER
WIT .         JIM                  : Witness      - WITNESSED BY
MUD .         GEL                  : Mud_type     - MUD TYPE
MATR.         LIMESTONE            : Logunit      - NEUTRON MATRIX
TMAX.C        28                   : BHT          - MAXIMUM RECORDED TEMPERATURE
BHTD.M        477                  : BHTDEP       - MAXIMUM RECORDED TEMPERATURE
MATR.         1                    : LOGUNIT      - NEUTRON MATRIX
RMT .C        25                   : MDTP         - TEMPERATURE OF MUD
NEUT.         1                    : NEUTRON      - NEUTRON TYPE
RESI.         0                    : RESIST       - RESISTIVITY TYPE
RMC .OHMM     0.25                 : RMC          - RESISTIVITY OF MUD CAKE
RMF .OHMM     0.25                 : RMF          - RESISTIVITY OF MUD FILTRATE
SUFT.C        15                   : SUFT         - SURFACE TEMPERATURE
~A  DEPTH     PHID     PHIN       GR     RESD     DENS
# ...
  334.500    0.358    0.513   90.356    2.274    0.000
  334.750    0.369    0.505   93.487    2.316    0.000
  335.000    0.378    0.500   94.743    2.543    0.000
  335.250    0.387    0.497   97.257    2.846    0.000
  335.500    0.323    0.464   97.899    3.245    0.000
  335.750    0.268    0.452   86.825    3.700    0.000
  336.000    0.257    0.442   88.103    4.220    0.000
  336.250    0.263    0.455   92.454    5.188    0.000
  336.500    0.272    0.442   88.784    6.028    0.000
  336.750    0.287    0.434   90.681    6.496    0.000
  337.000    0.305    0.471   89.483    6.870    0.000
  337.250    0.343    0.459   90.743    7.130    0.000
  337.500    0.347    0.462   90.162    6.735    0.000
  337.750    0.344    0.438   91.436    6.127    0.000
  338.000    0.363    0.443   95.172    5.680    0.000
  338.250    0.417    0.419   92.743    5.572    0.000
  338.500    0.348    0.426   90.317    5.782    0.000
  338.750    0.305    0.429   89.727    6.001    0.000
  339.000    0.301    0.413   81.739    6.467    0.000
  339.250    0.331    0.424   79.921    6.587    0.000
  339.500    0.322    0.431   87.980    6.836    0.000
  339.750    0.334    0.426   84.930    6.705    0.000
  340.000    0.292    0.417   84.967    6.577    0.000
  340.250    0.249    0.410   82.536    6.698    0.000
  340.500    0.249    0.420   80.098    6.950    0.000
  340.750    0.239    0.417   84.456    7.081    0.000
  341.000    0.207    0.387   81.406    7.489    0.000
  341.250    0.194    0.368   75.889    8.380    0.000
  341.500    0.199    0.391   72.227    9.202    0.000
  341.750    0.238    0.407   78.434    9.731    0.000
  342.000    0.262    0.397   79.705    9.911    0.000
  342.250    0.277    0.430   83.436    9.189    0.000
  342.500    0.289    0.407   85.939    8.360    0.000
  342.750    0.339    0.412   90.915    7.323    0.000
  343.000    0.345    0.463   84.780    6.918    0.000
  343.250    0.328    0.457   84.813    6.414    0.000
  343.500    0.372    0.507   82.999    5.619    0.000
  343.750    0.378    0.516   92.299    4.832    0.000
  344.000    0.377    0.502   96.649    3.781    0.000
  344.250    0.364    0.495   90.510    3.190    0.000
  344.500    0.354    0.512   96.102    2.593    0.000
  344.750    0.357    0.534   86.263    2.107    0.000
  345.000    0.363    0.526   91.852    1.680    0.000
  345.250    0.351    0.528   95.595    1.418    0.000
  345.500    0.383    0.531   99.332    1.130    0.000
  345.750    0.412    0.541   88.876    1.109    0.000
  346.000    0.384    0.524   82.122    1.173    0.000
  346.250    0.349    0.524   85.861    1.442    0.000
  346.500    0.342    0.541   92.690    1.806    0.000
  346.750    0.348    0.519   98.897    2.138    0.000
  347.000    0.344    0.510  102.016    2.580    0.000
  347.250    0.338    0.522   98.349    2.833    0.000
  347.500    0.337    0.509   99.001    2.886    0.000
  347.750    0.339    0.489   97.195    2.938    0.000
  348.000    0.351    0.452   99.706    2.937    0.000
  348.250    0.373    0.472  100.959    2.992    0.000
  348.500    0.357    0.462   88.653    3.164    0.000
  348.750    0.335    0.468   93.009    3.475    0.000
  349.000    0.325    0.449   87.487    4.037    0.000
  349.250    0.317    0.469   90.003    4.351    0.000
  349.500    0.292    0.471   92.501    4.778    0.000
  349.750    0.296    0.459   88.829    5.149    0.000
  350.000    0.345    0.452   90.864    5.364    0.000
  350.250    0.359    0.453   92.709    5.266    0.000
  350.500    0.367    0.433   90.200    5.169    0.000
  350.750    0.364    0.423   83.956    5.170    0.000
  351.000    0.348    0.426   83.931    5.076    0.000
  351.250    0.340    0.443   87.021    5.174    0.000
  351.500    0.367    0.444   86.378    5.274    0.000
  351.750    0.392    0.462   82.005    5.690    0.000
  352.000    0.391    0.446   77.001    6.023    0.000
  352.250    0.285    0.407   74.493    6.375    0.000
  352.500    0.283    0.386   70.741    6.878    0.000
  352.750    0.286    0.377   68.230    7.419    0.000
  353.000    0.286    0.389   69.455    8.156    0.000
  353.250    0.281    0.398   63.833    8.967    0.000
  353.500    0.278    0.407   70.036    9.140    0.000
  353.750    0.279    0.403   68.148    9.318    0.000
  354.000    0.280    0.397   63.769    9.321    0.000
  354.250    0.279    0.394   61.884    9.323    0.000
  354.500    0.279    0.375   64.349    9.326    0.000
  354.750    0.280    0.390   63.707    9.329    0.000
  355.000    0.279    0.401   60.573    9.332    0.000
  355.250    0.277    0.407   63.046    9.161    0.000
  355.500    0.262    0.391   72.358    9.163    0.000
  355.750    0.246    0.377   71.093    9.165    0.000
  356.000    0.246    0.387   71.070    9.168    0.000
  356.250    0.247    0.389   70.428    9.000    0.000
  356.500    0.247    0.388   71.654    8.834    0.000
  356.750    0.244    0.369   85.325    8.351    0.000
  357.000    0.246    0.383   86.544    7.894    0.000
  357.250    0.262    0.408   81.547    6.919    0.000
  357.500    0.344    0.424   78.416    6.180    0.000
  357.750    0.424    0.468   76.529    5.841    0.000
  358.000    0.451    0.484   70.908    5.419    0.000
  358.250    0.490    0.477   79.598    5.420    0.000
  358.500    0.429    0.436   83.315    5.526    0.000
  358.750    0.398    0.444   85.782    5.633    0.000
  359.000    0.265    0.401   84.514    5.851    0.000
  359.250    0.249    0.398   85.740    6.194    0.000
  359.500    0.279    0.418   77.007    6.313    0.000
  359.750    0.306    0.420   79.471    6.436    0.000
  360.000    0.267    0.423   77.585    6.438    0.000
  360.250    0.278    0.435   83.784    6.319    0.000
  360.500    0.285    0.446   83.150    6.322    0.000
  360.750    0.258    0.432   75.660    6.444    0.000
  361.000    0.252    0.406   80.618    6.822    0.000
  361.250    0.250    0.405   79.970    6.954    0.000
  361.500    0.248    0.402   84.931    7.088    0.000
  361.750    0.251    0.406   84.286    7.226    0.000
  362.000    0.253    0.402   88.005    7.228    0.000
  362.250    0.257    0.396   81.136    7.369    0.000
  362.500    0.260    0.404   81.117    7.233    0.000
  362.750    0.261    0.421   82.963    7.373    0.000
  363.000    0.265    0.398   84.185    7.660    0.000
  363.250    0.270    0.392   80.430    7.957    0.000
  363.500    0.271    0.392   77.920    8.111    0.000
  363.750    0.271    0.388   81.636    8.585    0.000
  364.000    0.271    0.389   78.501    8.919    0.000
  364.250    0.272    0.404   80.347    9.091    0.000
  364.500    0.273    0.409   75.351    9.444    0.000
  364.750    0.276    0.402   67.234    9.811    0.000
  365.000    0.274    0.407   70.325    9.813    0.000
  365.250    0.269    0.413   77.770    9.633    0.000
  365.500    0.266    0.415   80.246    9.278    0.000
  365.750    0.269    0.404   87.070    8.606    0.000
  366.000    0.286    0.414   89.536    7.983    0.000
  366.250    0.345    0.456   93.874    7.266    0.000
  366.500    0.366    0.473   89.498    6.369    0.000
  366.750    0.326    0.444   97.566    6.021    0.000
  367.000    0.349    0.434   88.211    5.911    0.000
  367.250    0.338    0.435   90.058    5.912    0.000
  367.500    0.334    0.445   83.192    5.804    0.000
  367.750    0.337    0.437   85.036    5.805    0.000
  368.000    0.370    0.442   88.753    5.808    0.000
  368.250    0.378    0.455   86.865    5.809    0.000
  368.500    0.369    0.426   94.927    5.702    0.000
  368.750    0.364    0.420   96.159    5.493    0.000
  369.000    0.375    0.461   86.802    5.392    0.000
  369.250    0.390    0.474   89.270    5.393    0.000
  369.500    0.390    0.458   88.628    5.498    0.000
  369.750    0.368    0.443   83.006    5.819    0.000
  370.000    0.258    0.422   88.586    6.644    0.000
  370.250    0.247    0.419   92.921    7.303    0.000
  370.500    0.224    0.401   95.392    8.337    0.000
  370.750    0.231    0.389   94.746    9.340    0.000
