~VERSION INFORMATION
 VERS.                 2.0:   CWLS LOG ASCII STANDARD -VERSION 2.0
 WRAP.                  NO:   ONE LINE PER DEPTH STEP
~WELL INFORMATION BLOCK
#MNEM.UNIT           DATA                    DESCRIPTION OF MNEMONIC
#---------    -------------------            -------------------------------
# Generated from Intellog Unique Number	CC_80_83/WELL/2381
COMP.         PETRO CANADA                   : COMPANY
WELL.         PEX PCEL CHARD OV              : WELL NAME
LOC .         10-29-080-07W4                 : Location     - LOCATION
UWI .         AA/10-29-080-07W400            : Uwi          - UNIQUE WELL ID
ENTR.         DW                             : Entered      - ENTERED BY
SRVC.         SCHLUMBERGER                   : Scn          - SERVICE COMPANY
STRT.M        175                            : top_depth    - START DEPTH
STOP.M        420.094                        : bot_depth    - STOP DEPTH
STEP.M        0.3                            : increment    - STEP LENGTH
 NULL. -999.2500:NULL Value
~CURVE INFORMATION BLOCK
#MNEM UNIT       ERCB CURVE CODE    CURVE DESCRIPTION
#-----------   ------------------   ----------------------------------
DEPT.M        00 001 00 00         : DEPTH        - DEPTH
DPHI.V/V      00 890 00 00         : PHID         - DENSITY POROSITY (LIMESTONE)
NPHI.V/V      00 330 00 00         : PHIN         - NEUTRON POROSITY (LIMESTONE)
GR  .API      00 310 00 00         : GR           - GAMMA RAY
ILD .OHMM     00 120 00 00         : RESD         - DEEP RESISTIVITY (DIL)
~PARAMETER INFORMATION
#MNEM.UNIT           DATA             DESCRIPTION OF MNEMONIC
#---------         -----------     ------------------------------
GL  .M        625.45               : gl           - GROUND LEVEL ELEVATION
EREF.M        629.1                : kb           - ELEVATION OF DEPTH REFERENCE
DATM.M        629.1                : datum        - DATUM ELEVATION
TDD .M        426                  : tdd          - TOTAL DEPTH DRILLER
RUN .         ONE                  : Run          - RUN NUMBER
ENG .         BILL                 : Engineer     - RECORDING ENGINEER
WIT .         JIM                  : Witness      - WITNESSED BY
MUD .         GEL                  : Mud_type     - MUD TYPE
MATR.         LIMESTONE            : Logunit      - NEUTRON MATRIX
TMAX.C        16                   : BHT          - MAXIMUM RECORDED TEMPERATURE
BHTD.M        426                  : BHTDEP       - MAXIMUM RECORDED TEMPERATURE
MATR.         1                    : LOGUNIT      - NEUTRON MATRIX
RMT .C        25                   : MDTP         - TEMPERATURE OF MUD
NEUT.         1                    : NEUTRON      - NEUTRON TYPE
RESI.         0                    : RESIST       - RESISTIVITY TYPE
RMC .OHMM     0.25                 : RMC          - RESISTIVITY OF MUD CAKE
RMF .OHMM     0.25                 : RMF          - RESISTIVITY OF MUD FILTRATE
SUFT.C        4                    : SUFT         - SURFACE TEMPERATURE
~A  DEPTH     PHID     PHIN       GR     RESD
# ...
  227.201    0.289    0.404  111.138   18.847
  227.501    0.272    0.413  111.091   17.478
  227.801    0.236    0.429  138.545   15.605
  228.101    0.237    0.413  136.002   13.159
  228.401    0.245    0.384  139.706   11.748
  228.701    0.259    0.367  134.032   10.897
  229.001    0.273    0.351  122.741   10.699
  229.301    0.280    0.356  112.706   11.336
  229.601    0.274    0.381   82.046   12.965
  229.901    0.277    0.364   65.126   13.734
  230.201    0.280    0.340   69.461   16.947
  230.501    0.277    0.380   75.667   19.377
  230.801    0.281    0.359   83.120   20.147
  231.101    0.279    0.330   81.820   19.408
  231.401    0.270    0.360   83.657   18.349
  231.701    0.266    0.358   97.983   18.016
  232.001    0.264    0.351  102.313   17.688
  232.301    0.279    0.357   95.400   17.706
  232.601    0.289    0.348   94.103   18.058
  232.901    0.285    0.353   93.436   18.771
  233.201    0.258    0.372   88.396   19.893
  233.501    0.261    0.385   88.973   20.291
  233.801    0.255    0.367   83.936   20.307
  234.101    0.252    0.384   88.263   19.938
  234.401    0.246    0.400  101.966   18.146
  234.701    0.227    0.412  114.419   15.594
  235.001    0.206    0.431  126.250   12.659
  235.301    0.220    0.437  138.080   10.673
  235.601    0.215    0.434  148.026    8.665
  235.901    0.216    0.451  139.241    7.884
  236.201    0.231    0.445  140.446    7.038
  236.501    0.250    0.435  141.646    6.911
  236.801    0.270    0.415  126.611    7.754
  237.101    0.277    0.431  108.450    9.387
  237.401    0.275    0.414   97.157   12.032
  237.701    0.253    0.401  106.485   14.566
  238.001    0.229    0.381  119.566   15.730
  238.301    0.219    0.404  122.644   14.868
  238.601    0.218    0.401  130.102   14.055
  238.901    0.218    0.405  140.681   12.549
  239.201    0.218    0.429  150.009   11.204
  239.501    0.218    0.444  131.843    9.813
  239.801    0.217    0.434  138.675    8.761
  240.101    0.231    0.455  137.379    8.126
  240.401    0.246    0.443  137.957    7.978
  240.701    0.255    0.438  137.919    8.139
  241.001    0.264    0.450  129.127    8.460
  241.301    0.271    0.427  115.338    9.313
  241.601    0.265    0.400  116.544   10.251
  241.901    0.254    0.390  133.988   11.283
  242.201    0.247    0.388  122.702   12.902
  242.501    0.232    0.374   98.914   15.324
  242.801    0.213    0.384   92.625   16.239
  243.101    0.213    0.410  132.570   15.645
  243.401    0.221    0.444  148.774   13.969
  243.701    0.232    0.437  144.982   12.955
  244.001    0.235    0.423  134.941   12.243
  244.301    0.231    0.453  133.648   11.143
  244.601    0.239    0.454  123.602   10.531
  244.901    0.246    0.448  114.188    9.955
  245.201    0.246    0.430  112.271    9.233
  245.501    0.246    0.434  110.974    8.896
  245.801    0.263    0.427  100.936    8.409
  246.101    0.274    0.439  130.886    8.256
  246.401    0.273    0.438  132.712    7.657
  246.701    0.265    0.416  117.676    6.837
  247.001    0.273    0.395   87.636    6.973
  247.301    0.293    0.376   75.098    7.974
  247.601    0.302    0.369   76.928    9.291
  247.901    0.299    0.395   82.509   11.248
  248.201    0.296    0.375   74.964   14.976
  248.501    0.298    0.380   80.546   19.940
  248.801    0.298    0.353   79.874   21.132
  249.101    0.296    0.354   81.083   21.149
  249.401    0.297    0.350   81.670   20.378
  249.701    0.301    0.353   85.997   19.631
  250.001    0.304    0.375   76.577   19.272
  250.301    0.303    0.408   74.032   19.291
  250.601    0.301    0.393   72.118   19.677
  250.901    0.303    0.396   73.948   20.071
  251.201    0.305    0.404   78.278   20.866
  251.501    0.307    0.394   85.114   21.280
  251.801    0.308    0.390   80.070   21.711
  252.101    0.311    0.383   71.275   21.727
  252.401    0.314    0.384   66.861   22.167
  252.701    0.318    0.390   69.314   22.182
  253.001    0.323    0.397   78.022   22.197
  253.301    0.320    0.393   78.601   21.794
  253.601    0.311    0.388   84.183   21.405
  253.901    0.311    0.380   91.013   21.417
  254.201    0.317    0.373   86.594   21.030
  254.501    0.321    0.377   73.424   21.047
  254.801    0.320    0.390   80.884   20.667
  255.101    0.314    0.366   93.338   19.912
  255.401    0.309    0.389   83.291   19.185
  255.701    0.305    0.389   90.125   18.838
  256.001    0.302    0.380   90.079   18.497
  256.301    0.298    0.378   89.414   18.509
  256.601    0.297    0.382   87.495   18.881
  256.901    0.293    0.384   79.329   19.258
  257.201    0.288    0.383   82.410   19.650
  257.501    0.261    0.396   75.492   19.289
  257.801    0.270    0.411   84.819   18.589
  258.101    0.302    0.393   95.401   18.251
  258.401    0.305    0.378   97.231   17.918
  258.701    0.301    0.387   79.694   17.593
  259.001    0.290    0.408   82.773   16.633
  259.301    0.268    0.402   71.483   15.426
  259.601    0.287    0.386   77.688   15.145
  259.901    0.299    0.368   80.140   15.160
  260.201    0.283    0.348   77.594   15.758
  260.501    0.278    0.320   77.549   16.075
  260.801    0.302    0.286   81.886   16.711
  261.101    0.309    0.230   78.719   17.372
  261.401    0.308    0.183   73.052   17.721
  261.701    0.292    0.143   69.882   18.423
  262.001    0.019    0.086   71.714   21.064
  262.301    0.020    0.073   72.295   25.992
  262.601    0.039    0.096   65.376   35.271
  262.901    0.076    0.137   61.583   47.864
  263.201    0.193    0.193   65.918   47.905
  263.501    0.299    0.341   80.870   39.631
  263.801    0.310    0.371   84.576   24.181
  264.100    0.309    0.368   92.653   17.849
  264.400    0.304    0.384  105.108   16.239
  264.700    0.302    0.405  101.316   15.652
  265.000    0.308    0.429   98.148   15.661
  265.300    0.308    0.414  109.974   15.677
  265.600    0.292    0.402  119.307   15.684
  265.900    0.267    0.392   99.263   16.304
  266.200    0.199    0.387   88.598   19.367
  266.500    0.152    0.355   79.800   23.446
  266.800    0.245    0.331   86.640   22.161
  267.100    0.276    0.345   99.077   19.046
  267.400    0.304    0.430   84.671   17.666
  267.700    0.309    0.442   91.506   15.770
  268.000    0.298    0.445  105.210   12.805
  268.300    0.288    0.452   97.040   12.570
  268.600    0.262    0.467   71.380   13.072
  268.900    0.241    0.446   71.334   13.849
  269.200    0.234    0.404   71.283   15.242
  269.500    0.263    0.418   78.120   15.846
  269.800    0.273    0.405   79.951   15.563
  270.100    0.276    0.434   73.032   15.281
  270.400    0.311    0.423   69.246   14.720
  270.700    0.314    0.427   75.451   13.919
  271.000    0.315    0.414   79.156   13.664
  271.300    0.308    0.405   84.729   13.674
  271.600    0.313    0.422   87.189   13.948
  271.900    0.316    0.413   78.397   14.499
  272.200    0.319    0.404   74.598   15.077
  272.500    0.319    0.396   75.177   15.377
  272.800    0.317    0.411   73.268   15.099
  273.100    0.309    0.415   69.471   14.829
  273.400    0.297    0.396   68.183   14.837
  273.700    0.292    0.410   76.259   14.574
  274.000    0.296    0.428   76.841   14.582
  274.300    0.302    0.413   80.549   14.318
  274.600    0.312    0.401   86.756   14.607
  274.900    0.320    0.388   87.336   14.617
  275.200    0.321    0.393   77.922   14.629
  275.500    0.329    0.428   69.126   14.364
  275.800    0.320    0.420   87.202   14.932
  276.100    0.303    0.387   81.535   15.235
  276.400    0.298    0.363   81.476   15.245
  276.700    0.287    0.383   83.316   14.139
  277.000    0.282    0.396   76.409   13.363
  277.300    0.284    0.405   78.233   12.161
  277.600    0.294    0.416   80.695   12.641
  277.900    0.288    0.424   84.402   12.415
  278.200    0.277    0.413   93.729   12.188
  278.500    0.281    0.422  101.806   10.278
  278.800    0.284    0.439   93.019    9.004
  279.100    0.287    0.429  102.974    8.510
