~VERSION INFORMATION
 VERS.                 2.0:   CWLS LOG ASCII STANDARD -VERSION 2.0
 WRAP.                  NO:   ONE LINE PER DEPTH STEP
~WELL INFORMATION BLOCK
#MNEM.UNIT           DATA                    DESCRIPTION OF MNEMONIC
#---------    -------------------            -------------------------------
# Generated from Intellog Unique Number	CN_91_93/WELL/2865
WELL.         16-22-092-09W4                 : Well_name    - WELL
LOC .         AA/16-22-092-09W4/0            : Location     - LOCATION
UWI .         AA/16-22-092-09W400            : Uwi          - UNIQUE WELL ID
ENTR.         JOETTE                         : Entered      - ENTERED BY
SRVC.         SCHLUMBERGER                   : Scn          - SERVICE COMPANY
DATE.         03/31/92                       : Date         - LOG DATE
STRT.F        30                             : top_depth    - START DEPTH
STOP.F        380.23                         : bot_depth    - STOP DEPTH
STEP.F        0.8202                         : increment    - STEP LENGTH
 NULL. -999.2500:NULL Value
~CURVE INFORMATION BLOCK
#MNEM UNIT       ERCB CURVE CODE    CURVE DESCRIPTION
#-----------   ------------------   ----------------------------------
DEPT.F        00 001 00 00         : DEPTH        - DEPTH
CALI.IN       00 280 01 00         : CAL          - CALIPER
GR  .API      00 310 00 00         : GR           - GAMMA RAY
NPHI.V/V      00 330 00 00         : PHIN         - NEUTRON POROSITY (SANDSTONE)
DPHI.V/V      00 890 00 00         : PHID         - DENSITY POROSITY (SANDSTONE)
ILD .OHMM     00 120 00 00         : RESD         - DEEP RESISTIVITY (DIL)
~PARAMETER INFORMATION
#MNEM.UNIT           DATA             DESCRIPTION OF MNEMONIC
#---------         -----------     ------------------------------
GL  .M        357.165              : gl           - GROUND LEVEL ELEVATION
EREF.M        357.165              : kb           - ELEVATION OF DEPTH REFERENCE
DATM.M        357.165              : datum        - DATUM ELEVATION
TDD .M        117.653              : tdd          - TOTAL DEPTH DRILLER
RUN .         ONE                  : Run          - RUN NUMBER
ENG .         BILL                 : Engineer     - RECORDING ENGINEER
WIT .         JIM                  : Witness      - WITNESSED BY
MUD .         GEL                  : Mud_type     - MUD TYPE
MATR.         SANDSTONE            : Logunit      - NEUTRON MATRIX
TMAX.F        54                   : BHT          - MAXIMUM RECORDED TEMPERATURE
BHTD.F        386                  : BHTDEP       - MAXIMUM RECORDED TEMPERATURE
RMT .F        62                   : MDTP         - TEMPERATURE OF MUD
MUDD.LB/G     8.8                  : MWT          - MUD DENSITY
NEUT.         1                    : NEUTRON      - NEUTRON TYPE
RESI.         0                    : RESIST       - RESISTIVITY TYPE
RM  .OHMM     6.2                  : RM           - RESISTIVITY OF MUD
RMC .OHMM     6.2                  : RMC          - RESISTIVITY OF MUD CAKE
RMF .OHMM     6.2                  : RMF          - RESISTIVITY OF MUD FILTRATE
SUFT.F        39.2                 : SUFT         - SURFACE TEMPERATURE
~A  DEPTH      CAL       GR     PHIN     PHID     RESD
# ...
  149.751    5.519   29.954    0.238    0.315  549.793
  150.571    5.473   35.869    0.227    0.328  597.806
  151.391    5.498   38.549    0.199    0.346  638.263
  152.211    5.491   28.339    0.177    0.359  633.088
  153.031    5.469   34.841    0.204    0.356  688.375
  153.852    5.486   29.607    0.203    0.350  755.398
  154.672    5.495   28.190    0.198    0.338  722.335
  155.492    5.504   31.755    0.216    0.340  629.930
  156.312    5.497   34.159    0.243    0.335  554.415
  157.133    5.514   31.264    0.245    0.333  544.891
  157.953    5.484   26.037    0.230    0.355  506.812
  158.773    5.494   26.384    0.249    0.316  410.714
  159.593    5.565   26.725    0.292    0.301  740.266
  160.413    5.598   23.250    0.311    0.314  985.193
  161.234    5.607   31.808    0.286    0.287 1042.250
  162.054    5.608   41.527    0.297    0.302  763.344
  162.874    5.594   55.947    0.301    0.303  187.346
  163.694    5.556   44.554    0.305    0.325  143.681
  164.514    5.518   40.212    0.259    0.346  186.022
  165.335    5.512   35.272    0.232    0.360  332.218
  166.155    5.490   40.888    0.275    0.345  311.935
  166.975    5.514   46.510    0.306    0.312  323.865
  167.795    5.601   50.367    0.306    0.306  269.789
  168.615    5.619   43.675    0.376    0.310  220.652
  169.436    5.612   37.562    0.372    0.301  310.298
  170.256    5.660   39.667    0.382    0.282  273.135
  171.076    5.607   27.401    0.399    0.291  288.915
  171.896    5.655   30.678    0.413    0.305  406.295
  172.717    5.680   31.013    0.403    0.309  530.948
  173.537    5.665   32.239    0.408    0.328  610.030
  174.357    5.628   23.196    0.387    0.311  669.425
  175.177    5.637   29.991    0.378    0.316  688.941
  175.997    5.638   25.343    0.386    0.302  640.879
  176.818    5.710   29.500    0.358    0.309  635.684
  177.638    5.774   28.083    0.342    0.301  642.053
  178.458    5.767   31.061    0.339    0.307  648.742
  179.278    5.768   30.230    0.356    0.313  643.483
  180.098    5.840   37.317    0.367    0.314  598.435
  180.919    5.880   36.193    0.361    0.318  546.481
  181.739    5.882   37.706    0.374    0.318  542.193
  182.559    5.852   37.168    0.377    0.306  542.618
  183.379    5.830   32.239    0.374    0.298  518.801
  184.199    5.799   36.970    0.356    0.301  509.889
  185.020    5.879   31.450    0.356    0.303  510.557
  185.840    5.826   36.187    0.345    0.311  515.673
  186.660    5.850   38.591    0.363    0.325  535.534
  187.480    5.922   39.817    0.376    0.316  598.573
  188.301    5.892   38.394    0.374    0.312  582.912
  189.121    5.760   41.079    0.365    0.311  199.165
  189.941    5.754   37.311    0.375    0.319  113.826
  190.761    5.661   48.795    0.384    0.303  190.622
  191.581    5.725   41.217    0.417    0.313  270.541
  192.402    5.742   29.542    0.407    0.297  457.251
  193.222    5.735   30.768    0.398    0.315  619.903
  194.042    5.737   33.741    0.397    0.325  725.441
  194.862    5.699   31.444    0.384    0.306  864.689
  195.682    5.747   35.900    0.376    0.328  966.474
  196.503    5.749   33.891    0.371    0.329 1003.960
  197.323    5.679   33.352    0.369    0.308  995.821
  198.143    5.681   33.693    0.388    0.323  926.109
  198.963    5.573   36.965    0.410    0.325  869.338
  199.783    5.636   41.121    0.391    0.322  838.851
  200.604    5.638   35.888    0.375    0.315  817.009
  201.424    5.717   29.782    0.375    0.313  817.758
  202.244    5.734   26.905    0.393    0.319  857.203
  203.064    5.704   35.153    0.362    0.329  949.222
  203.885    5.698   36.086    0.369    0.314 1032.390
  204.705    5.675   40.822    0.372    0.312  423.771
  205.525    5.692   46.151    0.358    0.296  296.437
  206.345    5.733   58.215    0.359    0.286   93.235
  207.165    5.758   54.453    0.368    0.276  136.040
  207.986    5.759   36.325    0.394    0.301  252.047
  208.806    5.760   28.460    0.394    0.324  699.590
  209.626    5.761   27.336    0.387    0.308  681.375
  210.446    5.739   26.211    0.377    0.332  675.851
  211.266    5.702   25.380    0.420    0.310  670.284
  212.087    5.734   30.703    0.366    0.305  646.862
  212.907    5.727   29.584    0.360    0.316  703.444
  213.727    5.674   32.856    0.364    0.298  704.180
  214.547    5.714   34.662    0.377    0.298  698.471
  215.367    5.747   27.964    0.363    0.320  712.168
  216.188    5.756   32.719    0.356    0.327  719.492
  217.008    5.695   36.277    0.371    0.304  694.260
  217.828    5.634   29.579    0.357    0.302  727.654
  218.648    5.604   27.868    0.355    0.306  640.508
  219.469    5.581   27.336    0.373    0.304  647.011
  220.289    5.575   22.689    0.349    0.309  845.406
  221.109    5.608   18.927    0.352    0.312  919.235
  221.929    5.672   24.543    0.350    0.287  724.687
  222.749    5.704   24.304    0.350    0.303  661.772
  223.570    5.658   24.639    0.333    0.294  739.671
  224.390    5.675   24.100    0.371    0.300  811.688
  225.210    5.684   30.015    0.362    0.292  797.745
  226.030    5.654   35.925    0.353    0.295  695.784
  226.850    5.617   25.715    0.359    0.285  836.992
  227.671    5.602   25.476    0.373    0.301 1006.990
  228.491    5.596   30.799    0.363    0.300 1065.170
  229.311    5.597   33.484    0.395    0.340  479.358
  230.131    5.614   37.049    0.409    0.348  392.102
  230.951    5.615   30.362    0.360    0.327  650.554
  231.772    5.632   29.232    0.386    0.290 1161.830
  232.592    5.641   32.504    0.372    0.289  915.937
  233.412    5.643   32.264    0.373    0.312  742.264
  234.232    5.644   31.427    0.373    0.308  647.309
  235.052    5.645   33.233    0.356    0.290  544.276
  235.873    5.647   30.057    0.363    0.293  730.947
  236.693    5.663   32.163    0.352    0.298  824.851
  237.513    5.633   36.906    0.353    0.308  803.060
  238.333    5.619   36.361    0.352    0.314  857.294
  239.154    5.620   30.548    0.357    0.312  819.664
  239.974    5.621   27.958    0.371    0.298  708.270
  240.794    5.623   24.190    0.365    0.306 1208.120
  241.614    5.616   22.486    0.356    0.306 1289.880
  242.434    5.578   34.262    0.346    0.316 1315.000
  243.255    5.596   35.189    0.357    0.321 1497.240
  244.075    5.597   27.617    0.361    0.284 1317.920
  244.895    5.575   22.677    0.323    0.287 1500.380
  245.715    5.623   24.190    0.299    0.287 1370.120
  246.535    5.624   28.933    0.282    0.257  741.054
  247.356    5.641   37.187    0.313    0.231  327.425
  248.176    5.658   46.912    0.367    0.245  210.894
  248.996    5.643   39.633    0.393    0.278  170.906
  249.816    5.653   36.164    0.422    0.299  149.042
  250.636    5.662   38.263    0.399    0.305  131.227
  251.457    5.593   48.275    0.424    0.318  128.939
  252.277    5.571   45.979    0.392    0.309   97.983
  253.097    5.572   45.441    0.397    0.322  130.401
  253.917    5.620   58.682    0.391    0.268   99.094
  254.738    5.629   65.183    0.390    0.223   42.599
  255.558    5.552   46.469    0.455    0.255   66.284
  256.378    5.561   38.305    0.472    0.318  130.948
  257.198    5.578   51.254    0.394    0.312  104.187
  258.018    5.525   37.821    0.421    0.312  225.660
  258.839    5.511   26.733    0.457    0.334  317.382
  259.659    5.559   30.584    0.425    0.333  274.285
  260.479    5.513   32.103    0.412    0.325  114.690
  261.299    5.483   34.496    0.412    0.311  133.024
  262.119    5.531   31.027    0.393    0.324  197.643
  262.940    5.478   28.138    0.396    0.308  177.199
  263.760    5.550   22.624    0.401    0.317  322.328
  264.580    5.520   22.666    0.410    0.314  529.969
  265.400    5.490   22.720    0.385    0.334  429.424
  266.220    5.491   27.749    0.407    0.354  208.019
  267.041    5.476   30.142    0.412    0.336  173.286
  267.861    5.478   29.017    0.407    0.334   71.805
  268.681    5.479   36.105    0.420    0.327   61.487
