~VERSION INFORMATION
 VERS.                 2.0:   CWLS LOG ASCII STANDARD -VERSION 2.0
 WRAP.                  NO:   ONE LINE PER DEPTH STEP
~WELL INFORMATION BLOCK
#MNEM.UNIT           DATA                    DESCRIPTION OF MNEMONIC
#---------    -------------------            -------------------------------
# Generated from Intellog Unique Number	CN_94_101/WELL/5003
WELL.         10-15-097-06W4                 : Well_name    - WELL
LOC .         AA/10-15-097-06W4/0            : Location     - LOCATION
UWI .         AA/10-15-097-06W400            : Uwi          - UNIQUE WELL ID
ENTR.         JOETTE                         : Entered      - ENTERED BY
SRVC.         SCHLUMBERGER                   : Scn          - SERVICE COMPANY
DATE.         08/11/92                       : Date         - LOG DATE
STRT.M        0                              : top_depth    - START DEPTH
STOP.M        75                             : bot_depth    - STOP DEPTH
STEP.M        0.25                           : increment    - STEP LENGTH
 NULL. -999.2500:NULL Value
~CURVE INFORMATION BLOCK
#MNEM UNIT       ERCB CURVE CODE    CURVE DESCRIPTION
#-----------   ------------------   ----------------------------------
DEPT.M        00 001 00 00         : DEPTH        - DEPTH
ILD .OHMM     00 120 00 00         : RESD         - DEEP RESISTIVITY (DIL)
DPHI.V/V      00 890 00 00         : PHID         - DENSITY POROSITY (SANDSTONE)
NPHI.V/V      00 330 00 00         : PHIN         - NEUTRON POROSITY (SANDSTONE)
GR  .API      00 310 00 00         : GR           - GAMMA RAY
~PARAMETER INFORMATION
#MNEM.UNIT           DATA             DESCRIPTION OF MNEMONIC
#---------         -----------     ------------------------------
GL  .M        367.9                : gl           - GROUND LEVEL ELEVATION
EREF.M        367.9                : kb           - ELEVATION OF DEPTH REFERENCE
DATM.M        367.9                : datum        - DATUM ELEVATION
TDD .M        78.6                 : tdd          - TOTAL DEPTH DRILLER
RUN .         ONE                  : Run          - RUN NUMBER
ENG .         BILL                 : Engineer     - RECORDING ENGINEER
WIT .         JIM                  : Witness      - WITNESSED BY
MUD .         GEL                  : Mud_type     - MUD TYPE
MATR.         SANDSTONE            : Logunit      - NEUTRON MATRIX
TMAX.C        10                   : BHT          - MAXIMUM RECORDED TEMPERATURE
BHTD.M        78.6                 : BHTDEP       - MAXIMUM RECORDED TEMPERATURE
RMT .C        10                   : MDTP         - TEMPERATURE OF MUD
MUDD.KG/M     1090                 : MWT          - MUD DENSITY
NEUT.         1                    : NEUTRON      - NEUTRON TYPE
RESI.         0                    : RESIST       - RESISTIVITY TYPE
RM  .OHMM     13.1                 : RM           - RESISTIVITY OF MUD
RMC .OHMM     13.1                 : RMC          - RESISTIVITY OF MUD CAKE
RMF .OHMM     13.1                 : RMF          - RESISTIVITY OF MUD FILTRATE
SUFT.C        4                    : SUFT         - SURFACE TEMPERATURE
~A  DEPTH     RESD     PHID     PHIN       GR
# ...
   43.500 2415.380    0.307    0.372   48.311
   43.750 2483.750    0.317    0.375   49.520
   44.000 2553.730    0.311    0.405   55.545
   44.250 2700.840    0.301    0.400   60.365
   44.500 3107.420    0.307    0.393   55.553
   44.750 3476.170    0.313    0.408   48.935
   45.000 3834.420    0.319    0.408   44.724
   45.250 3833.480    0.317    0.377   41.718
   45.500 3572.140    0.312    0.355   40.519
   45.750 3282.990    0.309    0.342   43.533
   46.000 2621.490    0.315    0.386   52.568
   46.250 2375.400    0.325    0.421   54.982
   46.500 2122.370    0.329    0.446   60.404
   46.750 1843.770    0.316    0.436   68.236
   47.000 1670.680    0.310    0.404   65.229
   47.250 1623.800    0.316    0.422   95.940
   47.500 1669.860    0.275    0.430   85.709
   47.750 1816.260    0.262    0.380   62.835
   48.000 2031.790    0.277    0.377   56.216
   48.250 2845.720    0.281    0.403   50.200
   48.500 3767.930    0.295    0.428   44.183
   48.750 4156.260    0.293    0.399   38.769
   49.000 4649.170    0.304    0.347   39.977
   49.250 4780.180    0.311    0.336   39.380
   49.500 4847.210    0.304    0.369   39.989
   49.750 4914.270    0.303    0.379   40.593
   50.000 4982.870    0.301    0.359   40.597
   50.250 4981.340    0.293    0.349   38.794
   50.500 4980.110    0.295    0.348   41.810
   50.750 4979.190    0.293    0.320   38.202
   51.000 4907.930    0.287    0.311   38.206
   51.250 4771.360    0.287    0.309   39.415
   51.500 4573.340    0.299    0.335   40.021
   51.750 3972.990    0.293    0.343   40.626
   52.000 3500.280    0.289    0.318   42.437
   52.250 2998.380    0.286    0.315   47.861
   52.500 2532.620    0.288    0.369   46.661
   52.750 2079.940    0.291    0.405   50.879
   53.000 1463.600    0.300    0.407   86.405
   53.250 1074.230    0.302    0.424   61.122
   53.500 2676.360    0.289    0.549   42.462
   53.750 2830.190    0.290    0.497   52.100
   54.000 2424.520    0.281    0.370   59.932
   54.250 1288.190    0.275    0.381   53.312
   54.500  765.797    0.299    0.355   44.888
   54.750 1087.750    0.287    0.381   71.985
   55.000 1545.150    0.286    0.417   90.052
   55.250 2866.170    0.295    0.435   77.412
   55.500 4685.170    0.296    0.398   61.161
   55.750 5168.030    0.294    0.377   50.328
   56.000 5388.490    0.294    0.361   43.107
   56.250 5464.050    0.297    0.354   37.694
   56.500 5539.300    0.302    0.378   34.687
   56.750 5538.280    0.311    0.387   37.099
   57.000 5537.260    0.322    0.373   40.115
   57.250 5458.670    0.327    0.375   40.721
   57.500 5231.470    0.330    0.402   41.328
   57.750 5157.870    0.330    0.405   41.331
   58.000 5229.220    0.287    0.412   40.131
   58.250 5452.630    0.280    0.412   38.329
   58.500 5529.090    0.290    0.377   43.753
   58.750 5605.590    0.301    0.330   47.973
   59.000 5604.550    0.314    0.354   44.967
   59.250 5525.010    0.307    0.381   41.358
   59.500 5295.380    0.296    0.409   38.352
   59.750 5147.410    0.301    0.325   36.551
   60.000 5218.940    0.299    0.318   36.554
   60.250 5366.000    0.277    0.320   35.355
   60.500 5518.220    0.281    0.294   35.359
   60.750 5674.060    0.299    0.288   36.567
   61.000 5672.310    0.291    0.298   37.775
   61.250 5670.920    0.292    0.302   38.382
   61.500 5435.560    0.299    0.294   38.987
   61.750 4925.280    0.284    0.288   43.206
   62.000 4278.740    0.151    0.291   54.048
   62.250 3053.430    0.092    0.436   81.747
   62.500 2179.010    0.125    0.502  108.244
   62.750 1079.220    0.157    0.552  119.084
   63.000  606.550    0.171    0.575  140.161
   63.250  409.200    0.180    0.605  149.798
   63.500  264.652    0.183    0.628  146.792
   63.750  109.184    0.155    0.612  142.582
   64.000  113.870    0.113    0.565  135.964
   64.250  123.853    0.056    0.513  114.293
   64.500  140.510    0.043    0.482  107.073
   64.750  159.408    0.029    0.449  104.067
   65.000  191.299    0.016    0.411   97.448
   65.250  152.754    0.005    0.384   73.972
   65.500  157.068    0.002    0.258   61.934
   65.750  178.192    0.038    0.183   57.122
   66.000  199.325    0.049    0.257   79.404
   66.250  185.771    0.124    0.231   76.999
   66.500  165.983    0.146    0.232  118.547
   66.750  142.183    0.158    0.283  113.133
   67.000  123.519    0.019    0.346   94.473
   67.250  118.392    0.018    0.421   75.211
   67.500  216.548    0.049    0.306   66.183
   67.750  303.296    0.057    0.259   85.455
   68.000  190.736    0.067    0.389   92.083
   68.250  156.644    0.057    0.373   96.302
   68.500  137.997    0.040    0.336   75.232
   68.750  134.133    0.046    0.289   74.032
   69.000  134.108    0.051    0.368   88.486
   69.250  135.980    0.053    0.416   95.716
   69.500  135.947    0.052    0.408   91.506
   69.750  139.786    0.044    0.380   81.274
   70.000  141.729    0.036    0.354   84.289
   70.250  143.690    0.040    0.324   88.508
   70.500  143.654    0.042    0.346   87.309
   70.750  143.628    0.042    0.353   84.302
   71.000  145.624    0.040    0.329   80.694
   71.250  145.561    0.040    0.333   80.698
   71.500  145.543    0.042    0.356   84.917
   71.750  145.517    0.051    0.339   93.350
   72.000  145.463    0.069    0.370   95.762
   72.250  145.427    0.105    0.392  102.992
   72.500  145.400    0.109    0.450  106.608
   72.750  145.355    0.079    0.500   96.377
   73.000  145.329    0.065    0.529   86.748
   73.250  145.302    0.051    0.509   79.528
   73.500  141.233    0.046    0.355   78.329
   73.750  137.286    0.043    0.334   81.344
   74.000  133.442    0.039    0.314   88.572
   74.250  127.904    0.036    0.347   86.168
   74.500  124.337    0.054    0.376   84.366
   74.750  120.863    0.053    0.389   90.392
   75.000  117.485    0.057    0.368   92.804
