~VERSION INFORMATION
 VERS.                 2.0:   CWLS LOG ASCII STANDARD -VERSION 2.0
 WRAP.                  NO:   ONE LINE PER DEPTH STEP
~WELL INFORMATION BLOCK
#MNEM.UNIT           DATA                    DESCRIPTION OF MNEMONIC
#---------    -------------------            -------------------------------
# Generated from Intellog Unique Number	CN_94_101/WELL/4474
WELL.         11-27-096-14W4                 : Well_name    - WELL
LOC .         AA/11-27-096-14W4/0            : Location     - LOCATION
UWI .         AA/11-27-096-14W400            : Uwi          - UNIQUE WELL ID
ENTR.         JOETTE                         : Entered      - ENTERED BY
SRVC.         SCHLUMBERGER                   : Scn          - SERVICE COMPANY
DATE.         07/08/92                       : Date         - LOG DATE
STRT.M        75                             : top_depth    - START DEPTH
STOP.M        350                            : bot_depth    - STOP DEPTH
STEP.M        0.25                           : increment    - STEP LENGTH
 NULL. -999.2500:NULL Value
~CURVE INFORMATION BLOCK
#MNEM UNIT       ERCB CURVE CODE    CURVE DESCRIPTION
#-----------   ------------------   ----------------------------------
DEPT.M        00 001 00 00         : DEPTH        - DEPTH
GR  .API      00 310 00 00         : GR           - GAMMA RAY
ILD .OHMM     00 120 00 00         : RESD         - DEEP RESISTIVITY (DIL)
NPHI.V/V      00 330 00 00         : PHIN         - NEUTRON POROSITY (SANDSTONE)
DPHI.V/V      00 890 00 00         : PHID         - DENSITY POROSITY (SANDSTONE)
~PARAMETER INFORMATION
#MNEM.UNIT           DATA             DESCRIPTION OF MNEMONIC
#---------         -----------     ------------------------------
GL  .M        598                  : gl           - GROUND LEVEL ELEVATION
EREF.M        601                  : kb           - ELEVATION OF DEPTH REFERENCE
DATM.M        601                  : datum        - DATUM ELEVATION
TDD .M        354                  : tdd          - TOTAL DEPTH DRILLER
RUN .         ONE                  : Run          - RUN NUMBER
ENG .         BILL                 : Engineer     - RECORDING ENGINEER
WIT .         JIM                  : Witness      - WITNESSED BY
MUD .         GEL                  : Mud_type     - MUD TYPE
MATR.         SANDSTONE            : Logunit      - NEUTRON MATRIX
TMAX.C        25                   : BHT          - MAXIMUM RECORDED TEMPERATURE
BHTD.M        354                  : BHTDEP       - MAXIMUM RECORDED TEMPERATURE
RMT .C        14                   : MDTP         - TEMPERATURE OF MUD
MUDD.KG/M     1155                 : MWT          - MUD DENSITY
NEUT.         1                    : NEUTRON      - NEUTRON TYPE
RESI.         0                    : RESIST       - RESISTIVITY TYPE
RM  .OHMM     0.2                  : RM           - RESISTIVITY OF MUD
RMC .OHMM     0.2                  : RMC          - RESISTIVITY OF MUD CAKE
RMF .OHMM     0.2                  : RMF          - RESISTIVITY OF MUD FILTRATE
SUFT.C        4                    : SUFT         - SURFACE TEMPERATURE
~A  DEPTH       GR     RESD     PHIN     PHID
# ...
  205.500  114.430    3.724    0.456    0.202
  205.750  114.426    3.723    0.454    0.233
  206.000  114.423    3.720    0.454    0.251
  206.250  114.421    3.719    0.452    0.264
  206.500  111.958    3.649    0.446    0.270
  206.750  109.497    3.648    0.439    0.271
  207.000  109.492    3.647    0.439    0.271
  207.250  111.333    3.645    0.446    0.270
  207.500  112.559    3.576    0.449    0.270
  207.750  111.327    3.443    0.455    0.274
  208.000  110.094    3.443    0.459    0.276
  208.250  109.476    3.315    0.466    0.279
  208.500  109.473    3.313    0.474    0.280
  208.750  108.855    3.312    0.480    0.279
  209.000  108.852    3.311    0.485    0.275
  209.250  108.234    3.310    0.490    0.269
  209.500  106.386    3.309    0.492    0.265
  209.750  105.769    3.307    0.495    0.265
  210.000  104.535    3.306    0.495    0.268
  210.250  103.917    3.304    0.487    0.270
  210.500  103.915    3.303    0.462    0.274
  210.750  103.910    3.302    0.456    0.275
  211.000  104.522    3.240    0.443    0.274
  211.250  105.749    3.179    0.434    0.268
  211.500  106.975    3.060    0.444    0.261
  211.750  104.513    2.948    0.471    0.250
  212.000  102.050    2.838    0.476    0.214
  212.250  101.432    2.785    0.472    0.155
  212.500  102.045    2.681    0.480    0.185
  212.750  105.114    2.631    0.495    0.235
  213.000  108.798    2.581    0.507    0.278
  213.250  111.254    2.580    0.508    0.276
  213.500  111.250    2.531    0.500    0.260
  213.750  110.632    2.530    0.492    0.243
  214.000  110.014    2.482    0.487    0.259
  214.250  109.395    2.481    0.491    0.274
  214.500  109.394    2.480    0.491    0.278
  214.750  109.389    2.479    0.491    0.281
  215.000  109.386    2.479    0.491    0.284
  215.250  109.383    2.477    0.490    0.285
  215.500  109.379    2.477    0.485    0.288
  215.750  109.377    2.476    0.476    0.288
  216.000  108.757    2.521    0.470    0.286
  216.250  108.140    2.521    0.461    0.285
  216.500  108.137    2.520    0.453    0.285
  216.750  108.135    2.566    0.480    0.289
  217.000  108.131    2.614    0.491    0.300
  217.250  108.127    2.613    0.500    0.298
  217.500  107.509    2.612    0.500    0.290
  217.750  105.661    2.660    0.496    0.288
  218.000  104.429    2.709    0.486    0.288
  218.250  103.812    2.758    0.480    0.289
  218.500  103.194    2.758    0.474    0.290
  218.750  102.576    2.757    0.462    0.295
  219.000  101.342    2.808    0.437    0.301
  219.250   99.494    2.860    0.421    0.303
  219.500   98.878    2.913    0.400    0.303
  219.750   97.030    2.967    0.388    0.305
  220.000   96.411    3.021    0.386    0.300
  220.250   97.023    3.135    0.396    0.285
  220.500   99.479    3.193    0.412    0.285
  220.750  101.934    3.314    0.413    0.288
  221.000  101.931    3.503    0.411    0.280
  221.250  100.698    4.995    0.410    0.269
  221.500   98.235    5.691    0.410    0.259
  221.750   96.389    5.689    0.412    0.246
  222.000   92.697    5.582    0.411    0.231
  222.250   89.621    5.476    0.407    0.221
  222.500   89.003    5.474    0.401    0.218
  222.750   89.614    5.680    0.396    0.248
  223.000   89.610    5.895    0.393    0.254
  223.250   88.993    6.232    0.401    0.269
  223.500   85.300    6.714    0.406    0.282
  223.750   84.069    6.967    0.402    0.294
  224.000   79.762    7.365    0.387    0.295
  224.250   78.531    7.502    0.361    0.260
  224.500   77.912    7.784    0.350    0.210
  224.750   77.909    7.781    0.398    0.202
  225.000   79.135    7.926    0.415    0.262
  225.250   81.590    7.921    0.415    0.312
  225.500   82.816    8.068    0.411    0.325
  225.750   84.043    8.065    0.407    0.330
  226.000   85.884    8.062    0.402    0.313
  226.250   89.567    8.060    0.406    0.291
  226.500   92.023    8.057    0.416    0.281
  226.750   93.249    7.904    0.425    0.281
  227.000   95.088    7.902    0.432    0.283
  227.250   95.700    7.608    0.435    0.284
  227.500   96.312    7.465    0.435    0.286
  227.750   95.080    7.055    0.435    0.284
  228.000   95.075    6.543    0.436    0.282
  228.250   95.073    6.302    0.437    0.277
  228.500   96.914    5.737    0.440    0.276
  228.750   98.753    5.421    0.440    0.276
  229.000   98.750    5.221    0.441    0.280
  229.250   98.133    4.843    0.445    0.280
  229.500   98.130    4.578    0.448    0.271
  229.750   99.356    4.408    0.455    0.257
  230.000  103.655    4.165    0.463    0.240
  230.250  104.265    4.011    0.471    0.210
  230.500  101.805    4.010    0.464    0.193
  230.750  101.801    3.861    0.467    0.219
  231.000  104.870    3.859    0.478    0.230
  231.250  107.326    3.858    0.489    0.246
  231.500  109.166    3.785    0.497    0.271
  231.750  109.777    3.784    0.507    0.282
  232.000  109.774    3.783    0.510    0.286
  232.250  110.384    3.853    0.502    0.288
  232.500  110.383    3.851    0.477    0.290
  232.750  110.379    3.849    0.463    0.292
  233.000  109.147    3.848    0.457    0.295
  233.250  108.530    3.846    0.460    0.293
  233.500  106.682    3.774    0.456    0.286
  233.750  103.606    3.703    0.451    0.280
  234.000   99.299    3.701    0.444    0.270
  234.250   97.451    3.769    0.432    0.267
  234.500   97.448    3.912    0.420    0.271
  234.750   98.059    4.293    0.434    0.272
  235.000   98.056    4.800    0.446    0.280
  235.250   95.593    5.076    0.441    0.283
  235.500   93.747    5.268    0.432    0.288
  235.750   91.285    5.466    0.424    0.298
  236.000   89.437    5.566    0.415    0.301
  236.250   89.434    5.565    0.401    0.297
  236.500   91.274    5.562    0.396    0.302
  236.750   91.887    5.560    0.447    0.316
  237.000   92.497    5.558    0.467    0.326
  237.250   91.880    5.556    0.437    0.294
  237.500   88.802    5.554    0.431    0.280
  237.750   86.957    5.449    0.420    0.248
  238.000   83.265    5.345    0.410    0.218
  238.250   85.105    5.344    0.419    0.260
  238.500   88.176    5.243    0.426    0.269
  238.750   91.246    5.144    0.431    0.280
  239.000   95.544    5.142    0.435    0.276
  239.250   96.770    5.045    0.438    0.271
  239.500   94.923    4.949    0.441    0.277
  239.750   92.461    4.948    0.444    0.282
  240.000   91.843    4.946    0.446    0.287
  240.250   91.840    4.852    0.450    0.294
  240.500   92.450    4.850    0.454    0.302
  240.750   93.063    4.849    0.451    0.343
  241.000   93.674    4.847    0.445    0.342
  241.250   94.285    4.844    0.440    0.331
  241.500   95.511    4.754    0.438    0.325
  241.750   96.121    4.752    0.444    0.328
  242.000   97.348    4.662    0.451    0.318
  242.250   98.574    4.574    0.461    0.311
  242.500   98.571    4.572    0.466    0.317
  242.750   96.109    4.485    0.457    0.307
  243.000   95.491    4.401    0.446    0.302
  243.250   96.102    4.399    0.429    0.307
  243.500   98.556    4.398    0.420    0.312
  243.750   99.784    4.314    0.428    0.285
  244.000  104.083    4.233    0.443    0.274
  244.250  109.612    4.230    0.461    0.271
  244.500  117.599    4.230    0.461    0.270
  244.750  121.283    4.228    0.456    0.268
  245.000  123.124    4.226    0.460    0.269
  245.250  122.506    4.225    0.464    0.273
  245.500  120.043    4.223    0.460    0.270
  245.750  118.812    4.222    0.459    0.259
  246.000  115.735    4.220    0.456    0.247
  246.250  114.502    4.140    0.456    0.240
  246.500  115.113    4.138    0.458    0.240
  246.750  115.725    3.985    0.458    0.241
  247.000  118.180    3.983    0.460    0.239
  247.250  118.792    3.908    0.461    0.237
  247.500  119.403    3.906    0.463    0.229
  247.750  118.170    3.906    0.461    0.221
  248.000  116.938    3.831    0.459    0.214
  248.250  115.089    3.831    0.455    0.211
  248.500  114.472    3.829    0.447    0.217
  248.750  113.238    3.827    0.442    0.229
