~VERSION INFORMATION
 VERS.                 2.0:   CWLS LOG ASCII STANDARD -VERSION 2.0
 WRAP.                  NO:   ONE LINE PER DEPTH STEP
~WELL INFORMATION BLOCK
#MNEM.UNIT           DATA                    DESCRIPTION OF MNEMONIC
#---------    -------------------            -------------------------------
# Generated from Intellog Unique Number	CN_94_101/WELL/5022
WELL.         11-26-099-15W4                 : Well_name    - WELL
LOC .         AA/11-26-099-15W4/0            : Location     - LOCATION
UWI .         AA/11-26-099-15W400            : Uwi          - UNIQUE WELL ID
ENTR.         TIM                            : Entered      - ENTERED BY
SRVC.         SCHLUMBERGER                   : Scn          - SERVICE COMPANY
DATE.         08/13/92                       : Date         - LOG DATE
STRT.M        275                            : top_depth    - START DEPTH
STOP.M        485                            : bot_depth    - STOP DEPTH
STEP.M        0.25                           : increment    - STEP LENGTH
 NULL. -999.2500:NULL Value
~CURVE INFORMATION BLOCK
#MNEM UNIT       ERCB CURVE CODE    CURVE DESCRIPTION
#-----------   ------------------   ----------------------------------
DEPT.M        00 001 00 00         : DEPTH        - DEPTH
GR  .API      00 310 00 00         : GR           - GAMMA RAY
ILD .OHMM     00 120 00 00         : RESD         - DEEP RESISTIVITY (DIL)
NPHI.V/V      00 330 00 00         : PHIN         - NEUTRON POROSITY (SANDSTONE)
DPHI.V/V      00 890 00 00         : PHID         - DENSITY POROSITY (SANDSTONE)
~PARAMETER INFORMATION
#MNEM.UNIT           DATA             DESCRIPTION OF MNEMONIC
#---------         -----------     ------------------------------
GL  .M        724.5                : gl           - GROUND LEVEL ELEVATION
EREF.M        727.9                : kb           - ELEVATION OF DEPTH REFERENCE
DATM.M        727.9                : datum        - DATUM ELEVATION
TDD .M        488                  : tdd          - TOTAL DEPTH DRILLER
RUN .         ONE                  : Run          - RUN NUMBER
ENG .         BILL                 : Engineer     - RECORDING ENGINEER
WIT .         JIM                  : Witness      - WITNESSED BY
MUD .         GEL                  : Mud_type     - MUD TYPE
MATR.         SANDSTONE            : Logunit      - NEUTRON MATRIX
TMAX.C        28                   : BHT          - MAXIMUM RECORDED TEMPERATURE
BHTD.M        488                  : BHTDEP       - MAXIMUM RECORDED TEMPERATURE
RMT .C        10                   : MDTP         - TEMPERATURE OF MUD
MUDD.KG/M     1140                 : MWT          - MUD DENSITY
NEUT.         1                    : NEUTRON      - NEUTRON TYPE
RESI.         0                    : RESIST       - RESISTIVITY TYPE
RM  .OHMM     1.08                 : RM           - RESISTIVITY OF MUD
RMC .OHMM     1.08                 : RMC          - RESISTIVITY OF MUD CAKE
RMF .OHMM     1.08                 : RMF          - RESISTIVITY OF MUD FILTRATE
SUFT.C        4                    : SUFT         - SURFACE TEMPERATURE
~A  DEPTH       GR     RESD     PHIN     PHID
# ...
  449.000   86.524   13.202    0.424    0.296
  449.250   87.126   12.999    0.425    0.298
  449.500   89.555   12.797    0.425    0.299
  449.750   91.379   11.997    0.421    0.300
  450.000   93.197   11.198    0.419    0.295
  450.250   95.015   10.399    0.417    0.288
  450.500   95.620    9.799    0.419    0.277
  450.750   97.441    9.398    0.421    0.273
  451.000  100.481    9.197    0.429    0.271
  451.250  102.917    9.193    0.441    0.275
  451.500  105.961    9.388    0.453    0.277
  451.750  102.279   10.179    0.462    0.279
  452.000   96.763   10.970    0.474    0.285
  452.250   93.078   10.767    0.474    0.290
  452.500   91.227    9.372    0.446    0.291
  452.750   90.605    8.175    0.432    0.292
  453.000   87.535    8.965    0.467    0.290
  453.250   83.241    9.758    0.484    0.285
  453.500   77.113   18.496    0.455    0.280
  453.750   71.597   19.884    0.428    0.272
  454.000   70.966   20.476    0.422    0.266
  454.250   73.398   22.260    0.403    0.264
  454.500   76.439   23.646    0.383    0.270
  454.750   78.878   24.239    0.388    0.276
  455.000   82.524   25.228    0.392    0.281
  455.250   83.740   25.622    0.394    0.285
  455.500   84.953   25.617    0.395    0.290
  455.750   84.936   25.615    0.397    0.293
  456.000   85.534   25.810    0.398    0.293
  456.250   86.744   26.401    0.401    0.292
  456.500   89.177   27.390    0.406    0.289
  456.750   89.775   27.785    0.414    0.284
  457.000   89.144   28.576    0.416    0.277
  457.250   88.525   29.367    0.412    0.283
  457.500   84.843   30.158    0.411    0.292
  457.750   81.773   31.744    0.409    0.304
  458.000   82.983   32.932    0.402    0.301
  458.250   87.861   34.121    0.394    0.298
  458.500   96.408   35.309    0.392    0.295
  458.750   93.949   37.292    0.397    0.295
  459.000   85.984   39.473    0.404    0.297
  459.250   79.856   40.861    0.409    0.298
  459.500   76.785   43.242    0.415    0.300
  459.750   76.769   44.826    0.416    0.303
  460.000   76.144   46.412    0.414    0.304
  460.250   77.353   47.799    0.407    0.306
  460.500   79.789   47.795    0.403    0.307
  460.750   84.053   47.792    0.403    0.311
  461.000   81.594   46.992    0.403    0.313
  461.250   78.527   45.995    0.403    0.317
  461.500   74.844   45.991    0.403    0.318
  461.750   70.548   45.591    0.404    0.318
  462.000   68.089   30.883    0.404    0.317
  462.250   70.521   28.892    0.399    0.309
  462.500   83.349   26.901    0.380    0.303
  462.750   87.615   24.513    0.379    0.297
  463.000   94.940   23.117    0.385    0.290
  463.250   91.869   22.718    0.392    0.290
  463.500   88.187   22.316    0.402    0.294
  463.750   90.008   21.716    0.406    0.295
  464.000   94.275   20.520    0.392    0.294
  464.250   99.762   18.925    0.389    0.290
  464.500  104.032   17.730    0.388    0.288
  464.750  108.907   17.924    0.388    0.283
  465.000  107.668   18.715    0.391    0.280
  465.250   94.814   18.513    0.395    0.275
  465.500   92.358   20.895    0.401    0.271
  465.750   79.497   25.461    0.406    0.274
  466.000   76.433   26.649    0.401    0.278
  466.250   69.083   24.260    0.396    0.292
  466.500   62.337   22.269    0.390    0.309
  466.750   64.158   20.475    0.385    0.318
  467.000   65.982   20.672    0.383    0.323
  467.250   70.246   21.461    0.387    0.324
  467.500   72.067   21.857    0.389    0.325
  467.750   73.277   22.846    0.393    0.325
  468.000   76.929   24.035    0.394    0.325
  468.250   78.145   25.819    0.395    0.325
  468.500   83.024   30.783    0.392    0.325
  468.750   95.236   36.939    0.384    0.324
  469.000  100.118   37.331    0.376    0.324
  469.250  106.831   35.937    0.370    0.326
  469.500  114.155   32.754    0.375    0.326
  469.750  119.033   27.981    0.382    0.320
  470.000  122.685   24.004    0.388    0.312
  470.250  117.777   20.225    0.394    0.316
  470.500  112.264   16.645    0.396    0.317
  470.750  104.913   12.070    0.396    0.318
  471.000   98.782   10.874    0.397    0.318
  471.250   96.323    9.479    0.397    0.317
  471.500   94.475    8.481    0.393    0.314
  471.750   90.182   10.267    0.387    0.314
  472.000   80.997   11.653    0.383    0.316
  472.250   75.477   13.239    0.383    0.317
  472.500   74.852   15.421    0.383    0.320
  472.750   74.843   17.007    0.383    0.323
  473.000   76.049   18.593    0.383    0.325
  473.250   77.262   21.967    0.383    0.326
  473.500   79.080   24.745    0.381    0.327
  473.750   81.509   36.265    0.380    0.331
  474.000   82.722   39.043    0.381    0.333
  474.250   83.928   40.230    0.382    0.337
  474.500   83.915   40.425    0.382    0.336
  474.750   82.682   40.620    0.375    0.333
  475.000   79.611   40.418    0.370    0.328
  475.250   77.152   39.818    0.370    0.327
  475.500   72.247   40.410    0.374    0.322
  475.750   69.788   42.392    0.376    0.318
  476.000   71.606   43.781    0.373    0.315
  476.250   67.921   44.969    0.373    0.313
  476.500   64.242   45.164    0.379    0.314
  476.750   59.949   44.167    0.375    0.328
  477.000   58.709   39.592    0.373    0.328
  477.250   59.919   38.396    0.374    0.324
  477.500   61.740   38.591    0.377    0.320
  477.750   62.338   39.581    0.379    0.314
  478.000   62.328   40.768    0.378    0.320
  478.250   61.089   41.560    0.377    0.329
  478.500   59.849   42.152    0.373    0.337
  478.750   59.224   41.155    0.372    0.342
  479.000   57.985   30.023    0.374    0.344
  479.250   56.755   25.450    0.374    0.344
  479.500   52.462   19.287    0.374    0.339
  479.750   47.557   18.488    0.377    0.333
  480.000   48.155   16.894    0.383    0.332
  480.250   49.365   15.897    0.385    0.336
  480.500   51.186   13.707    0.391    0.342
  480.750   54.227   12.511    0.395    0.347
  481.000   56.044   11.514    0.402    0.350
  481.250   56.643   11.113    0.406    0.354
  481.500   56.633   11.705    0.410    0.359
  481.750   56.619   14.085    0.416    0.362
  482.000   52.937   15.670    0.423    0.366
  482.250   50.478   15.070    0.421    0.361
  482.500   48.631   14.074    0.400    0.356
  482.750   46.783   10.493    0.370    0.338
  483.000   45.544    9.297    0.363    0.298
  483.250   46.753    9.095    0.339    0.116
  483.500   48.574    9.290    0.305    0.114
  483.750   51.007    9.683    0.271    0.110
  484.000   54.659   10.076    0.259    0.107
  484.250   57.703   10.469    0.251    0.103
  484.500   60.139   10.466    0.246    0.101
  484.750   62.571   10.463    0.244    0.097
  485.000   65.615   10.459    0.244    0.094
