~VERSION INFORMATION
 VERS.                 2.0:   CWLS LOG ASCII STANDARD -VERSION 2.0
 WRAP.                  NO:   ONE LINE PER DEPTH STEP
~WELL INFORMATION BLOCK
#MNEM.UNIT           DATA                    DESCRIPTION OF MNEMONIC
#---------    -------------------            -------------------------------
# Generated from Intellog Unique Number	CC_80_83/WELL/2365
NULL.         -999.25                        : NULL_VALUE
WELL.         PEX PCEJ HANGST OV             : Well_name    - WELL
LOC .         10-23-082-08W4                 : Location     - LOCATION          
UWI .         AA/10-23-082-08W4/0            : Uwi          - UNIQUE WELL ID    
ENTR.         DW                             : Entered      - ENTERED BY        
SRVC.         DRESSER ATLAS                  : Scn          - SERVICE COMPANY   
DATE.         29 FEB 80                      : Date         - LOG DATE
STRT.M        275                            : top_depth    - START DEPTH       
STOP.M        509.89                         : bot_depth    - STOP DEPTH        
STEP.M        0.3                            : increment    - STEP LENGTH       
~CURVE INFORMATION BLOCK
#MNEM UNIT       ERCB CURVE CODE    CURVE DESCRIPTION
#-----------   ------------------   ----------------------------------
DEPT.M        00 001 00 00         : DEPTH        - DEPTH                       
DPHI.V/V      00 890 00 00         : PHID         - DENSITY POROSITY (LIMESTONE)
NPHI.V/V      00 330 00 00         : PHIN         - NEUTRON POROSITY (LIMESTONE)
GR  .API      00 310 00 00         : GR           - GAMMA RAY                   
ILD .OHMM     00 120 00 00         : RESD         - DEEP RESISTIVITY (DIL)      
~PARAMETER INFORMATION       
#MNEM.UNIT           DATA             DESCRIPTION OF MNEMONIC
#---------         -----------     ------------------------------
GL  .M        740.12               : gl           - GROUND LEVEL ELEVATION      
EREF.M        743.77               : kb           - ELEVATION OF DEPTH REFERENCE
DATM.M        743.77               : datum        - DATUM ELEVATION             
TDD .M        512                  : tdd          - TOTAL DEPTH DRILLER         
RUN .         ONE                  : Run          - RUN NUMBER                  
ENG .         BILL                 : Engineer     - RECORDING ENGINEER          
WIT .         JIM                  : Witness      - WITNESSED BY                
MUD .         GEL                  : Mud_type     - MUD TYPE                    
MATR.         LIMESTONE            : Logunit      - NEUTRON MATRIX              
TMAX.C        16.8                 : BHT          - MAXIMUM RECORDED TEMPERATURE
BHTD.M        512                  : BHTDEP       - MAXIMUM RECORDED TEMPERATURE
MATR.         1                    : LOGUNIT      - NEUTRON MATRIX              
RMT .C        25                   : MDTP         - TEMPERATURE OF MUD          
NEUT.         1                    : NEUTRON      - NEUTRON TYPE                
RESI.         0                    : RESIST       - RESISTIVITY TYPE            
RMC .OHMM     0.25                 : RMC          - RESISTIVITY OF MUD CAKE     
RMF .OHMM     0.25                 : RMF          - RESISTIVITY OF MUD FILTRATE 
SUFT.C        15                   : SUFT         - SURFACE TEMPERATURE         
~A  DEPTH     PHID     PHIN       GR     RESD
# ...
  431.594    0.135    0.374   83.446   10.187
  431.894    0.226    0.359   70.204    9.994
  432.194    0.247    0.370   67.649    9.621
  432.494    0.246    0.373   65.103    8.918
  432.794    0.247    0.377   64.430    8.424
  433.094    0.252    0.363   70.040    8.264
  433.394    0.253    0.349   78.169    8.420
  433.694    0.244    0.343   78.125    9.081
  433.994    0.228    0.335   75.578   10.365
  434.294    0.144    0.319   65.484   11.178
  434.594    0.125    0.294   59.158   11.607
  434.893    0.172    0.309   64.774   11.387
  435.193    0.234    0.363   72.897    9.602
  435.493    0.255    0.363   82.272    7.507
  435.793    0.303    0.420   81.605    6.451
  436.093    0.375    0.451   83.452    5.543
  436.393    0.386    0.434   85.295    5.138
  436.693    0.370    0.435   82.738    5.041
  436.993    0.370    0.456   82.076    5.040
  437.293    0.358    0.424   85.797    5.135
  437.593    0.335    0.404   90.155    5.538
  437.893    0.320    0.390   88.860    6.321
  438.193    0.236    0.367   87.564    7.079
  438.493    0.245    0.353   88.780    7.635
  438.793    0.336    0.385   91.878    7.927
  439.093    0.378    0.392   85.556    7.778
  439.393    0.392    0.415   85.513    7.209
  439.693    0.386    0.439   87.355    5.127
  439.993    0.382    0.451   82.917    2.643
  440.293    0.384    0.486   77.221    2.146
  440.593    0.397    0.468   75.297    1.952
  440.893    0.416    0.462   73.371    1.879
  441.193    0.396    0.460   71.444    1.879
  441.493    0.329    0.455   73.905    2.065
  441.793    0.292    0.413   73.878    2.591
  442.093    0.287    0.398   77.603    2.957
  442.393    0.245    0.369   80.077    3.710
  442.693    0.206    0.353   81.294    4.316
  442.993    0.238    0.352   84.391    5.624
  443.293    0.256    0.387   83.093    6.299
  443.593    0.233    0.362   77.402    7.055
  443.893    0.126    0.337   70.446    5.728
  444.193    0.268    0.454   76.060    3.997
  444.493    0.301    0.454   82.302    3.371
  444.793    0.389    0.445   86.662    3.124
  445.093    0.358    0.460   87.874    2.951
  445.393    0.365    0.461   80.924    2.951
  445.693    0.374    0.446   77.738    2.950
  445.993    0.351    0.448   78.957    2.950
  446.293    0.348    0.469   77.033    2.839
  446.593    0.358    0.478   82.641    2.785
  446.893    0.376    0.472   83.852    2.733
  447.193    0.367    0.440   83.818    2.785
  447.493    0.287    0.430   86.919    2.891
  447.793    0.270    0.425   90.019    3.002
  448.093    0.275    0.422   91.229    3.177
  448.393    0.290    0.429   89.936    3.559
  448.693    0.368    0.397   85.496    4.139
  448.993    0.372    0.415   82.937    4.636
  449.293    0.337    0.440   82.269    4.906
  449.593    0.368    0.439   78.459    4.999
  449.893    0.400    0.437   85.300    4.289
  450.193    0.406    0.397   76.577    4.540
  450.493    0.387    0.359   72.211    5.088
  450.793    0.365    0.393   73.450    5.387
  451.093    0.389    0.444   70.954    5.924
  451.393    0.334    0.348   67.834    6.392
  451.693    0.246    0.317   73.431    6.768
  451.993    0.241    0.321   79.650    7.031
  452.293    0.254    0.339   70.305    6.773
  452.593    0.316    0.389   62.827    3.842
  452.893    0.380    0.380   71.538    3.243
  453.193    0.355    0.373   84.606    3.183
  453.493    0.279    0.333   77.751    3.921
  453.793    0.279    0.266   60.311    5.308
  454.093    0.269    0.246   34.777    7.898
  454.393    0.258    0.258   38.505   31.414
  454.693    0.255    0.279   59.669   35.876
  454.993    0.250    0.290   65.889   37.274
  455.293    0.238    0.296   50.939   38.726
  455.593    0.232    0.312   57.781   37.306
  455.893    0.275    0.334   65.246   31.482
  456.193    0.270    0.342   66.485   26.067
  456.493    0.274    0.332   75.196   18.557
  456.793    0.276    0.332   74.567   15.076
  457.093    0.262    0.343   82.032   10.937
  457.393    0.237    0.367   90.119    8.888
  457.693    0.176    0.369  104.434    7.789
  457.993    0.179    0.353  108.163    7.089
  458.293    0.187    0.343  112.515    6.701
  458.593    0.236    0.338  101.923    6.704
  458.893    0.275    0.336  100.671    7.098
  459.193    0.263    0.341   98.175    8.105
  459.492    0.163    0.306  101.904    9.797
  459.792    0.165    0.265   86.955   10.772
  460.092    0.178    0.304   80.098   12.303
  460.392    0.181    0.310   85.696   12.542
  460.692    0.179    0.301   90.047   11.634
  460.992    0.183    0.293   90.665   11.205
  461.292    0.173    0.312   86.299   11.001
  461.592    0.183    0.314   91.896   11.430
  461.892    0.222    0.304   92.512   12.808
  462.192    0.225    0.295   77.564   14.351
  462.492    0.232    0.287   72.576   16.082
  462.792    0.283    0.279   57.627   17.353
  463.092    0.275    0.277   61.977   17.690
  463.392    0.219    0.288   72.556   17.043
  463.692    0.198    0.277   76.909   17.047
  463.992    0.219    0.269   73.165   18.397
  464.292    0.272    0.268   50.745   21.007
  464.592    0.268    0.273   47.625   25.390
  464.892    0.271    0.293   53.223   28.453
  465.192    0.271    0.311   60.687   29.004
  465.492    0.247    0.334   68.776   25.906
  465.792    0.219    0.321   70.637   18.792
  466.092    0.178    0.315   89.310   15.858
  466.392    0.163    0.315   88.680   14.163
  466.692    0.180    0.326   65.636   11.294
  466.992    0.247    0.349   75.592    9.177
  467.292    0.252    0.340   72.472    8.197
  467.592    0.258    0.361   76.202    8.046
  467.892    0.244    0.356   78.685    7.897
  468.192    0.237    0.340   71.208    7.902
  468.492    0.239    0.314   66.220    8.526
  468.792    0.240    0.306   67.459    9.028
  469.092    0.252    0.322   73.056    9.203
  469.392    0.244    0.340   80.519    9.382
  469.692    0.254    0.349   78.647    9.210
  469.992    0.271    0.345   68.056    9.391
  470.292    0.259    0.296   45.633   10.132
  470.592    0.243    0.283   48.118   10.527
  470.892    0.282    0.293   80.489   10.533
  471.192    0.278    0.334   86.086   10.536
  471.492    0.274    0.340   83.589   10.539
  471.792    0.269    0.348   72.374   10.545
  472.092    0.255    0.323   74.237   10.956
  472.392    0.232    0.340   79.835   11.383
  472.692    0.214    0.340   77.958   10.965
  472.992    0.229    0.323   76.086   10.364
  473.292    0.237    0.308   82.928   10.368
  473.592    0.237    0.331   99.110   10.977
  473.892    0.258    0.319  105.952   12.301
  474.192    0.230    0.317   84.153   13.527
  474.492    0.230    0.319   85.392   14.321
  474.792    0.246    0.305   79.782   14.061
  475.092    0.242    0.318   82.266   13.542
  475.392    0.258    0.326   85.373   13.045
  475.692    0.249    0.328   90.348   12.806
  475.992    0.252    0.334   84.738   13.056
  476.292    0.256    0.343   79.127   13.824
  476.592    0.264    0.332   69.157   15.200
  476.892    0.273    0.322   54.832   15.794
  477.192    0.250    0.318   63.542   15.802
  477.492    0.244    0.332   76.612   16.107
  477.792    0.250    0.320   62.284   17.712
  478.092    0.226    0.301   67.882   18.401
  478.392    0.207    0.294   77.215   19.856
  478.692    0.278    0.309   54.793   23.549
  478.992    0.275    0.320   56.654   28.460
  479.292    0.273    0.344   74.082   33.753
  479.592    0.270    0.357   62.245   37.120
  479.892    0.270    0.325   57.881   36.435
  480.192    0.272    0.321   89.628   34.440
  480.492    0.267    0.331   95.848   31.347
  480.792    0.262    0.333   67.201   25.469
  481.092    0.254    0.340   72.175   20.697
  481.392    0.244    0.332   83.999   18.838
  481.692    0.243    0.345   88.973   20.327
  481.992    0.274    0.345   83.985   25.034
  482.292    0.287    0.343   60.942   35.870
  482.592    0.289    0.334   50.350   48.559
  482.892    0.284    0.337   46.607   57.593
  483.192    0.263    0.329   47.848   45.060
  483.492    0.258    0.327   70.255   27.057
