~VERSION INFORMATION
 VERS.                 2.0:   CWLS LOG ASCII STANDARD -VERSION 2.0
 WRAP.                  NO:   ONE LINE PER DEPTH STEP
~WELL INFORMATION BLOCK
#MNEM.UNIT           DATA                    DESCRIPTION OF MNEMONIC
#---------    -------------------            -------------------------------
# Generated from Intellog Unique Number	utf_inj/WELL/3048
WELL.         16-23-093-12W4                 : Well_name    - WELL              
LOC .         AA/16-23-093-12W4/0            : Location     - LOCATION          
UWI .         AA/16-23-093-12W400            : Uwi          - UNIQUE WELL ID    
ENTR.         JOETTE                         : Entered      - ENTERED BY        
SRVC.         SCHLUMBERGER                   : Scn          - SERVICE COMPANY   
DATE.         06/01/92                       : Date         - LOG DATE          
STRT.M        0                              : top_depth    - START DEPTH       
STOP.M        98                             : bot_depth    - STOP DEPTH        
STEP.M        0.25                           : increment    - STEP LENGTH       
NULL.         -999.250                       : null         - NULL VALUE       
~CURVE INFORMATION BLOCK
#MNEM UNIT       ERCB CURVE CODE    CURVE DESCRIPTION
#-----------   ------------------   ----------------------------------
DEPT.M        00 001 00 00         : DEPTH        - DEPTH                       
GR  .API      00 310 00 00         : GR           - GAMMA RAY                   
NPHI.V/V      00 330 00 00         : PHIN         - NEUTRON POROSITY (SANDSTONE)
RHOB.KG/M3    00 350 00 00         : DENS         - BULK DENSITY                
ILD .OHMM     00 120 00 00         : RESD         - DEEP RESISTIVITY (DIL)      
DPHI.V/V      00 890 00 00         : PHID         - DENSITY POROSITY (SANDSTONE)
~PARAMETER INFORMATION       
#MNEM.UNIT           DATA             DESCRIPTION OF MNEMONIC
#---------         -----------     ------------------------------
GL  .M        340.4                : gl           - GROUND LEVEL ELEVATION      
EREF.M        340.4                : kb           - ELEVATION OF DEPTH REFERENCE
DATM.M        340.4                : datum        - DATUM ELEVATION             
TDD .M        99.5                 : tdd          - TOTAL DEPTH DRILLER         
RUN .         ONE                  : Run          - RUN NUMBER                  
ENG .         BILL                 : Engineer     - RECORDING ENGINEER          
WIT .         JIM                  : Witness      - WITNESSED BY                
MUD .         GEL                  : Mud_type     - MUD TYPE                    
MATR.         SANDSTONE            : Logunit      - NEUTRON MATRIX              
TMAX.C        7.5                  : BHT          - MAXIMUM RECORDED TEMPERATURE
BHTD.M        99.5                 : BHTDEP       - MAXIMUM RECORDED TEMPERATURE
RMT .C        4                    : MDTP         - TEMPERATURE OF MUD          
MUDD.KG/M     1020                 : MWT          - MUD DENSITY                 
NEUT.         1                    : NEUTRON      - NEUTRON TYPE                
RESI.         0                    : RESIST       - RESISTIVITY TYPE            
RM  .OHMM     6.5                  : RM           - RESISTIVITY OF MUD          
RMC .OHMM     6.5                  : RMC          - RESISTIVITY OF MUD CAKE     
RMF .OHMM     6.5                  : RMF          - RESISTIVITY OF MUD FILTRATE 
SUFT.C        4                    : SUFT         - SURFACE TEMPERATURE         
~A  DEPTH       GR     PHIN     DENS     RESD     PHID
    0.000   19.044    0.000    0.000    0.000    1.606
    0.250   29.196    0.000    0.000    0.000    1.606
    0.500   49.476    0.000    0.000    0.000    1.606
    0.750   70.933    0.000    0.000    0.000    1.606
    1.000   58.511    0.000    0.000    0.000    1.606
    1.250   52.627    0.000    0.000    0.000    1.606
    1.500   52.080    0.000    0.000    0.000    1.606
    1.750   59.890    0.000    0.000    0.000    1.606
    2.000   56.954    0.612    0.000    0.000    1.606
    2.250   46.327    0.574    0.000    0.000    1.606
    2.500   46.387    0.525    0.000    0.000    1.606
    2.750   52.378    0.585    0.000    0.000    1.606
    3.000   56.610    0.564    0.000    0.000    1.606
    3.250   57.859    0.574    0.000    0.000    1.606
    3.500   57.324    0.620    0.000    0.000    1.606
    3.750   56.171    0.624    0.000    0.000    1.606
    4.000   58.026    0.589    0.000    0.000    1.606
    4.250   56.290    0.558    0.000    0.000    1.606
    4.500   57.539    0.556    0.000    0.000    1.606
    4.750   51.655    0.613    0.000    0.000    1.606
    5.000   45.759    0.583    0.000    0.000    1.606
    5.250   42.846    0.541    0.000    0.000    1.606
    5.500   38.757    0.562    0.000    0.000    1.606
    5.750   43.560    0.527    0.000    0.000    1.606
    6.000   35.881    0.522    0.000    0.000    1.606
    6.250   44.868    0.562    0.000    0.000    1.606
    6.500   43.727    0.518    0.000    0.000    1.606
    6.750   47.959    0.523    0.000    0.000    1.606
    7.000   48.601    0.540    0.000    0.000    1.606
    7.250   59.966    0.524    0.000    0.000    1.606
    7.500   67.158    0.512    0.000    0.000    1.606
    7.750   66.635    0.606    0.000    0.000    1.606
    8.000   67.860    0.679    0.000    0.000    1.606
    8.250   70.309    0.656    0.000    0.000    1.606
    8.500   74.529    0.576    0.000    0.000    1.606
    8.750   81.721    0.526    0.000    0.000    1.606
    9.000   81.186    0.516    0.000    0.000    1.606
    9.250   83.017    0.621    0.000    0.000    1.606
    9.500   93.787    0.590    0.000    0.000    1.606
    9.750   78.976    0.621    0.000    0.000    1.606
   10.000   85.573    0.642    0.000    0.000    1.606
   10.250   75.529    0.637    0.000    0.000    1.606
   10.500   72.022    0.678    0.000    0.000    1.606
   10.750   67.909    0.709    0.000    0.000    1.606
   11.000   64.403    0.661    0.000    0.000    1.606
   11.250   81.105    0.637    0.000    0.000    1.606
   11.500   84.731    0.629    0.000    0.000    1.606
   11.750  109.171    0.668    0.000    0.000    1.606
   12.000  124.090    0.727 2192.760    7.323    0.277
   12.250  125.339    0.664 2213.360    8.815    0.265
   12.500  129.559    0.588 2211.470    8.952    0.266
   12.750  112.382    0.545 2221.910    8.965    0.259
   13.000  105.891    0.599 2222.100    9.915    0.259
   13.250  100.007    0.511 2222.260   10.805    0.259
   13.500   97.677    0.522 2249.010   11.778    0.243
   13.750  101.315    0.507 2265.490   11.631    0.233
   14.000  104.335    0.538 2302.440   10.699    0.211
   14.250  115.105    0.526 2302.590   10.420    0.211
   14.500  130.618    0.543 2270.200   10.885    0.230
   14.750  125.923    0.532 2247.920   11.703    0.244
   15.000  133.709    0.540 2278.670   12.398    0.225
   15.250  115.938    0.537 2293.140   12.417    0.216
   15.500  111.231    0.443 2334.170   11.588    0.191
   15.750  127.933    0.450 2320.050   10.814    0.200
   16.000  122.643    0.466 2326.410   10.526    0.196
   16.250  116.759    0.455 2318.410    9.966    0.201
   16.500  120.385    0.433 2316.560   11.168    0.202
   16.750  100.224    0.473 2455.490   23.652    0.118
   17.000   94.328    0.451 2631.130   31.429    0.011
   17.250  111.042    0.430 2576.260   13.106    0.045
   17.500  112.885    0.373 2405.050    9.349    0.148
   17.750  113.539    0.441 2313.430    8.130    0.204
   18.000  117.759    0.514 2287.110    8.498    0.220
   18.250  127.328    0.476 2270.990    8.508    0.230
   18.500  120.850    0.530 2254.840    8.051    0.239
   18.750  111.982    0.531 2265.230    7.306    0.233
   19.000  104.909    0.553 2269.550    7.851    0.231
   19.250  109.724    0.531 2302.340    9.187    0.211
   19.500  111.579    0.513 2310.730    9.329    0.206
   19.750  106.859    0.522 2306.810    7.887    0.208
   20.000  114.063    0.492 2296.770    8.355    0.214
   20.250  112.922    0.538 2313.320    8.610    0.204
   20.500  126.070    0.531 2291.040    7.921    0.218
   20.750  123.146    0.474 2264.690    7.712    0.234
   21.000  111.318    0.449 2242.450    6.997    0.247
   21.250  113.173    0.500 2297.710    6.620    0.214
   21.500  125.108    0.497 2297.910    7.324    0.213
   21.750  129.328    0.462 2320.580    7.761    0.200
   22.000  109.167    0.520 2294.230    7.446    0.216
   22.250  111.604    0.497 2235.240    6.383    0.251
   22.500  112.853    0.528 2308.900    5.793    0.207
   22.750  122.422    0.505 2380.520    6.312    0.163
   23.000  102.868    0.529 2466.380    7.814    0.111
   23.250  101.739    0.472 2431.860    9.013    0.132
   23.500  113.091    0.537 2250.540    5.505    0.242
   23.750  124.444    0.541 2236.420    4.720    0.251
   24.000  131.636    0.562 2232.500    4.104    0.253
   24.250  123.375    0.623 2208.220    3.620    0.268
   24.500  135.322    0.658 2230.850    3.781    0.254
   24.750  112.189    0.635 2257.560    3.289    0.238
   25.000  114.032    0.592 2274.080    4.960    0.228
   25.250  108.148    0.575 2288.550    5.409    0.219
   25.500  118.312    0.577 2298.980    6.507    0.213
   25.750  115.982    0.502 2293.020    4.775    0.216
   26.000  116.636    0.448 2260.550    4.784    0.236
   26.250  129.189    0.505 2289.300    5.516    0.219
   26.500  100.125    0.506 2332.330    8.562    0.193
   26.750  104.927    0.510 2467.180    4.477    0.111
   27.000   96.059    0.471 2312.330    4.005    0.205
   27.250   93.147    0.547 2241.100    2.699    0.248
   27.500  101.528    0.667 2194.350    2.485    0.276
   27.750  104.559    0.658 2129.280    2.419    0.316
   28.000   93.314    0.738 2094.760    2.354    0.337
   28.250   91.008    0.661 2070.480    2.496    0.351
   28.500   95.811    0.669 2070.640    2.608    0.351
   28.750   94.087    0.633 2089.190    2.649    0.340
   29.000   94.741    0.568 2105.750    2.728    0.330
   29.250  100.745    0.554 2146.740    2.973    0.305
   29.500  100.222    0.623 2189.760    4.361    0.279
   29.750   99.675    0.591 2224.630    4.961    0.258
   30.000   99.735    0.564 2286.020    5.329    0.221
   30.250  102.766    0.532 2298.530    4.835    0.213
   30.500   96.870    0.469 2272.130    4.512    0.229
   30.750   85.043    0.505 2272.330    5.827    0.229
   31.000   84.508    0.479 2305.160    6.819    0.209
   31.250   83.973    0.481 2433.890    8.929    0.131
   31.500   88.776    0.456 2552.420    3.622    0.059
   31.750  109.056    0.459 2438.360    3.575    0.128
   32.000  116.842    0.559 2267.160    3.197    0.232
   32.250  114.525    0.574 2222.440    3.202    0.259
   32.500  107.452    0.669 2214.480    3.591    0.264
   32.750  109.877    0.667 2231.000    3.647    0.254
   33.000  108.748    0.667 2251.590    3.603    0.241
   33.250   96.326    0.648 2231.430    3.711    0.254
   33.500  104.707    0.581 2262.180    4.102    0.235
   33.750  104.778    0.596 2256.260    4.472    0.239
   34.000  107.810    0.566 2246.220    3.779    0.245
   34.250  110.829    0.651 2289.290    4.359    0.219
   34.500  116.833    0.614 2332.320    6.042    0.193
   34.750  122.836    0.538 2344.790    5.329    0.185
   35.000  125.867    0.463 2320.430    4.196    0.200
   35.250  113.433    0.524 2263.560    3.916    0.234
   35.500  117.654    0.500 2235.120    4.152    0.251
   35.750  127.817    0.550 2261.840    4.158    0.235
   36.000  114.801    0.587 2266.150    4.531    0.233
   36.250   97.612    0.573 2292.860    5.852    0.216
