~VERSION INFORMATION
 VERS.                 2.0:   CWLS LOG ASCII STANDARD -VERSION 2.0
 WRAP.                  NO:   ONE LINE PER DEPTH STEP
~WELL INFORMATION BLOCK
#MNEM.UNIT           DATA                    DESCRIPTION OF MNEMONIC
#---------    -------------------            -------------------------------
# Generated from Intellog Unique Number	CC_80_83/WELL/2371
NULL.         -999.25                        : NULL_VALUE
WELL.         PEX PCEJ CHARD OV              : Well_name    - WELL
LOC .         10-26-080-09W4                 : Location     - LOCATION          
UWI .         AA/10-26-080-09W400            : Uwi          - UNIQUE WELL ID    
ENTR.         DW                             : Entered      - ENTERED BY        
SRVC.         SCHLUMBERGER                   : Scn          - SERVICE COMPANY   
DATE.         14 JAN 80                      : Date         - LOG DATE
STRT.M        275                            : top_depth    - START DEPTH       
STOP.M        494.891                        : bot_depth    - STOP DEPTH        
STEP.M        0.3                            : increment    - STEP LENGTH       
~CURVE INFORMATION BLOCK
#MNEM UNIT       ERCB CURVE CODE    CURVE DESCRIPTION
#-----------   ------------------   ----------------------------------
DEPT.M        00 001 00 00         : DEPTH        - DEPTH                       
DPHI.V/V      00 890 00 00         : PHID         - DENSITY POROSITY (LIMESTONE)
NPHI.V/V      00 330 00 00         : PHIN         - NEUTRON POROSITY (LIMESTONE)
GR  .API      00 310 00 00         : GR           - GAMMA RAY                   
ILD .OHMM     00 120 00 00         : RESD         - DEEP RESISTIVITY (DIL)      
~PARAMETER INFORMATION       
#MNEM.UNIT           DATA             DESCRIPTION OF MNEMONIC
#---------         -----------     ------------------------------
GL  .M        718.7                : gl           - GROUND LEVEL ELEVATION      
EREF.M        722.4                : kb           - ELEVATION OF DEPTH REFERENCE
DATM.M        722.4                : datum        - DATUM ELEVATION             
TDD .M        505                  : tdd          - TOTAL DEPTH DRILLER         
RUN .         ONE                  : Run          - RUN NUMBER                  
ENG .         BILL                 : Engineer     - RECORDING ENGINEER          
WIT .         JIM                  : Witness      - WITNESSED BY                
MUD .         GEL                  : Mud_type     - MUD TYPE                    
MATR.         LIMESTONE            : Logunit      - NEUTRON MATRIX              
TMAX.C        19                   : BHT          - MAXIMUM RECORDED TEMPERATURE
BHTD.M        505                  : BHTDEP       - MAXIMUM RECORDED TEMPERATURE
MATR.         1                    : LOGUNIT      - NEUTRON MATRIX              
RMT .C        25                   : MDTP         - TEMPERATURE OF MUD          
NEUT.         1                    : NEUTRON      - NEUTRON TYPE                
RESI.         0                    : RESIST       - RESISTIVITY TYPE            
RMC .OHMM     0.25                 : RMC          - RESISTIVITY OF MUD CAKE     
RMF .OHMM     0.25                 : RMF          - RESISTIVITY OF MUD FILTRATE 
SUFT.C        4                    : SUFT         - SURFACE TEMPERATURE         
~A  DEPTH     PHID     PHIN       GR     RESD
  275.000    0.369    0.627  113.768    3.336
  275.300    0.350    0.626  121.229    3.330
  275.600    0.353    0.629  121.182    3.198
  275.900    0.309    0.633  113.629    3.194
  276.200    0.313    0.638  116.081    3.187
  276.500    0.362    0.633  108.529    3.181
  276.800    0.385    0.632  112.852    3.297
  277.100    0.382    0.634  125.314    3.355
  277.400    0.373    0.633  127.768    3.477
  277.700    0.349    0.636  125.214    3.540
  278.000    0.286    0.634  118.919    3.669
  278.300    0.275    0.633  115.740    3.591
  278.600    0.306    0.636  101.314    3.517
  278.900    0.316    0.636  110.644    3.444
  279.200    0.305    0.627  112.471    3.503
  279.500    0.295    0.619  121.176    3.634
  279.800    0.291    0.608  117.997    3.915
  280.100    0.297    0.608  111.075    4.300
  280.400    0.313    0.608  106.647    4.813
  280.700    0.320    0.599  112.223    5.087
  281.000    0.209    0.627  108.427    4.885
  281.300    0.287    0.627  101.502    4.518
  281.600    0.291    0.623  110.832    4.341
  281.900    0.296    0.618  120.782    4.250
  282.200    0.289    0.622  118.236    4.158
  282.500    0.287    0.616  116.938    4.149
  282.800    0.291    0.585  118.137    4.473
  283.100    0.296    0.605  110.588    4.636
  283.400    0.308    0.608  113.666    4.717
  283.700    0.335    0.602  116.107    4.620
  284.000    0.346    0.548  112.941    4.700
  284.300    0.320    0.550  102.267    5.064
  284.600    0.304    0.489   93.468    5.150
  284.900    0.303    0.505  117.797    5.140
  285.200    0.285    0.513  103.995    5.034
  285.500    0.275    0.520  115.197    4.930
  285.800    0.267    0.522  114.527    4.825
  286.100    0.267    0.517  110.103    4.907
  286.400    0.269    0.549  131.305    4.995
  286.700    0.266    0.516  120.010    5.809
  287.000    0.187    0.450  113.706    6.628
  287.299    0.164    0.429  103.029    7.277
  287.599    0.226    0.417   86.104    7.839
  287.899    0.267    0.438   96.682    7.980
  288.199    0.269    0.465  109.137    8.762
  288.499    0.266    0.469  113.465    9.085
  288.799    0.260    0.466   95.913    8.563
  289.099    0.273    0.437   99.615    8.066
  289.399    0.247    0.478  107.691    7.751
  289.699    0.226    0.525  120.149    7.734
  289.999    0.241    0.521  135.102    8.333
  290.299    0.243    0.522  128.804    9.693
  290.599    0.249    0.497  127.501   11.060
  290.899    0.258    0.508  131.832   11.687
  291.199    0.264    0.497  126.781   11.443
  291.499    0.270    0.486  135.484   10.995
  291.799    0.277    0.514  130.435   10.765
  292.099    0.302    0.500  145.392   10.953
  292.399    0.322    0.508  146.591   11.134
  292.699    0.329    0.509  131.539   11.774
  292.999    0.324    0.428   91.479   21.271
  293.299    0.314    0.427   86.425   25.697
  293.599    0.315    0.395   90.757   26.146
  293.899    0.318    0.404   84.460   25.603
  294.199    0.317    0.393   81.277   24.121
  294.499    0.317    0.400   85.612   22.728
  294.799    0.319    0.413   88.061   21.414
  295.099    0.319    0.389   77.389   20.976
  295.399    0.318    0.392   82.956   19.756
  295.699    0.307    0.372   88.539   19.726
  295.999    0.290    0.402   95.991   19.305
  296.299    0.262    0.403   99.074   19.279
  296.599    0.234    0.392   95.895   19.231
  296.899    0.241    0.409   83.969   19.949
  297.199    0.297    0.422  105.175   19.163
  297.499    0.293    0.421  101.377   18.765
  297.799    0.292    0.423   99.455   18.365
  298.099    0.304    0.395   95.030   18.337
  298.399    0.312    0.384   89.353   18.299
  298.699    0.314    0.379   88.677   19.717
  298.999    0.313    0.393   82.382   20.838
  299.299    0.313    0.416   71.081   21.200
  299.599    0.314    0.442   82.278   21.557
  299.899    0.308    0.426   83.484   21.933
  300.199    0.303    0.408   93.436   21.892
  300.499    0.304    0.423   91.513   22.271
  300.799    0.303    0.405   89.584   21.797
  301.099    0.296    0.394   93.290   21.767
  301.399    0.293    0.390   98.243   21.300
  301.699    0.295    0.389   97.574   21.253
  301.999    0.296    0.399  106.904   21.214
  302.299    0.296    0.413  114.356   20.772
  302.599    0.294    0.401  103.048   20.742
  302.899    0.289    0.435  114.882   19.922
  303.199    0.288    0.448  119.837   19.135
  303.499    0.281    0.450  115.407   18.028
  303.799    0.273    0.448  123.485   17.314
  304.099    0.267    0.435  134.068   16.951
  304.399    0.267    0.411  123.394   16.283
  304.699    0.268    0.412  123.968   15.944
  304.999    0.259    0.417  129.548   15.612
  305.299    0.255    0.424  120.120   15.294
  305.599    0.261    0.410  114.446   14.971
  305.899    0.270    0.409  108.147   14.378
  306.199    0.258    0.408  108.096   12.316
  306.499    0.248    0.423  114.924    9.959
  306.799    0.242    0.444  118.629    7.317
  307.099    0.246    0.486  129.208    5.587
  307.399    0.264    0.545  150.414    4.784
  307.699    0.273    0.530  148.489    4.962
  307.999    0.293    0.509  133.437    6.473
  308.299    0.306    0.472  129.013   14.430
  308.599    0.323    0.417  114.586   18.458
  308.899    0.326    0.426   99.532   20.672
  309.199    0.332    0.432  111.359   23.137
  309.499    0.336    0.413  103.813   23.526
  309.799    0.332    0.410  105.631   23.485
  310.099    0.325    0.412  102.463   23.441
  310.399    0.326    0.432   93.651   23.393
  310.699    0.324    0.417   95.490   23.350
  310.999    0.319    0.422   83.558   22.863
  311.299    0.317    0.432   78.499   22.390
  311.599    0.320    0.403   79.081   21.926
  311.898    0.327    0.412   85.290   22.294
  312.198    0.328    0.414   90.871   22.681
  312.498    0.326    0.401   88.318   22.630
  312.798    0.326    0.391   91.397   22.171
  313.098    0.327    0.377   99.474   21.282
  313.398    0.317    0.378  111.307   20.060
  313.698    0.233    0.400  110.634   18.193
  313.998    0.218    0.400   98.702   16.828
  314.298    0.227    0.413  106.158   15.257
  314.598    0.270    0.411  105.484   14.939
  314.898    0.259    0.413  111.065   14.082
  315.198    0.257    0.437  122.890   12.053
  315.498    0.256    0.451  131.596   10.131
  315.798    0.244    0.474  142.175    7.588
  316.098    0.237    0.493  150.255    5.906
  316.398    0.239    0.548  150.824    5.255
  316.698    0.254    0.532  150.155    5.446
  316.998    0.263    0.528  144.482    6.839
  317.298    0.284    0.532  145.056    8.268
  317.598    0.275    0.526  141.882   10.995
  317.898    0.274    0.408  130.578   14.072
  318.198    0.275    0.409  136.785   16.676
  318.498    0.289    0.442  118.603   16.969
  318.798    0.295    0.434  114.807   16.610
  319.098    0.272    0.424  124.130   15.652
  319.398    0.253    0.426  124.084   14.202
  319.698    0.255    0.459  117.789   10.636
  319.998    0.285    0.453  121.491    9.647
  320.298    0.297    0.426  120.193   10.193
  320.598    0.254    0.413  135.770   11.633
  320.898    0.260    0.397  121.971   12.291
  321.198    0.256    0.373  116.296   12.273
  321.498    0.252    0.378  115.623   12.014
  321.798    0.252    0.382  121.819   11.544
  322.098    0.256    0.377  102.395   10.877
  322.398    0.252    0.354  105.472   10.651
  322.698    0.227    0.350  111.049   12.627
  322.998    0.157    0.345   98.500   13.344
  323.298    0.147    0.350   90.321   13.317
  323.598    0.206    0.328  100.904   12.793
  323.898    0.239    0.383  117.102   11.386
  324.198    0.241    0.406  127.685    9.204
  324.498    0.245    0.409  137.641    9.543
  324.798    0.266    0.403  118.211   11.316
  325.098    0.304    0.388   91.908   15.047
  325.398    0.312    0.405   75.605   18.539
  325.698    0.309    0.392   81.183   20.749
  325.998    0.308    0.385   95.514   20.698
  326.298    0.307    0.402   90.463   20.277
  326.598    0.304    0.397   89.789   19.474
  326.898    0.302    0.427   94.116   18.708
