~VERSION INFORMATION
 VERS.                 2.0:   CWLS LOG ASCII STANDARD -VERSION 2.0
 WRAP.                  NO:   ONE LINE PER DEPTH STEP
~WELL INFORMATION BLOCK
#MNEM.UNIT           DATA                    DESCRIPTION OF MNEMONIC
#---------    -------------------            -------------------------------
# Generated from Intellog Unique Number	CX_WELLS/WELL/1076
WELL.         10-08-088-15W4                 : Well_name    - WELL
LOC .         AA/10-08-088-15W4/0            : Location     - LOCATION
UWI .         AA/10-08-088-15W400            : Uwi          - UNIQUE WELL ID
ENTR.         T                              : Entered      - ENTERED BY
SRVC.         SCHLUMBERGER                   : Scn          - SERVICE COMPANY
STRT.M        75                             : top_depth    - START DEPTH
STOP.M        275                            : bot_depth    - STOP DEPTH
STEP.M        0.25                           : increment    - STEP LENGTH
 NULL. -999.2500:NULL Value
~CURVE INFORMATION BLOCK
#MNEM UNIT       ERCB CURVE CODE    CURVE DESCRIPTION
#-----------   ------------------   ----------------------------------
DEPT.M        00 001 00 00         : DEPTH        - DEPTH
GR  .API      00 310 00 00         : GR           - GAMMA RAY
NPHI.V/V      00 330 00 00         : PHIN         - NEUTRON POROSITY (SANDSTONE)
DPHI.V/V      00 890 00 00         : PHID         - DENSITY POROSITY (SANDSTONE)
ILD .OHMM     00 120 00 00         : RESD         - DEEP RESISTIVITY (DIL)
~PARAMETER INFORMATION
#MNEM.UNIT           DATA             DESCRIPTION OF MNEMONIC
#---------         -----------     ------------------------------
GL  .M        535.9                : gl           - GROUND LEVEL ELEVATION
EREF.M        535.9                : kb           - ELEVATION OF DEPTH REFERENCE
DATM.M        535.9                : datum        - DATUM ELEVATION
TDD .M        283                  : tdd          - TOTAL DEPTH DRILLER
RUN .         ONE                  : Run          - RUN NUMBER
ENG .         BILL                 : Engineer     - RECORDING ENGINEER
WIT .         JIM                  : Witness      - WITNESSED BY
MUD .         GEL                  : Mud_type     - MUD TYPE
MATR.         SANDSTONE            : Logunit      - NEUTRON MATRIX
TMAX.C        8                    : BHT          - MAXIMUM RECORDED TEMPERATURE
BHTD.M        1.28367e+06          : BHTDEP       - MAXIMUM RECORDED TEMPERATURE
MATR.         1                    : LOGUNIT      - NEUTRON MATRIX
RMT .C        9                    : MDTP         - TEMPERATURE OF MUD
NEUT.         1                    : NEUTRON      - NEUTRON TYPE
RESI.         0                    : RESIST       - RESISTIVITY TYPE
RMC .OHMM     8.86                 : RMC          - RESISTIVITY OF MUD CAKE
RMF .OHMM     7.09                 : RMF          - RESISTIVITY OF MUD FILTRATE
SUFT.C        4                    : SUFT         - SURFACE TEMPERATURE
~A  DEPTH       GR     PHIN     PHID     RESD
# ...
  249.000   75.432    0.379    0.241   23.603
  249.250   76.684    0.375    0.241   22.383
  249.500   77.300    0.371    0.244   20.834
  249.750   80.933    0.363    0.245   19.392
  250.000   92.326    0.353    0.240   17.722
  250.250  100.730    0.329    0.197   16.196
  250.500  111.544    0.329    0.102   15.348
  250.750  108.585    0.344    0.173   14.550
  251.000  103.254    0.356    0.194   14.047
  251.250  105.075    0.366    0.198   13.818
  251.500  106.906    0.378    0.192   13.341
  251.750  103.956    0.391    0.201   13.356
  252.000  100.417    0.396    0.212   13.138
  252.250   99.867    0.361    0.220   13.158
  252.500  101.091    0.366    0.228   14.178
  252.750  101.717    0.373    0.241   15.554
  253.000  102.950    0.381    0.252   20.507
  253.250  105.378    0.372    0.261   23.353
  253.500  109.012    0.365    0.259   24.708
  253.750  112.038    0.360    0.249   24.296
  254.000  114.466    0.354    0.241   23.882
  254.250  112.711    0.358    0.234   22.640
  254.500  108.575    0.361    0.223   21.072
  254.750  104.439    0.365    0.213   20.353
  255.000  102.675    0.371    0.214   21.931
  255.250   99.725    0.379    0.221   24.069
  255.500   99.763    0.390    0.232   26.415
  255.750  102.779    0.396    0.239   27.947
  256.000  111.193    0.400    0.249   26.493
  256.250  118.403    0.402    0.262   24.230
  256.500  126.807    0.405    0.253   22.961
  256.750  137.611    0.400    0.230   21.364
  257.000  144.223    0.385    0.211   18.829
  257.250  149.042    0.380    0.207   17.520
  257.500  150.873    0.379    0.210   15.721
  257.750  146.139    0.374    0.196   14.638
  258.000  140.192    0.370    0.175   13.625
  258.250  140.827    0.368    0.175   13.398
  258.500  140.268    0.364    0.188   13.412
  258.750  139.110    0.363    0.193   13.944
  259.000  133.770    0.385    0.198   14.212
  259.250  127.832    0.398    0.204   15.042
  259.500  121.296    0.393    0.213   16.208
  259.750  115.955    0.376    0.224   17.795
  260.000  117.188    0.373    0.234   18.479
  260.250  127.405    0.387    0.244   19.927
  260.500  126.854    0.398    0.251   20.317
  260.750  125.081    0.405    0.264   20.348
  261.000  122.140    0.402    0.267   20.001
  261.250  119.778    0.395    0.255   18.960
  261.500  116.230    0.390    0.237   17.014
  261.750  110.890    0.397    0.204   15.278
  262.000  104.354    0.404    0.222   14.740
  262.250   95.418    0.414    0.264   15.607
  262.500   88.883    0.464    0.290   16.506
  262.750   85.933    0.513    0.322   18.790
  263.000   85.970    0.557    0.347   21.794
  263.250   86.625    0.440    0.313   23.484
  263.500   88.456    0.391    0.276   23.101
  263.750   88.494    0.386    0.271   22.287
  264.000   86.141    0.376    0.265   20.375
  264.250   83.191    0.368    0.260   18.965
  264.500   80.829    0.366    0.262   17.652
  264.750   80.876    0.388    0.256   16.437
  265.000   82.698    0.411    0.267   15.576
  265.250   87.517    0.431    0.291   14.503
  265.500   93.550    0.466    0.326   13.997
  265.750   95.969    0.484    0.340   13.028
  266.000   96.604    0.552    0.353   12.351
  266.250   98.435    0.581    0.347   11.500
  266.500   99.687    0.557    0.323   11.946
  266.750  102.115    0.437    0.256   13.106
  267.000  103.330    0.418    0.240   13.871
  267.250  103.367    0.348    0.225   13.393
  267.500   99.820    0.330    0.216   12.926
  267.750   96.272    0.343    0.201   11.817
  268.000   90.931    0.353    0.188   10.608
  268.250   92.174    0.370    0.186   10.238
  268.500   94.024    0.383    0.192    9.881
  268.750   93.445    0.380    0.179    9.540
  269.000   92.288    0.372    0.155    9.730
  269.250   92.326    0.364    0.115    9.929
  269.500   91.169    0.344    0.060    9.763
  269.750   89.414    0.319    0.060    9.429
  270.000   88.854    0.296    0.074    9.443
  270.250   88.294    0.259    0.065    9.629
  270.500   89.537    0.252    0.061    9.643
  270.750   90.173    0.270    0.064    9.836
  271.000   90.808    0.291    0.062   10.032
  271.250   90.856    0.303    0.056   10.047
  271.500   90.894    0.300    0.049   10.069
  271.750   90.931    0.298    0.051   10.263
  272.000   92.762    0.300    0.057   10.286
  272.250   93.986    0.305    0.065   10.294
  272.500   95.229    0.308    0.066   10.320
  272.750   95.267    0.314    0.070   10.328
  273.000   94.707    0.316    0.070   10.343
  273.250   94.735    0.321    0.069   10.175
  273.500   94.185    0.320    0.067   10.190
  273.750   95.418    0.316    0.063   10.201
  274.000   97.249    0.314    0.066   10.220
  274.250   98.482    0.316    0.077   10.050
  274.500   98.520    0.320    0.090    9.886
  274.750   98.558    0.317    0.088    9.893
  275.000   98.008    0.315    0.078   10.277
