~VERSION INFORMATION
 VERS.                 2.0:   CWLS LOG ASCII STANDARD -VERSION 2.0
 WRAP.                  NO:   ONE LINE PER DEPTH STEP
~WELL INFORMATION BLOCK
#MNEM.UNIT           DATA                    DESCRIPTION OF MNEMONIC
#---------    -------------------            -------------------------------
# Generated from Intellog Unique Number	CN_94_101/WELL/5020
WELL.         11-22-099-14W4                 : Well_name    - WELL
LOC .         AA/11-22-099-14W4/0            : Location     - LOCATION
UWI .         AA/11-22-099-14W400            : Uwi          - UNIQUE WELL ID
ENTR.         TIM                            : Entered      - ENTERED BY
SRVC.         SCHLUMBERGER                   : Scn          - SERVICE COMPANY
DATE.         08/13/92                       : Date         - LOG DATE
STRT.M        370                            : top_depth    - START DEPTH
STOP.M        575                            : bot_depth    - STOP DEPTH
STEP.M        0.25                           : increment    - STEP LENGTH
 NULL. -999.2500:NULL Value
~CURVE INFORMATION BLOCK
#MNEM UNIT       ERCB CURVE CODE    CURVE DESCRIPTION
#-----------   ------------------   ----------------------------------
DEPT.M        00 001 00 00         : DEPTH        - DEPTH
GR  .API      00 310 00 00         : GR           - GAMMA RAY
NPHI.V/V      00 330 00 00         : PHIN         - NEUTRON POROSITY (SANDSTONE)
DPHI.V/V      00 890 00 00         : PHID         - DENSITY POROSITY (SANDSTONE)
ILD .OHMM     00 120 00 00         : RESD         - DEEP RESISTIVITY (DIL)
~PARAMETER INFORMATION
#MNEM.UNIT           DATA             DESCRIPTION OF MNEMONIC
#---------         -----------     ------------------------------
GL  .M        815.9                : gl           - GROUND LEVEL ELEVATION
EREF.M        817.1                : kb           - ELEVATION OF DEPTH REFERENCE
DATM.M        817.1                : datum        - DATUM ELEVATION
TDD .M        578                  : tdd          - TOTAL DEPTH DRILLER
RUN .         ONE                  : Run          - RUN NUMBER
ENG .         BILL                 : Engineer     - RECORDING ENGINEER
WIT .         JIM                  : Witness      - WITNESSED BY
MUD .         GEL                  : Mud_type     - MUD TYPE
MATR.         SANDSTONE            : Logunit      - NEUTRON MATRIX
TMAX.C        21                   : BHT          - MAXIMUM RECORDED TEMPERATURE
BHTD.M        583                  : BHTDEP       - MAXIMUM RECORDED TEMPERATURE
RMT .C        25                   : MDTP         - TEMPERATURE OF MUD
MUDD.KG/M     1090                 : MWT          - MUD DENSITY
NEUT.         1                    : NEUTRON      - NEUTRON TYPE
RESI.         0                    : RESIST       - RESISTIVITY TYPE
RM  .OHMM     4.6                  : RM           - RESISTIVITY OF MUD
RMC .OHMM     4.6                  : RMC          - RESISTIVITY OF MUD CAKE
RMF .OHMM     4.6                  : RMF          - RESISTIVITY OF MUD FILTRATE
SUFT.C        4                    : SUFT         - SURFACE TEMPERATURE
~A  DEPTH       GR     PHIN     PHID     RESD
  370.000  109.377    0.452    0.279    2.141
  370.250  105.853    0.451    0.271    2.484
  370.500  103.503    0.452    0.244    2.628
  370.750   99.978    0.451    0.229    2.679
  371.000   96.454    0.451    0.219    2.731
  371.250   93.518    0.451    0.220    2.784
  371.500   93.521    0.455    0.229    2.837
  371.750   92.349    0.456    0.235    2.839
  372.000   95.880    0.448    0.243    2.840
  372.250  107.645    0.438    0.249    2.842
  372.500  110.002    0.435    0.254    2.741
  372.750  107.653    0.440    0.250    2.692
  373.000  106.480    0.454    0.252    2.694
  373.250  104.719    0.461    0.243    2.695
  373.500  104.723    0.447    0.224    2.747
  373.750  104.139    0.431    0.218    2.801
  374.000  100.026    0.426    0.224    2.855
  374.250   94.737    0.427    0.237    2.856
  374.500   93.564    0.428    0.247    2.858
  374.750   97.096    0.428    0.250    2.860
  375.000   98.276    0.428    0.251    2.809
  375.250   98.279    0.434    0.255    2.760
  375.500  101.225    0.443    0.260    2.761
  375.750  102.405    0.452    0.266    2.712
  376.000  102.408    0.463    0.264    2.714
  376.250  101.824    0.472    0.256    2.715
  376.500  100.064    0.479    0.253    2.667
  376.750   98.891    0.475    0.255    2.669
  377.000   98.307    0.474    0.283    2.621
  377.250   98.897    0.474    0.290    2.575
  377.500  100.665    0.473    0.295    2.529
  377.750  103.020    0.468    0.286    2.484
  378.000  105.377    0.461    0.276    2.441
  378.250  107.733    0.457    0.270    2.442
  378.500  110.088    0.456    0.272    2.444
  378.750  108.916    0.453    0.276    2.445
  379.000  104.216    0.455    0.285    2.446
  379.250  100.102    0.461    0.292    2.403
  379.500   98.930    0.470    0.301    2.360
  379.750   99.523    0.475    0.292    2.319
  380.000   97.173    0.480    0.288    2.277
  380.250   96.589    0.480    0.286    2.237
  380.500   97.181    0.467    0.285    2.239
  380.750   97.773    0.461    0.283    2.281
  381.000   96.600    0.455    0.277    2.413
  381.250   94.251    0.447    0.269    2.601
  381.500   92.490    0.446    0.261    2.651
  381.750   89.555    0.451    0.261    2.752
  382.000   89.559    0.458    0.290    2.805
  382.250   90.738    0.464    0.309    2.860
  382.500   91.330    0.453    0.313    2.915
  382.750   90.746    0.445    0.304    2.864
  383.000   88.397    0.436    0.294    2.813
  383.250   87.813    0.435    0.288    2.712
  383.500   90.167    0.441    0.286    2.567
  383.750   97.816    0.448    0.283    2.429
  384.000  100.760    0.453    0.280    2.258
  384.250   99.000    0.460    0.277    2.137
  384.500   97.239    0.446    0.274    2.099
  384.750   96.655    0.436    0.278    2.305
  385.000   97.834    0.441    0.286    2.437
  385.250   99.014    0.450    0.304    2.725
  385.500   96.077    0.452    0.324    3.047
  385.750   93.141    0.410    0.318    3.471
  386.000   89.029    0.412    0.284    3.672
  386.250   86.679    0.417    0.290    3.540
  386.500   82.567    0.419    0.297    3.351
  386.750   79.630    0.425    0.316    3.001
  387.000   83.163    0.436    0.349    2.840
  387.250   85.519    0.443    0.325    2.497
  387.500   89.049    0.428    0.307    2.407
  387.750   88.466    0.433    0.307    2.237
  388.000   86.117    0.440    0.308    2.157
  388.250   89.650    0.462    0.302    2.042
  388.500   90.831    0.466    0.297    2.006
  388.750   89.657    0.469    0.293    2.007
  389.000   88.484    0.448    0.292    2.084
  389.250   85.549    0.434    0.290    2.287
  389.500   84.963    0.426    0.290    2.511
  389.750   83.203    0.426    0.287    2.705
  390.000   84.383    0.435    0.285    2.861
  390.250   86.737    0.443    0.284    2.971
  390.500   86.742    0.436    0.285    3.028
  390.750   86.157    0.406    0.290    2.921
  391.000   86.161    0.402    0.304    2.616
  391.250   89.106    0.425    0.309    2.385
  391.500   90.285    0.431    0.307    2.097
  391.750   90.877    0.454    0.303    1.912
  392.000   92.645    0.457    0.299    1.712
  392.250   92.649    0.463    0.297    1.682
  392.500   92.063    0.465    0.296    1.779
  392.750   90.890    0.472    0.296    1.847
  393.000   92.658    0.482    0.296    1.954
  393.250   91.486    0.478    0.296    2.067
  393.500   87.373    0.452    0.297    2.146
  393.750   83.261    0.454    0.298    2.270
  394.000   82.088    0.459    0.299    2.314
  394.250   84.444    0.464    0.301    2.315
  394.500   86.213    0.472    0.303    2.317
  394.750   86.217    0.477    0.304    2.276
  395.000   87.395    0.473    0.307    2.235
  395.250   89.164    0.472    0.310    2.155
  395.500   89.754    0.476    0.311    2.118
  395.750   92.110    0.481    0.313    2.080
  396.000   97.406    0.483    0.308    2.081
  396.250   99.763    0.486    0.304    2.121
  396.500   98.590    0.483    0.298    2.122
  396.750   95.654    0.476    0.297    2.124
  397.000   91.541    0.465    0.297    2.205
  397.250   87.428    0.465    0.299    2.333
  397.500   87.432    0.462    0.302    2.561
  397.750   87.435    0.456    0.300    2.811
  398.000   87.439    0.440    0.300    2.813
  398.250   84.502    0.413    0.299    2.814
  398.500   81.566    0.408    0.298    2.714
  398.750   86.275    0.410    0.297    2.616
  399.000   88.629    0.436    0.297    2.477
  399.250   89.809    0.442    0.297    2.345
  399.500   89.813    0.453    0.297    2.260
  399.750   89.816    0.447    0.297    2.220
  400.000   89.821    0.437    0.297    2.222
  400.250   89.824    0.431    0.293    2.223
  400.500   89.828    0.429    0.283    2.266
  400.750   90.419    0.424    0.269    2.310
  401.000   90.423    0.418    0.271    2.398
  401.250   90.428    0.393    0.277    2.490
  401.500   90.430    0.386    0.282    2.539
  401.750   89.258    0.364    0.287    2.636
  402.000   86.322    0.338    0.299    2.893
  402.250   82.796    0.329    0.308    3.550
  402.500   76.919    0.335    0.298    4.119
  402.750   72.219    0.393    0.275    4.960
  403.000   67.519    0.442    0.237    5.755
  403.250   65.169    0.467    0.265    6.556
  403.500   56.353    0.460    0.276    6.808
  403.750   51.653    0.439    0.294    6.813
  404.000   51.657    0.412    0.340    6.450
  404.250   55.189    0.370    0.368    6.334
  404.500   55.781    0.352    0.369    6.221
  404.750   55.195    0.339    0.367    6.000
  405.000   54.612    0.328    0.358    6.002
  405.250   54.614    0.313    0.345    6.006
  405.500   53.443    0.320    0.327    6.010
  405.750   51.094    0.347    0.326    6.126
  406.000   49.334    0.391    0.356    6.130
  406.250   49.337    0.399    0.359    6.133
  406.500   49.929    0.390    0.361    6.138
  406.750   51.109    0.390    0.361    6.028
  407.000   51.702    0.401    0.359    5.922
  407.250   53.468    0.410    0.356    5.926
  407.500   55.823    0.411    0.346    5.930
  407.750   57.003    0.405    0.344    5.933
  408.000   57.008    0.397    0.340    5.828
  408.250   57.012    0.400    0.342    5.832
  408.500   57.014    0.405    0.348    5.835
  408.750   57.017    0.410    0.351    5.838
  409.000   55.846    0.405    0.346    5.736
  409.250   54.673    0.398    0.344    5.738
  409.500   53.500    0.393    0.345    5.534
  409.750   53.504    0.394    0.347    5.334
  410.000   54.684    0.394    0.339    4.689
  410.250   62.920    0.393    0.328    4.277
  410.500   71.744    0.393    0.321    3.759
  410.750   77.040    0.399    0.306    3.304
  411.000   82.925    0.409    0.289    3.070
  411.250   84.694    0.423    0.279    3.015
  411.500   85.283    0.432    0.293    2.962
  411.750   85.875    0.433    0.295    2.910
  412.000   85.879    0.437    0.287    2.858
  412.250   85.294    0.441    0.279    2.807
  412.500   87.652    0.445    0.279    2.609
  412.750   90.007    0.451    0.282    2.515
  413.000   90.600    0.460    0.283    2.470
  413.250   90.603    0.456    0.283    2.427
