~VERSION INFORMATION
 VERS.                 2.0:   CWLS LOG ASCII STANDARD -VERSION 2.0
 WRAP.                  NO:   ONE LINE PER DEPTH STEP
~WELL INFORMATION BLOCK
#MNEM.UNIT           DATA                    DESCRIPTION OF MNEMONIC
#---------    -------------------            -------------------------------
# Generated from Intellog Unique Number	CC_84_87/WELL/2306
NULL.         -999.25                        : NULL_VALUE
WELL.         PEX PCEJ HANGST OV             : Well_name    - WELL              
LOC .         10-26-086-09W4                 : Location     - LOCATION          
UWI .         AA/10-26-086-09W400            : Uwi          - UNIQUE WELL ID    
ENTR.         DW                             : Entered      - ENTERED BY        
SRVC.         DRESSER ATLAS                  : Scn          - SERVICE COMPANY   
DATE.         02 FEB 81                      : Date         - LOG DATE
STRT.M        65                             : top_depth    - START DEPTH       
STOP.M        220.102                        : bot_depth    - STOP DEPTH        
STEP.M        0.3                            : increment    - STEP LENGTH       
~CURVE INFORMATION BLOCK
#MNEM UNIT       ERCB CURVE CODE    CURVE DESCRIPTION
#-----------   ------------------   ----------------------------------
DEPT.M        00 001 00 00         : DEPTH        - DEPTH                       
DPHI.V/V      00 890 00 00         : PHID         - DENSITY POROSITY (LIMESTONE)
NPHI.V/V      00 330 00 00         : PHIN         - NEUTRON POROSITY (LIMESTONE)
GR  .API      00 310 00 00         : GR           - GAMMA RAY                   
ILD .OHMM     00 120 00 00         : RESD         - DEEP RESISTIVITY (DIL)      
~PARAMETER INFORMATION       
#MNEM.UNIT           DATA             DESCRIPTION OF MNEMONIC
#---------         -----------     ------------------------------
GL  .M        478.88               : gl           - GROUND LEVEL ELEVATION      
EREF.M        483.98               : kb           - ELEVATION OF DEPTH REFERENCE
DATM.M        483.98               : datum        - DATUM ELEVATION             
TDD .M        279                  : tdd          - TOTAL DEPTH DRILLER         
RUN .         ONE                  : Run          - RUN NUMBER                  
ENG .         BILL                 : Engineer     - RECORDING ENGINEER          
WIT .         JIM                  : Witness      - WITNESSED BY                
MUD .         GEL                  : Mud_type     - MUD TYPE                    
MATR.         LIMESTONE            : Logunit      - NEUTRON MATRIX              
TMAX.C        23                   : BHT          - MAXIMUM RECORDED TEMPERATURE
BHTD.M        279                  : BHTDEP       - MAXIMUM RECORDED TEMPERATURE
MATR.         1                    : LOGUNIT      - NEUTRON MATRIX              
RMT .C        25                   : MDTP         - TEMPERATURE OF MUD          
NEUT.         1                    : NEUTRON      - NEUTRON TYPE                
RESI.         0                    : RESIST       - RESISTIVITY TYPE            
RMC .OHMM     0.25                 : RMC          - RESISTIVITY OF MUD CAKE     
RMF .OHMM     0.25                 : RMF          - RESISTIVITY OF MUD FILTRATE 
SUFT.C        4                    : SUFT         - SURFACE TEMPERATURE         
~A  DEPTH     PHID     PHIN       GR     RESD
   65.000    0.382    0.462   25.473   18.532
   65.300    0.378    0.450   25.403   19.171
   65.600    0.381    0.441   26.586   19.493
   65.900    0.372    0.447   28.972   19.807
   66.200    0.367    0.435   28.314   19.741
   66.500    0.394    0.431   25.795   19.335
   66.800    0.395    0.454   24.498   17.865
   67.100    0.373    0.452   23.824   15.904
   67.400    0.351    0.465   26.839   12.394
   67.700    0.325    0.495   32.323   10.614
   68.000    0.236    0.511   55.686    9.631
   68.300    0.248    0.518   56.853    8.406
   68.600    0.258    0.519   58.003    7.922
   68.900    0.265    0.531   59.822    7.319
   69.200    0.250    0.536   65.300    6.763
   69.500    0.241    0.535   68.332    6.493
   69.800    0.227    0.531   67.034    6.347
   70.100    0.219    0.514   63.883    6.337
   70.400    0.232    0.483   60.131    6.315
   70.700    0.247    0.487   55.773    6.424
   71.000    0.261    0.473   63.101    6.643
   71.300    0.267    0.460   58.732    6.631
   71.600    0.212    0.441   57.435    6.609
   71.900    0.214    0.447   54.912    6.591
   72.200    0.224    0.454   48.687    6.444
   72.500    0.247    0.467   56.035    6.313
   72.800    0.278    0.486   64.595    6.054
   73.100    0.374    0.509   60.830    6.043
   73.400    0.333    0.522   56.471    6.012
   73.700    0.300    0.450   58.864    5.996
   74.000    0.350    0.465   55.729    6.096
   74.300    0.297    0.468   54.443    6.194
   74.600    0.337    0.478   51.898    6.297
   74.900    0.285    0.478   52.456    6.401
   75.200    0.245    0.462   53.639    6.383
   75.500    0.231    0.459   56.662    6.485
   75.800    0.232    0.456   54.147    6.349
   76.100    0.273    0.444   51.619    6.323
   76.400    0.313    0.439   52.783    6.313
   76.700    0.281    0.440   54.579    6.292
   77.000    0.245    0.456   57.600    6.396
   77.300    0.249    0.476   59.397    6.382
   77.600    0.280    0.458   62.404    6.485
   77.900    0.256    0.447   62.966    6.458
   78.200    0.278    0.461   61.677    6.441
   78.500    0.291    0.462   59.771    6.308
   78.800    0.310    0.463   57.855    6.285
   79.100    0.279    0.491   55.332    6.271
   79.400    0.280    0.501   55.278    6.489
   79.700    0.307    0.470   58.297    6.601
   80.000    0.435    0.503   59.477    7.091
   80.300    0.411    0.522   50.783    7.353
   80.600    0.272    0.485   46.418    7.906
   80.900    0.291    0.441   42.038    8.188
   81.200    0.301    0.440   48.137    8.169
   81.500    0.302    0.446   54.246    8.146
   81.800    0.307    0.434   52.341    8.430
   82.100    0.291    0.430   44.265    8.730
   82.400    0.288    0.430   49.759    9.220
   82.700    0.293    0.425   50.316    9.914
   83.000    0.313    0.415   41.007   10.466
   83.300    0.312    0.417   36.631   10.846
   83.600    0.308    0.457   44.584   11.226
   83.900    0.292    0.464   50.073   10.981
   84.200    0.300    0.500   53.094    9.769
   84.500    0.304    0.491   49.340    8.863
   84.800    0.302    0.487   49.271    8.040
   85.100    0.305    0.486   54.763    7.286
   85.400    0.305    0.467   52.226    7.137
   85.700    0.295    0.456   52.187    7.386
   86.000    0.292    0.459   55.194    7.655
   86.300    0.284    0.485   54.535    8.066
   86.600    0.281    0.460   58.778    8.519
   86.900    0.274    0.452   56.250    8.821
   87.200    0.265    0.459   52.498    8.975
   87.500    0.271    0.467   51.821    9.121
   87.800    0.274    0.461   50.516    9.265
   88.100    0.267    0.448   49.243    9.237
   88.400    0.254    0.446   45.489    9.039
   88.700    0.299    0.436   44.792    8.681
   89.000    0.336    0.438   47.212    8.020
   89.300    0.251    0.488   56.403    7.272
   89.600    0.275    0.477   58.791    6.595
   89.900    0.259    0.473   60.599    6.218
   90.200    0.305    0.479   61.769    5.529
   90.500    0.400    0.506   64.793    5.312
   90.800    0.477    0.543   59.805    5.198
   91.100    0.361    0.515   55.422    5.481
   91.400    0.389    0.487   55.370    6.362
   91.700    0.522    0.513   49.152    6.844
   92.000    0.419    0.544   57.102    7.090
   92.300    0.256    0.465   50.873    7.070
   92.600    0.263    0.447   52.042    6.788
   92.900    0.333    0.460   53.842    6.393
   93.200    0.379    0.464   54.392    6.021
   93.500    0.291    0.469   53.721    6.119
   93.800    0.312    0.472   53.041    6.832
   94.100    0.318    0.478   52.981    7.356
   94.400    0.336    0.504   55.390    8.218
   94.700    0.270    0.514   59.026    7.741
   95.000    0.278    0.493   58.351    6.630
   95.300    0.290    0.449   54.590    5.794
   95.600    0.293    0.469   53.917    4.779
   95.900    0.370    0.500   55.091    4.017
   96.200    0.418    0.520   57.494    3.574
   96.500    0.446    0.547   57.430    3.368
   96.800    0.333    0.558   54.912    3.357
   97.100    0.331    0.503   52.998    3.539
   97.400    0.394    0.511   52.923    3.602
   97.700    0.462    0.559   52.271    3.946
   98.000    0.344    0.565   52.201    4.411
   98.300    0.339    0.538   52.149    5.217
   98.600    0.319    0.496   53.948    6.055
   98.900    0.262    0.463   55.109    6.892
   99.200    0.257    0.440   60.604    7.698
   99.500    0.258    0.441   63.012    8.284
   99.800    0.285    0.446   62.950    8.581
  100.100    0.271    0.462   57.954    8.885
  100.400    0.283    0.463   55.436   10.508
  100.700    0.264    0.436   51.681   12.430
  101.000    0.222    0.395   37.450   13.615
  101.300    0.237    0.393   38.002   13.838
  101.600    0.273    0.396   42.870   13.294
  101.900    0.280    0.398   42.196   10.963
  102.200    0.282    0.405   47.686    9.396
  102.500    0.303    0.464   51.933    7.745
  102.800    0.408    0.478   53.104    6.893
  103.100    0.446    0.499   56.744    6.252
  103.400    0.364    0.497   59.158    5.779
  103.700    0.353    0.495   59.711    5.657
  104.000    0.392    0.509   60.264    5.746
  104.300    0.350    0.517   58.978    5.833
  104.600    0.361    0.506   51.528    5.934
  104.900    0.453    0.500   52.085    6.143
  105.200    0.464    0.505   50.776    6.737
  105.500    0.460    0.490   47.027    7.675
  105.800    0.303    0.473   45.726    9.601
  106.100    0.254    0.433   42.583   10.134
  106.400    0.264    0.421   41.292   10.897
  106.700    0.237    0.429   45.560   11.066
  107.000    0.259    0.432   51.039   11.047
  107.300    0.204    0.434   47.285   10.800
  107.600    0.261    0.443   42.280   10.773
  107.900    0.313    0.449   42.234   10.751
  108.200    0.312    0.449   48.335   11.130
  108.500    0.327    0.452   48.268   10.678
  108.800    0.343    0.453   47.601   10.446
  109.100    0.321    0.433   46.312   10.226
  109.400    0.226    0.410   42.564   10.393
  109.700    0.278    0.368   54.831   10.757
  110.000    0.307    0.415   60.934   10.944
  110.300    0.322    0.415   57.783   11.336
  110.600    0.332    0.403   50.941   12.422
  110.900    0.340    0.378   47.189   15.258
  111.200    0.194    0.294   40.973   19.848
  111.500    0.035    0.171   34.749   24.379
  111.800    0.091    0.193   31.607   20.104
  112.100    0.190    0.344   34.618   15.088
  112.400    0.258    0.396   38.882   12.210
  112.700    0.306    0.428   41.914   10.267
  113.000    0.294    0.441   49.852    8.311
  113.300    0.303    0.442   51.035    7.122
  113.600    0.305    0.449   52.211    6.831
  113.900    0.311    0.438   52.768    7.078
  114.201    0.297    0.429   52.074    7.470
  114.501    0.251    0.433   51.405    7.734
  114.801    0.277    0.433   51.327    7.861
  115.101    0.307    0.449   51.914    7.841
  115.401    0.249    0.459   52.470    7.109
  115.701    0.258    0.467   54.864    6.450
  116.001    0.309    0.456   54.810    5.736
  116.301    0.372    0.466   54.755    5.509
  116.601    0.342    0.497   53.452    5.386
  116.901    0.330    0.497   52.774    5.477
