~VERSION INFORMATION
 VERS.                 2.0:   CWLS LOG ASCII STANDARD -VERSION 2.0
 WRAP.                  NO:   ONE LINE PER DEPTH STEP
~WELL INFORMATION BLOCK
#MNEM.UNIT           DATA                    DESCRIPTION OF MNEMONIC
#---------    -------------------            -------------------------------
# Generated from Intellog Unique Number	CC_84_87/WELL/2299
NULL.         -999.25                        : NULL_VALUE
WELL.         PEX PCEJ MCMURRAY OV           : Well_name    - WELL
LOC .         10-08-087-15W4                 : Location     - LOCATION          
UWI .         AA/10-08-087-15W400            : Uwi          - UNIQUE WELL ID    
ENTR.         JOHN                           : Entered      - ENTERED BY        
SRVC.         SCHLUMBERGER                   : Scn          - SERVICE COMPANY   
DATE.         17 MAR 79                      : Date         - LOG DATE
STRT.M        68                             : top_depth    - START DEPTH       
STOP.M        236.902                        : bot_depth    - STOP DEPTH        
STEP.M        0.3                            : increment    - STEP LENGTH       
~CURVE INFORMATION BLOCK
#MNEM UNIT       ERCB CURVE CODE    CURVE DESCRIPTION
#-----------   ------------------   ----------------------------------
DEPT.M        00 001 00 00         : DEPTH        - DEPTH                       
DPHI.V/V      00 890 00 00         : PHID         - DENSITY POROSITY (LIMESTONE)
NPHI.V/V      00 330 00 00         : PHIN         - NEUTRON POROSITY (LIMESTONE)
GR  .API      00 310 00 00         : GR           - GAMMA RAY                   
ILD .OHMM     00 120 00 00         : RESD         - DEEP RESISTIVITY (DIL)      
~PARAMETER INFORMATION       
#MNEM.UNIT           DATA             DESCRIPTION OF MNEMONIC
#---------         -----------     ------------------------------
GL  .M        492.33               : gl           - GROUND LEVEL ELEVATION      
EREF.M        495.33               : kb           - ELEVATION OF DEPTH REFERENCE
DATM.M        495.33               : datum        - DATUM ELEVATION             
TDD .M        245.2                : tdd          - TOTAL DEPTH DRILLER         
RUN .         ONE                  : Run          - RUN NUMBER                  
ENG .         BILL                 : Engineer     - RECORDING ENGINEER          
WIT .         JIM                  : Witness      - WITNESSED BY                
MUD .         GEL                  : Mud_type     - MUD TYPE                    
MATR.         LIMESTONE            : Logunit      - NEUTRON MATRIX              
TMAX.C        60                   : BHT          - MAXIMUM RECORDED TEMPERATURE
BHTD.M        245.2                : BHTDEP       - MAXIMUM RECORDED TEMPERATURE
MATR.         1                    : LOGUNIT      - NEUTRON MATRIX              
RMT .C        25                   : MDTP         - TEMPERATURE OF MUD          
NEUT.         1                    : NEUTRON      - NEUTRON TYPE                
RESI.         0                    : RESIST       - RESISTIVITY TYPE            
RMC .OHMM     0.25                 : RMC          - RESISTIVITY OF MUD CAKE     
RMF .OHMM     0.25                 : RMF          - RESISTIVITY OF MUD FILTRATE 
SUFT.C        15                   : SUFT         - SURFACE TEMPERATURE         
~A  DEPTH     PHID     PHIN       GR     RESD
# ...
  172.401    0.220    0.455  125.717    7.245
  172.701    0.193    0.444  122.010    8.120
  173.001    0.203    0.437  116.460    8.933
  173.301    0.203    0.433  115.213   10.013
  173.601    0.206    0.429  109.048   11.014
  173.901    0.186    0.418  108.413   11.452
  174.201    0.184    0.431  110.856   11.683
  174.501    0.197    0.439  113.906   11.265
  174.801    0.208    0.428  112.048   11.070
  175.101    0.197    0.422  115.716   10.873
  175.401    0.202    0.428  113.854   10.489
  175.701    0.212    0.424  113.836   10.496
  176.001    0.221    0.426  112.585   10.511
  176.301    0.235    0.428  106.420   10.723
  176.601    0.247    0.422  102.101   10.940
  176.901    0.236    0.417   99.010   11.371
  177.201    0.236    0.410   96.534   12.052
  177.501    0.234    0.409   99.589   12.528
  177.801    0.232    0.416   98.954   12.306
  178.101    0.231    0.416   99.550   12.095
  178.401    0.238    0.404   98.302   12.338
  178.701    0.264    0.398   95.211   12.823
  179.001    0.285    0.396   90.889   13.843
  179.301    0.295    0.395   87.180   15.228
  179.601    0.279    0.417   84.701   15.833
  179.901    0.259    0.430   84.688   15.265
  180.201    0.247    0.422   92.045   13.915
  180.501    0.243    0.431   92.641   13.165
  180.801    0.237    0.430   90.777   12.693
  181.101    0.224    0.425   91.371   12.237
  181.401    0.220    0.424   93.199   11.582
  181.701    0.219    0.426   96.255   11.377
  182.001    0.209    0.436  101.768   11.178
  182.301    0.218    0.463  105.439   10.777
  182.601    0.219    0.466  106.646   10.796
  182.901    0.207    0.452  104.782   10.805
  183.201    0.193    0.447  103.539   10.819
  183.501    0.192    0.441   96.756   10.830
  183.801    0.184    0.430   94.895   10.442
  184.101    0.170    0.478   98.566    9.163
  184.401    0.158    0.444  108.998    6.917
  184.701    0.216    0.434  115.125    5.631
  185.001    0.256    0.468  120.019    4.758
  185.301    0.238    0.502  115.087    3.947
  185.601    0.232    0.515  104.618    3.952
  185.901    0.244    0.509   96.610    4.430
  186.201    0.254    0.509   83.071    5.772
  186.501    0.249    0.488   68.915    9.975
  186.801    0.260    0.438   58.446   22.438
  187.101    0.247    0.388   57.811   27.121
  187.401    0.250    0.393   58.407   28.191
  187.701    0.270    0.405   59.002   26.183
  188.001    0.274    0.418   57.138   23.858
  188.301    0.276    0.430   55.277   21.739
  188.601    0.263    0.427   54.644   20.965
  188.901    0.243    0.410   53.395   21.385
  189.201    0.226    0.404   51.534   29.486
  189.501    0.251    0.437   47.216   41.431
  189.801    0.292    0.446   47.193   46.434
  190.101    0.286    0.441   50.251   49.191
  190.401    0.297    0.443   55.763   46.553
  190.701    0.310    0.440   56.970   40.093
  191.001    0.303    0.434   58.801   34.524
  191.301    0.297    0.440   61.855   30.879
  191.601    0.280    0.434   59.993   30.919
  191.901    0.289    0.426   59.976   30.954
  192.201    0.285    0.426   61.797   28.742
  192.501    0.289    0.420   62.396   25.230
  192.801    0.284    0.429   63.609   22.137
  193.101    0.300    0.425   64.816   19.795
  193.401    0.293    0.425   65.413   18.042
  193.701    0.279    0.436   65.395   18.064
  194.001    0.252    0.446   69.064   18.774
  194.301    0.263    0.456   68.433   12.900
  194.601    0.273    0.452   71.489    9.557
  194.901    0.261    0.449   88.680    5.141
  195.201    0.202    0.457  104.643    3.402
  195.501    0.234    0.487  112.614    2.930
  195.801    0.260    0.536  116.286    2.934
  196.101    0.254    0.616  110.119    2.993
  196.401    0.245    0.648  109.483    3.111
  196.701    0.245    0.567  111.926    3.297
  197.001    0.217    0.542  116.212    3.491
  197.301    0.227    0.534  111.891    3.914
  197.601    0.229    0.528  104.495    4.305
  197.901    0.220    0.567  104.477    3.998
  198.201    0.150    0.528  111.835    3.644
  198.501    0.185    0.454  119.187    3.580
  198.801    0.233    0.488  117.944    3.654
  199.101    0.237    0.557  113.623    3.943
  199.401    0.221    0.558  107.458    4.676
  199.701    0.195    0.480   96.989    6.571
  200.001    0.202    0.457   88.367    8.561
  200.301    0.226    0.414   80.972   10.544
  200.601    0.252    0.408   76.033   11.598
  200.901    0.245    0.419   70.484   12.522
  201.201    0.274    0.441   61.246   14.031
  201.501    0.286    0.438   51.393   17.610
  201.801    0.310    0.426   45.837   26.181
  202.101    0.323    0.415   48.898   28.262
  202.401    0.325    0.413   53.797   28.298
  202.701    0.314    0.419   55.617   27.287
  203.001    0.304    0.434   54.986   24.863
  203.301    0.301    0.439   57.428   22.231
  203.601    0.292    0.428   62.325   19.882
  203.901    0.281    0.434   67.227   18.115
  204.201    0.266    0.434   72.739   16.824
  204.501    0.254    0.413   78.255   15.625
  204.801    0.233    0.417   87.455   15.063
  205.101    0.219    0.395  100.959   14.251
  205.401    0.228    0.383  102.785   13.745
  205.701    0.223    0.387  102.146   13.505
  206.001    0.230    0.410  105.202   13.273
  206.301    0.235    0.423  105.188   13.283
  206.601    0.233    0.439  101.480   13.307
  206.901    0.221    0.432  102.077   13.570
  207.201    0.205    0.415   99.599   14.110
  207.501    0.220    0.411   95.893   14.391
  207.801    0.221    0.402   91.573   14.960
  208.101    0.233    0.385   86.636   17.091
  208.401    0.231    0.389   81.700   21.442
  208.701    0.216    0.393   75.534   28.472
  209.001    0.242    0.389   69.368   35.732
  209.301    0.264    0.365   66.891   41.596
  209.601    0.274    0.345   69.333   42.435
  209.901    0.292    0.368   74.846   41.691
  210.201    0.287    0.399   74.826   38.004
  210.501    0.274    0.402   71.734   35.277
  210.801    0.268    0.387   72.331   29.816
  211.101    0.257    0.380   75.388   23.815
  211.401    0.258    0.373   82.744   19.395
  211.701    0.240    0.370   88.873   19.785
  212.001    0.209    0.376   86.395   20.559
  212.301    0.204    0.387   77.157   24.384
  212.601    0.204    0.387   70.993   27.335
  212.901    0.133    0.341   68.514   30.076
  213.201    0.226    0.375   72.797   28.449
  213.501    0.262    0.387   80.767   24.046
  213.801    0.245    0.376   86.897   19.577
  214.101    0.231    0.389   92.414   17.178
  214.401    0.219    0.384   98.541   15.658
  214.701    0.202    0.379  100.982   14.814
  215.001    0.171    0.391   96.043   14.829
  215.301    0.201    0.413   99.100   15.416
  215.602    0.243    0.400  105.229   17.285
  215.902    0.246    0.408  101.518   19.009
  216.202    0.249    0.439   96.587   21.710
  216.502    0.275    0.498   87.963   26.737
  216.802    0.331    0.584   85.485   31.123
  217.102    0.331    0.583   86.082   32.353
  217.402    0.258    0.422   90.976   30.614
  217.702    0.260    0.389   96.489   24.004
  218.002    0.248    0.380   97.704   23.137
  218.302    0.245    0.384   94.613   22.738
  218.602    0.243    0.374   83.531   24.543
  218.902    0.260    0.394   69.376   26.493
  219.202    0.290    0.401   62.595   29.143
  219.502    0.312    0.393   68.101   30.870
  219.802    0.308    0.399   73.617   30.331
  220.102    0.296    0.415   78.518   26.622
  220.402    0.290    0.410   88.953   21.264
  220.702    0.280    0.391  114.135   16.990
  221.002    0.261    0.368  128.254   15.479
  221.302    0.194    0.361  133.768   14.376
  221.602    0.191    0.370  134.362   14.122
  221.902    0.194    0.380  123.281   14.963
  222.202    0.185    0.372  115.884   15.850
  222.502    0.188    0.353  116.478   16.478
  222.802    0.181    0.349  124.455   16.814
  223.102    0.182    0.361  123.823   16.832
  223.402    0.197    0.371  125.033   16.849
  223.702    0.201    0.386  129.316   15.648
  224.002    0.192    0.398  128.684   12.496
  224.302    0.201    0.407  123.748   12.052
