~Version : LASO    vs 4.00
VERS.                2.00:   CWLS Log ASCII Standard -VERSION 2.0
WRAP.                  NO:
~Well Information Block
#MNEM.UNIT       Data                        Description of Mnemonic
#----.----      -------------------------- : -----------------------------
STRT.M            15.0000:
STOP.M           203.4000:
STEP.M             0.1000:
NULL.           -999.2500:
COMP.  MOBIL OIL CANADA LTD.     :COMPANY
WELL.  MOBIL CLARKE OV 12-34     :WELL
FLD.   CLARKE                    :FIELD
LOC.   12-34-089-08W4            :LOCATION
CTRY.  CANADA                    :COUNTRY
PROV.  ALBERTA                   :PROVINCE
SRVC.  SCHLUMBERGER              :SERVICE COMPANY
DATE.  20-FEB-81                 :LOG DATE
UWI.   AA/12-34-089-08W400       :UNIQUE WELL ID
~Parameter Information Block
#MNEM.UNIT       Data                        Description of Mnemonic
#----.----      -------------------------- : -----------------------------
RUN .                   1                 : Run Number
GL  .M           415.1000                 : Ground Level Elevation
DREF.                  KB                 : Depth Reference
EREF.M           418.1000                 : Elevation of Depth Reference
TDL .M           203.0000                 : Total Depth Logger
TDD .M           200.0000                 : Total Depth Driller
CSGL.M            18.0000                 : Casing Bottom Logger
CSGD.M            15.0000                 : Casing Bottom Driller
CSGS.MM          219.0000                 : Casing Size
CSGW.KG/M          0.0000                 : Casing Weight
BHT .DEGC         12.0000                 : Bottom Hole Temperature
BS  .MM          159.0000                 : Bit Size
DFD .           1110.0000                 : Mud Weight (Density)
DFV .             90.0000                 : Mud Viscosity
DFPH.             10.0000                 : Mud pH
RM  .OHMM          1.9600                 : Mud Resistivity
RMT .DEGC         20.0000                 : Mud Resistivity Temperature
~Curve Information Block
#MNEM.UNIT        API CODE    Curve Description
#---------    ------------    -------------------------------------------
DEPT.M                    :   DEPTH
CALI.MM       42 280  1  1:   3 DENSITY CALIPER
DPHI.V/V                  :   DPHI
DT  .US/M     60 520  0  1:   2 SONIC INTERVAL TRANSIT TIME (COMPENSATED)
GR  .GAPI     42 310  1  1:   4 GAMMA RAY
ILD .OHMM      7 120 46  1:   7 DEEP INDUCTION
ILM .OHMM      7 120 44  1:   8 MEDIUM INDUCTION
NPHI.V/V      42 890  3  1:   5 NEUTRON POROSITY (SANDSTONE)
RHOB.K/M3     42 350  1  1:   6 BULK DENSITY
SFLU.OHMM      7 220  1  1:   9 FOCUSSED RESISTIVITY
SP  .MV        7  10  1  1:   10 SPONTANEOUS POTENTIAL
~A  Depth           CALI        DPHI          DT          GR         ILD         ILM        NPHI        RHOB        SFLU          SP
# ...
100.4000        162.4500      0.2160    488.4000     92.4000      8.5473      8.2382      0.4699   2200.2000      6.7457    -37.1000
100.5000        162.4500      0.2131    488.6000     92.4150      8.5473      8.2382      0.4699   2200.2000      6.7457    -37.1000
100.6000        162.4000      0.2096    488.6800     92.4300      7.6812      7.6671      0.4753   2194.6001      6.9347    -36.4000
100.7000        162.4000      0.2037    488.1200     92.4450      7.6812      7.6671      0.4753   2194.6001      6.9347    -36.4000
100.8000        166.7250      0.1889    487.0800     92.4600      7.2951      7.2884      0.4735   2190.2000      6.9603    -35.7200
100.9000        166.7250      0.1522    484.6800     93.3300      7.2951      7.2884      0.4735   2190.2000      6.9603    -35.7200
101.0000        182.6750      0.1254    482.2400     94.4100      6.8207      6.7209      0.4690   2197.7000      6.4898    -35.6800
101.1000        182.6750      0.1089    481.8800     95.6250      6.8207      6.7209      0.4690   2197.7000      6.4898    -35.6800
101.2000        190.7500      0.1083    481.5200     97.3350      6.6901      6.5559      0.4661   2185.2000      7.3085    -35.7500
101.3000        190.7500      0.1225    481.2400     99.0450      6.6901      6.5559      0.4661   2185.2000      7.3085    -35.7500
101.4000        188.7750      0.1342    481.0800    100.7250      6.5740      6.4719      0.4622   2218.1001      7.6741    -35.8500
101.5000        188.7750      0.1553    480.9200    100.6350      6.5740      6.4719      0.4622   2218.1001      7.6741    -35.8500
101.6000        182.6500      0.1913    480.7600    100.2300      6.5438      6.5378      0.4691   2226.2000      6.5680    -36.1500
101.7000        182.6500      0.2467    478.4400     98.6550      6.5438      6.5378      0.4691   2226.2000      6.5680    -36.1500
101.8000        182.5500      0.2581    472.9200     97.0800      6.6165      6.6532      0.4668   2214.0000      6.4600    -36.4000
101.9000        182.5500      0.2691    467.7200     95.7750      6.6165      6.6532      0.4668   2214.0000      6.4600    -36.4000
102.0000        184.0250      0.2695    463.7600     94.5300      6.7024      6.7148      0.4619   2219.2000      6.0455    -36.6200
102.1000        184.0250      0.2707    460.8800     93.6600      6.7024      6.7148      0.4619   2219.2000      6.0455    -36.6200
102.2000        184.8750      0.2718    459.0000     93.9300      6.8082      6.8019      0.4564   2210.7000      6.1579    -36.7100
102.3000        184.8750      0.2675    459.3200     94.1700      6.8082      6.8019      0.4564   2210.7000      6.1579    -36.7100
102.4000        177.6500      0.2633    459.9200     94.4850      6.9603      7.0963      0.4781   2252.5000      6.2897    -36.5800
102.5000        177.6500      0.2602    460.5200     94.8000      6.9603      7.0963      0.4781   2252.5000      6.2897    -36.5800
102.6000        174.3500      0.2606    464.8400     95.1600      6.3831      7.1884      0.4939   2233.3000      7.5898    -36.5400
102.7000        174.3500      0.2619    469.1600     95.5350      6.3831      7.1884      0.4939   2233.3000      7.5898    -36.5400
102.8000        172.4000      0.2698    501.5200     95.7600      5.8000      6.4481      0.5178   2198.8000      8.6982    -36.6300
102.9000        172.4000      0.2655    501.5200     95.4300      5.8000      6.4481      0.5178   2198.8000      8.6982    -36.6300
103.0000        172.4500      0.2603    501.5200     94.0500      4.5523      5.0749      0.5823   2153.3999      8.8599    -36.3700
103.1000        172.4500      0.2542    518.3200     90.9900      4.5523      5.0749      0.5823   2153.3999      8.8599    -36.3700
103.2000        176.8500      0.2496    541.6000     88.0950      3.9105      4.2996      0.5998   2097.3000      7.7737    -36.0000
103.3000        176.8500      0.2544    545.2800     86.3100      3.9105      4.2996      0.5998   2097.3000      7.7737    -36.0000
103.4000        185.9250      0.2568    543.0000     84.6750      3.4692      3.7276      0.5933   2087.7000      4.7493    -34.1700
103.5000        185.9250      0.2589    541.5200     83.5500      3.4692      3.7276      0.5933   2087.7000      4.7493    -34.1700
103.6000        195.0500      0.2608    545.3600     82.5900      2.7889      2.8749      0.5748   2074.3999      1.7403    -30.8900
103.7000        195.0500      0.2574    543.6400     82.5300      2.7889      2.8749      0.5748   2074.3999      1.7403    -30.8900
103.8000        199.3250      0.2536    541.2000     83.2650      2.5718      2.5908      0.5708   2087.0000      1.6272    -30.6700
103.9000        199.3250      0.2459    538.7600     84.3300      2.5718      2.5908      0.5708   2087.0000      1.6272    -30.6700
104.0000        188.6250      0.2376    535.1200     85.3950      2.3935      2.4112      0.5710   2110.8000      1.8614    -30.7600
104.1000        188.6250      0.2269    531.4800     86.2950      2.3935      2.4112      0.5710   2110.8000      1.8614    -30.7600
104.2000        193.3500      0.2338    527.6000     87.1350      2.3304      2.3891      0.5666   2109.7000      2.1490    -31.0300
104.3000        193.3500      0.2518    525.8400     87.6300      2.3304      2.3891      0.5666   2109.7000      2.1490    -31.0300
104.4000        199.2750      0.2830    525.4400     87.7650      2.3825      2.4335      0.5623   2104.8000      2.2648    -31.1000
104.5000        199.2750      0.2948    524.8800     87.8550      2.3825      2.4335      0.5623   2104.8000      2.2648    -31.1000
104.6000        200.0750      0.3102    524.2000     87.0600      2.4833      2.4994      0.5672   2118.1001      2.3825    -31.2800
104.7000        200.0750      0.3221    522.7200     86.5500      2.4833      2.4994      0.5672   2118.1001      2.3825    -31.2800
104.8000        206.2500      0.3344    519.3200     87.8250      2.6855      2.6954      0.5786   2166.1001      2.2627    -31.6700
104.9000        206.2500      0.3398    515.9200     89.0550      2.6855      2.6954      0.5786   2166.1001      2.2627    -31.6700
105.0000        196.4000      0.3442    510.6800     89.8350      2.7940      2.8329      0.5711   2177.3000      2.5248    -31.1700
105.1000        196.4000      0.3433    505.8800     88.5600      2.7940      2.8329      0.5711   2177.3000      2.5248    -31.1700
105.2000        193.9500      0.3390    501.8400     87.4500      2.9069      2.9994      0.5368   2169.6001      2.8095    -31.0100
105.3000        193.9500      0.3336    499.2000     86.1450      2.9069      2.9994      0.5368   2169.6001      2.8095    -31.0100
105.4000        193.8500      0.3264    492.3600     85.1100      3.0467      3.1991      0.4979   2210.3999      2.8225    -31.0400
105.5000        193.8500      0.3217    482.6000     85.2150      3.0467      3.1991      0.4979   2210.3999      2.8225    -31.0400
105.6000        178.9000      0.3186    480.8000     85.5900      3.3530      3.6562      0.4552   2217.8000      2.7837    -31.6700
105.7000        178.9000      0.3184    480.4000     87.1950      3.3530      3.6562      0.4552   2217.8000      2.7837    -31.6700
105.8000        174.5750      0.3198    485.4000     86.6250      3.5045      3.9033      0.4616   2204.0000      4.1403    -32.5400
105.9000        174.5750      0.3235    491.3200     86.0700      3.5045      3.9033      0.4616   2204.0000      4.1403    -32.5400
106.0000        170.9750      0.3240    496.4800     85.7850      3.6629      4.1175      0.4870   2184.3000      5.2364    -33.6800
106.1000        170.9750      0.3231    498.9600     85.5900      3.6629      4.1175      0.4870   2184.3000      5.2364    -33.6800
106.2000        168.6000      0.2963    499.6800     88.0800      3.8853      4.1824      0.5195   2162.6001      5.4379    -33.1700
106.3000        168.6000      0.2894    497.5200     89.5650      3.8853      4.1824      0.5195   2162.6001      5.4379    -33.1700
106.4000        168.4500      0.2888    494.2400     90.1950      3.9539      4.1671      0.5098   2199.3000      4.7537    -32.5100
