~VERSION INFORMATION
 VERS.                 2.0:   CWLS LOG ASCII STANDARD -VERSION 2.0
 WRAP.                  NO:   ONE LINE PER DEPTH STEP
~WELL INFORMATION BLOCK
#MNEM.UNIT           DATA                    DESCRIPTION OF MNEMONIC
#---------    -------------------            -------------------------------
# Generated from Intellog Unique Number	CC_80_83/WELL/2418
NULL.         -999.25                        : NULL_VALUE
WELL.         PEX PCEJ CHARD OV              : Well_name    - WELL              
LOC .         11-30-080-06W4                 : Location     - LOCATION          
UWI .         00/11-30-080-06W400            : Uwi          - UNIQUE WELL ID    
ENTR.         DW                             : Entered      - ENTERED BY        
SRVC.         SCHLUMBERGER                   : Scn          - SERVICE COMPANY   
DATE.         01 JAN 93                      : Date         - LOG DATE
STRT.M        85                             : top_depth    - START DEPTH       
STOP.M        315.099                        : bot_depth    - STOP DEPTH        
STEP.M        0.3                            : increment    - STEP LENGTH       
~CURVE INFORMATION BLOCK
#MNEM UNIT       ERCB CURVE CODE    CURVE DESCRIPTION
#-----------   ------------------   ----------------------------------
DEPT.M        00 001 00 00         : DEPTH        - DEPTH                       
DPHI.V/V      00 890 00 00         : PHID         - DENSITY POROSITY (LIMESTONE)
NPHI.V/V      00 330 00 00         : PHIN         - NEUTRON POROSITY (LIMESTONE)
GR  .API      00 310 00 00         : GR           - GAMMA RAY                   
ILD .OHMM     00 120 00 00         : RESD         - DEEP RESISTIVITY (DIL)      
~PARAMETER INFORMATION       
#MNEM.UNIT           DATA             DESCRIPTION OF MNEMONIC
#---------         -----------     ------------------------------
GL  .M        515.67               : gl           - GROUND LEVEL ELEVATION      
EREF.M        519.32               : kb           - ELEVATION OF DEPTH REFERENCE
DATM.M        519.32               : datum        - DATUM ELEVATION             
TDD .M        325                  : tdd          - TOTAL DEPTH DRILLER         
RUN .         ONE                  : Run          - RUN NUMBER                  
ENG .         BILL                 : Engineer     - RECORDING ENGINEER          
WIT .         JIM                  : Witness      - WITNESSED BY                
MUD .         GEL                  : Mud_type     - MUD TYPE                    
MATR.         LIMESTONE            : Logunit      - NEUTRON MATRIX              
TMAX.C        16                   : BHT          - MAXIMUM RECORDED TEMPERATURE
BHTD.M        322                  : BHTDEP       - MAXIMUM RECORDED TEMPERATURE
MATR.         1                    : LOGUNIT      - NEUTRON MATRIX              
RMT .C        25                   : MDTP         - TEMPERATURE OF MUD          
NEUT.         1                    : NEUTRON      - NEUTRON TYPE                
RESI.         0                    : RESIST       - RESISTIVITY TYPE            
RMC .OHMM     0.25                 : RMC          - RESISTIVITY OF MUD CAKE     
RMF .OHMM     0.25                 : RMF          - RESISTIVITY OF MUD FILTRATE 
SUFT.C        4                    : SUFT         - SURFACE TEMPERATURE         
~A  DEPTH     PHID     PHIN       GR     RESD
# ...
  137.201    0.254    0.481  141.553   11.257
  137.501    0.255    0.498  139.099   10.447
  137.801    0.270    0.477  142.254    9.879
  138.101    0.264    0.486  132.949   10.075
  138.401    0.276    0.454  121.783   11.294
  138.701    0.287    0.381  108.749   12.186
  139.001    0.277    0.374  121.860   13.924
  139.301    0.271    0.424  126.251   14.743
  139.601    0.266    0.393  121.310   15.612
  139.901    0.232    0.388  124.458   16.225
  140.201    0.232    0.402  112.670   16.241
  140.501    0.234    0.430  143.829   15.947
  140.801    0.235    0.442  147.603   15.087
  141.101    0.232    0.414  132.076   14.814
  141.401    0.238    0.422  109.715   14.545
  141.701    0.247    0.406  108.502   14.558
  142.001    0.249    0.410  115.387   14.846
  142.301    0.257    0.402  112.939   15.140
  142.601    0.254    0.426  109.238   14.322
  142.901    0.247    0.464  106.781   13.288
  143.201    0.248    0.435  122.379   11.655
  143.501    0.248    0.424  124.910   10.612
  143.801    0.269    0.391  126.192    9.665
  144.101    0.287    0.402  117.512    8.968
  144.401    0.297    0.406   82.070    8.480
  144.701    0.311    0.377   77.133    9.686
  145.001    0.316    0.378   65.341   11.708
  145.301    0.310    0.378   69.742   14.421
  145.601    0.296    0.365   80.357   20.269
  145.901    0.293    0.347   80.392   25.447
  146.201    0.291    0.353   79.186   26.945
  146.501    0.297    0.367   81.088   26.973
  146.801    0.305    0.396   71.790   26.989
  147.101    0.311    0.393   81.162   27.532
  147.401    0.308    0.402   88.670   28.071
  147.701    0.307    0.380   79.379   29.180
  148.001    0.308    0.402   76.298   29.208
  148.301    0.308    0.390   73.844   29.227
  148.601    0.308    0.390   74.508   29.247
  148.901    0.307    0.379   75.167   29.274
  149.201    0.305    0.402   78.313   29.854
  149.501    0.308    0.391   80.846   29.874
  149.801    0.318    0.394   79.021   29.338
  150.101    0.320    0.384   79.047   29.356
  150.401    0.319    0.389   82.826   28.303
  150.701    0.314    0.381   85.343   28.317
  151.001    0.312    0.358   77.290   27.817
  151.301    0.316    0.353   84.799   27.833
  151.601    0.320    0.380   86.079   28.388
  151.901    0.323    0.373   73.667   28.406
  152.201    0.326    0.389   79.306   28.975
  152.501    0.327    0.408   84.944   28.992
  152.801    0.326    0.423   86.227   29.567
  153.101    0.328    0.407   91.869   29.589
  153.401    0.327    0.406   92.526   28.517
  153.701    0.318    0.397   78.248   27.486
  154.001    0.317    0.396   84.514   26.999
  154.301    0.322    0.392   83.302   27.008
  154.601    0.325    0.393   88.941   27.030
  154.901    0.325    0.392   93.959   24.163
  155.201    0.320    0.388   86.524   23.722
  155.501    0.315    0.386   80.969   23.743
  155.801    0.311    0.376   84.738   25.154
  156.101    0.315    0.368   86.636   25.644
  156.401    0.319    0.363   76.099   26.153
  156.701    0.326    0.394   86.710   25.686
  157.001    0.332    0.396   91.106   23.396
  157.301    0.329    0.422   83.674   22.541
  157.601    0.327    0.416   71.885   22.145
  157.901    0.329    0.406   74.415   22.159
  158.201    0.342    0.433   81.918   22.179
  158.501    0.343    0.437   71.377   22.197
  158.801    0.339    0.425   73.909   22.634
  159.101    0.338    0.412   78.920   23.529
  159.401    0.339    0.429   75.228   23.989
  159.701    0.341    0.410   75.262   24.939
  160.001    0.342    0.423   80.279   24.951
  160.301    0.337    0.430   87.163   25.455
  160.601    0.330    0.426   77.246   24.992
  160.901    0.326    0.416   74.788   24.087
  161.201    0.325    0.384   71.720   22.777
  161.501    0.326    0.416   77.357   21.951
  161.801    0.335    0.431   78.012   22.811
  162.101    0.337    0.432   76.803   24.161
  162.401    0.337    0.405   73.726   26.079
  162.701    0.331    0.433   74.386   26.091
  163.001    0.327    0.444   63.842   26.114
  163.301    0.324    0.433   73.217   25.645
  163.601    0.323    0.418   72.011   24.721
  163.901    0.323    0.419   64.576   24.279
  164.201    0.323    0.427   67.735   24.755
  164.501    0.322    0.431   66.521   24.774
  164.801    0.318    0.439   70.918   25.265
  165.101    0.319    0.453   72.198   25.765
  165.401    0.325    0.439   69.120   26.778
  165.701    0.332    0.415   68.543   26.300
  166.001    0.331    0.400   72.306   22.634
  166.301    0.330    0.425   68.615   21.811
  166.601    0.327    0.409   73.627   21.826
  166.901    0.327    0.421   79.266   23.125
  167.201    0.328    0.423   81.793   23.579
  167.501    0.328    0.395   81.210   24.509
  167.801    0.332    0.411   74.406   24.988
  168.101    0.328    0.426   71.945   25.015
  168.401    0.323    0.418   63.269   25.504
  168.701    0.321    0.409   73.890   25.052
  169.001    0.323    0.392   80.774   24.602
  169.301    0.330    0.409   73.964   25.568
  169.601    0.330    0.422   71.514   26.073
  169.901    0.327    0.426   74.668   26.591
  170.201    0.325    0.430   74.710   25.147
  170.501    0.330    0.431   74.119   23.781
  170.801    0.329    0.431   76.639   20.084
  171.101    0.321    0.433   86.633   14.041
  171.401    0.299    0.448  108.455    5.168
  171.701    0.268    0.547  125.297    4.282
  172.001    0.278    0.545  125.340    3.827
  172.301    0.289    0.566  130.986    3.619
  172.601    0.298    0.591  131.633    3.489
  172.901    0.310    0.602  122.340    3.557
  173.201    0.336    0.604  123.627    3.628
  173.501    0.348    0.577  127.388    3.700
  173.801    0.340    0.560  123.070    3.919
  174.101    0.322    0.562  128.716    4.229
  174.401    0.334    0.573  128.746    5.016
  174.701    0.314    0.546  100.153    6.295
  175.001    0.295    0.473  110.771    6.543
  175.301    0.283    0.485  130.727    5.848
  175.601    0.277    0.536  137.609    5.228
  175.901    0.265    0.490  137.025    4.942
  176.201    0.254    0.490  135.816    4.500
  176.501    0.252    0.518  134.614    4.098
  176.801    0.279    0.570  126.553    3.803
  177.101    0.316    0.600  130.328    3.735
  177.401    0.325    0.596  134.719    3.668
  177.701    0.290    0.581  137.872    3.812
  178.001    0.294    0.596  126.707    3.963
  178.301    0.314    0.599  121.764    4.040
  178.601    0.264    0.587  127.402    4.121
  178.901    0.263    0.579  128.686    4.048
  179.201    0.275    0.590  129.968    4.127
  179.501    0.296    0.588  128.757    4.539
  179.801    0.327    0.579  117.590    4.993
  180.101    0.349    0.562  111.405    5.189
  180.401    0.398    0.563  107.705    4.816
  180.701    0.397    0.563  102.763    4.386
  181.001    0.379    0.570  121.474    3.994
  181.301    0.352    0.596  122.139    3.776
  181.601    0.314    0.598  127.777    3.504
  181.901    0.284    0.560  125.950    3.377
  182.201    0.282    0.554  128.470    3.445
  182.501    0.338    0.580  111.080    3.447
  182.801    0.373    0.601  117.341    3.651
  183.101    0.368    0.582  118.624    4.170
  183.401    0.323    0.514  102.483    4.854
  183.701    0.269    0.487  109.367    5.756
  184.001    0.269    0.481  110.645    6.957
  184.301    0.265    0.467   99.477    7.799
  184.601    0.270    0.460  100.759    8.261
  184.901    0.329    0.486   93.952    8.584
  185.201    0.300    0.474   97.098    8.922
  185.501    0.367    0.483   90.913    9.449
  185.801    0.341    0.483  104.643    9.818
  186.101    0.269    0.429   96.589   10.399
  186.401    0.276    0.406   94.760   11.014
  186.701    0.273    0.407  101.642   11.232
  187.001    0.282    0.426  108.531   11.242
  187.301    0.288    0.463  102.339   11.251
  187.601    0.286    0.433   88.683   11.052
  187.901    0.277    0.422   80.630   11.056
  188.201    0.272    0.411   88.767   10.657
  188.501    0.271    0.396   92.529   10.667
  188.801    0.272    0.397   92.567   10.474
  189.101    0.272    0.396   92.603   10.483
