~VERSION INFORMATION
 VERS.                 2.0:   CWLS LOG ASCII STANDARD -VERSION 2.0
 WRAP.                  NO:   ONE LINE PER DEPTH STEP
~WELL INFORMATION BLOCK
#MNEM.UNIT           DATA                    DESCRIPTION OF MNEMONIC
#---------    -------------------            -------------------------------
# Generated from Intellog Unique Number	CW_82_90/WELL/773
WELL.         PHILLIPS ET AL GRANOR OV 10-14 : Well_name    - WELL
LOC .         AA/10-14-084-19W4/0            : Location     - LOCATION
UWI .         AA/10-14-084-19W400            : Uwi          - UNIQUE WELL ID
ENTR.         JAYE                           : Entered      - ENTERED BY
SRVC.         SCHLUMBERGER                   : Scn          - SERVICE COMPANY
DATE.         22 JAN 81                      : Date         - LOG DATE
STRT.M        190                            : top_depth    - START DEPTH
STOP.M        350                            : bot_depth    - STOP DEPTH
STEP.M        0.25                           : increment    - STEP LENGTH
 NULL. -999.2500:NULL Value
~CURVE INFORMATION BLOCK
#MNEM UNIT       ERCB CURVE CODE    CURVE DESCRIPTION
#-----------   ------------------   ----------------------------------
DEPT.M        00 001 00 00         : DEPTH        - DEPTH
CALI.MM       00 280 01 00         : CAL          - CALIPER
GR  .API      00 310 00 00         : GR           - GAMMA RAY
NPHI.V/V      00 330 00 00         : PHIN         - NEUTRON POROSITY (SANDSTONE)
DPHI.V/V      00 890 00 00         : PHID         - DENSITY POROSITY (SANDSTONE)
ILD .OHMM     00 120 00 00         : RESD         - DEEP RESISTIVITY (DIL)
~PARAMETER INFORMATION
#MNEM.UNIT           DATA             DESCRIPTION OF MNEMONIC
#---------         -----------     ------------------------------
GL  .M        599.7                : gl           - GROUND LEVEL ELEVATION
EREF.M        602.32               : kb           - ELEVATION OF DEPTH REFERENCE
DATM.M        599.7                : datum        - DATUM ELEVATION
TDD .M        349                  : tdd          - TOTAL DEPTH DRILLER
RUN .         ONE                  : Run          - RUN NUMBER
ENG .         SALSMAN              : Engineer     - RECORDING ENGINEER
WIT .         CRIPPS/HAYES         : Witness      - WITNESSED BY
BASE.         EDMONTON             : Branch       - HOME BASE OF LOGGING UNIT
MUD .         GEL CHEM             : Mud_type     - MUD TYPE
MATR.         SANDSTONE            : Logunit      - NEUTRON MATRIX
TMAX.C        0                    : BHT          - MAXIMUM RECORDED TEMPERATURE
BHTD.M        349                  : BHTDEP       - MAXIMUM RECORDED TEMPERATURE
RMT .C        10                   : MDTP         - TEMPERATURE OF MUD
MUDD.KG/M     1110                 : MWT          - MUD DENSITY
NEUT.         1                    : NEUTRON      - NEUTRON TYPE
RESI.         0                    : RESIST       - RESISTIVITY TYPE
RM  .OHMM     1.97                 : RM           - RESISTIVITY OF MUD
RMC .OHMM     0                    : RMC          - RESISTIVITY OF MUD CAKE
RMF .OHMM     1.72                 : RMF          - RESISTIVITY OF MUD FILTRATE
SUFT.C        0                    : SUFT         - SURFACE TEMPERATURE
~A  DEPTH      CAL       GR     PHIN     PHID     RESD
# ...
  299.500  229.721   78.410    0.450    0.209    8.899
  299.750  231.573   78.529    0.445    0.206    8.881
  300.000  233.528   78.397    0.461    0.214    9.057
  300.250  235.283   77.254    0.466    0.176    9.113
  300.500  237.257   78.195    0.457    0.178    8.475
  300.750  238.385   80.245    0.448    0.172    7.782
  301.000  238.467   82.490    0.448    0.214    7.724
  301.250  237.852   83.045    0.430    0.206    8.059
  301.500  236.566   84.919    0.452    0.205    8.348
  301.750  233.311   84.284    0.471    0.201    9.471
  302.000  229.125   81.331    0.457    0.189   11.147
  302.250  224.846   79.383    0.441    0.173   13.299
  302.500  222.538   77.436    0.444    0.154   15.986
  302.750  220.962   75.422    0.428    0.184   20.294
  303.000  219.894   72.218    0.402    0.173   23.671
  303.250  219.365   67.073    0.361    0.061   27.098
  303.500  219.239   58.484    0.244    0.049   24.512
  303.750  218.907   49.834    0.199    0.053   21.794
  304.000  218.575   48.512    0.188    0.029   19.343
  304.250  218.254   52.330    0.203   -0.006   17.486
  304.500  218.038   61.395    0.223    0.091   15.842
  304.750  217.486   65.335    0.248    0.151   14.247
  305.000  217.159   69.899    0.388    0.189   12.694
  305.250  216.517   73.150    0.407    0.210   11.761
  305.500  215.906   73.009    0.401    0.226   11.145
  305.750  215.454   75.262    0.396    0.228   10.820
  306.000  215.333   77.378    0.420    0.224   10.626
  306.250  214.579   77.874    0.452    0.204   10.835
  306.500  210.187   80.307    0.458    0.221   11.255
  306.750  208.416   80.676    0.443    0.234   11.600
  307.000  213.078   77.971    0.418    0.222   12.025
  307.250  217.019   78.531    0.410    0.207   12.257
  307.500  217.439   79.022    0.411    0.220   12.151
  307.750  215.132   77.506    0.423    0.233   11.973
  308.000  211.150   74.495    0.430    0.260   11.735
  308.250  208.205   73.108    0.425    0.272   11.276
  308.500  207.565   74.916    0.433    0.235   10.920
  308.750  211.309   78.162    0.424    0.180   10.097
  309.000  217.650   82.036    0.404    0.168    8.827
  309.250  224.410   82.341    0.420    0.192    7.605
  309.500  225.658   84.026    0.441    0.226    7.191
  309.750  225.951   86.022    0.451    0.221    7.065
  310.000  226.466   89.029    0.457    0.199    7.013
  310.250  226.875   91.452    0.469    0.185    7.505
  310.500  227.255   90.445    0.489    0.205    8.690
  310.750  228.189   84.674    0.509    0.180   10.408
  311.000  229.942   81.782    0.482    0.169   11.873
  311.250  222.095   80.461    0.448    0.164   12.851
  311.500  219.904   81.017    0.414    0.211   13.002
  311.750  220.397   78.877    0.388    0.271   11.244
  312.000  224.049   78.443    0.371    0.257   10.280
  312.250  227.571   78.737    0.418    0.184    9.689
  312.500  231.424   80.418    0.438    0.152    9.403
  312.750  233.167   81.666    0.433    0.166    8.890
  313.000  234.295   83.103    0.445    0.187    8.752
  313.250  234.710   84.531    0.451    0.198    8.544
  313.500  234.999   85.395    0.455    0.178    8.437
  313.750  234.894   84.081    0.468    0.167    8.268
  314.000  234.143   83.124    0.461    0.153    8.108
  314.250  233.110   83.617    0.462    0.144    8.093
  314.500  232.140   84.424    0.470    0.153    8.175
  314.750  230.330   85.793    0.453    0.135    8.209
  315.000  226.373   87.037    0.482    0.153    8.215
  315.250  224.890   87.474    0.463    0.187    8.142
  315.500  223.828   88.155    0.458    0.188    7.993
  315.750  222.463   89.016    0.481    0.160    7.803
  316.000  221.422   89.509    0.473    0.158    7.562
  316.250  221.176   88.313    0.461    0.156    7.316
  316.500  221.374   86.487    0.449    0.158    7.025
  316.750  222.298   85.975    0.442    0.155    6.731
  317.000  223.115   88.476    0.454    0.187    6.499
  317.250  224.129   92.788    0.461    0.195    6.491
  317.500  226.119   96.470    0.445    0.201    6.654
  317.750  227.244  100.473    0.438    0.193    7.465
  318.000  226.808   99.907    0.432    0.185    8.356
  318.250  225.542   97.394    0.417    0.196    9.299
  318.500  226.053   91.741    0.418    0.174   10.847
  318.750  228.744   87.730    0.410    0.077   12.894
  319.000  231.235   79.137    0.374    0.040   13.467
  319.250  232.256   74.752    0.351    0.059   13.653
  319.500  231.820   77.306    0.401    0.118   13.433
  319.750  229.507   82.062    0.398    0.214   12.751
  320.000  227.745   87.120    0.391    0.215   12.244
  320.250  227.110   89.678    0.415    0.191   12.224
  320.500  227.073   87.983    0.424    0.197   12.559
  320.750  226.867   87.730    0.420    0.179   13.320
  321.000  226.943   88.160    0.421    0.182   14.384
  321.250  227.153   86.905    0.421    0.199   16.039
  321.500  227.528   86.576    0.413    0.206   17.924
  321.750  227.606   84.118    0.406    0.203   20.488
  322.000  227.703   82.986    0.397    0.193   22.291
  322.250  228.209   77.408    0.366    0.170   26.206
  322.500  228.928   73.330    0.345    0.095   31.199
  322.750  229.534   69.995    0.331    0.110   36.944
  323.000  230.265   66.677    0.304    0.120   41.824
  323.250  230.334   63.466    0.261    0.078   46.126
  323.500  230.426   59.451    0.227    0.052   49.087
  323.750  230.724   53.808    0.204   -0.010   50.519
  324.000  230.829   49.665    0.179   -0.009   49.252
  324.250  230.499   50.095    0.171    0.003   47.443
  324.500  230.047   47.645    0.185   -0.005   38.920
  324.750  229.727   48.578    0.198   -0.004   35.006
  325.000  229.705   50.893    0.214    0.027   30.833
  325.250  229.500   52.816    0.230    0.037   27.172
  325.500  229.270   55.381    0.244    0.058   24.656
  325.750  229.346   57.506    0.260    0.070   21.551
  326.000  229.564   60.376    0.278    0.150   18.428
  326.250  229.638   64.055    0.312    0.167   17.105
  326.500  229.535   67.430    0.381    0.144   15.763
  326.750  229.296   67.485    0.365    0.134   14.774
  327.000  229.077   69.296    0.357    0.184   13.845
  327.250  229.173   71.537    0.404    0.187   13.310
  327.500  229.032   74.730    0.407    0.197   12.881
  327.750  229.126   77.283    0.393    0.196   12.882
  328.000  229.446   74.585    0.390    0.196   12.945
  328.250  229.518   74.451    0.395    0.202   13.045
  328.500  229.816   76.261    0.403    0.217   13.171
  328.750  230.003   75.504    0.411    0.213   13.412
  329.000  230.518   74.052    0.409    0.222   13.485
  329.250  231.027   73.474    0.398    0.226   13.644
  329.500  231.216   73.100    0.382    0.217   13.757
  329.750  231.216   72.712    0.389    0.184   13.480
  330.000  233.183   72.951    0.382    0.158   12.628
  330.250  233.562   74.951    0.373    0.149   11.550
  330.500  233.754   76.376    0.370    0.146   10.840
  330.750  234.466   75.688    0.395    0.196   10.353
  331.000  235.396   76.111    0.422    0.203   10.088
  331.250  236.113   79.234    0.427    0.201    9.781
  331.500  236.615   82.670    0.419    0.203    9.583
  331.750  236.922   80.477    0.406    0.224    9.428
  332.000  237.220   79.772    0.399    0.221    9.362
  332.250  237.194   79.701    0.411    0.198    9.331
  332.500  237.279   81.009    0.437    0.203    9.320
  332.750  236.546   81.755    0.438    0.184    9.329
  333.000  235.682   78.047    0.436    0.166    9.258
  333.250  234.858   77.295    0.433    0.088    9.107
  333.500  234.504   79.043    0.428    0.061    8.651
  333.750  234.504   81.230    0.426    0.158    8.273
  334.000  234.895   83.527    0.428    0.189    7.897
  334.250  235.191   85.520    0.447    0.185    7.484
  334.500  235.817   88.965    0.460    0.176    7.118
  334.750  235.796   92.463    0.459    0.189    6.859
  335.000  235.983   94.202    0.454    0.172    6.685
  335.250  236.077   89.130    0.445    0.124    6.457
  335.500  236.266   86.230    0.435    0.094    6.209
  335.750  236.247   83.167    0.431    0.066    5.985
