~VERSION INFORMATION
 VERS.                 2.0:   CWLS LOG ASCII STANDARD -VERSION 2.0
 WRAP.                  NO:   ONE LINE PER DEPTH STEP
~WELL INFORMATION BLOCK
#MNEM.UNIT           DATA                    DESCRIPTION OF MNEMONIC
#---------    -------------------            -------------------------------
# Generated from Intellog Unique Number	CW_82_90/WELL/875
WELL.         PHILLIPS ET AK GRABIR IV 10-17 : Well_name    - WELL
LOC .         AA/10-17-084-19W4/0            : Location     - LOCATION
UWI .         AA/10-17-084-19W400            : Uwi          - UNIQUE WELL ID
ENTR.         JAYE                           : Entered      - ENTERED BY
SRVC.         SCHLUMBERGER                   : Scn          - SERVICE COMPANY
DATE.         2 MAR 81                       : Date         - LOG DATE
STRT.M        200                            : top_depth    - START DEPTH
STOP.M        365                            : bot_depth    - STOP DEPTH
STEP.M        0.25                           : increment    - STEP LENGTH
 NULL. -999.2500:NULL Value
~CURVE INFORMATION BLOCK
#MNEM UNIT       ERCB CURVE CODE    CURVE DESCRIPTION
#-----------   ------------------   ----------------------------------
DEPT.M        00 001 00 00         : DEPTH        - DEPTH
CALI.MM       00 280 01 00         : CAL          - CALIPER
GR  .API      00 310 00 00         : GR           - GAMMA RAY
DPHI.V/V      00 890 00 00         : PHID         - DENSITY POROSITY (SANDSTONE)
NPHI.V/V      00 330 00 00         : PHIN         - NEUTRON POROSITY (SANDSTONE)
ILD .OHMM     00 120 00 00         : RESD         - DEEP RESISTIVITY (DIL)
~PARAMETER INFORMATION
#MNEM.UNIT           DATA             DESCRIPTION OF MNEMONIC
#---------         -----------     ------------------------------
GL  .M        613                  : gl           - GROUND LEVEL ELEVATION
EREF.M        615.82               : kb           - ELEVATION OF DEPTH REFERENCE
DATM.M        613                  : datum        - DATUM ELEVATION
TDD .M        373                  : tdd          - TOTAL DEPTH DRILLER
RUN .         ONE                  : Run          - RUN NUMBER
ENG .         ISBISTER             : Engineer     - RECORDING ENGINEER
WIT .         THOMAS               : Witness      - WITNESSED BY
BASE.         EDMONTON             : Branch       - HOME BASE OF LOGGING UNIT
MUD .         GEL MUD              : Mud_type     - MUD TYPE
MATR.         SANDSTONE            : Logunit      - NEUTRON MATRIX
TMAX.C        20                   : BHT          - MAXIMUM RECORDED TEMPERATURE
BHTD.M        373                  : BHTDEP       - MAXIMUM RECORDED TEMPERATURE
RMT .C        14                   : MDTP         - TEMPERATURE OF MUD
MUDD.KG/M     1000                 : MWT          - MUD DENSITY
NEUT.         1                    : NEUTRON      - NEUTRON TYPE
RESI.         0                    : RESIST       - RESISTIVITY TYPE
RM  .OHMM     2.6                  : RM           - RESISTIVITY OF MUD
RMC .OHMM     0                    : RMC          - RESISTIVITY OF MUD CAKE
RMF .OHMM     2.11                 : RMF          - RESISTIVITY OF MUD FILTRATE
SUFT.C        0                    : SUFT         - SURFACE TEMPERATURE
~A  DEPTH      CAL       GR     PHID     PHIN     RESD
# ...
  346.000  223.246   71.337    0.219    0.425   19.679
  346.250  223.959   75.643    0.223    0.431   19.648
  346.500  224.363   82.325    0.227    0.441   20.027
  346.750  224.864   89.320    0.216    0.429   20.665
  347.000  224.958  100.254    0.207    0.429   21.279
  347.250  224.632  103.310    0.190    0.425   21.736
  347.500  224.306   89.796    0.174    0.409   22.022
  347.750  224.082   87.224    0.179    0.402   22.032
  348.000  223.858   93.218    0.189    0.393   21.338
  348.250  223.636  103.089    0.215    0.387   19.962
  348.500  223.203  110.897    0.251    0.404   18.482
  348.750  223.294  122.269    0.265    0.428   17.114
  349.000  223.491  135.078    0.291    0.453   15.946
  349.250  223.491  137.071    0.270    0.427   15.223
  349.500  223.491  123.557    0.234    0.404   14.475
  349.750  225.313   99.601    0.216    0.443   13.991
  350.000  225.927   85.900    0.213    0.455   13.829
  350.250  227.258   83.141    0.213    0.456   13.531
  350.500  228.288   82.070    0.220    0.449   13.431
  350.750  228.288   79.998    0.218    0.442   13.277
  351.000  230.542   79.551    0.218    0.454   13.314
  351.250  231.047   77.793    0.222    0.461   13.268
  351.500  231.138   76.533    0.214    0.460   13.279
  351.750  230.399   77.339    0.198    0.469   13.205
  352.000  228.929   79.144    0.196    0.472   13.269
  352.250  228.083   79.824    0.197    0.466   13.251
  352.500  227.859   80.754    0.199    0.453   12.835
  352.750  228.262   81.807    0.188    0.437   12.280
  353.000  231.675   84.050    0.176    0.427   11.747
  353.250  236.440   87.293    0.177    0.417   11.034
  353.500  239.649   90.037    0.180    0.422   10.343
  353.750  241.711   93.531    0.173    0.443    9.656
  354.000  239.517   98.024    0.167    0.435    9.088
  354.250  239.398   98.892    0.158    0.428    8.641
  354.500  240.527   95.444    0.164    0.446    8.216
  354.750  239.054   92.248    0.163    0.459    7.813
  355.000  245.068   91.299    0.161    0.465    7.399
  355.250  241.107   91.293    0.158    0.470    7.108
  355.500  243.065   95.224    0.168    0.476    6.969
  355.750  248.559  100.217    0.177    0.475    6.833
  356.000  237.634  101.148    0.197    0.466    7.079
  356.250  238.762   98.826    0.201    0.458    7.562
  356.500  236.359   98.880    0.197    0.460    8.364
  356.750  235.824   99.684    0.187    0.472    9.424
  357.000  235.602   99.677    0.164    0.465   11.977
  357.250  235.170   98.855    0.151    0.458   14.316
  357.500  237.026   96.097    0.161    0.459   16.261
  357.750  232.546   92.650    0.173    0.448   17.985
  358.000  225.880   87.265    0.134    0.431   19.651
  358.250  225.659   80.941    0.098    0.411   20.487
  358.500  226.476   81.933    0.126    0.389   20.541
  358.750  227.499   80.925    0.159    0.400   19.732
  359.000  227.902   79.791    0.173    0.436   19.949
  359.250  228.615   79.283    0.172    0.437   20.416
  359.500  227.558   77.961    0.184    0.425   21.502
  359.750  225.884   77.640    0.192    0.412   23.302
  360.000  222.957   78.192    0.212    0.432   22.478
  360.250  221.388   78.625    0.219    0.440   21.284
  360.500  219.502   79.242    0.229    0.431   18.498
  360.750  218.034   78.671    0.229    0.441   13.515
  361.000  222.900   77.413    0.214    0.446   11.024
  361.250  225.173   76.716    0.214    0.441    9.068
  361.500  225.576   77.645    0.232    0.437    7.029
  361.750  226.286   79.450    0.247    0.439    4.929
  362.000  226.480   80.630    0.268    0.441    4.293
  362.250  224.596   81.810    0.268    0.445    4.314
  362.500  216.997   82.240    0.290    0.451    4.646
  362.750  217.397   81.669    0.280    0.454    5.098
  363.000  217.592   80.598    0.284    0.447    5.456
  363.250  220.694   80.276    0.264    0.432    6.274
  363.500  221.512   80.707    0.266    0.429    6.661
  363.750  219.835   81.386    0.281    0.439    6.559
  364.000  219.196   82.379    0.313    0.445    6.391
  364.250  219.286   82.245    0.323    0.450    5.954
  364.500  219.895   82.050    0.348    0.458    5.446
  364.750  220.294   81.666    0.336    0.459    5.242
  365.000  220.800   81.158    0.352    0.452    5.257
