~VERSION INFORMATION
 VERS.                 2.0:   CWLS LOG ASCII STANDARD -VERSION 2.0
 WRAP.                  NO:   ONE LINE PER DEPTH STEP
~WELL INFORMATION BLOCK
#MNEM.UNIT           DATA                    DESCRIPTION OF MNEMONIC
#---------    -------------------            -------------------------------
# Generated from Intellog Unique Number	CW_79_81/WELL/924
WELL.         12-29-079-22W4                 : Well_name    - WELL
LOC .         AA/12-29-079-22W4/0            : Location     - LOCATION
UWI .         AA/12-29-079-22W4/0            : Uwi          - UNIQUE WELL ID
ENTR.         MAX                            : Entered      - ENTERED BY
SRVC.         SCHLUMBERGER                   : Scn          - SERVICE COMPANY
STRT.M        215                            : top_depth    - START DEPTH
STOP.M        450                            : bot_depth    - STOP DEPTH
STEP.M        0.25                           : increment    - STEP LENGTH
 NULL. -999.2500:NULL Value
~CURVE INFORMATION BLOCK
#MNEM UNIT       ERCB CURVE CODE    CURVE DESCRIPTION
#-----------   ------------------   ----------------------------------
DEPT.M        00 001 00 00         : DEPTH        - DEPTH
ILD .OHMM     00 120 00 00         : RESD         - DEEP RESISTIVITY (DIL)
NPHI.V/V      00 330 00 00         : PHIN         - NEUTRON POROSITY (SANDSTONE)
DPHI.V/V      00 890 00 00         : PHID         - DENSITY POROSITY (SANDSTONE)
CALI.MM       00 280 01 00         : CAL          - CALIPER
GR  .API      00 310 00 00         : GR           - GAMMA RAY
~PARAMETER INFORMATION
#MNEM.UNIT           DATA             DESCRIPTION OF MNEMONIC
#---------         -----------     ------------------------------
GL  .M        568.6                : gl           - GROUND LEVEL ELEVATION
EREF.M        573.2                : kb           - ELEVATION OF DEPTH REFERENCE
DATM.M        568.6                : datum        - DATUM ELEVATION
TDD .M        458                  : tdd          - TOTAL DEPTH DRILLER
RUN .         ONE                  : Run          - RUN NUMBER
ENG .         BILL                 : Engineer     - RECORDING ENGINEER
WIT .         JIM                  : Witness      - WITNESSED BY
MUD .         GEL                  : Mud_type     - MUD TYPE
MATR.         SANDSTONE            : Logunit      - NEUTRON MATRIX
TMAX.C        21                   : BHT          - MAXIMUM RECORDED TEMPERATURE
BHTD.M        458                  : BHTDEP       - MAXIMUM RECORDED TEMPERATURE
RMT .C        14.4                 : MDTP         - TEMPERATURE OF MUD
MUDD.KG/M     1070                 : MWT          - MUD DENSITY
NEUT.         1                    : NEUTRON      - NEUTRON TYPE
RESI.         0                    : RESIST       - RESISTIVITY TYPE
RM  .OHMM     0.89                 : RM           - RESISTIVITY OF MUD
RMC .OHMM     0                    : RMC          - RESISTIVITY OF MUD CAKE
RMF .OHMM     0.77                 : RMF          - RESISTIVITY OF MUD FILTRATE
SUFT.C        -20                  : SUFT         - SURFACE TEMPERATURE
~A  DEPTH     RESD     PHIN     PHID      CAL       GR
# ...
  324.500   10.980    0.434    0.224  269.911   69.378
  324.750   11.491    0.438    0.227  269.872   69.655
  325.000   11.700    0.437    0.217  269.842   70.528
  325.250   11.484    0.447    0.210  269.803   72.293
  325.500   10.966    0.462    0.216  270.269   74.951
  325.750   10.864    0.467    0.214  270.731   76.124
  326.000   11.060    0.461    0.215  271.680   74.912
  326.250   10.957    0.451    0.218  271.649   73.401
  326.500   10.854    0.458    0.209  272.107   73.975
  326.750   10.850    0.460    0.187  273.069   76.634
  327.000   10.847    0.468    0.183  275.019   77.806
  327.250   11.044    0.476    0.218  275.976   74.806
  327.500   11.990    0.460    0.219  274.941   72.702
  327.750   12.434    0.445    0.210  274.406   72.676
  328.000   12.429    0.449    0.204  273.388   72.363
  328.250   12.313    0.458    0.203  272.857   71.746
  328.500   11.866    0.455    0.192  272.326   70.237
  328.750   11.435    0.433    0.178  271.796   70.214
  329.000   10.821    0.430    0.179  270.769   73.768
  329.250   10.053    0.445    0.195  269.246   76.722
  329.500    9.959    0.454    0.193  267.723   75.810
  329.750   10.423    0.438    0.195  264.211   76.972
  330.000   11.737    0.424    0.228  262.192   76.657
  330.250   14.617    0.457    0.265  260.169   72.766
  330.500   17.232    0.471    0.252  259.146   69.176
  330.750   18.536    0.434    0.237  259.107   65.878
  331.000   14.339    0.419    0.211  259.573   69.730
  331.250   10.500    0.423    0.206  260.035   74.174
  331.500   11.089    0.429    0.209  261.484   81.298
  331.750   12.038    0.436    0.189  262.938   80.979
  332.000   13.556    0.439    0.172  264.392   77.381
  332.250   14.317    0.453    0.162  265.354   75.279
  332.500   14.183    0.482    0.170  265.807   74.961
  332.750   13.298    0.469    0.189  266.268   75.536
  333.000   13.294    0.454    0.193  266.734   75.215
  333.250   13.413    0.450    0.204  267.196   73.708
  333.500   13.286    0.477    0.213  268.149   74.280
  333.750   13.282    0.485    0.219  268.149   77.236
  334.000   13.523    0.485    0.202  268.076   77.215
  334.250   14.284    0.480    0.176  269.034   76.004
  334.500   15.649    0.477    0.179  269.991   73.602
  334.750   17.302    0.470    0.182  270.958   69.113
  335.000   17.139    0.446    0.173  271.902   67.011
  335.250   16.367    0.452    0.158  272.864   70.265
  335.500   15.206    0.457    0.174  274.322   74.109
  335.750   15.201    0.439    0.206  275.772   72.007
  336.000   15.336    0.455    0.211  277.230   71.091
  336.250   15.054    0.472    0.197  278.184   72.263
  336.500   14.508    0.463    0.186  277.653   74.621
  336.750   14.241    0.479    0.180  276.134   74.603
  337.000   14.236    0.496    0.186  273.619   74.878
  337.250   13.845    0.479    0.206  272.584   74.559
  337.500   13.970    0.454    0.202  271.561   74.241
  337.750   13.837    0.448    0.196  270.034   74.815
  338.000   13.459    0.470    0.191  268.515   75.090
  338.250   13.090    0.468    0.195  266.992   75.372
  338.500   12.966    0.443    0.202  264.969   76.239
  338.750   13.820    0.445    0.197  261.461   76.519
  339.000   14.598    0.456    0.199  257.950   76.498
  339.250   17.208    0.490    0.219  256.427   75.877
  339.500   21.236    0.475    0.204  256.396   74.373
  339.750   25.968    0.429    0.195  256.357   67.505
  340.000   33.550    0.426    0.185  256.327   64.503
  340.250   42.557    0.430    0.181  256.763   62.098
  340.500   55.996    0.414    0.176  256.750   59.701
  340.750   72.342    0.307    0.169  257.211   56.108
  341.000   72.318    0.298    0.112  257.673   52.808
  341.250   54.428    0.296    0.085  258.631   52.197
  341.500   44.077    0.294    0.054  260.080   53.954
  341.750   38.410    0.293    0.040  261.042   57.213
  342.000   31.105    0.302    0.097  262.000   64.042
  342.250   28.116    0.363    0.160  263.946   65.804
  342.500   31.372    0.403    0.188  265.400   65.784
  342.750   31.076    0.414    0.188  266.357   66.058
  343.000   32.523    0.439    0.231  267.315   63.361
  343.250   41.255    0.438    0.258  268.764   59.765
  343.500   38.680    0.413    0.235  269.726   59.147
  343.750   40.113    0.339    0.203  270.162   59.726
  344.000   47.721    0.313    0.141  271.137   58.813
  344.250   44.744    0.369    0.182  273.096   59.385
  344.500   40.445    0.407    0.214  275.537   60.257
  344.750   30.163    0.410    0.214  277.988   58.748
  345.000   28.281    0.410    0.198  279.938   60.808
  345.250   24.419    0.430    0.191  282.380   64.357
  345.500   22.073    0.441    0.213  283.333   66.723
  345.750   22.473    0.447    0.239  283.307   68.188
  346.000   26.011    0.452    0.234  283.273   68.763
  346.250   26.729    0.439    0.203  283.234   68.447
  346.500   23.722    0.432    0.181  283.195   68.424
  346.750   25.284    0.429    0.168  283.165   68.405
  347.000   26.951    0.414    0.167  281.637   68.975
  347.250   25.039    0.409    0.172  281.111   70.440
  347.500   22.426    0.398    0.165  280.580   71.913
  347.750   20.271    0.398    0.156  280.546   75.164
  348.000   19.358    0.416    0.168  281.499   77.227
  348.250   19.001    0.450    0.189  281.965   75.720
  348.500   19.170    0.480    0.191  282.427   73.913
  348.750   19.164    0.475    0.196  281.887   73.000
  349.000   19.159    0.463    0.201  281.352   73.869
  349.250   18.805    0.447    0.189  279.337   76.233
  349.500   18.123    0.431    0.193  274.842   76.805
  349.750   17.953    0.422    0.191  271.330   77.674
  350.000   19.818    0.462    0.197  273.013   83.408
  350.250   19.832    0.477    0.215  263.060   82.536
  350.500   19.488    0.457    0.203  255.119   77.464
  350.750   18.800    0.461    0.205  255.660   75.096
  351.000   17.970    0.434    0.202  256.206   76.924
  351.250   17.026    0.429    0.185  257.247   80.252
  351.500   16.726    0.428    0.174  258.799   83.883
  351.750   16.587    0.422    0.170  260.846   84.807
  352.000   17.859    0.407    0.162  261.392   85.735
  352.250   22.680    0.425    0.187  260.951   83.063
  352.500   28.275    0.450    0.199  260.486   74.692
  352.750   36.238    0.452    0.184  260.538   69.620
  353.000   46.439    0.415    0.149  261.079   65.152
  353.250   47.332    0.379    0.134  265.143   65.480
  353.500   29.691    0.357    0.121  268.189   67.904
  353.750   20.597    0.382    0.156  268.730   71.532
  354.000   16.698    0.409    0.213  270.282   76.963
  354.250   16.555    0.446    0.217  270.835   78.491
  354.500   16.876    0.471    0.195  270.864   72.819
  354.750   18.169    0.473    0.180  270.922   71.051
  355.000   21.838    0.449    0.144  270.975   73.179
  355.250   24.174    0.432    0.146  271.010   73.203
  355.500   21.278    0.426    0.163  272.056   75.338
  355.750   18.058    0.432    0.154  273.614   77.766
  356.000   18.406    0.429    0.157  275.155   78.994
  356.250   18.934    0.426    0.158  278.213   78.425
  356.500   17.931    0.434    0.145  280.754   76.646
  356.750   16.376    0.436    0.185  280.800   75.174
  357.000   16.089    0.419    0.221  280.341   79.106
  357.250   16.249    0.427    0.227  282.893   86.640
  357.500   16.869    0.440    0.211  283.934   85.765
  357.750   17.508    0.443    0.195  281.487   84.289
  358.000   18.345    0.428    0.184  280.039   84.021
  358.250   18.191    0.402    0.183  279.086   84.345
  358.500   17.231    0.415    0.179  279.127   85.284
  358.750   17.086    0.427    0.181  280.173   87.108
  359.000   17.413    0.444    0.189  281.232   89.536
  359.250   17.427    0.451    0.184  282.266   86.860
  359.500   17.599    0.448    0.162  286.319   80.589
  359.750   17.778    0.443    0.155  288.377   76.121
  360.000   17.953    0.449    0.173  287.412   76.745
  360.250   18.130    0.455    0.176  286.464   75.280
  360.500   17.490    0.458    0.175  286.517   76.805
  360.750   15.396    0.458    0.178  286.552   82.532
