~VERSION INFORMATION
 VERS.                 2.0:   CWLS LOG ASCII STANDARD -VERSION 2.0
 WRAP.                  NO:   ONE LINE PER DEPTH STEP
~WELL INFORMATION BLOCK
#MNEM.UNIT           DATA                    DESCRIPTION OF MNEMONIC
#---------    -------------------            -------------------------------
# Generated from Intellog Unique Number	CN_94_101/WELL/3583
WELL.         10-32-096-12W4                 : Well_name    - WELL
LOC .         AA/10-32-096-12W4/0            : Location     - LOCATION
UWI .         AA/10-32-096-12W400            : Uwi          - UNIQUE WELL ID
ENTR.         JOETTE                         : Entered      - ENTERED BY
SRVC.         SCHLUMBERGER                   : Scn          - SERVICE COMPANY
DATE.         07/31/92                       : Date         - LOG DATE
STRT.F        100                            : top_depth    - START DEPTH
STOP.F        710.236                        : bot_depth    - STOP DEPTH
STEP.F        0.82                           : increment    - STEP LENGTH
 NULL. -999.2500:NULL Value
~CURVE INFORMATION BLOCK
#MNEM UNIT       ERCB CURVE CODE    CURVE DESCRIPTION
#-----------   ------------------   ----------------------------------
DEPT.F        00 001 00 00         : DEPTH        - DEPTH
ILD .OHMM     00 120 00 00         : RESD         - DEEP RESISTIVITY (DIL)
GR  .API      00 310 00 00         : GR           - GAMMA RAY
DPHI.V/V      00 890 00 00         : PHID         - DENSITY POROSITY (SANDSTONE)
~PARAMETER INFORMATION
#MNEM.UNIT           DATA             DESCRIPTION OF MNEMONIC
#---------         -----------     ------------------------------
GL  .M        388.01               : gl           - GROUND LEVEL ELEVATION
EREF.M        389.23               : kb           - ELEVATION OF DEPTH REFERENCE
DATM.M        389.23               : datum        - DATUM ELEVATION
TDD .M        220.37               : tdd          - TOTAL DEPTH DRILLER
RUN .         ONE                  : Run          - RUN NUMBER
ENG .         BILL                 : Engineer     - RECORDING ENGINEER
WIT .         JIM                  : Witness      - WITNESSED BY
MUD .         GEL                  : Mud_type     - MUD TYPE
MATR.         SANDSTONE            : Logunit      - NEUTRON MATRIX
TMAX.F        40                   : BHT          - MAXIMUM RECORDED TEMPERATURE
BHTD.F        723                  : BHTDEP       - MAXIMUM RECORDED TEMPERATURE
RMT .F        40                   : MDTP         - TEMPERATURE OF MUD
MUDD.LB/G     6                    : MWT          - MUD DENSITY
NEUT.         1                    : NEUTRON      - NEUTRON TYPE
RESI.         0                    : RESIST       - RESISTIVITY TYPE
RM  .OHMM     5.51                 : RM           - RESISTIVITY OF MUD
RMC .OHMM     5.51                 : RMC          - RESISTIVITY OF MUD CAKE
RMF .OHMM     5.51                 : RMF          - RESISTIVITY OF MUD FILTRATE
SUFT.F        39.2                 : SUFT         - SURFACE TEMPERATURE
~A  DEPTH     RESD       GR     PHID
  100.000    6.517   94.580    0.289
  100.820    6.649   88.154    0.297
  101.640    6.548   91.197    0.285
  102.461    5.670   87.350    0.280
  103.281    5.091   86.089    0.301
  104.101    4.658   86.553    0.293
  104.921    6.360   83.995    0.291
  105.741    8.685   80.162    0.295
  106.562    9.883   76.329    0.288
  107.382   11.662   73.342    0.278
  108.202    9.567   69.931    0.267
  109.022    7.431   76.835    0.255
  109.843    6.437   80.730    0.238
  110.663    6.219   83.766    0.240
  111.483    6.231   81.229    0.260
  112.303    6.714   80.820    0.256
  113.123    6.609   80.855    0.263
  113.944    5.728   82.602    0.285
  114.764    5.143   87.350    0.282
  115.584    4.882   89.110    0.267
  116.404    5.355   86.982    0.271
  117.224    6.319   84.861    0.276
  118.045    7.064   82.740    0.317
  118.865    6.581   84.487    0.307
  119.685    6.021   85.381    0.292
  120.505    6.143   83.683    0.270
  121.325    6.383   81.132    0.267
  122.146    6.395   85.901    0.279
  122.966    6.525   85.062    0.277
  123.786    6.194   84.237    0.267
  124.606    5.876   86.836    0.274
  125.427    5.890   85.575    0.279
  126.247    6.120   83.461    0.291
  127.067    6.356   83.059    0.304
  127.887    6.725   81.797    0.314
  128.707    7.116   85.263    0.344
  129.528    6.396   87.446    0.352
  130.348    5.743   86.614    0.361
  131.168    5.451   84.056    0.313
  131.988    6.433   81.506    0.295
  132.808    8.017   78.532    0.290
  133.629    9.465   75.115    0.327
  134.449    7.907   77.291    0.304
  135.269    6.483   79.052    0.240
  136.089    7.248   76.924    0.219
  136.909    9.714   79.960    0.253
  137.730    5.055   88.153    0.275
  138.550    3.857   96.353    0.291
  139.370    4.154   98.529    0.281
  140.190    4.089  104.573    0.264
  141.010    3.810  111.054    0.278
  141.831    3.748  116.246    0.266
  142.651    4.265  114.125    0.252
  143.471    4.432  110.707    0.239
  144.291    3.982  104.719    0.239
  145.112    3.989   96.588    0.234
  145.932    5.065  103.055    0.207
  146.752    4.231  106.957    0.202
  147.572    3.534  109.571    0.234
  148.392    3.606  107.013    0.238
  149.213    4.922  109.619    0.247
  150.033    5.306  112.655    0.250
  150.853    5.417  110.104    0.258
  151.673    5.427  103.686    0.267
  152.493    5.848  104.143    0.266
  153.314    7.160  100.740    0.272
  154.134    8.445   94.314    0.261
  154.954    8.617   95.208    0.266
  155.774    9.633   96.095    0.274
  156.594   10.009   92.685    0.267
  157.415   10.212   88.415    0.246
  158.235   11.004   90.162    0.225
  159.055   11.439   91.915    0.246
  159.875   11.255   91.936    0.235
  160.696   14.545   85.525    0.200
  161.516   14.848   82.544    0.175
  162.336   13.092   78.697    0.178
  163.156   11.137   81.733    0.232
  163.976   10.765   86.932    0.238
  164.797   11.385   85.663    0.235
  165.617   11.218   87.417    0.239
  166.437   11.026   87.874    0.238
  167.257   10.273   88.761    0.230
  168.077   10.481   92.227    0.223
  168.898   10.704   90.536    0.232
  169.718   10.332   81.539    0.240
  170.538    9.626   81.566    0.241
  171.358   11.573   80.734    0.244
  172.178   11.596   77.754    0.249
  172.999   12.048   70.046    0.222
  173.819   11.854   68.355    0.190
  174.639   10.084   72.257    0.174
  175.459    8.900   74.427    0.178
  176.280    8.752   79.625    0.244
  177.100    8.769   80.942    0.280
  177.920    9.111   81.400    0.252
  178.740    8.803   80.138    0.272
  179.560   10.022   82.308    0.262
  180.381   10.226   86.210    0.253
  181.201    9.359   81.947    0.270
  182.021   10.270   84.124    0.275
  182.841    8.892   88.019    0.274
  183.661    7.564   90.625    0.271
  184.482    6.205   86.778    0.277
  185.302    7.191   82.945    0.273
  186.122    9.297   84.692    0.264
  186.942    9.315   86.868    0.271
  187.762    8.683   86.466    0.255
  188.583    8.238   83.486    0.224
  189.403    7.959   83.513    0.256
  190.223    7.834   84.837    0.258
  191.043    7.842   87.007    0.214
  191.864    7.864   96.925    0.239
  192.684    7.876   97.813    0.242
  193.504    7.895   93.113    0.248
  194.324    7.910   87.124    0.251
  195.144    7.925   83.284    0.259
  195.965    8.386   83.319    0.249
  196.785   10.267   85.066    0.270
  197.605   12.332   83.374    0.203
  198.425   15.377   78.238    0.161
  199.245    8.764   83.000    0.221
  200.066    5.275   83.887    0.298
  200.886    2.848   84.774    0.367
  201.706    3.422   86.958    0.329
  202.526    6.139   83.540    0.334
  203.346    7.114   82.279    0.315
  204.167    8.399   80.594    0.280
  204.987    9.220   77.177    0.255
  205.807    5.755   75.063    0.329
  206.627    2.637   79.388    0.341
  207.448    2.740   87.151    0.367
  208.268    2.899   87.609    0.366
  209.088    3.124   85.495    0.319
  209.908    4.344   87.248    0.315
  210.728    5.513   85.550    0.315
  211.549    7.000   82.147    0.336
  212.369    8.260   81.738    0.328
  213.189    9.931   84.774    0.334
  214.009   10.324   87.810    0.295
  214.829    7.729   92.149    0.269
  215.650    6.111   92.606    0.249
  216.470   10.197   95.205    0.232
  217.290   13.178   95.233    0.230
  218.110   28.872   74.203    0.206
  218.930   34.071   69.074    0.161
  219.751   11.254   78.126    0.130
  220.571   11.907   87.615    0.084
  221.391   14.316   92.800    0.115
  222.211   11.324   94.117    0.243
  223.031   12.432   98.012    0.209
  223.852   13.389   97.617    0.224
  224.672   12.028   98.504    0.238
  225.492   11.840   92.100    0.257
  226.312   12.081   89.965    0.225
  227.133   11.461   90.422    0.204
  227.953   12.127   96.896    0.223
  228.773   13.807   95.205    0.238
  229.593   14.877   89.646    0.223
  230.413   15.172   90.963    0.235
  231.234   14.394   91.864    0.238
  232.054   13.168   89.313    0.210
  232.874   12.274   87.621    0.211
  233.694   12.304   88.932    0.233
  234.514   13.018   91.545    0.240
  235.335   13.044   93.284    0.254
  236.155   11.718   93.312    0.234
  236.975   11.534   90.775    0.235
  237.795   11.546   92.945    0.247
  238.615   11.780   96.410    0.223
  239.436   12.246   98.157    0.202
  240.256   12.054   90.879    0.225
  241.076   11.230   92.196    0.239
  241.896   12.317   93.090    0.207
  242.717   13.770   93.547    0.230
  243.537   13.803   88.855    0.239
  244.357   13.095   91.031    0.239
  245.177   13.600   91.912    0.240
  245.997   14.390   93.665    0.255
  246.818   14.682   89.818    0.252
  247.638   12.953   82.970    0.250
  248.458   12.294   78.270    0.237
  249.278   13.009   75.297    0.223
  250.098   14.536   76.184    0.183
  250.919   16.243   81.368    0.170
  251.739   16.275   85.694    0.194
  252.559   16.306   83.143    0.226
  253.379   15.762   84.897    0.263
  254.199   15.228   86.636    0.269
  255.020   13.931   87.530    0.260
  255.840   12.509   83.254    0.226
  256.660   30.581   78.984    0.209
  257.480   57.929   68.698    0.176
  258.301  103.909   61.849    0.151
  259.121   73.696   63.596    0.148
  259.941   57.215   64.053    0.144
  260.761   26.697   72.253    0.147
  261.581   10.973   77.875    0.129
  262.402   10.218   83.059    0.107
  263.222    9.184   87.814    0.069
  264.042    7.952   98.156    0.045
  264.862    6.405   94.746    0.109
  265.682    6.656   93.061    0.127
  266.503    7.716   93.089    0.112
  267.323    8.017   90.108    0.085
  268.143    8.802   88.417    0.059
  268.963    8.504   91.023    0.059
  269.783    8.216   90.198    0.084
  270.604    9.354   88.937    0.076
  271.424    9.892   88.535    0.086
  272.244    9.557   88.562    0.118
  273.064    8.431   90.309    0.143
  273.885    6.791   92.915    0.153
  274.705    5.780   95.522    0.131
  275.525    5.584  101.573    0.113
  276.345    5.200  105.468    0.116
  277.165    4.189  102.065    0.140
