~VERSION INFORMATION
 VERS.                 2.0:   CWLS LOG ASCII STANDARD -VERSION 2.0
 WRAP.                  NO:   ONE LINE PER DEPTH STEP
~WELL INFORMATION BLOCK
#MNEM.UNIT           DATA                    DESCRIPTION OF MNEMONIC
#---------    -------------------            -------------------------------
# Generated from Intellog Unique Number	CN_91_93/WELL/3722
WELL.         16-28-093-07W4                 : Well_name    - WELL
LOC .         AA/16-28-093-07W4/0            : Location     - LOCATION
UWI .         AA/16-28-093-07W400            : Uwi          - UNIQUE WELL ID
ENTR.         JOETTE                         : Entered      - ENTERED BY
SRVC.         WESTERN ATLAS                  : Scn          - SERVICE COMPANY
DATE.         03/22/92                       : Date         - LOG DATE
STRT.F        50                             : top_depth    - START DEPTH
STOP.F        734.055                        : bot_depth    - STOP DEPTH
STEP.F        0.8202                         : increment    - STEP LENGTH
 NULL. -999.2500:NULL Value
~CURVE INFORMATION BLOCK
#MNEM UNIT       ERCB CURVE CODE    CURVE DESCRIPTION
#-----------   ------------------   ----------------------------------
DEPT.F        00 001 00 00         : DEPTH        - DEPTH
CALI.IN       00 280 01 00         : CAL          - CALIPER
GR  .API      00 310 00 00         : GR           - GAMMA RAY
NPHI.V/V      00 330 00 00         : PHIN         - NEUTRON POROSITY (SANDSTONE)
ILD .OHMM     00 120 00 00         : RESD         - DEEP RESISTIVITY (DIL)
~PARAMETER INFORMATION
#MNEM.UNIT           DATA             DESCRIPTION OF MNEMONIC
#---------         -----------     ------------------------------
GL  .M        509.748              : gl           - GROUND LEVEL ELEVATION
EREF.M        511.272              : kb           - ELEVATION OF DEPTH REFERENCE
DATM.M        511.272              : datum        - DATUM ELEVATION
TDD .M        225.247              : tdd          - TOTAL DEPTH DRILLER
RUN .         ONE                  : Run          - RUN NUMBER
ENG .         BILL                 : Engineer     - RECORDING ENGINEER
WIT .         JIM                  : Witness      - WITNESSED BY
MUD .         GEL                  : Mud_type     - MUD TYPE
MATR.         SANDSTONE            : Logunit      - NEUTRON MATRIX
TMAX.F        45                   : BHT          - MAXIMUM RECORDED TEMPERATURE
BHTD.F        739                  : BHTDEP       - MAXIMUM RECORDED TEMPERATURE
RMT .F        40                   : MDTP         - TEMPERATURE OF MUD
MUDD.LB/G     0.00102              : MWT          - MUD DENSITY
NEUT.         1                    : NEUTRON      - NEUTRON TYPE
RESI.         0                    : RESIST       - RESISTIVITY TYPE
RM  .OHMM     8                    : RM           - RESISTIVITY OF MUD
RMC .OHMM     8                    : RMC          - RESISTIVITY OF MUD CAKE
RMF .OHMM     8                    : RMF          - RESISTIVITY OF MUD FILTRATE
SUFT.F        39.2                 : SUFT         - SURFACE TEMPERATURE
~A  DEPTH      CAL       GR     PHIN     RESD
   50.000    7.949   53.206    0.403   45.196
   50.820    8.148   53.199    0.430   46.020
   51.640    8.387   53.189    0.446   45.088
   52.461    8.585   53.779    0.463   45.064
   53.281    8.744   54.965    0.475   44.163
   54.101    8.863   56.155    0.473   44.128
   54.921    9.022   59.731    0.463   43.245
   55.742    9.141   60.921    0.450   42.380
   56.562    9.220   62.708    0.438   42.346
   57.382    9.100   63.894    0.427   42.290
   58.202    9.020   64.483    0.419   41.444
   59.022    8.900   62.680    0.413   41.422
   59.843    8.820   61.480    0.412   40.594
   60.663    8.819   59.677    0.412   39.793
   61.483    8.938   59.671    0.412   39.008
   62.303    9.017   61.455    0.418   38.956
   63.123    9.096   63.241    0.424   38.925
   63.944    9.096   65.023    0.419   38.873
   64.764    9.056   64.421    0.413   39.571
   65.584    8.896   62.617    0.395   41.830
   66.404    8.736   61.415    0.401   44.219
   67.224    8.496   60.214    0.428   47.621
   68.045    8.296   57.811    0.430   49.399
   68.865    8.216   56.610    0.434   50.286
   69.685    8.016   55.406    0.441   50.219
   70.505    7.976   55.395    0.443   49.255
   71.326    8.015   55.389    0.449   48.270
   72.146    8.134   55.383    0.452   46.408
   72.966    8.253   56.568    0.446   45.504
   73.786    8.492   57.160    0.432   44.618
   74.606    8.690   58.346    0.408   42.096
   75.427    8.730   59.534    0.401   40.505
   76.247    8.849   60.722    0.406   38.225
   77.067    8.848   62.506    0.409   36.770
   77.887    8.888   63.694    0.405   35.371
   78.707    8.807   63.688    0.399   34.682
   79.528    8.607   62.485    0.395   33.998
   80.348    8.487   60.680    0.394   33.943
   81.168    8.288   59.480    0.394   35.220
   81.988    8.247   57.679    0.389   37.930
   82.808    8.406   60.059    0.369   40.086
   83.629    8.565   61.247    0.311   40.053
   84.449    8.604   61.239    0.272   39.263
   85.269    8.564   60.634    0.268   39.221
   86.089    8.564   60.624    0.319   40.697
   86.909    8.523   61.216    0.347   42.216
   87.730    8.523   64.196    0.297   42.160
   88.550    8.562   66.579    0.274   41.328
   89.370    8.282   66.570    0.281   39.745
   90.190    7.764   65.966    0.284   37.528
   91.010    7.723   65.959    0.273   34.095
   91.831    7.922   67.743    0.262   32.815
   92.651    8.161   68.933    0.251   31.558
   93.471    8.359   69.523    0.250   30.927
   94.291    8.518   69.515    0.252   30.325
   95.112    8.597   69.507    0.247   29.718
   95.932    8.637   68.300    0.240   29.695
   96.752    8.676   67.099    0.234   29.093
   97.572    8.716   65.894    0.236   29.062
   98.392    8.834   65.888    0.238   29.031
   99.213    8.874   65.878    0.246   29.560
  100.033    8.953   67.068    0.254   29.529
  100.853    8.913   69.448    0.259   28.938
  101.673    8.832   70.040    0.264   27.837
  102.493    8.752   70.628    0.265   27.295
  103.314    8.592   70.625    0.265   26.242
  104.134    8.273   70.015    0.263   26.214
  104.954    8.153   70.010    0.261   26.186
  105.774    8.272   70.596    0.259   26.657
  106.594    8.271   70.592    0.259   26.628
  107.415    8.350   69.987    0.260   27.623
  108.235    8.549   68.781    0.263   28.119
  109.055    8.628   66.977    0.264   28.616
  109.875    8.588   66.971    0.265   28.593
  110.696    8.548   67.561    0.264   29.099
  111.516    8.507   68.151    0.264   29.076
  112.336    8.427   69.339    0.265   29.037
  113.156    8.347   69.929    0.271   29.014
  113.976    8.227   70.519    0.277   27.902
  114.797    8.107   71.110    0.301   26.833
  115.617    7.867   72.892    0.329   26.311
  116.437    7.787   74.082    0.358   25.309
  117.257    7.786   76.463    0.383   23.891
  118.077    8.025   77.057    0.403   22.125
  118.898    8.263   75.254    0.408   20.490
  119.718    8.343   72.853    0.401   19.710
  120.538    8.462   72.250    0.377   18.965
  121.358    8.381   71.642    0.370   18.586
  122.178    8.182   71.637    0.359   18.566
  122.999    7.703   71.625    0.335   18.541
  123.819    7.343   71.620    0.309   18.879
  124.639    7.343   72.212    0.292   19.579
  125.459    7.263   72.200    0.280   19.563
  126.280    7.183   72.192    0.279   20.288
  127.100    7.341   72.183    0.280   20.647
  127.920    7.500   72.179    0.281   20.636
  128.740    7.579   72.769    0.282   20.990
  129.560    7.619   72.762    0.283   20.990
  130.381    7.618   72.750    0.287   22.587
  131.201    7.657   72.739    0.289   22.135
  132.021    7.657   72.735    0.298   22.118
  132.841    7.656   72.127    0.308   22.106
  133.661    7.656   72.124    0.323   22.070
  134.482    7.616   72.114    0.338   22.059
  135.302    7.455   72.106    0.347   22.023
  136.122    7.415   72.099    0.348   22.425
  136.942    7.614   72.091    0.327   22.389
  137.762    7.892   72.084    0.321   22.371
  138.583    7.932   72.670    0.315   22.353
  139.403    7.852   72.664    0.309   22.329
  140.223    7.652   73.256    0.311   22.294
  141.043    7.532   77.430    0.335   22.270
  141.864    7.332   81.009    0.346   21.836
  142.684    7.252   85.786    0.365   21.813
  143.504    7.092   88.765    0.389   20.983
  144.324    7.131   86.364    0.399   20.179
  145.144    7.130   85.761    0.407   19.416
  145.965    7.010   84.554    0.411   18.672
  146.785    6.970   85.148    0.413   18.294
  147.605    6.929   86.336    0.418   18.280
  148.425    6.969   85.730    0.424   18.255
  149.245    7.048   83.329    0.427   18.942
  150.066    7.207   82.126    0.428   19.287
  150.886    7.246   80.921    0.429   20.002
  151.706    7.246   80.911    0.430   20.744
  152.526    7.245   80.906    0.430   21.122
  153.346    7.245   80.896    0.432   21.495
  154.167    7.204   81.484    0.433   21.478
  154.987    7.164   82.674    0.433   21.858
  155.807    7.084   83.268    0.434   21.427
  156.627    7.003   86.846    0.435   21.410
  157.448    6.923   91.021    0.435   20.584
  158.268    6.963   92.808    0.437   19.800
  159.088    7.201   93.399    0.437   19.047
  159.908    7.400   92.791    0.435   18.322
  160.728    7.479   92.186    0.433   17.965
  161.549    7.438   92.778    0.428   17.282
  162.369    7.438   90.973    0.423   16.305
  163.189    7.358   87.976    0.419   15.983
  164.009    7.238   84.979    0.423   15.672
  164.829    7.198   84.376    0.427   15.651
  165.650    7.316   84.966    0.426   15.342
  166.470    7.475   87.348    0.419   15.330
  167.290    7.554   90.327    0.416   14.735
  168.110    7.554   90.915    0.415   14.451
  168.930    7.474   90.912    0.416   13.380
  169.751    7.394   89.707    0.419   13.119
  170.571    7.313   89.701    0.422   12.864
  171.391    7.233   89.689    0.426   12.610
  172.211    7.233   90.879    0.430   12.354
  173.031    7.192   92.663    0.431   12.338
  173.852    7.191   93.849    0.432   12.328
  174.672    7.191   93.843    0.432   12.546
  175.492    7.191   94.434    0.433   12.778
  176.312    7.230   94.428    0.435   13.255
  177.133    7.229   95.016    0.436   13.747
  177.953    7.229   97.398    0.439   14.260
  178.773    7.228   99.781    0.443   15.070
  179.593    7.188   99.772    0.444   15.337
  180.413    7.148   98.573    0.444   15.042
  181.234    7.027   94.976    0.443   13.927
  182.054    6.867   93.775    0.441   13.404
  182.874    6.827   91.972    0.441   11.947
  183.694    6.787   91.364    0.443   11.717
  184.514    6.746   90.761    0.444   11.486
  185.335    6.746   89.557    0.444   11.474
  186.155    6.745   87.154    0.443   11.459
  186.975    6.745   85.355    0.440   11.446
  187.795    6.744   81.759    0.435   11.655
  188.615    6.744   79.960    0.429   12.314
  189.436    6.783   76.361    0.420   13.265
  190.256    6.783   74.564    0.413   13.764
  191.076    6.782   70.370    0.411   14.823
  191.896    6.781   68.570    0.410   15.968
