~VERSION INFORMATION
 VERS.                 2.0:   CWLS LOG ASCII STANDARD -VERSION 2.0
 WRAP.                  NO:   ONE LINE PER DEPTH STEP
~WELL INFORMATION BLOCK
#MNEM.UNIT           DATA                    DESCRIPTION OF MNEMONIC
#---------    -------------------            -------------------------------
# Generated from Intellog Unique Number	CC_80_83/WELL/2370
COMP.         PETRO CANADA                   : COMPANY
WELL.         PEX PCEJ CHARD OV              : Well_name    - WELL
LOC .         10-26-080-07W4                 : Location     - LOCATION
UWI .         AA/10-26-080-07W400            : Uwi          - UNIQUE WELL ID
ENTR.         DW                             : Entered      - ENTERED BY
SRVC.         SCHLUMBERGER                   : Scn          - SERVICE COMPANY
STRT.M        145                            : top_depth    - START DEPTH
STOP.M        394.895                        : bot_depth    - STOP DEPTH
STEP.M        0.3                            : increment    - STEP LENGTH
 NULL. -999.2500:NULL Value
~CURVE INFORMATION BLOCK
#MNEM UNIT       ERCB CURVE CODE    CURVE DESCRIPTION
#-----------   ------------------   ----------------------------------
DEPT.M        00 001 00 00         : DEPTH        - DEPTH
DPHI.V/V      00 890 00 00         : PHID         - DENSITY POROSITY (LIMESTONE)
NPHI.V/V      00 330 00 00         : PHIN         - NEUTRON POROSITY (LIMESTONE)
GR  .API      00 310 00 00         : GR           - GAMMA RAY
ILD .OHMM     00 120 00 00         : RESD         - DEEP RESISTIVITY (DIL)
~PARAMETER INFORMATION
#MNEM.UNIT           DATA             DESCRIPTION OF MNEMONIC
#---------         -----------     ------------------------------
GL  .M        581.1                : gl           - GROUND LEVEL ELEVATION
EREF.M        584.75               : kb           - ELEVATION OF DEPTH REFERENCE
DATM.M        584.75               : datum        - DATUM ELEVATION
TDD .M        400                  : tdd          - TOTAL DEPTH DRILLER
RUN .         ONE                  : Run          - RUN NUMBER
ENG .         BILL                 : Engineer     - RECORDING ENGINEER
WIT .         JIM                  : Witness      - WITNESSED BY
MUD .         GEL                  : Mud_type     - MUD TYPE
MATR.         LIMESTONE            : Logunit      - NEUTRON MATRIX
TMAX.C        16                   : BHT          - MAXIMUM RECORDED TEMPERATURE
BHTD.M        400                  : BHTDEP       - MAXIMUM RECORDED TEMPERATURE
MATR.         1                    : LOGUNIT      - NEUTRON MATRIX
RMT .C        25                   : MDTP         - TEMPERATURE OF MUD
NEUT.         1                    : NEUTRON      - NEUTRON TYPE
RESI.         0                    : RESIST       - RESISTIVITY TYPE
RMC .OHMM     0.25                 : RMC          - RESISTIVITY OF MUD CAKE
RMF .OHMM     0.25                 : RMF          - RESISTIVITY OF MUD FILTRATE
SUFT.C        4                    : SUFT         - SURFACE TEMPERATURE
~A  DEPTH     PHID     PHIN       GR     RESD
  145.000    0.285    0.567  121.250    3.419
  145.300    0.285    0.567  115.613    3.414
  145.600    0.287    0.570  114.974    3.475
  145.900    0.288    0.591  117.462    3.471
  146.200    0.288    0.594  118.700    3.464
  146.500    0.291    0.599  123.062    3.526
  146.800    0.296    0.585  120.551    3.455
  147.100    0.298    0.592  123.035    3.448
  147.400    0.294    0.600  122.396    3.381
  147.700    0.290    0.589  121.134    3.312
  148.000    0.291    0.588  122.999    3.307
  148.300    0.296    0.549  122.987    3.180
  148.600    0.294    0.551  126.100    3.116
  148.900    0.278    0.552  127.336    3.111
  149.200    0.270    0.546  116.700    3.163
  149.500    0.269    0.547  108.563    3.221
  149.800    0.268    0.555  117.926    3.215
  150.100    0.263    0.561  112.911    3.271
  150.400    0.254    0.560  116.021    3.329
  150.700    0.245    0.559  113.511    3.389
  151.000    0.237    0.597  112.250    3.580
  151.300    0.231    0.561  120.987    3.714
  151.600    0.238    0.555  122.850    3.852
  151.900    0.251    0.524  114.713    4.071
  152.200    0.248    0.507  112.826    4.222
  152.500    0.250    0.481  114.062    4.215
  152.800    0.257    0.469  116.548    4.130
  153.100    0.255    0.498  121.538    4.047
  153.400    0.245    0.530  124.023    3.818
  153.700    0.240    0.519  122.138    3.671
  154.000    0.235    0.535  117.124    3.596
  154.300    0.226    0.499  118.988    3.799
  154.600    0.213    0.496  125.849    4.093
  154.900    0.205    0.497  120.213    4.580
  155.200    0.212    0.490  112.075    5.123
  155.500    0.251    0.420  100.188    5.413
  155.800    0.273    0.452   92.049    5.615
  156.100    0.310    0.448  102.662    6.161
  156.400    0.395    0.416   98.275    6.271
  156.700    0.389    0.449   81.388    5.695
  157.000    0.243    0.490  103.875    5.175
  157.300    0.238    0.510  121.363    4.526
  157.600    0.248    0.485  123.851    4.270
  157.900    0.267    0.435  114.463    4.512
  158.200    0.262    0.393  108.825    5.445
  158.500    0.280    0.395  101.938    7.642
  158.800    0.294    0.418  110.673   10.931
  159.100    0.290    0.421  111.286   11.775
  159.400    0.266    0.430  100.649   11.319
  159.700    0.258    0.447   97.513   10.092
  160.000    0.255    0.456  110.000    8.183
  160.300    0.253    0.452  116.239    6.762
  160.600    0.254    0.467  116.226    7.011
  160.900    0.269    0.477  118.714    7.842
  161.200    0.304    0.458  118.073    9.286
  161.500    0.319    0.426  116.187   11.418
  161.800    0.309    0.406  106.175   13.774
  162.100    0.282    0.390  101.163   15.122
  162.400    0.275    0.376   95.526   16.911
  162.700    0.291    0.377   86.763   17.536
  163.000    0.301    0.411   78.626   17.515
  163.300    0.289    0.436   69.863   17.162
  163.600    0.289    0.416   72.351   17.134
  163.900    0.287    0.398   82.337   17.109
  164.200    0.281    0.392   81.700   17.075
  164.500    0.278    0.397   86.687   17.048
  164.800    0.281    0.386   92.925   16.715
  165.100    0.290    0.417  103.538   16.071
  165.400    0.290    0.419  112.902   15.158
  165.700    0.259    0.424  119.138   14.573
  166.000    0.253    0.448  127.249   14.014
  166.300    0.257    0.485  132.864   12.975
  166.600    0.249    0.469  128.474   11.130
  166.900    0.247    0.480  130.337   10.705
  167.200    0.242    0.482  133.452   10.485
  167.500    0.243    0.461  139.064   11.509
  167.800    0.250    0.431  137.802   12.636
  168.100    0.272    0.412  124.662   14.680
  168.400    0.278    0.394  111.526   15.515
  168.700    0.273    0.391   93.389   15.489
  169.000    0.268    0.399  102.125   15.178
  169.300    0.268    0.393  108.989   15.154
  169.600    0.274    0.395  108.975   15.712
  169.900    0.297    0.407  102.712   16.608
  170.200    0.303    0.419   92.077   17.555
  170.500    0.308    0.396   86.439   17.861
  170.800    0.315    0.414   88.924   17.835
  171.100    0.311    0.406   89.539   17.148
  171.400    0.309    0.384   80.151   17.122
  171.700    0.308    0.380   80.136   17.094
  172.000    0.307    0.395   82.001   17.064
  172.300    0.305    0.385   83.862   17.050
  172.600    0.308    0.374   83.227   17.022
  172.900    0.310    0.378   85.088   17.981
  173.200    0.317    0.386   86.327   18.310
  173.500    0.325    0.392   83.814   19.344
  173.800    0.328    0.387   78.175   20.062
  174.100    0.322    0.393   78.789   20.809
  174.400    0.323    0.398   88.776   20.772
  174.700    0.308    0.400   85.635   20.360
  175.000    0.282    0.398   86.877   19.944
  175.300    0.267    0.389   90.614   19.546
  175.600    0.297    0.408   86.225   19.514
  175.900    0.314    0.417   86.840   18.761
  176.200    0.322    0.436   92.453   17.698
  176.500    0.324    0.458   98.065   16.692
  176.800    0.322    0.458  101.800   16.362
  177.100    0.311    0.470  107.413   15.729
  177.400    0.287    0.467  113.652   15.412
  177.700    0.286    0.454  121.140   15.387
  178.000    0.287    0.443  123.001   15.358
  178.300    0.287    0.452  113.615   15.345
  178.600    0.285    0.432  105.478   15.324
  178.900    0.283    0.439   99.839   16.189
  179.200    0.280    0.445   99.826   17.443
  179.500    0.280    0.408   96.063   18.788
  179.800    0.313    0.403   91.052   19.119
  180.100    0.324    0.424   67.915   19.087
  180.400    0.327    0.396   62.276   19.055
  180.700    0.326    0.428   66.638   18.325
  181.000    0.326    0.455   72.251   17.613
  181.300    0.327    0.458   77.865   16.619
  181.600    0.323    0.431   81.602   14.813
  181.900    0.323    0.431   84.088   12.955
  182.200    0.326    0.440   79.075   11.996
  182.500    0.327    0.444   79.689   11.315
  182.800    0.326    0.454   87.802   11.090
  183.100    0.316    0.443   95.289   11.282
  183.400    0.288    0.427   92.778   11.703
  183.700    0.280    0.404   98.390   12.839
  184.000    0.293    0.385  102.752   13.834
  184.300    0.308    0.365   98.365   16.072
  184.600    0.316    0.354   70.228   20.516
  184.900    0.311    0.374   55.214   20.885
  185.200    0.309    0.386   60.201   20.461
  185.500    0.310    0.380   65.189   19.306
  185.800    0.310    0.369   65.176   20.018
  186.100    0.305    0.343   60.788   22.818
  186.400    0.302    0.315   65.152   25.042
  186.700    0.291    0.300   63.887   25.978
  187.000    0.224    0.197   80.753   26.430
  187.300    0.132    0.162   75.739   24.935
  187.600    0.204    0.241   67.603   22.650
  187.900    0.282    0.328   60.715   20.577
  188.200    0.324    0.369   67.578   19.413
  188.500    0.324    0.420   76.940   18.665
  188.800    0.320    0.431   83.802   18.633
  189.100    0.303    0.393   81.290   18.259
  189.400    0.292    0.399   78.151   17.884
  189.700    0.302    0.395   81.888   17.531
  190.000    0.301    0.393   85.628   15.627
  190.300    0.298    0.410   95.616    9.185
  190.600    0.291    0.423   94.351    7.448
  190.900    0.266    0.451  100.591    6.393
  191.200    0.203    0.479  118.704    6.147
  191.500    0.162    0.463  140.565    7.139
  191.800    0.194    0.466  133.052    8.947
  192.100    0.239    0.471  126.166   11.864
  192.400    0.296    0.441  138.028   14.050
  192.700    0.319    0.429  135.514   20.481
  193.000    0.323    0.406  126.753   21.632
  193.300    0.316    0.390  116.740   20.411
  193.600    0.317    0.409   92.352   18.543
  193.900    0.305    0.422   92.963   17.173
  194.201    0.291    0.424  103.578   14.738
  194.501    0.275    0.422  136.066   12.649
  194.801    0.267    0.434  122.926   11.935
  195.101    0.269    0.444  124.791   11.913
  195.401    0.278    0.418  124.153   12.829
  195.701    0.278    0.419  120.391   14.084
  196.001    0.280    0.424  116.628   15.463
  196.301    0.284    0.411  116.616   17.961
  196.601    0.290    0.397  112.228   19.707
  196.901    0.307    0.396   90.341   20.826
