~VERSION INFORMATION
 VERS.                 2.0:   CWLS LOG ASCII STANDARD -VERSION 2.0
 WRAP.                  NO:   ONE LINE PER DEPTH STEP
~WELL INFORMATION BLOCK
#MNEM.UNIT           DATA                    DESCRIPTION OF MNEMONIC
#---------    -------------------            -------------------------------
# Generated from Intellog Unique Number	CW_79_81/WELL/2479
WELL.         GULF HOOLE OV                  : Well_name    - WELL
LOC .         AA/11-01-080-23W4/0            : Location     - LOCATION
UWI .         AA/11-01-080-23W4/0            : Uwi          - UNIQUE WELL ID
ENTR.         MAX                            : Entered      - ENTERED BY
SRVC.         SCHLUMBERGER                   : Scn          - SERVICE COMPANY
STRT.M        215                            : top_depth    - START DEPTH
STOP.M        485                            : bot_depth    - STOP DEPTH
STEP.M        0.25                           : increment    - STEP LENGTH
 NULL. -999.2500:NULL Value
~CURVE INFORMATION BLOCK
#MNEM UNIT       ERCB CURVE CODE    CURVE DESCRIPTION
#-----------   ------------------   ----------------------------------
DEPT.M        00 001 00 00         : DEPTH        - DEPTH
ILD .OHMM     00 120 00 00         : RESD         - DEEP RESISTIVITY (DIL)
NPHI.V/V      00 330 00 00         : PHIN         - NEUTRON POROSITY (SANDSTONE)
DPHI.V/V      00 890 00 00         : PHID         - DENSITY POROSITY (SANDSTONE)
GR  .API      00 310 00 00         : GR           - GAMMA RAY
CALI.MM       00 280 01 00         : CAL          - CALIPER
~PARAMETER INFORMATION
#MNEM.UNIT           DATA             DESCRIPTION OF MNEMONIC
#---------         -----------     ------------------------------
GL  .M        583.2                : gl           - GROUND LEVEL ELEVATION
EREF.M        586.7                : kb           - ELEVATION OF DEPTH REFERENCE
DATM.M        583.2                : datum        - DATUM ELEVATION
TDD .M        490                  : tdd          - TOTAL DEPTH DRILLER
RUN .         ONE                  : Run          - RUN NUMBER
ENG .         BILL                 : Engineer     - RECORDING ENGINEER
WIT .         JIM                  : Witness      - WITNESSED BY
MUD .         GEL                  : Mud_type     - MUD TYPE
MATR.         SANDSTONE            : Logunit      - NEUTRON MATRIX
TMAX.C        29                   : BHT          - MAXIMUM RECORDED TEMPERATURE
BHTD.M        490                  : BHTDEP       - MAXIMUM RECORDED TEMPERATURE
MATR.         1                    : LOGUNIT      - NEUTRON MATRIX
RMT .C        17                   : MDTP         - TEMPERATURE OF MUD
NEUT.         1                    : NEUTRON      - NEUTRON TYPE
RESI.         0                    : RESIST       - RESISTIVITY TYPE
RMC .OHMM     8.12                 : RMC          - RESISTIVITY OF MUD CAKE
RMF .OHMM     7.56                 : RMF          - RESISTIVITY OF MUD FILTRATE
SUFT.C        15                   : SUFT         - SURFACE TEMPERATURE
~A  DEPTH     RESD     PHIN     PHID       GR      CAL
# ...
  251.500   32.202    0.452    0.361   44.718  307.908
  251.750   31.753    0.457    0.359   44.873  306.977
  252.000   31.368    0.466    0.356   45.446  305.055
  252.250   31.118    0.475    0.356   46.205  302.483
  252.500   30.908    0.477    0.358   46.240  299.250
  252.750   30.707    0.475    0.351   46.519  303.668
  253.000   30.674    0.474    0.349   46.796  294.407
  253.250   30.583    0.473    0.350   46.949  279.196
  253.500   30.436    0.469    0.353   46.982  264.780
  253.750   30.510    0.457    0.357   47.032  256.514
  254.000   30.771    0.450    0.358   47.075  254.521
  254.250   31.719    0.449    0.356   47.109  254.180
  254.500   31.280    0.433    0.358   47.146  256.522
  254.750   30.050    0.421    0.361   47.183  261.938
  255.000   28.672    0.422    0.362   47.220  270.526
  255.250   27.574    0.441    0.354   47.361  283.176
  255.500   27.172    0.445    0.353   47.896  288.611
  255.750   26.598    0.457    0.357   47.696  285.508
  256.000   25.890    0.461    0.372   49.104  282.400
  256.250   25.061    0.455    0.382   51.164  280.873
  256.500   23.986    0.439    0.369   53.697  278.650
  256.750   22.045    0.423    0.319   58.600  268.690
  257.000   20.131    0.445    0.302   65.083  264.212
  257.250   15.922    0.441    0.297   70.832  263.878
  257.500   11.491    0.433    0.285   75.689  264.134
  257.750    8.823    0.427    0.266   79.774  264.795
  258.000    7.426    0.433    0.250   82.250  265.459
  258.250    6.805    0.456    0.261   81.095  265.522
  258.500    6.554    0.449    0.286   79.887  265.588
  258.750    6.134    0.454    0.271   83.970  267.237
  259.000    5.514    0.506    0.248   88.408  267.989
  259.250    4.744    0.535    0.231   94.279  268.055
  259.500    4.110    0.521    0.225  100.032  267.727
  259.750    3.821    0.486    0.224  101.451  267.228
  260.000    3.680    0.471    0.224  101.238  266.460
  260.250    3.684    0.461    0.218  100.570  266.523
  260.500    3.913    0.465    0.206  100.785  265.991
  260.750    4.113    0.484    0.196  102.127  265.657
  261.000    4.043    0.509    0.200  104.006  265.525
  261.250    3.564    0.529    0.238  104.358  264.569
  261.500    3.280    0.554    0.267  101.172  263.375
  261.750    3.532    0.553    0.284   92.406  259.082
  262.000    4.235    0.505    0.291   87.034  257.457
  262.250    5.510    0.466    0.290   85.525  257.916
  262.500    7.271    0.456    0.282   86.987  259.373
  262.750    8.265    0.448    0.268   89.670  260.164
  263.000    8.939    0.421    0.267   92.188  259.810
  263.250    8.686    0.431    0.267   90.322  258.683
  263.500    8.678    0.434    0.268   84.703  257.557
  263.750    9.192    0.428    0.272   74.742  256.430
  264.000   10.764    0.419    0.279   63.059  255.397
  264.250   16.003    0.419    0.293   55.091  254.580
  264.500   20.445    0.424    0.299   53.151  254.239
  264.750   20.764    0.416    0.298   53.903  253.509
  265.000   20.398    0.409    0.295   53.938  253.368
  265.250   19.969    0.411    0.295   53.617  253.431
  265.500   19.945    0.420    0.300   53.181  253.400
  265.750   20.878    0.426    0.306   52.711  253.079
  266.000   21.716    0.421    0.313   52.495  253.144
  266.250   22.878    0.419    0.319   52.053  253.195
  266.500   23.977    0.420    0.325   51.789  253.259
  266.750   25.086    0.422    0.329   51.585  253.127
  267.000   26.157    0.425    0.330   51.442  252.890
  267.250   27.217    0.435    0.330   51.092  252.959
  267.500   28.531    0.438    0.336   49.152  253.018
  267.750   29.405    0.449    0.340   49.666  253.080
  268.000   30.808    0.453    0.344   49.822  252.846
  268.250   32.701    0.452    0.346   49.382  252.512
  268.500   34.740    0.447    0.347   48.643  252.180
  268.750   36.252    0.437    0.348   48.397  251.864
  269.000   37.132    0.439    0.347   48.188  251.923
  269.250   31.006    0.437    0.347   47.040  252.376
  269.500   27.357    0.432    0.346   47.136  252.839
  269.750   24.896    0.430    0.345   47.649  253.103
  270.000   23.469    0.434    0.344   48.343  252.670
  270.250   23.705    0.443    0.349   50.169  250.349
  270.500   24.852    0.436    0.359   53.182  248.342
  270.750   25.058    0.441    0.359   53.458  247.215
  271.000   25.125    0.450    0.357   51.771  246.381
  271.250   25.236    0.452    0.354   50.974  246.044
  271.500   25.394    0.447    0.351   51.426  246.110
  271.750   25.419    0.437    0.353   50.751  246.279
  272.000   25.440    0.429    0.357   49.547  246.744
  272.250   25.469    0.421    0.357   49.584  246.807
  272.500   25.626    0.420    0.353   50.693  246.270
  272.750   25.739    0.425    0.349   52.039  245.342
  273.000   25.855    0.433    0.347   52.968  244.317
  273.250   26.302    0.443    0.352   52.912  243.427
  273.500   26.528    0.448    0.357   52.464  242.660
  273.750   26.553    0.447    0.358   52.252  242.729
  274.000   26.430    0.443    0.356   53.658  243.095
  274.250   26.352    0.437    0.355   55.601  243.357
  274.500   26.372    0.429    0.354   56.888  243.514
  274.750   26.410    0.422    0.357   56.219  244.069
  275.000   26.416    0.436    0.358   56.259  244.547
  275.250   26.241    0.438    0.353   57.252  244.604
  275.500   26.213    0.443    0.356   58.234  244.665
  275.750   26.235    0.448    0.363   58.860  244.923
  276.000   26.258    0.449    0.371   58.364  245.379
  276.250   26.363    0.440    0.373   55.309  245.942
  276.500   26.793    0.439    0.370   54.105  246.427
  276.750   27.211    0.443    0.365   54.143  246.477
  277.000   27.334    0.443    0.363   54.535  246.239
  277.250   27.661    0.443    0.366   56.236  245.902
  277.500   28.155    0.442    0.371   59.131  245.665
  277.750   28.179    0.440    0.372   62.187  245.745
  278.000   28.198    0.455    0.369   62.966  245.804
  278.250   27.804    0.471    0.368   63.717  245.873
  278.500   27.267    0.473    0.364   63.038  245.631
  278.750   26.997    0.462    0.362   61.169  245.294
  279.000   27.072    0.449    0.365   59.300  244.864
  279.250   27.244    0.455    0.368   59.783  244.141
  279.500   27.058    0.470    0.366   60.817  244.206
  279.750   28.099    0.464    0.362   59.423  243.879
  280.000   28.226    0.449    0.361   58.392  243.839
  280.250   27.830    0.440    0.355   57.954  243.896
  280.500   27.347    0.449    0.341   58.109  243.954
  280.750   27.215    0.482    0.322   58.733  244.031
  281.000   27.444    0.497    0.326   59.264  244.103
  281.250   27.264    0.484    0.339   59.773  244.562
  281.500   27.083    0.465    0.347   60.464  244.724
  281.750   26.705    0.456    0.351   60.980  244.982
  282.000   26.289    0.461    0.351   61.079  245.435
  282.250   26.314    0.473    0.349   60.297  246.068
  282.500   26.334    0.472    0.348   58.597  246.966
  282.750   26.747    0.474    0.354   55.546  247.816
  283.000   27.168    0.470    0.359   54.630  248.670
  283.250   27.493    0.453    0.360   53.952  250.124
  283.500   27.666    0.428    0.357   53.275  251.877
  283.750   27.652    0.413    0.351   54.377  252.827
  284.000   27.463    0.415    0.343   56.151  253.299
  284.250   26.287    0.431    0.347   55.713  253.355
  284.500   24.735    0.431    0.344   57.773  253.416
  284.750   22.709    0.432    0.338   58.763  253.281
  285.000   20.208    0.440    0.330   57.849  252.850
  285.250   16.622    0.454    0.321   56.843  252.054
  285.500   13.674    0.465    0.322   56.387  251.693
  285.750   12.894    0.467    0.323   56.425  251.762
  286.000   12.440    0.465    0.321   55.924  251.231
  286.250   12.225    0.462    0.319   55.609  250.306
  286.500   12.190    0.458    0.319   55.712  249.480
  286.750   12.309    0.454    0.322   56.132  249.464
  287.000   12.416    0.453    0.324   56.910  249.103
  287.250   12.516    0.451    0.324   58.383  248.776
  287.500   12.541    0.452    0.321   59.669  248.736
  287.750   12.459    0.456    0.317   61.133  248.802
