~VERSION INFORMATION
 VERS.                 2.0:   CWLS LOG ASCII STANDARD -VERSION 2.0
 WRAP.                  NO:   ONE LINE PER DEPTH STEP
~WELL INFORMATION BLOCK
#MNEM.UNIT           DATA                    DESCRIPTION OF MNEMONIC
#---------    -------------------            -------------------------------
# Generated from Intellog Unique Number	CC_84_87/WELL/2327
NULL.         -999.25                        : NULL_VALUE
WELL.         SUN CHEECHAM                   : Well_name    - WELL              
LOC .         11-15-084-07W4                 : Location     - LOCATION          
UWI .         AA/11-15-084-07W4/0            : Uwi          - UNIQUE WELL ID    
ENTR.         DW                             : Entered      - ENTERED BY        
SRVC.         SCHLUMBERGER                   : Scn          - SERVICE COMPANY   
DATE.         15 JAN 80                      : Date         - LOG DATE
STRT.M        140                            : top_depth    - START DEPTH       
STOP.M        430.094                        : bot_depth    - STOP DEPTH        
STEP.M        0.3                            : increment    - STEP LENGTH       
~CURVE INFORMATION BLOCK
#MNEM UNIT       ERCB CURVE CODE    CURVE DESCRIPTION
#-----------   ------------------   ----------------------------------
DEPT.M        00 001 00 00         : DEPTH        - DEPTH                       
DPHI.V/V      00 890 00 00         : PHID         - DENSITY POROSITY (LIMESTONE)
NPHI.V/V      00 330 00 00         : PHIN         - NEUTRON POROSITY (LIMESTONE)
GR  .API      00 310 00 00         : GR           - GAMMA RAY                   
ILD .OHMM     00 120 00 00         : RESD         - DEEP RESISTIVITY (DIL)      
~PARAMETER INFORMATION       
#MNEM.UNIT           DATA             DESCRIPTION OF MNEMONIC
#---------         -----------     ------------------------------
GL  .M        591                  : gl           - GROUND LEVEL ELEVATION      
EREF.M        594.35               : kb           - ELEVATION OF DEPTH REFERENCE
DATM.M        594.35               : datum        - DATUM ELEVATION             
TDD .M        435                  : tdd          - TOTAL DEPTH DRILLER         
RUN .         ONE                  : Run          - RUN NUMBER                  
ENG .         BILL                 : Engineer     - RECORDING ENGINEER          
WIT .         JIM                  : Witness      - WITNESSED BY                
MUD .         GEL                  : Mud_type     - MUD TYPE                    
MATR.         LIMESTONE            : Logunit      - NEUTRON MATRIX              
TMAX.C        20.5                 : BHT          - MAXIMUM RECORDED TEMPERATURE
BHTD.M        435                  : BHTDEP       - MAXIMUM RECORDED TEMPERATURE
MATR.         1                    : LOGUNIT      - NEUTRON MATRIX              
RMT .C        25                   : MDTP         - TEMPERATURE OF MUD          
NEUT.         1                    : NEUTRON      - NEUTRON TYPE                
RESI.         0                    : RESIST       - RESISTIVITY TYPE            
RMC .OHMM     0.25                 : RMC          - RESISTIVITY OF MUD CAKE     
RMF .OHMM     0.25                 : RMF          - RESISTIVITY OF MUD FILTRATE 
SUFT.C        4                    : SUFT         - SURFACE TEMPERATURE         
~A  DEPTH     PHID     PHIN       GR     RESD
# ...
  244.401    0.231    0.513   83.882    5.644
  244.701    0.255    0.503   83.287    6.291
  245.001    0.251    0.507   85.106    6.635
  245.301    0.244    0.506   87.531    6.498
  245.601    0.266    0.507   83.310    6.249
  245.901    0.265    0.496   85.132    5.903
  246.201    0.249    0.469   91.184    4.550
  246.501    0.221    0.481   94.819    3.199
  246.801    0.231    0.483   93.617    1.555
  247.101    0.244    0.505   96.044    0.876
  247.401    0.223    0.497  103.909    0.727
  247.701    0.219    0.496  106.336    0.725
  248.001    0.235    0.524  106.947    0.839
  248.301    0.246    0.548  105.142    2.226
  248.601    0.249    0.546  100.920    3.333
  248.901    0.239    0.535  100.325    3.648
  249.201    0.239    0.512   99.729    3.443
  249.501    0.247    0.502  101.550    3.374
  249.801    0.233    0.540  100.953    3.430
  250.101    0.244    0.560   95.523    3.754
  250.401    0.263    0.536   91.906    4.185
  250.701    0.255    0.535   88.285    4.578
  251.001    0.279    0.514   83.459    4.569
  251.301    0.281    0.508   90.115    4.480
  251.601    0.279    0.524   90.124    4.229
  251.901    0.262    0.498   88.319    4.219
  252.201    0.259    0.508   86.515    4.702
  252.501    0.265    0.539   91.358    5.246
  252.801    0.296    0.527   95.597    5.430
  253.101    0.282    0.516   98.023    5.420
  253.401    0.274    0.514   91.987    5.312
  253.701    0.281    0.516   88.973    4.830
  254.001    0.276    0.520   92.006    4.398
  254.301    0.281    0.505   93.826    3.649
  254.601    0.268    0.513   96.250    3.201
  254.901    0.257    0.550   97.468    2.967
  255.201    0.246    0.590   95.059    2.802
  255.501    0.237    0.604   92.650    2.693
  255.801    0.265    0.566   96.889    2.640
  256.101    0.245    0.573   98.710    2.586
  256.401    0.255    0.595   96.907    2.581
  256.701    0.260    0.606   94.497    2.624
  257.001    0.276    0.596   89.669    2.819
  257.301    0.274    0.578   89.680    3.710
  257.601    0.259    0.555   89.686    4.291
  257.901    0.287    0.532   88.487    4.874
  258.201    0.287    0.534   84.263    5.848
  258.501    0.294    0.553   75.206    6.768
  258.801    0.299    0.538   71.589    8.740
  259.101    0.296    0.515   70.387    9.925
  259.401    0.304    0.504   61.933   10.665
  259.701    0.324    0.494   49.853   12.111
  260.001    0.307    0.476   48.653   13.013
  260.301    0.291    0.464   45.643   13.228
  260.601    0.219    0.452   45.043   12.493
  260.901    0.236    0.468   46.867   11.364
  261.201    0.265    0.469   48.686   10.729
  261.501    0.291    0.472   50.508   10.132
  261.801    0.326    0.477   47.494    9.734
  262.101    0.336    0.459   48.712    9.536
  262.401    0.332    0.460   51.138    9.343
  262.701    0.326    0.460   54.772    9.161
  263.001    0.321    0.466   52.363    8.982
  263.301    0.326    0.469   52.978    8.966
  263.601    0.324    0.461   53.588    8.776
  263.901    0.323    0.454   54.201    8.929
  264.201    0.332    0.452   54.210    8.906
  264.501    0.327    0.453   51.196    8.887
  264.801    0.323    0.464   48.182    9.037
  265.101    0.327    0.478   47.587    9.190
  265.401    0.325    0.465   48.804   10.054
  265.701    0.318    0.458   50.022   11.211
  266.001    0.316    0.459   50.029   13.963
  266.301    0.310    0.454   49.432   17.388
  266.601    0.277    0.436   48.233   17.344
  266.901    0.232    0.410   47.032   14.665
  267.201    0.056    0.214   47.041   11.725
  267.501    0.148    0.325   48.863   10.876
  267.801    0.222    0.408   51.287    9.716
  268.101    0.321    0.465   53.713    8.209
  268.401    0.336    0.477   53.118    7.751
  268.701    0.337    0.454   53.125    7.452
  269.001    0.325    0.448   54.342    7.582
  269.301    0.315    0.444   51.932    7.699
  269.601    0.322    0.445   53.150    7.834
  269.901    0.323    0.447   54.972    7.959
  270.201    0.315    0.454   55.585    7.949
  270.501    0.311    0.459   56.198    7.784
  270.801    0.318    0.460   56.809    7.768
  271.101    0.317    0.455   57.422    7.894
  271.401    0.323    0.449   57.433    7.886
  271.701    0.317    0.469   58.044    8.014
  272.001    0.318    0.457   56.843    7.998
  272.301    0.309    0.451   56.853    7.978
  272.600    0.324    0.439   55.046    7.961
  272.900    0.322    0.433   53.847    7.951
  273.200    0.311    0.447   59.899    7.933
  273.500    0.303    0.456   60.511    8.060
  273.800    0.299    0.434   57.497    8.049
  274.100    0.306    0.422   55.089    8.181
  274.400    0.319    0.438   53.888    8.316
  274.700    0.318    0.446   56.315    8.297
  275.000    0.324    0.449   56.926    8.132
  275.300    0.327    0.447   57.538    7.962
  275.600    0.324    0.436   61.777    7.951
  275.900    0.321    0.457   61.787    7.789
  276.200    0.319    0.458   61.191    7.773
  276.500    0.313    0.428   61.199    7.760
  276.800    0.305    0.428   61.209    7.884
  277.100    0.296    0.454   60.008    8.012
  277.400    0.285    0.447   58.806    7.994
  277.700    0.269    0.448   58.209    7.836
  278.000    0.275    0.440   57.615    7.823
  278.300    0.293    0.441   58.227    7.523
  278.600    0.303    0.470   59.444    7.236
  278.900    0.312    0.488   66.100    7.217
  279.200    0.316    0.477   68.525    7.208
  279.500    0.318    0.458   67.326    7.191
  279.800    0.322    0.468   65.522    7.180
  280.100    0.321    0.460   65.528    7.030
  280.400    0.319    0.452   65.539    7.149
  280.700    0.326    0.445   63.129    7.264
  281.000    0.321    0.476   60.719    7.390
  281.300    0.296    0.461   59.519    7.364
  281.600    0.267    0.457   62.548    7.354
  281.900    0.294    0.459   68.601    7.208
  282.200    0.303    0.457   69.818    7.195
  282.500    0.281    0.475   66.199    7.051
  282.800    0.280    0.478   63.792    6.781
  283.100    0.274    0.465   66.217    6.400
  283.400    0.301    0.463   68.642    6.159
  283.700    0.286    0.458   76.508    5.707
  284.000    0.280    0.452   81.351    5.289
  284.300    0.277    0.468   84.985    4.994
  284.600    0.268    0.507   85.599    4.984
  284.900    0.248    0.528   86.212    4.974
  285.200    0.256    0.505   88.034    4.966
  285.500    0.237    0.511   86.230    4.686
  285.800    0.249    0.540   84.425    4.347
  286.100    0.263    0.536   82.618    4.028
  286.400    0.272    0.544   84.439    3.802
  286.700    0.276    0.577   92.305    3.797
  287.000    0.278    0.558   86.269    3.932
  287.300    0.285    0.542   76.607    4.301
  287.600    0.287    0.519   76.014    4.623
  287.900    0.294    0.496   77.228    5.059
  288.200    0.297    0.490   86.303    5.238
  288.500    0.271    0.473   86.916    5.035
  288.800    0.252    0.527   85.715    4.937
  289.100    0.238    0.518   87.537    4.745
  289.400    0.236    0.542   89.357    4.739
  289.700    0.269    0.571   88.763    4.475
  290.000    0.268    0.589   92.397    4.149
  290.300    0.274    0.582   93.009    3.571
  290.600    0.279    0.566   89.995    3.189
  290.900    0.268    0.556   93.631    2.902
  291.200    0.260    0.534   98.473    2.845
  291.500    0.260    0.575  103.921    2.686
  291.800    0.295    0.601  103.931    2.632
  292.100    0.283    0.578   97.894    2.675
  292.400    0.286    0.551   87.024    2.929
  292.700    0.283    0.517   87.032    3.579
  293.000    0.225    0.522   87.040    4.710
  293.300    0.230    0.519   81.609    5.446
  293.600    0.234    0.458   85.848    5.960
  293.900    0.236    0.470   90.086    6.285
  294.200    0.242    0.491   88.887    6.396
  294.500    0.253    0.485   90.708    6.619
  294.800    0.254    0.481   87.694    6.853
  295.100    0.255    0.482   87.098    8.061
  295.400    0.260    0.500   89.524    8.662
  295.700    0.258    0.497   88.927    9.654
  296.000    0.247    0.477   88.332   11.163
  296.300    0.217    0.456   94.989   11.986
