~VERSION INFORMATION
 VERS.                 2.0:   CWLS LOG ASCII STANDARD -VERSION 2.0
 WRAP.                  NO:   ONE LINE PER DEPTH STEP
~WELL INFORMATION BLOCK
#MNEM.UNIT           DATA                    DESCRIPTION OF MNEMONIC
#---------    -------------------            -------------------------------
# Generated from Intellog Unique Number	CN_94_101/WELL/3200
WELL.         SHELL CANADA LTD.              : Well_name    - WELL
LOC .         AA/13-07-095-14W4/0            : Location     - LOCATION
UWI .         AA/13-07-095-14W4/0            : Uwi          - UNIQUE WELL ID
ENTR.         JOETTE                         : Entered      - ENTERED BY
SRVC.         SCHLUMBERGER                   : Scn          - SERVICE COMPANY
DATE.         07/20/92                       : Date         - LOG DATE
STRT.F        200                            : top_depth    - START DEPTH
STOP.F        889.797                        : bot_depth    - STOP DEPTH
STEP.F        0.82                           : increment    - STEP LENGTH
 NULL. -999.2500:NULL Value
~CURVE INFORMATION BLOCK
#MNEM UNIT       ERCB CURVE CODE    CURVE DESCRIPTION
#-----------   ------------------   ----------------------------------
DEPT.F        00 001 00 00         : DEPTH        - DEPTH
GR  .API      00 310 00 00         : GR           - GAMMA RAY
DPHI.V/V      00 890 00 00         : PHID         - DENSITY POROSITY (SANDSTONE)
ILD .OHMM     00 120 00 00         : RESD         - DEEP RESISTIVITY (DIL)
~PARAMETER INFORMATION
#MNEM.UNIT           DATA             DESCRIPTION OF MNEMONIC
#---------         -----------     ------------------------------
GL  .F        1723.2               : gl           - GROUND LEVEL ELEVATION
EREF.F        1733.2               : kb           - ELEVATION OF DEPTH REFERENCE
DATM.F        1733.2               : datum        - DATUM ELEVATION
TDD .F        911                  : tdd          - TOTAL DEPTH DRILLER
RUN .         ONE                  : Run          - RUN NUMBER
ENG .         BILL                 : Engineer     - RECORDING ENGINEER
WIT .         JIM                  : Witness      - WITNESSED BY
MUD .         GEL                  : Mud_type     - MUD TYPE
MATR.         SANDSTONE            : Logunit      - NEUTRON MATRIX
TMAX.F        56                   : BHT          - MAXIMUM RECORDED TEMPERATURE
BHTD.F        911                  : BHTDEP       - MAXIMUM RECORDED TEMPERATURE
RMT .F        56                   : MDTP         - TEMPERATURE OF MUD
MUDD.LB/G     9.3                  : MWT          - MUD DENSITY
NEUT.         1                    : NEUTRON      - NEUTRON TYPE
RESI.         0                    : RESIST       - RESISTIVITY TYPE
RM  .OHMM     3.27                 : RM           - RESISTIVITY OF MUD
RMC .OHMM     3.27                 : RMC          - RESISTIVITY OF MUD CAKE
RMF .OHMM     3.27                 : RMF          - RESISTIVITY OF MUD FILTRATE
SUFT.F        39.2                 : SUFT         - SURFACE TEMPERATURE
~A  DEPTH       GR     PHID     RESD
# ...
  377.986   44.661    0.408   22.098
  378.806   44.702    0.405   21.339
  379.626   44.758    0.395   21.010
  380.446   42.460    0.389   21.063
  381.266   42.093    0.387   21.103
  382.087   46.895    0.394   18.556
  382.907   54.852    0.353   14.580
  383.727   60.823    0.331    6.775
  384.547   66.413    0.321    4.092
  385.367   61.341    0.329    3.809
  386.188   58.255    0.352    4.517
  387.008   56.310    0.387    7.240
  387.828   51.239    0.399    8.592
  388.648   47.363    0.396   10.793
  389.469   48.207    0.391   14.889
  390.289   48.263    0.389   14.650
  391.109   47.923    0.393   15.258
  391.929   49.542    0.391   16.477
  392.749   53.161    0.376   13.441
  393.570   56.371    0.359   10.555
  394.390   54.849    0.336   11.849
  395.210   52.143    0.352   14.598
  396.030   53.381    0.379   16.698
  396.850   62.127    0.384   15.815
  397.671   70.084    0.338   11.970
  398.491   81.590    0.327    6.964
  399.311   89.941    0.314    5.576
  400.131   92.757    0.308    4.378
  400.951   86.121    0.315    4.311
  401.772   84.585    0.320    4.931
  402.592   82.288    0.319    5.132
  403.412   83.512    0.322    5.338
  404.232   88.300    0.322    5.772
  405.052   93.496    0.326    6.008
  405.873   88.805    0.320    5.592
  406.693   88.466    0.316    5.498
  407.513   88.534    0.314    5.214
  408.333   94.111    0.317    5.130
  409.154   95.744    0.333    5.147
  409.974   91.855    0.335    5.153
  410.794   85.205    0.337    5.264
  411.614   84.091    0.330    5.087
  412.434   83.357    0.315    5.005
  413.255   83.399    0.315    5.405
  414.075   87.003    0.328    5.735
  414.895   90.228    0.331    5.746
  415.715   89.099    0.313    5.658
  416.535   87.169    0.316    5.165
  417.356   84.477    0.339    4.801
  418.176   82.152    0.345    4.550
  418.996   82.601    0.328    4.651
  419.816   86.220    0.330    4.751
  420.636   87.472    0.347    4.421
  421.457   85.936    0.349    4.264
  422.277   83.230    0.342    4.441
  423.097   81.721    0.350    4.986
  423.917   82.171    0.349    5.287
  424.738   80.648    0.320    5.401
  425.558   77.535    0.301    5.314
  426.378   73.251    0.288    5.132
  427.198   76.475    0.280    5.345
  428.018   78.094    0.299    6.221
  428.839   79.741    0.317    7.522
  429.659   78.613    0.342    7.264
  430.479   77.865    0.346    5.708
  431.299   76.751    0.350    5.726
  432.119   77.201    0.358    5.849
  432.940   78.425    0.362    6.558
  433.760   80.860    0.354    7.934
  434.580   83.282    0.358    8.258
  435.400   83.337    0.382    6.251
  436.220   83.392    0.368    3.252
  437.041   85.052    0.343    3.646
  437.861   84.699    0.317    4.170
  438.681   82.388    0.299    4.678
  439.501   79.669    0.303    5.055
  440.322   82.498    0.327    5.463
  441.142   86.498    0.345    5.279
  441.962   87.736    0.341    4.819
  442.782   90.171    0.354    4.482
  443.602   91.029    0.350    4.413
  444.423   89.915    0.355    4.421
  445.243   91.928    0.367    4.430
  446.063   92.364    0.362    4.444
  446.883   88.080    0.358    4.628
  447.703   83.008    0.359    4.634
  448.524   83.458    0.360    4.646
  449.344   84.696    0.354    4.574
  450.164   84.751    0.351    4.586
  450.984   82.848    0.358    4.681
  451.804   83.298    0.358    5.065
  452.625   82.564    0.348    5.470
  453.445   81.028    0.348    5.483
  454.265   79.519    0.353    4.822
  455.085   80.363    0.348    4.487
  455.906   79.221    0.357    5.031
  456.726   76.529    0.357    8.377
  457.546   75.401    0.350    9.217
  458.366   73.076    0.348   11.159
  459.186   71.948    0.355   11.615
  460.007   70.031    0.347   11.008
  460.827   71.664    0.338    9.673
  461.647   73.310    0.327    8.836
  462.467   72.577    0.314    8.369
  463.287   71.040    0.318    7.931
  464.108   67.152    0.314    7.115
  464.928   62.868    0.299    6.739
  465.748   55.416    0.264    6.378
  466.568   49.569    0.204    7.574
  467.388   51.202    0.293   15.200
  468.209   53.215    0.354   23.481
  469.029   57.228    0.371   14.183
  469.849   55.706    0.379   12.471
  470.669   53.803    0.382   13.723
  471.490   51.858    0.380   14.283
  472.310   50.336    0.374   15.166
  473.130   51.207    0.370   16.688
  473.950   52.840    0.367   15.826
  474.770   55.248    0.366   14.720
  475.591   54.908    0.356   14.484
  476.411   53.386    0.357   15.351
  477.231   51.088    0.307   17.879
  478.051   51.538    0.272   18.275
  478.871   54.354    0.329   15.760
  479.692   57.959    0.355   15.219
  480.512   61.182    0.373   17.419
  481.332   65.576    0.364   15.596
  482.152   62.870    0.348   13.964
  482.972   60.573    0.312   12.988
  483.793   61.797    0.315   13.527
  484.613   65.402    0.328   12.348
  485.433   67.837    0.321   10.458
  486.253   69.470    0.322    9.025
  487.073   70.328    0.328    8.559
  487.894   70.383    0.320    8.411
  488.714   72.002    0.314    8.122
  489.534   76.409    0.308    7.697
  490.354   76.464    0.314    8.012
  491.175   78.900    0.327    9.694
  491.995   80.519    0.336    8.052
  492.815   83.348    0.332    6.094
  493.635   87.347    0.306    4.533
  494.455   85.839    0.302    4.454
  495.276   82.344    0.291    5.488
  496.096   79.625    0.278    6.281
  496.916   82.441    0.287    5.835
  497.736   90.003    0.312    4.856
  498.556   93.622    0.337    4.862
  499.377   92.085    0.336    4.784
  500.197   88.985    0.331    4.799
  501.017   86.674    0.337    4.722
  501.837   86.729    0.343    4.478
  502.657   85.601    0.345    4.401
  503.478   84.473    0.339    4.495
  504.298   85.331    0.334    5.546
  505.118   77.892    0.340    5.772
  505.938   77.947    0.340    5.577
  506.759   80.355    0.329    5.584
  507.579   78.438    0.330    6.508
  508.399   78.888    0.334    7.440
  509.219   78.168    0.329    7.890
  510.039   73.477    0.323    8.526
  510.860   65.236    0.317    7.783
  511.680   55.417    0.298    6.591
  512.500   47.584    0.254   10.968
  513.320   48.047    0.267   16.931
  514.140   50.469    0.288   21.255
  514.961   52.877    0.348   17.018
  515.781   57.284    0.361   12.880
  516.601   61.677    0.348   11.532
  517.421   69.240    0.338    9.062
  518.241   72.056    0.329    6.363
  519.062   76.858    0.337    5.286
  519.882   77.307    0.332    6.765
  520.702   63.939    0.321    9.510
  521.522   61.641    0.319   11.076
  522.343   65.627    0.338   10.302
  523.163   67.287    0.336    8.563
  523.983   68.906    0.332    8.269
  524.803   70.933    0.332    8.607
  525.623   73.355    0.330    8.629
  526.444   72.648    0.332    8.651
  527.264   71.112    0.331    8.046
  528.084   70.773    0.331    7.209
  528.904   70.434    0.337    7.790
  529.724   70.883    0.342    9.084
  530.545   74.896    0.347    8.134
  531.365   76.121    0.353    6.889
  532.185   76.176    0.355    6.906
  533.005   76.245    0.350    7.748
  533.825   74.722    0.327    8.211
  534.646   73.200    0.323    7.638
  535.466   74.832    0.321    7.960
  536.286   78.451    0.333    7.681
  537.106   78.098    0.336    6.882
  537.927   76.575    0.336    6.899
  538.747   75.842    0.347    8.825
  539.567   77.080    0.349    7.199
  540.387   82.670    0.330    4.779
  541.207   84.711    0.311    4.124
  542.028   82.781    0.284    4.538
  542.848   74.145    0.240   13.763
  543.668   62.355    0.210   15.450
  544.488   72.284    0.223   14.370
  545.308   81.424    0.246    7.752
  546.129   86.225    0.283    4.513
  546.949   89.436    0.324    4.528
  547.769   91.463    0.310    4.539
  548.589   90.743    0.312    4.998
  549.409   88.023    0.307    5.503
  550.230   82.951    0.293    5.836
  551.050   83.006    0.317    5.425
  551.870   86.231    0.315    4.681
  552.690   85.497    0.310    4.606
  553.510   85.946    0.295    5.469
  554.331   87.185    0.293    6.252
  555.151   84.098    0.291    6.155
