~VERSION INFORMATION
 VERS.                 2.0:   CWLS LOG ASCII STANDARD -VERSION 2.0
 WRAP.                  NO:   ONE LINE PER DEPTH STEP
~WELL INFORMATION BLOCK
#MNEM.UNIT           DATA                    DESCRIPTION OF MNEMONIC
#---------    -------------------            -------------------------------
# Generated from Intellog Unique Number	CC_84_87/WELL/2297
NULL.         -999.25                        : NULL_VALUE
WELL.         PEX PECJ HANGST OV             : Well_name    - WELL              
LOC .         10-08-086-09W4                 : Location     - LOCATION          
UWI .         AA/10-08-086-09W400            : Uwi          - UNIQUE WELL ID    
ENTR.         DW                             : Entered      - ENTERED BY        
SRVC.         DRESSER ATLAS                  : Scn          - SERVICE COMPANY   
DATE.         26 JAN 81                      : Date         - LOG DATE
STRT.M        65                             : top_depth    - START DEPTH       
STOP.M        239.902                        : bot_depth    - STOP DEPTH        
STEP.M        0.3                            : increment    - STEP LENGTH       
~CURVE INFORMATION BLOCK
#MNEM UNIT       ERCB CURVE CODE    CURVE DESCRIPTION
#-----------   ------------------   ----------------------------------
DEPT.M        00 001 00 00         : DEPTH        - DEPTH                       
DPHI.V/V      00 890 00 00         : PHID         - DENSITY POROSITY (LIMESTONE)
NPHI.V/V      00 330 00 00         : PHIN         - NEUTRON POROSITY (LIMESTONE)
GR  .API      00 310 00 00         : GR           - GAMMA RAY                   
ILD .OHMM     00 120 00 00         : RESD         - DEEP RESISTIVITY (DIL)      
~PARAMETER INFORMATION       
#MNEM.UNIT           DATA             DESCRIPTION OF MNEMONIC
#---------         -----------     ------------------------------
GL  .M        478.9                : gl           - GROUND LEVEL ELEVATION      
EREF.M        484                  : kb           - ELEVATION OF DEPTH REFERENCE
DATM.M        484                  : datum        - DATUM ELEVATION             
TDD .M        250                  : tdd          - TOTAL DEPTH DRILLER         
RUN .         ONE                  : Run          - RUN NUMBER                  
ENG .         BILL                 : Engineer     - RECORDING ENGINEER          
WIT .         JIM                  : Witness      - WITNESSED BY                
MUD .         GEL                  : Mud_type     - MUD TYPE                    
MATR.         LIMESTONE            : Logunit      - NEUTRON MATRIX              
TMAX.C        18                   : BHT          - MAXIMUM RECORDED TEMPERATURE
BHTD.M        250                  : BHTDEP       - MAXIMUM RECORDED TEMPERATURE
MATR.         1                    : LOGUNIT      - NEUTRON MATRIX              
RMT .C        25                   : MDTP         - TEMPERATURE OF MUD          
NEUT.         1                    : NEUTRON      - NEUTRON TYPE                
RESI.         0                    : RESIST       - RESISTIVITY TYPE            
RMC .OHMM     0.25                 : RMC          - RESISTIVITY OF MUD CAKE     
RMF .OHMM     0.25                 : RMF          - RESISTIVITY OF MUD FILTRATE 
SUFT.C        4                    : SUFT         - SURFACE TEMPERATURE         
~A  DEPTH     PHID     PHIN       GR     RESD
   65.000    0.220    0.438   63.783   17.139
   65.300    0.139    0.429   66.817   17.407
   65.600    0.203    0.356   71.101   17.678
   65.900    0.255    0.329   69.725   18.309
   66.200    0.264    0.385   74.635   18.606
   66.500    0.238    0.429   85.796   18.202
   66.800    0.223    0.423   83.795   16.802
   67.100    0.251    0.439   88.705   14.387
   67.400    0.277    0.463   96.727   12.786
   67.700    0.276    0.483   90.382   11.582
   68.000    0.285    0.462   79.636   11.334
   68.300    0.292    0.473   80.779   11.297
   68.600    0.282    0.491   83.183   11.469
   68.900    0.263    0.468   83.677   11.218
   69.200    0.262    0.452   86.719   11.190
   69.500    0.261    0.466  102.259   10.936
   69.800    0.265    0.473   95.245   10.704
   70.100    0.264    0.473  105.170   10.466
   70.400    0.243    0.500  110.703   10.433
   70.700    0.253    0.513  114.347   10.207
   71.000    0.270    0.493  109.856    9.795
   71.300    0.283    0.510  117.262    8.864
   71.600    0.305    0.518  134.674    8.507
   71.900    0.321    0.503  131.417    8.010
   72.200    0.306    0.507  130.087    7.538
   72.500    0.271    0.539  133.101    7.374
   72.800    0.273    0.531  132.374    7.639
   73.100    0.260    0.516  132.269    8.218
   73.400    0.228    0.505  127.162    9.013
   73.700    0.234    0.502  135.186    9.887
   74.000    0.243    0.496  128.808   11.046
   74.300    0.258    0.433  119.965   11.649
   74.600    0.281    0.462  127.369   11.841
   74.900    0.239    0.454  127.878   11.805
   75.200    0.235    0.440  119.643   11.544
   75.500    0.245    0.462  134.564   11.290
   75.800    0.272    0.454  140.086   11.043
   76.100    0.279    0.456  128.094   11.003
   76.400    0.278    0.475  121.108   10.960
   76.700    0.278    0.487  110.992   10.941
   77.000    0.279    0.465  117.752   11.326
   77.300    0.281    0.462  120.166   11.502
   77.600    0.283    0.480  111.920   11.465
   77.900    0.287    0.475  114.949   11.435
   78.200    0.294    0.471  109.838   11.181
   78.500    0.298    0.473  104.735   11.145
   78.800    0.266    0.487  122.766   11.315
   79.100    0.264    0.463  125.134   11.513
   79.400    0.288    0.444  128.802   12.139
   79.700    0.287    0.450  122.450   13.315
   80.000    0.278    0.476  113.583   14.600
   80.300    0.283    0.412  102.842   15.709
   80.600    0.292    0.429   95.234   16.901
   80.900    0.304    0.428  103.873   17.495
   81.200    0.309    0.428  107.537   17.457
   81.500    0.309    0.430  100.544   17.737
   81.800    0.276    0.410   92.309   18.693
   82.100    0.281    0.399   85.323   19.013
   82.400    0.287    0.405   77.711   19.668
   82.700    0.286    0.400   97.625   19.993
   83.000    0.290    0.393   99.395   20.324
   83.300    0.298    0.413   91.774   20.258
   83.600    0.314    0.413   82.303   19.440
   83.900    0.314    0.410   64.058   18.635
   84.200    0.314    0.416   58.279   18.580
   84.500    0.304    0.427   56.940   18.869
   84.800    0.286    0.433   65.610   18.834
   85.100    0.280    0.439   66.745   19.480
   85.400    0.282    0.405   73.534   19.819
   85.700    0.283    0.411   68.415   19.753
   86.000    0.281    0.409   67.061   19.668
   86.300    0.296    0.420   68.220   19.984
   86.600    0.306    0.425   59.346   20.308
   86.900    0.308    0.430   65.495   21.044
   87.200    0.305    0.437   64.766   21.776
   87.500    0.306    0.430   67.780   21.730
   87.800    0.306    0.409   70.809   21.250
   88.100    0.299    0.400   61.334   20.376
   88.400    0.291    0.421   65.596   19.919
   88.700    0.301    0.414   78.004   19.860
   89.000    0.314    0.438   65.370   20.198
   89.300    0.314    0.447   70.915   20.888
   89.600    0.308    0.419   69.561   20.840
   89.900    0.263    0.399   89.466   20.386
   90.200    0.263    0.400   88.106   19.941
   90.500    0.263    0.422   87.388   20.241
   90.800    0.263    0.447   89.785   21.362
   91.100    0.277    0.447   92.184   22.109
   91.400    0.311    0.420   85.196   22.489
   91.700    0.318    0.419   65.703   22.831
   92.000    0.319    0.428   56.812   22.346
   92.300    0.315    0.443   57.960   21.850
   92.600    0.298    0.440   57.877   21.374
   92.900    0.276    0.430   73.401   20.121
   93.200    0.271    0.404   73.928   18.583
   93.500    0.260    0.410   81.957   17.171
   93.800    0.259    0.425   98.739   15.843
   94.100    0.266    0.450  105.508   15.211
   94.400    0.276    0.445  105.414   15.159
   94.700    0.270    0.449   94.051   15.118
   95.000    0.259    0.446   88.286   14.782
   95.300    0.268    0.449   96.969   14.453
   95.600    0.275    0.470  109.997   13.873
   95.900    0.272    0.480  104.879   13.569
   96.200    0.253    0.465   91.647   12.297
   96.500    0.203    0.490   92.162   11.143
   96.800    0.209    0.507  142.098    9.902
   97.100    0.211    0.498  140.731    9.149
   97.400    0.208    0.512  130.009    8.448
   97.700    0.218    0.539  137.996    7.942
   98.000    0.226    0.561  132.878    7.776
   98.300    0.228    0.545  130.312    7.756
   98.600    0.228    0.504  125.835    7.872
   98.900    0.218    0.478  110.091    8.005
   99.200    0.222    0.493  116.854    8.125
   99.500    0.222    0.503  117.363    8.253
   99.800    0.212    0.492  120.408    8.076
  100.100    0.213    0.518  125.305    7.750
  100.400    0.214    0.546  130.827    7.433
  100.700    0.211    0.560  133.852    7.133
  101.000    0.226    0.522  125.614    6.845
  101.300    0.236    0.538  116.758    6.696
  101.600    0.241    0.542  122.268    6.549
  101.900    0.246    0.541  120.294    6.649
  102.200    0.262    0.529  113.302    6.884
  102.500    0.266    0.541  112.571    7.131
  102.800    0.247    0.564  118.712    7.523
  103.100    0.243    0.590  123.614    7.654
  103.400    0.250    0.535  121.647    7.920
  103.700    0.247    0.513  119.022    7.897
  104.000    0.233    0.533  121.402    7.725
  104.300    0.233    0.543  121.325    7.555
  104.600    0.244    0.540  122.477    7.249
  104.900    0.252    0.539  112.994    7.089
  105.200    0.266    0.537  117.877    6.933
  105.500    0.270    0.499  121.528    7.042
  105.800    0.298    0.488  122.026    7.151
  106.100    0.331    0.508  117.570    7.000
  106.400    0.341    0.558  115.582    6.460
  106.700    0.341    0.549  112.957    6.315
  107.000    0.238    0.530  120.367    6.302
  107.300    0.246    0.510  117.156    6.907
  107.600    0.255    0.498  104.534    7.581
  107.900    0.261    0.499  112.556    8.630
  108.200    0.268    0.483  102.453    9.469
  108.500    0.272    0.479  102.956   10.994
  108.800    0.272    0.491   97.236   13.256
  109.100    0.275    0.495   97.127   14.821
  109.400    0.276    0.464   90.143   16.885
  109.700    0.276    0.421   85.031   18.875
  110.000    0.273    0.433   89.307   20.698
  110.300    0.267    0.432   77.929   21.423
  110.600    0.219    0.426   76.566   19.791
  110.900    0.189    0.413   80.218   16.299
  111.200    0.212    0.423   81.990   11.308
  111.500    0.264    0.451   86.902    9.136
  111.800    0.274    0.478  102.442    8.597
  112.100    0.299    0.495  100.460    8.415
  112.400    0.276    0.517  102.831    8.876
  112.700    0.255    0.511  105.227    9.371
  113.000    0.270    0.495  107.644    9.897
  113.300    0.279    0.474  105.649   10.050
  113.600    0.276    0.481   93.053   10.207
  113.900    0.251    0.482  101.694   10.186
  114.201    0.252    0.476  101.582    9.573
  114.501    0.257    0.481  102.741    9.376
  114.801    0.280    0.509   88.855    8.987
  115.101    0.289    0.508   93.765    8.618
  115.401    0.301    0.483  101.781    8.435
  115.701    0.243    0.485  107.323    8.250
  116.001    0.236    0.480  112.847    8.382
  116.301    0.277    0.472  110.859    8.039
  116.601    0.335    0.485  105.120    7.861
  116.901    0.364    0.523  100.649    7.700
