~Version : LASO    vs 4.00
VERS.                2.00:   CWLS Log ASCII Standard -VERSION 2.0
WRAP.                  NO:
~Well Information Block
#MNEM.UNIT       Data                        Description of Mnemonic
#----.----      -------------------------- : -----------------------------
STRT.M            21.0000:
STOP.M           215.4000:
STEP.M             0.2000:
NULL.           -999.2500:
COMP.  MOBIL OIL CANADA                 :COMPANY
WELL.  MOBIL CLARKE OV PROG. 2-81       :WELL
FLD.                                    :FIELD
LOC.   13-28-089-07W4                   :LOCATION
CTRY.  CANADA                           :COUNTRY
PROV.  ALBERTA                          :PROVINCE
SRVC.  SCHLUMBERGER                     :SERVICE COMPANY
DATE.  31-JAN-81                        :LOG DATE
UWI.   AA/13-28-089-07W400              :UNIQUE WELL ID
~Parameter Information Block
#MNEM.UNIT       Data                        Description of Mnemonic
#----.----      -------------------------- : -----------------------------
RUN .                   1                 : Run Number
GL  .M           458.5000                 : Ground Level Elevation
DREF.                  GD                 : Depth Reference
EREF.M           458.5000                 : Elevation of Depth Reference
TDL .M           216.0000                 : Total Depth Logger
TDD .M           216.0000                 : Total Depth Driller
CSGL.M            22.0000                 : Casing Bottom Logger
CSGD.M            22.0000                 : Casing Bottom Driller
CSGS.MM          219.0000                 : Casing Size
CSGW.KG/M          0.0000                 : Casing Weight
BHT .DEGC         12.0000                 : Bottom Hole Temperature
BS  .MM          171.0000                 : Bit Size
DFD .           9999.0000                 : Mud Weight (Density)
DFV .             45.0000                 : Mud Viscosity
DFPH.             11.0000                 : Mud pH
RM  .OHMM          5.7400                 : Mud Resistivity
RMT .DEGC         12.0000                 : Mud Resistivity Temperature
~Curve Information Block
#MNEM.UNIT        API CODE    Curve Description
#---------    ------------    -------------------------------------------
DEPT.M                    :   DEPTH
CALI.MM       42 280  1  1:   3 DENSITY CALIPER
DPHI.V/V                  :   DPHI
DT  .US/M     60 520  0  1:   2 SONIC INTERVAL TRANSIT TIME (COMPENSATED)
GR  .GAPI     42 310  1  1:   4 GAMMA RAY
ILD .OHMM      5 120 46  1:   7 DEEP INDUCTION
ILM .OHMM      5 120 44  1:   8 MEDIUM INDUCTION
NPHI.V/V      42 890  3  1:   5 NEUTRON POROSITY (SANDSTONE)
RHOB.K/M3     42 350  1  1:   6 BULK DENSITY
SFLU.OHMM      5 220  1  1:   9 FOCUSSED RESISTIVITY
SP  .MV        5  10  1  1:   10 SPONTANEOUS POTENTIAL
~A  Depth           CALI        DPHI          DT          GR         ILD         ILM        NPHI        RHOB        SFLU          SP
# ...
82.0000         198.0000      0.2225    520.8000     99.4650      6.5438      6.4778      0.5029   2283.5000      6.3304    -71.1600
82.2000         196.7250      0.2193    515.2800     98.0100      6.6655      6.9092      0.5012   2282.0000      7.8240    -71.4000
82.4000         189.5000      0.2177    507.4000     94.5600      6.6655      6.9732      0.5071   2289.7000     13.1169    -72.9000
82.6000         184.4500      0.2175    503.2800     97.0200      6.4244      6.3013      0.5056   2299.1001     13.2382    -73.3950
82.8000         185.1250      0.2245    502.2400    101.0400      6.1352      5.5902      0.5084   2315.7000      9.3203    -73.1400
83.0000         185.8250      0.2283    507.6000    106.0800      5.8054      5.1455      0.5224   2338.2000      5.4580    -72.9000
83.2000         186.6000      0.2234    532.7200    110.7300      5.1979      4.6928      0.5543   2328.0000      3.7379    -72.1500
83.4000         188.6250      0.2182    544.2400    111.6900      5.0099      4.5649      0.5608   2317.3999      4.0274    -72.1500
83.6000         193.4500      0.2274    548.2800    109.6500      4.9185      4.6071      0.5591   2309.3000      4.0647    -72.1500
83.8000         201.4250      0.2393    544.2400    104.8350      5.0099      4.8689      0.5394   2318.0000      4.8869    -72.9000
84.0000         202.6000      0.2412    540.8400    102.8550      5.1979      4.9594      0.5353   2322.2000      6.3890    -73.3950
84.2000         205.7000      0.2369    537.8400    101.5800      5.4429      5.0516      0.5327   2331.2000      6.7520    -73.6500
84.4000         195.1750      0.2305    530.8000    102.5250      5.6472      5.4882      0.5226   2339.3999      5.3092    -73.1400
84.6000         189.6500      0.2236    528.4800    102.7050      5.4933      5.5902      0.5212   2311.1001      6.0958    -73.3950
84.8000         188.2750      0.2267    525.4800    101.3400      5.2460      5.2897      0.5197   2290.7000      7.5410    -74.1450
85.0000         186.8000      0.2380    516.1200     99.5100      4.8734      4.5230      0.5122   2278.6001      6.5077    -73.3950
85.2000         186.9250      0.2453    521.6400     99.4050      4.8287      4.3195      0.5137   2312.3000      4.4981    -72.4050
85.4000         188.1500      0.2446    528.9200     99.9300      4.8287      4.2799      0.5213   2308.3000      3.4090    -71.9100
85.6000         189.5500      0.2368    542.1200    100.3050      4.6971      4.4816      0.5407   2281.3999      3.8462    -71.1600
85.8000         188.4500      0.2266    537.8400     99.5700      4.6971      4.5230      0.5357   2288.3999      4.6241    -71.1600
86.0000         187.3500      0.2185    529.7600     98.8350      4.7844      4.6498      0.5255   2280.8999      5.0703    -71.1600
86.2000         186.3500      0.2221    523.8000     97.9650      4.8734      4.7800      0.5212   2286.8000      5.3092    -71.1600
86.4000         185.5000      0.2239    521.0000     93.3900      5.1503      4.8689      0.5215   2293.0000      6.0399    -71.1600
86.6000         185.7750      0.2232    522.5200     91.2750      5.3436      4.8689      0.5200   2302.2000      5.7681    -71.4000
86.8000         186.1000      0.2219    525.2800     89.8050      5.5441      5.0053      0.5186   2297.5000      4.8421    -72.1500
87.0000         184.6500      0.2281    528.9200     85.8450      6.0232      5.7469      0.5164   2251.8000      4.1023    -74.6400
87.2000         180.1500      0.2365    528.9200     84.2700      6.6043      6.4778      0.5160   2254.5000      9.1502    -79.3650
87.4000         178.4250      0.2463    525.0800     84.2550      6.9796      6.7831      0.5152   2236.8000     10.4191    -80.3550
87.6000         178.4000      0.2551    525.4800     82.9200      7.8674      7.5689      0.5098   2208.0000      9.4936    -82.3500
87.8000         178.4000      0.2615    528.9200     81.2550      8.1626      7.7096      0.5068   2196.8999     10.2195    -83.5950
88.0000         178.5750      0.2690    528.9200     81.0600      8.5473      7.8529      0.5083   2195.5000     10.6128    -84.3450
88.2000         179.3750      0.2824    527.0000     80.9700      9.2009      8.4534      0.5120   2234.1001      9.5814    -83.8500
88.4000         179.8000      0.2872    525.4800     80.9850      9.2009      9.1840      0.5044   2244.2000      9.1502    -82.6050
88.6000         179.6500      0.2794    530.6000     81.0900      8.6264      9.7956      0.5024   2299.1001     11.1130    -80.8650
88.8000         179.2750      0.2630    522.0800     84.4500      6.6655      7.4995      0.4964   2407.0000     19.6893    -78.6150
89.0000         180.3000      0.2446    478.4000     90.1800      5.7521      5.8537      0.4882   2432.2000     11.7444    -77.3700
89.2000         181.4750      0.2207    442.4000     96.5100      5.0563      4.6928      0.4826   2396.3000      6.3304    -75.6300
89.4000         183.2750      0.1866    432.6000    100.2150      4.4038      3.9394      0.4917   2374.1001      3.8462    -73.3950
89.6000         186.3250      0.1533    496.5200    104.0700      3.4027      3.1292      0.5601   2306.7000      2.4023    -72.4050
89.8000         187.2250      0.1333    531.0400    105.0450      3.1033      2.8802      0.5746   2271.0000      2.4925    -72.4050
90.0000         188.1250      0.1592    543.4000    106.1850      2.9096      2.7254      0.5869   2254.8000      2.6585    -72.4050
90.2000         188.6500      0.2279    555.9600    109.2150      2.8043      2.6268      0.5774   2264.3999      2.7079    -72.1500
90.4000         188.0250      0.2521    555.9600    110.1150      2.8565      2.6511      0.5867   2248.6001      2.7837    -71.9100
90.6000         192.4250      0.2509    556.1600    110.7750      2.9365      2.7254      0.6000   2241.6001      2.7582    -72.1500
90.8000         192.8000      0.2448    554.2400    110.9850      3.1610      2.9338      0.6112   2232.0000      3.1091    -72.6450
91.0000         189.2250      0.2469    552.5600    109.2900      3.3406      3.1005      0.6097   2221.3000      3.5370    -72.9000
91.2000         187.4750      0.2571    551.4800    106.3650      3.5631      3.3070      0.6026   2210.6001      3.5697    -72.9000
91.4000         185.5500      0.2699    550.0000    101.3250      4.2056      3.9394      0.5787   2272.3000      3.1378    -73.1400
91.6000         184.4500      0.2739    546.6000    100.0200      4.5272      4.3998      0.5519   2276.6001      3.7379    -73.3950
91.8000         183.3250      0.2634    543.1600     98.7150      4.9185      4.8689      0.5300   2278.6001      4.8869    -74.3850
92.0000         183.0000      0.2472    537.4400     96.9600      5.4933      5.3386      0.5108   2280.8999      7.5410    -74.8950
92.2000         183.1250      0.2287    534.4400     96.6300      5.7521      5.4882      0.5050   2334.3000      7.0702    -74.6400
92.4000         183.9000      0.2262    530.6000     96.7500      5.8054      5.5902      0.5023   2338.3000      6.3890    -74.6400
92.6000         184.6750      0.2368    526.7600     96.9750      5.7521      5.5390      0.5060   2309.3999      6.2666    -74.8950
92.8000         184.9500      0.2324    522.0800     92.3100      5.5954      5.1455      0.5137   2286.3000      5.6109    -74.6400
93.0000         185.0500      0.2242    521.2400     90.6300      5.5441      5.0984      0.5124   2295.2000      4.9321    -74.3850
93.2000         185.3000      0.2184    520.3600     89.8650      5.5441      5.1931      0.5171   2301.6001      4.7101    -73.8900
93.4000         185.7750      0.2286    524.4400     91.4850      5.5441      5.3880      0.5306   2276.6001      5.4580    -75.1350
93.6000         183.7250      0.2216    522.2800     91.9500      5.5954      5.4379      0.5302   2244.8999      6.2666    -77.1300
93.8000         182.8250      0.2187    518.6801     91.1100      5.7521      5.5390      0.5231   2229.8999      6.3890    -78.1200
94.0000         181.0750      0.2308    508.0400     90.7050      6.0790      5.8000      0.5051   2313.3999      6.2091    -81.6000
