~VERSION INFORMATION
 VERS.                 2.0:   CWLS LOG ASCII STANDARD -VERSION 2.0
 WRAP.                  NO:   ONE LINE PER DEPTH STEP
~WELL INFORMATION BLOCK
#MNEM.UNIT           DATA                    DESCRIPTION OF MNEMONIC
#---------    -------------------            -------------------------------
# Generated from Intellog Unique Number	CC_88_90/WELL/3158
WELL.         TEXACO CANADA INC.             : Well_name    - WELL
LOC .         AA/14-17-088-09W4/0            : Location     - LOCATION
UWI .         AA/14-17-088-09W400            : Uwi          - UNIQUE WELL ID
ENTR.         JOETTE                         : Entered      - ENTERED BY
SRVC.         COMPUTALOG                     : Scn          - SERVICE COMPANY
DATE.         03/04/92                       : Date         - LOG DATE
STRT.M        75                             : top_depth    - START DEPTH
STOP.M        176                            : bot_depth    - STOP DEPTH
STEP.M        0.25                           : increment    - STEP LENGTH
 NULL. -999.2500:NULL Value
~CURVE INFORMATION BLOCK
#MNEM UNIT       ERCB CURVE CODE    CURVE DESCRIPTION
#-----------   ------------------   ----------------------------------
DEPT.M        00 001 00 00         : DEPTH        - DEPTH
GR  .API      00 310 00 00         : GR           - GAMMA RAY
CALI.MM       00 280 01 00         : CAL          - CALIPER
NPHI.V/V      00 330 00 00         : PHIN         - NEUTRON POROSITY (SANDSTONE)
DPHI.V/V      00 890 00 00         : PHID         - DENSITY POROSITY (SANDSTONE)
ILD .OHMM     00 120 00 00         : RESD         - DEEP RESISTIVITY (DIL)
~PARAMETER INFORMATION
#MNEM.UNIT           DATA             DESCRIPTION OF MNEMONIC
#---------         -----------     ------------------------------
GL  .M        375.8                : gl           - GROUND LEVEL ELEVATION
EREF.M        379.8                : kb           - ELEVATION OF DEPTH REFERENCE
DATM.M        379.8                : datum        - DATUM ELEVATION
TDD .M        185.3                : tdd          - TOTAL DEPTH DRILLER
RUN .         ONE                  : Run          - RUN NUMBER
ENG .         BILL                 : Engineer     - RECORDING ENGINEER
WIT .         JIM                  : Witness      - WITNESSED BY
MUD .         GEL                  : Mud_type     - MUD TYPE
MATR.         SANDSTONE            : Logunit      - NEUTRON MATRIX
TMAX.C        19                   : BHT          - MAXIMUM RECORDED TEMPERATURE
BHTD.M        185.3                : BHTDEP       - MAXIMUM RECORDED TEMPERATURE
RMT .C        20                   : MDTP         - TEMPERATURE OF MUD
MUDD.KG/M     9166.66              : MWT          - MUD DENSITY
NEUT.         1                    : NEUTRON      - NEUTRON TYPE
RESI.         0                    : RESIST       - RESISTIVITY TYPE
RM  .OHMM     5.68                 : RM           - RESISTIVITY OF MUD
RMC .OHMM     5.68                 : RMC          - RESISTIVITY OF MUD CAKE
RMF .OHMM     5.68                 : RMF          - RESISTIVITY OF MUD FILTRATE
SUFT.C        4                    : SUFT         - SURFACE TEMPERATURE
~A  DEPTH       GR      CAL     PHIN     PHID     RESD
   75.000   85.425  399.926    0.459    0.440    7.922
   75.250   84.199  410.408    0.489    0.435    7.928
   75.500   87.275  425.065    0.509    0.431    7.797
   75.750   96.496  433.473    0.535    0.427    7.808
   76.000  112.478  442.918    0.542    0.422    7.676
   76.250  106.336  453.428    0.506    0.417    7.835
   76.500  105.725  457.691    0.472    0.411    7.989
   76.750  119.863  439.119    0.443    0.392   11.617
   77.000  127.241  393.596    0.396    0.192   12.540
   77.250  113.723  347.036    0.356    0.187   12.795
   77.500  111.268  282.826    0.432    0.193   12.114
   77.750  124.792  218.645    0.437    0.318    6.940
   78.000  121.108  216.716    0.442    0.507    6.328
   78.250  110.048  221.986    0.496    0.502    5.068
   78.500  109.437  400.539    0.486    0.533    4.375
   78.750  105.138  416.203    0.561    0.554    4.065
   79.000  102.683  435.006    0.589    0.574    3.509
   79.250  103.916  450.700    0.597    0.551    3.582
   79.500  112.523  448.771    0.596    0.518    3.791
   79.750  105.765  446.814    0.596    0.499    4.169
   80.000   93.477  442.783    0.593    0.453    4.417
   80.250  100.855  439.731    0.526    0.433    4.593
   80.500   95.942  430.518    0.525    0.423    4.683
   80.750  108.237  411.975    0.570    0.405    4.694
   81.000  115.614  394.440    0.576    0.399    4.699
   81.250  119.920  365.531    0.555    0.383    4.704
   81.500  127.297  263.975    0.536    0.376    4.715
   81.750  112.551  232.964    0.463    0.361    4.719
   82.000  104.565  243.532    0.413    0.343    4.728
   82.250  107.641  238.436    0.417    0.324    4.735
   82.500  118.706  221.909    0.408    0.268    4.833
   82.750  121.168  200.256    0.420    0.258    4.839
   83.000  121.171  177.538    0.436    0.267    4.848
   83.250  109.497  170.398    0.452    0.272    4.857
   83.500   90.449  176.762    0.442    0.269    4.771
   83.750   89.838  171.695    0.437    0.272    4.520
   84.000   93.528  164.525    0.446    0.278    4.202
   84.250   94.760  168.787    0.445    0.292    4.129
   84.500  108.899  167.895    0.446    0.287    3.911
   84.750  120.578  159.689    0.448    0.275    3.774
   85.000  126.727  137.000    0.451    0.244    3.711
   85.250  125.501  127.758    0.433    0.220    3.715
   85.500  106.453  134.122    0.441    0.212    3.862
   85.750   84.331  188.198    0.450    0.204    4.015
   86.000   97.856  197.643    0.456    0.198    4.255
   86.250   89.255  223.673    0.433    0.191    4.422
   86.500   91.102  266.347    0.432    0.186    4.773
   86.750   99.094  246.738    0.438    0.187    4.960
   87.000   99.712  234.415    0.436    0.193    5.555
   87.250  102.173  235.567    0.430    0.199    6.106
   87.500   96.030  248.122    0.422    0.206    9.050
   87.750  102.794  264.852    0.392    0.218   10.132
   88.000  124.307  279.480    0.396    0.224   11.565
   88.250  135.987  256.791    0.402    0.224   12.474
   88.500  129.230  241.329    0.399    0.200   13.981
   88.750  116.941  179.221    0.389    0.177   14.529
   89.000  102.195  176.227    0.386    0.174   14.551
   89.250  112.646  184.664    0.382    0.176   14.320
   89.500  114.493  190.999    0.338    0.179   13.812
   89.750  118.183  194.253    0.335    0.178   13.077
   90.000  121.874  190.223    0.393    0.175   12.156
   90.250  118.189  185.127    0.404    0.187   11.729
   90.500  115.734  184.206    0.421    0.224   11.322
   90.750  118.196  186.424    0.448    0.242   11.331
   91.000  120.043  191.693    0.403    0.251   11.783
   91.250  108.984  196.992    0.397    0.256   12.714
   91.500  100.998  218.905    0.413    0.222   14.239
   91.750  102.229  231.460    0.417    0.166   15.364
   92.000  113.295  223.312    0.424    0.151   14.019
   92.250  102.850  215.106    0.432    0.153   12.556
   92.500  101.625  222.477    0.360    0.158   11.046
   92.750  104.701  238.171    0.356    0.162   10.457
   93.000  110.849  223.745    0.367    0.159   10.276
   93.250  112.082  216.605    0.381    0.156   10.493
   93.500  105.325  213.611    0.399    0.150   10.900
   93.750  109.630  210.617    0.404    0.151   11.761
   94.000  109.633  198.294    0.384    0.154   16.173
   94.250  107.792  177.649    0.383    0.156   17.129
   94.500  108.410  159.135    0.400    0.164   18.837
   94.750   99.809  157.178    0.402    0.181   20.325
   95.000   99.812  157.322    0.410    0.215   23.200
   95.250   97.972  156.343    0.326    0.237   24.099
   95.500   83.225  151.276    0.262    0.248   26.003
   95.750   88.145  138.953    0.282    0.258   27.041
   96.000   94.909  123.520    0.297    0.262   27.083
   96.250   89.380  120.526    0.313    0.234   27.124
   96.500   91.842  118.568    0.313    0.212   27.165
   96.750  101.678  116.611    0.289    0.195   27.217
   97.000  102.296  118.829    0.278    0.186   27.269
   97.250   93.081  119.952    0.300    0.176   27.803
   97.500  105.375  124.214    0.346    0.170   28.902
   97.750  120.742  131.586    0.333    0.169   30.068
   98.000  120.131  139.994    0.286    0.170   30.668
   98.250  117.061  155.688    0.277    0.173   31.304
   98.500  120.137  164.096    0.275    0.177   30.785
   98.750  109.079  160.065    0.287    0.183   30.809
   99.000   99.249  156.064    0.283    0.187   30.286
   99.250   94.949  162.370    0.277    0.191   29.772
   99.500   98.640  151.083    0.282    0.194   29.279
   99.750   99.258  152.236    0.289    0.193   27.729
  100.000  100.490  158.600    0.263    0.190   26.756
  100.250   98.650  160.789    0.245    0.189   24.873
  100.500   91.892  155.750    0.247    0.189   23.122
  100.750   96.197  152.727    0.309    0.191   21.486
  101.000  108.492  146.595    0.323    0.196   18.540
  101.250   94.975  143.630    0.302    0.230   15.702
  101.500   95.593  151.001    0.301    0.274   12.575
  101.750  102.356  165.629    0.400    0.296   11.475
  102.000   92.526  189.615    0.421    0.313   11.280
  102.250  101.747  226.040    0.431    0.312   11.956
  102.500  100.522  213.717    0.444    0.319   11.965
  102.750   89.463  211.760    0.459    0.294   11.549
  103.000   88.852  226.388    0.480    0.273   10.534
  103.250   94.386  243.118    0.484    0.272    9.792
  103.500   98.691  234.941    0.432    0.275    9.807
  103.750   95.621  226.735    0.420    0.286   10.785
  104.000   88.864  209.257    0.412    0.290   11.001
  104.250   91.325  231.141    0.407    0.269   11.229
  104.500  118.369  236.469    0.396    0.252   11.242
  104.750  104.852  230.365    0.383    0.234   11.263
  105.000   93.178  229.444    0.368    0.218   11.280
  105.250   90.723  217.092    0.364    0.201   12.638
  105.500   89.498  218.273    0.368    0.196   14.154
  105.750  112.239  199.673    0.371    0.188   15.554
  106.000  123.919  178.020    0.375    0.183   18.081
  106.250  113.475  181.246    0.380    0.178   21.422
  106.500  114.708  175.142    0.379    0.186   24.902
  106.750  114.710  153.518    0.350    0.200   28.959
  107.000  104.266  149.487    0.326    0.212   31.834
  107.250   98.738  147.472    0.325    0.210   34.336
  107.500   97.512  151.763    0.342    0.210   37.077
  107.750  109.806  152.973    0.346    0.211   38.543
  108.000  120.258  147.877    0.353    0.208   40.067
  108.250  110.427  143.818    0.354    0.202   40.113
  108.500  107.357  138.750    0.354    0.190   38.720
  108.750  109.819  149.232    0.348    0.174   37.346
  109.000  108.593  159.771    0.331    0.166   33.461
  109.250  108.597  157.756    0.319    0.149   29.403
  109.500  116.589  152.718    0.303    0.142   26.334
  109.750  112.290  149.724    0.290    0.132   21.892
  110.000   93.241  149.839    0.296    0.123   18.896
  110.250   87.099  146.816    0.313    0.134   16.605
  110.500   82.800  151.079    0.325    0.133   14.334
  110.750   80.960  160.581    0.337    0.130   13.319
  111.000   72.974  160.668    0.344    0.130   12.382
  111.250   64.987  161.849    0.347    0.128   12.172
