~VERSION INFORMATION
 VERS.                 2.0:   CWLS LOG ASCII STANDARD -VERSION 2.0
 WRAP.                  NO:   ONE LINE PER DEPTH STEP
~WELL INFORMATION BLOCK
#MNEM.UNIT           DATA                    DESCRIPTION OF MNEMONIC
#---------    -------------------            -------------------------------
# Generated from Intellog Unique Number	CX_WELLS/WELL/3925
WELL.         15-01-098-12W4                 : Well_name    - WELL
LOC .         AA/15-01-098-12W4/0            : Location     - LOCATION
UWI .         AA/15-01-098-12W400            : Uwi          - UNIQUE WELL ID
ENTR.         TIM                            : Entered      - ENTERED BY
SRVC.         SCHLUMBERGER                   : Scn          - SERVICE COMPANY
DATE.         08/11/92                       : Date         - LOG DATE
STRT.M        0                              : top_depth    - START DEPTH
STOP.M        120                            : bot_depth    - STOP DEPTH
STEP.M        0.25                           : increment    - STEP LENGTH
 NULL. -999.2500:NULL Value
~CURVE INFORMATION BLOCK
#MNEM UNIT       ERCB CURVE CODE    CURVE DESCRIPTION
#-----------   ------------------   ----------------------------------
DEPT.M        00 001 00 00         : DEPTH        - DEPTH
ILD .OHMM     00 120 00 00         : RESD         - DEEP RESISTIVITY (DIL)
GR  .API      00 310 00 00         : GR           - GAMMA RAY
NPHI.V/V      00 330 00 00         : PHIN         - NEUTRON POROSITY (SANDSTONE)
DPHI.V/V      00 890 00 00         : PHID         - DENSITY POROSITY (SANDSTONE)
~PARAMETER INFORMATION
#MNEM.UNIT           DATA             DESCRIPTION OF MNEMONIC
#---------         -----------     ------------------------------
GL  .M        362.5                : gl           - GROUND LEVEL ELEVATION
EREF.M        362.5                : kb           - ELEVATION OF DEPTH REFERENCE
DATM.M        362.5                : datum        - DATUM ELEVATION
TDD .M        137.6                : tdd          - TOTAL DEPTH DRILLER
RUN .         ONE                  : Run          - RUN NUMBER
ENG .         BILL                 : Engineer     - RECORDING ENGINEER
WIT .         JIM                  : Witness      - WITNESSED BY
MUD .         GEL                  : Mud_type     - MUD TYPE
MATR.         SANDSTONE            : Logunit      - NEUTRON MATRIX
TMAX.C        10                   : BHT          - MAXIMUM RECORDED TEMPERATURE
BHTD.M        137                  : BHTDEP       - MAXIMUM RECORDED TEMPERATURE
RMT .C        10                   : MDTP         - TEMPERATURE OF MUD
MUDD.KG/M     1090                 : MWT          - MUD DENSITY
NEUT.         1                    : NEUTRON      - NEUTRON TYPE
RESI.         0                    : RESIST       - RESISTIVITY TYPE
RM  .OHMM     13.1                 : RM           - RESISTIVITY OF MUD
RMC .OHMM     13.1                 : RMC          - RESISTIVITY OF MUD CAKE
RMF .OHMM     13.1                 : RMF          - RESISTIVITY OF MUD FILTRATE
SUFT.C        4                    : SUFT         - SURFACE TEMPERATURE
~A  DEPTH     RESD       GR     PHIN     PHID
# ...
   87.000   22.509   88.963    0.385    0.251
   87.250   19.569   91.480    0.389    0.283
   87.500   18.265   90.910    0.392    0.277
   87.750   18.290   91.565    0.405    0.281
   88.000   17.799   96.564    0.385    0.279
   88.250   17.083   95.348    0.375    0.273
   88.500   16.636   94.762    0.385    0.280
   88.750   16.896   99.141    0.397    0.296
   89.000   18.159  102.278    0.406    0.306
   89.250   19.786  106.036    0.384    0.314
   89.500   24.502  102.967    0.364    0.318
   89.750   30.762   94.311    0.362    0.324
   90.000   42.056   83.793    0.354    0.327
   90.250   64.357   79.483    0.349    0.332
   90.500   81.980   75.801    0.351    0.334
   90.750  101.483   73.964    0.358    0.339
   91.000  134.871   69.033    0.360    0.346
   91.250  101.799   68.446    0.352    0.353
   91.500   79.012   67.239    0.351    0.354
   91.750   61.368   65.411    0.358    0.359
   92.000   62.306   64.832    0.363    0.362
   92.250   67.939   63.625    0.368    0.367
   92.500   74.029   62.418    0.366    0.366
   92.750   85.387   60.590    0.343    0.366
   93.000  101.346   56.891    0.349    0.368
   93.250  120.247   54.451    0.362    0.370
   93.500  117.057   53.235    0.371    0.368
   93.750   89.610   55.131    0.366    0.363
   94.000   89.734   58.277    0.333    0.365
   94.250   93.751   56.449    0.337    0.367
   94.500   96.573   55.241    0.343    0.369
   94.750   90.107   57.758    0.355    0.375
   95.000   78.338   58.413    0.368    0.380
   95.250   74.160   58.438    0.374    0.381
   95.500   72.142   57.860    0.368    0.363
   95.750   67.336   57.894    0.361    0.356
   96.000   64.607   59.169    0.368    0.351
   96.250   57.799   58.591    0.359    0.345
   96.500   53.154   58.005    0.345    0.326
   96.750   48.213   59.892    0.346    0.319
   97.000   41.916   65.521    0.349    0.311
   97.250   36.959   68.650    0.330    0.304
   97.500   33.547   69.304    0.317    0.309
   97.750   32.635   67.476    0.354    0.301
   98.000   30.439   72.476    0.380    0.298
   98.250   27.610   73.751    0.380    0.305
   98.500   25.043   78.138    0.350    0.288
   98.750   23.039   83.758    0.341    0.277
   99.000   21.195   86.275    0.327    0.287
   99.250   19.231   83.214    0.335    0.296
   99.500   19.258   82.619    0.365    0.293
   99.750   21.290   78.317    0.385    0.294
  100.000   22.873   78.351    0.363    0.303
  100.250   25.647   78.385    0.356    0.317
  100.500   24.616   77.798    0.367    0.306
  100.750   22.653   79.686    0.377    0.305
  101.000   30.970   74.754    0.370    0.321
  101.250   33.746   72.305    0.354    0.319
  101.500   30.180   77.934    0.358    0.302
  101.750   25.506   81.684    0.368    0.296
  102.000   22.483   82.338    0.368    0.296
  102.250   20.977   83.614    0.364    0.300
  102.500   22.874   83.027    0.358    0.304
  102.750   27.140   70.647    0.351    0.310
  103.000   28.758   70.069    0.351    0.315
  103.250   27.995   70.715    0.345    0.297
  103.500   25.036   70.749    0.331    0.292
  103.750   24.381   72.025    0.363    0.295
  104.000   26.566   73.308    0.389    0.301
  104.250   29.788   61.549    0.412    0.320
  104.500   32.469   65.928    0.396    0.310
  104.750   32.058   71.548    0.369    0.325
  105.000   27.489   67.238    0.344    0.333
  105.250   30.812   64.177    0.350    0.338
  105.500   35.564   63.581    0.363    0.342
  105.750   33.183   64.236    0.390    0.343
  106.000   30.516   68.615    0.414    0.323
  106.250   26.899   73.614    0.405    0.323
  106.500   21.790   73.648    0.367    0.330
  106.750   20.052   73.070    0.351    0.338
  107.000   21.850   70.621    0.331    0.325
  107.250   27.443   68.164    0.338    0.326
  107.500   37.504   63.233    0.345    0.338
  107.750   53.494   61.405    0.352    0.340
  108.000   38.687   65.163    0.356    0.335
  108.250   30.898   68.921    0.360    0.324
  108.500   24.332   73.308    0.354    0.306
  108.750   22.695   76.445    0.337    0.259
  109.000   33.311   77.100    0.326    0.273
  109.250   33.368   70.315    0.331    0.291
  109.500   32.923   73.453    0.340    0.301
  109.750   32.049   74.728    0.345    0.300
  110.000   32.094   71.029    0.318    0.304
  110.250   34.983   65.486    0.320    0.310
  110.500   39.797   63.028    0.331    0.315
  110.750   43.395   60.580    0.332    0.323
  111.000   44.685   59.993    0.325    0.325
  111.250   41.694   61.889    0.321    0.311
  111.500   36.777   64.406    0.348    0.316
  111.750   34.803   66.922    0.350    0.322
  112.000   34.362   71.310    0.337    0.313
  112.250   35.900   71.964    0.326    0.305
  112.500   38.569   69.507    0.313    0.292
  112.750   43.247   63.334    0.314    0.314
  113.000   49.199   57.791    0.330    0.334
  113.250   52.151   54.092    0.338    0.343
  113.500   48.642   52.264    0.360    0.349
  113.750   42.876   50.436    0.358    0.332
  114.000   39.471   51.711    0.371    0.326
  114.250   39.499   51.745    0.384    0.331
  114.500   38.451   53.650    0.382    0.339
  114.750   30.710   56.779    0.371    0.354
  115.000   24.528   63.028    0.396    0.359
  115.250   20.723   77.958    0.430    0.298
  115.500   16.090   87.923    0.433    0.281
  115.750   14.187   96.026    0.373    0.283
  116.000   15.033   95.448    0.305    0.286
  116.250   17.096   83.060    0.289    0.292
  116.500   20.574   60.749    0.350    0.295
  116.750   21.808   59.542    0.404    0.300
  117.000   20.931   71.990    0.425    0.288
  117.250   19.249   80.092    0.303    0.164
  117.500   17.973   88.204    0.239    0.105
  117.750   17.733   83.272    0.192    0.073
  118.000   17.020   80.823    0.206    0.077
  118.250   18.565   87.685    0.221    0.084
  118.500   19.946   95.176    0.237    0.081
  118.750   19.700   92.727    0.248    0.063
  119.000   18.636   92.140    0.258    0.050
  119.250   17.642   92.174    0.265    0.059
  119.500   17.413   94.070    0.273    0.071
  119.750   16.951   96.579    0.285    0.093
  120.000   16.974  100.337    0.293    0.105
