~VERSION INFORMATION
 VERS.                 2.0:   CWLS LOG ASCII STANDARD -VERSION 2.0
 WRAP.                  NO:   ONE LINE PER DEPTH STEP
~WELL INFORMATION BLOCK
#MNEM.UNIT           DATA                    DESCRIPTION OF MNEMONIC
#---------    -------------------            -------------------------------
# Generated from Intellog Unique Number	CN_94_101/WELL/1068
WELL.         10-17-094-06W4                 : Well_name    - WELL
LOC .         AA/10-17-094-06W4/0            : Location     - LOCATION
UWI .         AA/10-17-094-06W400            : Uwi          - UNIQUE WELL ID
ENTR.         JOETTE                         : Entered      - ENTERED BY
SRVC.         SCHLUMBERGER                   : Scn          - SERVICE COMPANY
DATE.         04/10/92                       : Date         - LOG DATE
STRT.M        80                             : top_depth    - START DEPTH
STOP.M        285                            : bot_depth    - STOP DEPTH
STEP.M        0.25                           : increment    - STEP LENGTH
 NULL. -999.2500:NULL Value
~CURVE INFORMATION BLOCK
#MNEM UNIT       ERCB CURVE CODE    CURVE DESCRIPTION
#-----------   ------------------   ----------------------------------
DEPT.M        00 001 00 00         : DEPTH        - DEPTH
ILD .OHMM     00 120 00 00         : RESD         - DEEP RESISTIVITY (DIL)
DPHI.V/V      00 890 00 00         : PHID         - DENSITY POROSITY (SANDSTONE)
NPHI.V/V      00 330 00 00         : PHIN         - NEUTRON POROSITY (SANDSTONE)
GR  .API      00 310 00 00         : GR           - GAMMA RAY
CALI.MM       00 280 01 00         : CAL          - CALIPER
~PARAMETER INFORMATION
#MNEM.UNIT           DATA             DESCRIPTION OF MNEMONIC
#---------         -----------     ------------------------------
GL  .M        564.2                : gl           - GROUND LEVEL ELEVATION
EREF.M        566.9                : kb           - ELEVATION OF DEPTH REFERENCE
DATM.M        566.9                : datum        - DATUM ELEVATION
TDD .M        287                  : tdd          - TOTAL DEPTH DRILLER
RUN .         ONE                  : Run          - RUN NUMBER
ENG .         BILL                 : Engineer     - RECORDING ENGINEER
WIT .         JIM                  : Witness      - WITNESSED BY
MUD .         GEL                  : Mud_type     - MUD TYPE
MATR.         SANDSTONE            : Logunit      - NEUTRON MATRIX
TMAX.C        18                   : BHT          - MAXIMUM RECORDED TEMPERATURE
BHTD.M        287                  : BHTDEP       - MAXIMUM RECORDED TEMPERATURE
RMT .C        5                    : MDTP         - TEMPERATURE OF MUD
MUDD.KG/M     1                    : MWT          - MUD DENSITY
NEUT.         1                    : NEUTRON      - NEUTRON TYPE
RESI.         0                    : RESIST       - RESISTIVITY TYPE
RM  .OHMM     11.4                 : RM           - RESISTIVITY OF MUD
RMC .OHMM     11.4                 : RMC          - RESISTIVITY OF MUD CAKE
RMF .OHMM     11.4                 : RMF          - RESISTIVITY OF MUD FILTRATE
SUFT.C        4                    : SUFT         - SURFACE TEMPERATURE
~A  DEPTH     RESD     PHID     PHIN       GR      CAL
# ...
  116.500   56.280    0.252    0.333   37.071  177.615
  116.750   53.138    0.242    0.316   36.454  174.549
  117.000   55.152    0.253    0.314   38.894  172.499
  117.250   64.123    0.276    0.318   41.334  172.490
  117.500   86.692    0.252    0.334   44.996  174.518
  117.750   91.707    0.239    0.396   44.991  174.509
  118.000   96.998    0.236    0.391   44.374  174.500
  118.250   73.014    0.233    0.375   48.036  174.490
  118.500   53.933    0.226    0.363   55.978  174.481
  118.750   41.372    0.219    0.368   57.805  174.472
  119.000   31.133    0.183    0.324   52.299  173.441
  119.250   35.520    0.163    0.255   44.957  170.375
  119.500   45.383    0.190    0.261   40.670  168.328
  119.750   63.738    0.206    0.280   41.888  167.299
  120.000  102.162    0.188    0.295   45.549  167.290
  120.250  116.504    0.165    0.283   47.987  168.302
  120.500  118.691    0.202    0.273   49.207  168.292
  120.750  120.864    0.246    0.331   49.813  168.283
  121.000  116.329    0.254    0.355   49.807  168.274
  121.250  107.764    0.234    0.341   50.410  168.260
  121.500  107.699    0.206    0.338   51.627  168.255
  121.750  107.634    0.276    0.357   51.624  169.262
  122.000  103.581    0.275    0.370   49.173  170.274
  122.250   95.983    0.266    0.374   45.498  173.322
  122.500   87.278    0.260    0.381   43.658  174.331
  122.750   85.592    0.270    0.394   45.488  172.279
  123.000   87.159    0.296    0.422   48.539  171.253
  123.250   87.133    0.304    0.408   50.366  170.223
  123.500   82.282    0.274    0.386   50.361  170.218
  123.750   72.045    0.255    0.352   49.745  172.244
  124.000   65.501    0.239    0.359   58.910  179.367
  124.250   66.720    0.264    0.393   73.575  182.415
  124.500   65.422    0.272    0.443   77.238  179.348
  124.750   53.112    0.282    0.438   84.567  176.280
  125.000   35.695    0.272    0.450   87.618  176.268
  125.250   23.540    0.277    0.445   90.058  176.264
  125.500   15.234    0.282    0.443   90.664  176.254
  125.750   12.136    0.288    0.454   90.660  176.243
  126.000   12.127    0.278    0.461   88.820  176.233
  126.250   13.832    0.264    0.450   86.369  176.224
  126.500   15.485    0.263    0.430   85.141  176.217
  126.750   17.662    0.276    0.433   88.190  177.226
  127.000   17.323    0.273    0.444   89.409  177.212
  127.250   16.359    0.266    0.440   91.237  177.208
  127.500   14.323    0.277    0.437   90.620  177.194
  127.750   11.850    0.278    0.439   87.556  177.187
  128.000   10.181    0.273    0.450   85.107  177.172
  128.250    9.615    0.273    0.469   84.489  177.168
  128.500    9.792    0.287    0.478   82.650  177.156
  128.750   11.600    0.301    0.475   78.362  176.128
  129.000   14.005    0.290    0.465   76.523  175.102
  129.250   13.994    0.282    0.448   74.683  174.071
  129.500   13.215    0.280    0.439   74.066  173.043
  129.750   13.977    0.299    0.435   75.284  172.015
  130.000   15.646    0.303    0.427   74.666  170.989
  130.250   14.498    0.315    0.421   73.439  170.977
  130.500   14.768    0.317    0.429   70.377  170.970
  130.750   17.492    0.310    0.425   66.702  169.942
  131.000   18.857    0.298    0.424   66.086  168.911
  131.250   19.572    0.308    0.435   69.747  168.902
  131.500   18.477    0.315    0.447   70.353  168.895
  131.750   16.801    0.304    0.440   69.737  168.885
  132.000   17.773    0.295    0.435   67.285  168.874
  132.250   20.274    0.288    0.434   64.832  168.864
  132.500   21.852    0.293    0.439   63.607  168.853
  132.750   23.554    0.312    0.442   62.377  168.839
  133.000   25.388    0.305    0.433   70.931  168.831
  133.250   32.437    0.285    0.425   75.204  168.827
  133.500   33.031    0.270    0.420   77.643  168.817
  133.750   26.318    0.265    0.432   76.415  168.806
  134.000   14.642    0.280    0.434   75.797  169.815
  134.250   11.663    0.268    0.423   78.237  169.806
  134.500   12.571    0.253    0.429   78.233  170.815
  134.750   13.552    0.272    0.441   75.171  171.825
  135.000   15.459    0.297    0.457   71.497  171.816
  135.250   15.744    0.309    0.451   68.435  171.806
  135.500   16.033    0.309    0.438   62.925  171.795
  135.750   16.020    0.283    0.450   63.531  171.788
  136.000   14.845    0.291    0.465   64.137  170.759
  136.250   14.021    0.325    0.474   61.075  170.752
  136.500   12.992    0.337    0.475   56.791  170.741
  136.750   14.004    0.324    0.465   51.893  170.727
  137.000   19.665    0.325    0.426   49.441  170.720
  137.250   34.638    0.332    0.428   50.658  170.710
  137.500   41.041    0.345    0.416   50.041  170.701
  137.750   51.455    0.360    0.408   48.201  170.691
  138.000   56.511    0.358    0.406   46.361  170.682
  138.250   57.563    0.345    0.406   45.746  170.673
  138.500   58.608    0.345    0.413   43.906  170.663
  138.750   58.582    0.349    0.425   41.453  170.656
  139.000   58.555    0.350    0.432   42.672  170.645
  139.250   58.520    0.355    0.441   45.112  170.638
  139.500   59.591    0.364    0.437   43.882  169.605
  139.750   59.556    0.365    0.437   43.878  169.600
  140.000   59.520    0.367    0.442   42.650  168.569
  140.250   60.619    0.369    0.444   42.642  168.562
  140.500   60.591    0.363    0.431   42.637  168.553
  140.750   60.546    0.352    0.420   44.464  168.541
  141.000   60.519    0.342    0.421   45.072  169.548
  141.250   60.482    0.328    0.415   45.677  169.541
  141.500   60.446    0.286    0.368   45.060  169.530
  141.750   60.410    0.101    0.342   42.609  169.523
  142.000   65.113    0.082    0.296   41.380  170.530
  142.250   81.636    0.150    0.279   43.820  170.523
  142.500   96.711    0.211    0.367   46.870  170.514
  142.750   96.638    0.301    0.401   49.310  170.502
  143.000   87.873    0.315    0.405   50.527  171.509
  143.250   76.940    0.309    0.406   48.077  171.504
  143.500   69.962    0.314    0.410   45.623  171.488
  143.750   63.617    0.329    0.429   45.618  172.502
  144.000   61.221    0.336    0.429   45.004  172.493
  144.250   62.351    0.343    0.425   44.998  172.486
  144.500   64.713    0.343    0.411   44.991  172.472
  144.750   65.908    0.350    0.410   44.984  172.467
  145.000   68.405    0.343    0.415   44.980  172.453
  145.250   68.364    0.357    0.425   43.752  172.441
  145.500   68.313    0.357    0.420   42.522  171.413
  145.750   65.740    0.342    0.420   43.127  171.406
  146.000   63.264    0.341    0.418   45.567  171.397
  146.250   58.623    0.336    0.412   47.396  171.387
  146.500   54.323    0.333    0.410   47.390  171.380
  146.750   48.479    0.342    0.412   47.385  171.369
  147.000   45.773    0.352    0.410   46.155  171.359
  147.250   49.330    0.357    0.412   45.539  171.350
  147.500   51.206    0.344    0.413   44.924  171.340
  147.750   54.160    0.341    0.423   43.083  171.331
  148.000   58.369    0.352    0.434   42.466  171.324
  148.250   62.904    0.352    0.432   43.684  171.312
  148.500   66.543    0.342    0.433   46.124  171.305
  148.750   64.027    0.341    0.426   48.564  171.294
  149.000   61.634    0.313    0.416   49.779  171.284
  149.250   50.037    0.317    0.408   50.995  171.277
  149.500   36.268    0.316    0.411   52.215  171.266
  149.750   25.796    0.315    0.441   61.380  171.254
  150.000   18.695    0.336    0.460   58.927  172.266
  150.250   16.679    0.339    0.433   58.309  172.256
  150.500   17.980    0.316    0.428   58.915  173.266
  150.750   18.659    0.324    0.439   58.910  174.276
  151.000   18.650    0.316    0.434   60.126  174.266
  151.250   19.357    0.324    0.441   61.344  174.254
  151.500   20.090    0.330    0.449   63.784  174.245
  151.750   19.334    0.309    0.453   69.892  174.238
  152.000   16.928    0.292    0.461   76.000  174.226
  152.250   15.105    0.280    0.461   83.331  175.236
  152.500   13.476    0.263    0.470   91.273  179.305
  152.750   11.150    0.247    0.503   96.769  184.390
