~VERSION INFORMATION
 VERS.                 2.0:   CWLS LOG ASCII STANDARD -VERSION 2.0
 WRAP.                  NO:   ONE LINE PER DEPTH STEP
~WELL INFORMATION BLOCK
#MNEM.UNIT           DATA                    DESCRIPTION OF MNEMONIC
#---------    -------------------            -------------------------------
# Generated from Intellog Unique Number	CN_91_93/WELL/2890
WELL.         10-29-092-16W4                 : Well_name    - WELL
LOC .         AA/10-29-092-16W4/0            : Location     - LOCATION
UWI .         AA/10-29-092-16W400            : Uwi          - UNIQUE WELL ID
ENTR.         JOETTE                         : Entered      - ENTERED BY
SRVC.         SCHLUMBERGER                   : Scn          - SERVICE COMPANY
DATE.         03/31/92                       : Date         - LOG DATE
STRT.F        220                            : top_depth    - START DEPTH
STOP.F        780.203                        : bot_depth    - STOP DEPTH
STEP.F        0.82                           : increment    - STEP LENGTH
 NULL. -999.2500:NULL Value
~CURVE INFORMATION BLOCK
#MNEM UNIT       ERCB CURVE CODE    CURVE DESCRIPTION
#-----------   ------------------   ----------------------------------
DEPT.F        00 001 00 00         : DEPTH        - DEPTH
CALI.IN       00 280 01 00         : CAL          - CALIPER
GR  .API      00 310 00 00         : GR           - GAMMA RAY
NPHI.V/V      00 330 00 00         : PHIN         - NEUTRON POROSITY (SANDSTONE)
DPHI.V/V      00 890 00 00         : PHID         - DENSITY POROSITY (SANDSTONE)
ILD .OHMM     00 120 00 00         : RESD         - DEEP RESISTIVITY (DIL)
~PARAMETER INFORMATION
#MNEM.UNIT           DATA             DESCRIPTION OF MNEMONIC
#---------         -----------     ------------------------------
GL  .M        490.21               : gl           - GROUND LEVEL ELEVATION
EREF.M        493.319              : kb           - ELEVATION OF DEPTH REFERENCE
DATM.M        493.319              : datum        - DATUM ELEVATION
TDD .M        246.888              : tdd          - TOTAL DEPTH DRILLER
RUN .         ONE                  : Run          - RUN NUMBER
ENG .         BILL                 : Engineer     - RECORDING ENGINEER
WIT .         JIM                  : Witness      - WITNESSED BY
MUD .         GEL                  : Mud_type     - MUD TYPE
MATR.         SANDSTONE            : Logunit      - NEUTRON MATRIX
TMAX.F        82                   : BHT          - MAXIMUM RECORDED TEMPERATURE
BHTD.F        810                  : BHTDEP       - MAXIMUM RECORDED TEMPERATURE
RMT .F        60                   : MDTP         - TEMPERATURE OF MUD
MUDD.LB/G     8.6                  : MWT          - MUD DENSITY
NEUT.         1                    : NEUTRON      - NEUTRON TYPE
RESI.         0                    : RESIST       - RESISTIVITY TYPE
RM  .OHMM     0.81                 : RM           - RESISTIVITY OF MUD
RMC .OHMM     0.81                 : RMC          - RESISTIVITY OF MUD CAKE
RMF .OHMM     0.81                 : RMF          - RESISTIVITY OF MUD FILTRATE
SUFT.F        39.2                 : SUFT         - SURFACE TEMPERATURE
~A  DEPTH      CAL       GR     PHIN     PHID     RESD
# ...
  459.501    6.206   98.295    0.466    0.273   10.276
  460.322    6.208  101.395    0.478    0.257   10.276
  461.142    6.210  103.267    0.483    0.245   10.870
  461.962    6.211   97.737    0.478    0.249   11.285
  462.782    6.212   97.758    0.478    0.255   11.286
  463.602    6.214  100.864    0.482    0.255   11.077
  464.423    6.216  100.891    0.478    0.227   11.499
  465.243    6.217  103.385    0.474    0.213   12.394
  466.063    6.218  106.485    0.465    0.223   14.397
  466.883    6.220  110.825    0.452    0.234   15.516
  467.703    6.221  109.613    0.444    0.230   13.111
  468.524    6.223  107.167    0.444    0.195    9.901
  469.344    6.224  102.876    0.432    0.179    9.187
  470.164    6.226  108.443    0.438    0.145    8.850
  470.984    6.227  114.633    0.497    0.197    7.763
  471.804    6.228  117.127    0.511    0.217    6.810
  472.625    6.230  113.448    0.514    0.232    7.478
  473.445    6.272  110.996    0.512    0.219    7.204
  474.265    6.274  111.029    0.518    0.263    6.202
  475.085    6.275  109.816    0.510    0.298    5.648
  475.906    6.318  107.376    0.515    0.332    6.685
  476.726    6.319  104.313    0.532    0.358    8.527
  477.546    6.320  101.862    0.533    0.397    9.721
  478.366    6.322  101.261    0.537    0.334    4.863
  479.186    6.324  103.755    0.504    0.271    3.222
  480.007    6.325  102.538    0.488    0.238    2.526
  480.827    6.326   98.858    0.483    0.180    2.175
  481.647    6.328   94.562    0.477    0.177    2.479
  482.467    6.330  102.602    0.475    0.241    3.162
  483.287    6.372  111.259    0.471    0.292    4.110
  484.108    6.374  119.305    0.477    0.303    5.242
  484.928    6.375  118.710    0.481    0.283    6.813
  485.748    6.377  113.796    0.487    0.275    7.914
  486.568    6.378  108.878    0.493    0.245    7.073
  487.388    6.379  111.367    0.506    0.213    7.074
  488.209    6.339  116.328    0.497    0.197    8.372
  489.029    6.300  117.589    0.484    0.212    7.768
  489.849    6.261  114.521    0.483    0.219    7.344
  490.669    6.262  116.393    0.494    0.206   11.510
  491.490    6.263  115.180    0.507    0.189   14.409
  492.310    6.265  107.183    0.518    0.174   20.564
  493.130    6.266   98.569    0.513    0.163   13.623
  493.950    6.268   96.123    0.491    0.082   11.511
  494.770    6.269  104.163    0.461    0.136   12.406
  495.591    6.271  112.204    0.427    0.209   11.951
  496.411    6.272  115.309    0.444    0.205   11.512
  497.231    6.274  111.630    0.435    0.194   11.089
  498.051    6.275  112.885    0.446    0.196   12.408
  498.871    6.276  111.673    0.443    0.200   13.625
  499.692    6.278  109.227    0.435    0.204   13.883
  500.512    6.280  107.398    0.434    0.209   13.884
  501.332    6.280  109.897    0.434    0.200   13.374
  502.152    6.282  112.386    0.429    0.203   13.126
  502.972    6.283  111.791    0.429    0.217   12.883
  503.793    6.285  108.728    0.441    0.229   13.628
  504.613    6.245  106.277    0.456    0.239   14.148
  505.433    6.206  102.597    0.455    0.204   14.688
  506.253    6.207  102.624    0.452    0.177   14.416
  507.073    6.208  103.262    0.460    0.157   13.377
  507.894    6.170  102.050    0.470    0.174   12.646
  508.714    6.170   99.599    0.473    0.204   14.417
  509.534    6.131   94.685    0.479    0.220   18.390
  510.354    6.132   89.772    0.467    0.219   21.765
  511.175    6.133   91.644    0.438    0.216   25.760
  511.995    6.094   88.581    0.382    0.141   34.112
  512.815    6.095   81.818    0.378    0.095   46.895
  513.635    6.056   75.059    0.367    0.042   49.606
  514.455    6.057   73.847    0.309    0.089   62.101
  515.276    6.058   72.635    0.308    0.084   57.623
  516.096    6.060   72.045    0.317    0.048   38.894
  516.916    6.062   72.061    0.299    0.016   23.463
  517.736    6.064   71.460    0.295    0.056   17.719
  518.556    6.065   77.655    0.309    0.101   15.544
  519.377    6.107   85.696    0.307    0.197   15.544
  520.197    6.109   91.886    0.343    0.237   15.544
  521.017    6.110   88.823    0.350    0.259   15.257
  521.837    6.112   86.377    0.448    0.268   17.393
  522.657    6.154   85.165    0.446    0.263   20.585
  523.478    6.155   85.186    0.440    0.254   24.824
  524.298    6.198   84.596    0.451    0.233   33.493
  525.118    6.241   82.150    0.464    0.192   55.524
  525.938    6.242   79.699    0.471    0.177  243.641
  526.759    6.244   73.552    0.453    0.133  141.578
  527.579    6.245   68.644    0.427    0.009   47.805
  528.399    6.246   72.978    0.382    0.069   18.750
  529.219    6.248   79.785    0.386    0.098   15.843
  530.039    6.250   90.915    0.396    0.161   17.727
  530.860    6.251   95.254    0.415    0.233   17.398
  531.680    6.252   97.126    0.420    0.213   17.728
  532.500    6.254   88.512    0.428    0.183   31.086
  533.320    6.255   81.131    0.445    0.155   44.365
  534.140    6.216   76.840    0.455    0.067   21.379
  534.961    6.217   82.408    0.454    0.077   14.981
  535.781    6.218   91.682    0.457    0.090   11.313
  536.601    6.220  100.339    0.463    0.185    9.560
  537.421    6.222  107.146    0.472    0.204    9.209
  538.241    6.222  113.958    0.474    0.191   10.498
  539.062    6.224  117.680    0.457    0.193   11.746
  539.882    6.225  115.235    0.430    0.175   11.105
  540.702    6.227  113.405    0.446    0.131   10.113
  541.522    6.229  112.810    0.462    0.130    9.742
  542.343    6.230  111.603    0.474    0.143    9.561
  543.163    6.231  112.858    0.483    0.179    9.210
  543.983    6.233  116.581    0.494    0.181    9.927
  544.803    6.235  119.064    0.497    0.182   12.901
  545.623    6.277  112.917    0.497    0.188   14.986
  546.444    6.279  104.920    0.505    0.197   12.663
  547.264    6.280  104.330    0.495    0.173   10.306
  548.084    6.281  107.430    0.483    0.124    8.389
  548.904    6.283  116.087    0.493    0.181    7.639
  549.724    6.284  117.965    0.494    0.183    8.234
  550.545    6.286  116.141    0.488    0.171    8.874
  551.365    6.287  116.163    0.488    0.167    8.874
  552.185    6.288  115.562    0.491    0.190    9.042
  553.005    6.290  116.817    0.485    0.189    9.043
  553.825    6.250  118.689    0.473    0.182    9.388
  554.646    6.252  120.561    0.483    0.179    9.388
  555.466    6.254  120.588    0.478    0.194   10.504
  556.286    6.255  119.376    0.478    0.206   10.905
  557.106    6.256  118.163    0.480    0.196   10.906
  557.927    6.258  120.035    0.480    0.198   13.399
  558.747    6.259  117.584    0.479    0.185   17.092
  559.567    6.261  111.443    0.472    0.163   18.421
  560.387    6.262  108.997    0.463    0.102   19.125
  561.207    6.264  112.097    0.462    0.044   14.994
  562.028    6.224  117.675    0.473    0.077   10.907
  562.848    6.225  123.865    0.481    0.096    9.933
  563.668    6.226  128.205    0.482    0.120   10.908
  564.488    6.187  130.082    0.485    0.152   10.706
  565.308    6.188  130.720    0.488    0.170    9.934
  566.129    6.273  131.975    0.493    0.206    9.217
  566.949    6.274  130.758    0.499    0.194    9.047
  567.769    6.275  124.616    0.493    0.193    7.789
  568.589    6.277  125.254    0.492    0.188    6.339
  569.409    6.278  125.271    0.486    0.178    5.882
  570.230    6.239  121.596    0.492    0.175    7.503
  571.050    6.240  116.061    0.506    0.185   10.315
  571.870    6.241  109.914    0.510    0.173   10.315
  572.690    6.243  114.253    0.437    0.153    7.790
  573.510    6.244  122.916    0.440    0.174    6.460
  574.331    6.246  127.872    0.461    0.218    6.341
  575.151    6.247  127.277    0.471    0.185    8.088
  575.971    6.248  125.448    0.494    0.172   10.912
  576.791    6.250  121.151    0.505    0.171    9.573
  577.612    6.251  117.472    0.516    0.061    7.505
  578.432    6.253  121.200    0.511    0.123    6.708
