~VERSION INFORMATION
 VERS.                 2.0:   CWLS LOG ASCII STANDARD -VERSION 2.0
 WRAP.                  NO:   ONE LINE PER DEPTH STEP
~WELL INFORMATION BLOCK
#MNEM.UNIT           DATA                    DESCRIPTION OF MNEMONIC
#---------    -------------------            -------------------------------
# Generated from Intellog Unique Number	CC_84_87/WELL/2304
NULL.         -999.25                        : NULL_VALUE
WELL.         PEX PCEJ MCMURRAY OV           : Well_name    - WELL
LOC .         10-11-087-16W4                 : Location     - LOCATION          
UWI .         AA/10-11-087-16W400            : Uwi          - UNIQUE WELL ID    
ENTR.         JOHN                           : Entered      - ENTERED BY        
SRVC.         SCHLUMBERGER                   : Scn          - SERVICE COMPANY   
DATE.         03 MAR 79                      : Date         - LOG DATE
STRT.M        78                             : top_depth    - START DEPTH       
STOP.M        260.102                        : bot_depth    - STOP DEPTH        
STEP.M        0.3                            : increment    - STEP LENGTH       
~CURVE INFORMATION BLOCK
#MNEM UNIT       ERCB CURVE CODE    CURVE DESCRIPTION
#-----------   ------------------   ----------------------------------
DEPT.M        00 001 00 00         : DEPTH        - DEPTH                       
DPHI.V/V      00 890 00 00         : PHID         - DENSITY POROSITY (LIMESTONE)
NPHI.V/V      00 330 00 00         : PHIN         - NEUTRON POROSITY (LIMESTONE)
GR  .API      00 310 00 00         : GR           - GAMMA RAY                   
ILD .OHMM     00 120 00 00         : RESD         - DEEP RESISTIVITY (DIL)      
~PARAMETER INFORMATION       
#MNEM.UNIT           DATA             DESCRIPTION OF MNEMONIC
#---------         -----------     ------------------------------
GL  .M        499.67               : gl           - GROUND LEVEL ELEVATION      
EREF.M        503.32               : kb           - ELEVATION OF DEPTH REFERENCE
DATM.M        503.32               : datum        - DATUM ELEVATION             
TDD .M        267.5                : tdd          - TOTAL DEPTH DRILLER         
RUN .         ONE                  : Run          - RUN NUMBER                  
ENG .         BILL                 : Engineer     - RECORDING ENGINEER          
WIT .         JIM                  : Witness      - WITNESSED BY                
MUD .         GEL                  : Mud_type     - MUD TYPE                    
MATR.         LIMESTONE            : Logunit      - NEUTRON MATRIX              
TMAX.C        60                   : BHT          - MAXIMUM RECORDED TEMPERATURE
BHTD.M        267.5                : BHTDEP       - MAXIMUM RECORDED TEMPERATURE
MATR.         1                    : LOGUNIT      - NEUTRON MATRIX              
RMT .C        25                   : MDTP         - TEMPERATURE OF MUD          
NEUT.         1                    : NEUTRON      - NEUTRON TYPE                
RESI.         0                    : RESIST       - RESISTIVITY TYPE            
RMC .OHMM     0.25                 : RMC          - RESISTIVITY OF MUD CAKE     
RMF .OHMM     0.25                 : RMF          - RESISTIVITY OF MUD FILTRATE 
SUFT.C        15                   : SUFT         - SURFACE TEMPERATURE         
~A  DEPTH     PHID     PHIN       GR     RESD
# ...
  130.201    0.308    0.507   87.555    6.604
  130.501    0.296    0.535   82.664    7.536
  130.801    0.296    0.554   80.222    7.827
  131.101    0.310    0.501   80.841    7.540
  131.401    0.317    0.508   83.299    7.542
  131.701    0.330    0.536   84.529    7.982
  132.001    0.321    0.561   86.373    7.689
  132.301    0.313    0.586   93.727    6.492
  132.601    0.296    0.516  106.592    5.692
  132.901    0.271    0.538  112.109    4.806
  133.201    0.246    0.556  110.892    3.764
  133.501    0.220    0.544  112.736    3.558
  133.801    0.199    0.545  112.742    3.696
  134.101    0.178    0.572  110.300    3.911
  134.401    0.200    0.594  104.797    4.548
  134.701    0.189    0.614   98.682    4.724
  135.001    0.160    0.628   98.689    4.382
  135.301    0.193    0.471  110.330    4.466
  135.601    0.234    0.506  108.499    5.097
  135.901    0.306    0.461   91.362    6.390
  136.201    0.296    0.426   85.247    7.571
  136.501    0.286    0.431   85.866   10.429
  136.801    0.292    0.449   84.649   12.593
  137.101    0.293    0.480   82.207   12.596
  137.401    0.282    0.502   82.826   12.365
  137.701    0.286    0.487   86.506   11.910
  138.001    0.287    0.490   88.350   11.913
  138.301    0.270    0.483   84.684   11.916
  138.601    0.144    0.391   82.855   11.264
  138.901    0.094    0.362   82.862   10.450
  139.201    0.125    0.417   85.318    9.514
  139.501    0.236    0.486   95.734    8.826
  139.801    0.233    0.496   95.129    8.502
  140.101    0.237    0.529   95.135    8.345
  140.401    0.231    0.540   97.592    8.347
  140.701    0.227    0.513   96.375    8.509
  141.001    0.235    0.487   96.381    8.673
  141.301    0.217    0.444  100.674    8.675
  141.601    0.231    0.424  102.518    8.515
  141.901    0.223    0.439  100.688    8.358
  142.201    0.235    0.455   96.409    8.205
  142.501    0.254    0.451   92.129    8.206
  142.801    0.270    0.451   86.627    8.208
  143.101    0.262    0.484   87.246    8.366
  143.401    0.240    0.478   87.865    8.527
  143.701    0.210    0.478   81.138    9.025
  144.001    0.239    0.437   75.023   10.107
  144.301    0.284    0.426   74.417   10.496
  144.601    0.244    0.441   75.648   11.109
  144.901    0.201    0.471   80.553   10.905
  145.201    0.230    0.472   82.397   10.309
  145.501    0.261    0.455   79.955    9.210
  145.801    0.229    0.465   84.860    8.544
  146.101    0.218    0.484   86.704    7.926
  146.401    0.213    0.467   85.486    7.353
  146.701    0.185    0.476   90.392    6.695
  147.001    0.244    0.494   84.276    6.571
  147.301    0.225    0.513   83.058    6.573
  147.601    0.212    0.531   87.352    6.957
  147.901    0.212    0.553   84.297    8.089
  148.201    0.196    0.579   78.793    9.231
  148.501    0.166    0.358   74.515    9.587
  148.801    0.074    0.312   73.298    9.772
  149.101    0.124    0.327   82.488    9.592
  149.401    0.241    0.363   88.618    9.240
  149.701    0.256    0.542   92.912    9.418
  150.001    0.269    0.505   92.306    9.781
  150.301    0.273    0.481   85.578   10.159
  150.601    0.254    0.478   82.524   10.161
  150.901    0.268    0.468   81.918    9.606
  151.201    0.258    0.477   79.477    9.977
  151.501    0.257    0.466   80.709    9.611
  151.801    0.269    0.450   83.164    8.916
  152.101    0.282    0.453   83.171    7.671
  152.401    0.240    0.464   88.076    6.726
  152.701    0.266    0.479   91.757    6.728
  153.001    0.223    0.479   92.376    6.729
  153.301    0.239    0.494   93.609    7.122
  153.601    0.244    0.500   94.227    7.124
  153.901    0.234    0.515   95.459    7.126
  154.201    0.245    0.525   92.404    7.401
  154.501    0.198    0.506   94.860    7.686
  154.801    0.213    0.484   97.317    8.290
  155.101    0.236    0.483   95.487    8.137
  155.401    0.212    0.495   94.270    7.134
  155.701    0.192    0.483  100.399    7.003
  156.001    0.212    0.478  106.528    7.273
  156.301    0.232    0.475  108.985    7.994
  156.601    0.234    0.467  109.604    8.952
  156.901    0.226    0.453  102.876    9.654
  157.201    0.240    0.437   98.598   10.609
  157.501    0.232    0.426   95.543   11.228
  157.801    0.223    0.435   91.264   11.230
  158.101    0.237    0.435   89.435   10.224
  158.401    0.268    0.425   90.055    9.308
  158.701    0.248    0.421   88.224    8.966
  159.001    0.226    0.427   82.720    8.969
  159.301    0.254    0.438   79.055    9.673
  159.601    0.247    0.441   78.449   10.237
  159.901    0.253    0.436   80.905   11.041
  160.201    0.251    0.409   91.321   11.466
  160.501    0.144    0.399  109.696   12.136
  160.801    0.151    0.422  120.724   12.369
  161.101    0.152    0.424  121.343   12.847
  161.401    0.225    0.432  106.655   12.612
  161.701    0.244    0.443   94.417   12.379
  162.001    0.287    0.435   91.363   12.151
  162.301    0.264    0.437   90.146   11.705
  162.601    0.273    0.452   88.927   11.275
  162.901    0.279    0.473   84.650   11.067
  163.201    0.257    0.487   83.432   11.070
  163.501    0.228    0.486   82.214   11.716
  163.801    0.192    0.438   77.323   12.636
  164.101    0.107    0.307   74.269   15.256
  164.401    0.084    0.292   73.051   18.771
  164.701    0.095    0.291   71.222   21.021
  165.001    0.120    0.316   73.067   22.671
  165.301    0.129    0.355   74.909   22.253
  165.601    0.068    0.339   72.467   18.095
  165.901    0.057    0.250   70.025   14.440
  166.201    0.115    0.353   87.175   11.966
  166.501    0.221    0.410   93.918   10.296
  166.801    0.220    0.457   92.701    9.551
  167.101    0.233    0.484   95.768    9.375
  167.401    0.254    0.474   95.776    9.556
  167.701    0.237    0.450   94.559    9.559
  168.001    0.220    0.449   96.401    9.382
  168.301    0.222    0.465   97.023    9.038
  168.601    0.226    0.468   98.252    8.706
  168.901    0.220    0.488  105.607    8.546
  169.201    0.225    0.477  104.391    8.389
  169.501    0.225    0.466  102.559    8.391
  169.801    0.218    0.483  101.343    8.716
  170.101    0.213    0.521  101.963    8.717
  170.401    0.189    0.514  100.132    8.719
  170.701    0.201    0.492  100.139    8.721
  171.001    0.175    0.464  103.820    8.401
  171.301    0.207    0.459  106.275    8.247
  171.601    0.201    0.504  102.609    8.405
  171.901    0.207    0.529   95.881    8.730
  172.201    0.211    0.492   91.602    9.594
  172.501    0.208    0.445   89.773   10.153
  172.801    0.181    0.443   92.228   10.349
  173.101    0.211    0.437   97.133    9.783
  173.401    0.195    0.443  102.039    9.248
  173.701    0.218    0.444  103.883    9.426
  174.001    0.232    0.435  102.054   10.166
  174.301    0.237    0.430   95.325   10.759
  174.601    0.249    0.421   89.210   11.175
  174.901    0.239    0.417   92.278   11.390
  175.201    0.228    0.417   98.408   11.393
  175.501    0.238    0.421  102.700   10.975
  175.801    0.229    0.414  102.707   10.977
  176.101    0.233    0.405  101.491   10.980
  176.401    0.217    0.405  103.334   11.191
  176.701    0.198    0.416   95.993   11.194
  177.001    0.191    0.429   96.614   11.197
  177.301    0.184    0.438  100.293   10.991
  177.601    0.205    0.434  101.525   10.587
  177.901    0.196    0.432  101.533   10.393
  178.201    0.195    0.433   99.704   10.396
  178.501    0.214    0.427  101.548   10.596
  178.801    0.224    0.433  105.227   10.598
  179.101    0.218    0.423  111.968   11.007
  179.401    0.212    0.428  106.465   11.010
  179.701    0.202    0.443   94.227   10.807
  180.001    0.198    0.452  101.582   10.026
  180.301    0.225    0.463  109.549    9.301
  180.601    0.218    0.483  114.454    8.155
  180.901    0.197    0.484  118.134    7.016
  181.201    0.212    0.517  117.528    6.759
  181.501    0.220    0.517  110.188    7.020
  181.801    0.222    0.506   98.562    8.163
  182.101    0.201    0.469   92.448    9.141
