~VERSION INFORMATION
 VERS.                 2.0:   CWLS LOG ASCII STANDARD -VERSION 2.0
 WRAP.                  NO:   ONE LINE PER DEPTH STEP
~WELL INFORMATION BLOCK
#MNEM.UNIT           DATA                    DESCRIPTION OF MNEMONIC
#---------    -------------------            -------------------------------
# Generated from Intellog Unique Number	CN_94_101/WELL/3200
WELL.         SHELL CANADA LTD.              : Well_name    - WELL
LOC .         AA/13-07-095-14W4/0            : Location     - LOCATION
UWI .         AA/13-07-095-14W4/0            : Uwi          - UNIQUE WELL ID
ENTR.         JOETTE                         : Entered      - ENTERED BY
SRVC.         SCHLUMBERGER                   : Scn          - SERVICE COMPANY
DATE.         07/20/92                       : Date         - LOG DATE
STRT.F        200                            : top_depth    - START DEPTH
STOP.F        889.797                        : bot_depth    - STOP DEPTH
STEP.F        0.82                           : increment    - STEP LENGTH
 NULL. -999.2500:NULL Value
~CURVE INFORMATION BLOCK
#MNEM UNIT       ERCB CURVE CODE    CURVE DESCRIPTION
#-----------   ------------------   ----------------------------------
DEPT.F        00 001 00 00         : DEPTH        - DEPTH
GR  .API      00 310 00 00         : GR           - GAMMA RAY
DPHI.V/V      00 890 00 00         : PHID         - DENSITY POROSITY (SANDSTONE)
ILD .OHMM     00 120 00 00         : RESD         - DEEP RESISTIVITY (DIL)
~PARAMETER INFORMATION
#MNEM.UNIT           DATA             DESCRIPTION OF MNEMONIC
#---------         -----------     ------------------------------
GL  .F        1723.2               : gl           - GROUND LEVEL ELEVATION
EREF.F        1733.2               : kb           - ELEVATION OF DEPTH REFERENCE
DATM.F        1733.2               : datum        - DATUM ELEVATION
TDD .F        911                  : tdd          - TOTAL DEPTH DRILLER
RUN .         ONE                  : Run          - RUN NUMBER
ENG .         BILL                 : Engineer     - RECORDING ENGINEER
WIT .         JIM                  : Witness      - WITNESSED BY
MUD .         GEL                  : Mud_type     - MUD TYPE
MATR.         SANDSTONE            : Logunit      - NEUTRON MATRIX
TMAX.F        56                   : BHT          - MAXIMUM RECORDED TEMPERATURE
BHTD.F        911                  : BHTDEP       - MAXIMUM RECORDED TEMPERATURE
RMT .F        56                   : MDTP         - TEMPERATURE OF MUD
MUDD.LB/G     9.3                  : MWT          - MUD DENSITY
NEUT.         1                    : NEUTRON      - NEUTRON TYPE
RESI.         0                    : RESIST       - RESISTIVITY TYPE
RM  .OHMM     3.27                 : RM           - RESISTIVITY OF MUD
RMC .OHMM     3.27                 : RMC          - RESISTIVITY OF MUD CAKE
RMF .OHMM     3.27                 : RMF          - RESISTIVITY OF MUD FILTRATE
SUFT.F        39.2                 : SUFT         - SURFACE TEMPERATURE
~A  DEPTH       GR     PHID     RESD
# ...
  555.971   83.351    0.297    5.725
  556.791   85.378    0.316    5.740
  557.612   87.813    0.326    6.199
  558.432   88.249    0.307    9.217
  559.252   86.727    0.306   12.255
  560.072   83.627    0.311   12.279
  560.892   76.202    0.316   14.036
  561.713   73.863    0.307   16.044
  562.533   68.791    0.296   17.026
  563.353   71.226    0.284   16.752
  564.173   71.281    0.287   18.102
  564.993   68.181    0.280   19.210
  565.814   66.645    0.273   20.372
  566.634   66.700    0.274   19.673
  567.454   73.474    0.299   13.806
  568.274   79.459    0.310   11.914
  569.094   81.091    0.304   13.126
  569.915   81.541    0.301   13.920
  570.735   80.019    0.290   13.955
  571.555   81.257    0.289   13.476
  572.375   82.495    0.293   13.021
  573.196   81.789    0.298   12.812
  574.016   79.859    0.304   12.590
  574.836   78.322    0.312   13.104
  575.656   74.039    0.307   13.138
  576.476   67.389    0.289   13.942
  577.297   64.684    0.286   16.238
  578.117   62.753    0.292   14.278
  578.937   69.132    0.304   11.875
  579.757   75.117    0.323   11.905
  580.577   76.383    0.318   11.943
  581.398   76.016    0.299   12.415
  582.218   73.311    0.299   13.424
  583.038   69.422    0.309   15.070
  583.858   65.533    0.312   15.665
  584.678   65.982    0.301   16.938
  585.499   69.981    0.296   17.641
  586.319   72.811    0.282   18.361
  587.139   72.472    0.273   13.121
  587.959   71.738    0.307   10.505
  588.780   71.399    0.300    9.417
  589.600   72.243    0.302    9.441
  590.420   74.664    0.311   10.006
  591.240   76.311    0.316   12.336
  592.060   77.141    0.314   14.101
  592.881   77.591    0.315   15.238
  593.701   76.068    0.318   13.158
  594.521   73.362    0.321   12.231
  595.341   75.798    0.320   12.494
  596.161   78.219    0.317   12.526
  596.982   79.063    0.312   10.035
  597.802   77.935    0.316    9.867
  598.622   79.976    0.324    9.534
  599.442   78.440    0.316    8.868
  600.262   74.551    0.294    9.059
  601.083   69.479    0.282    9.429
  601.903   65.182    0.265    8.930
  602.723   60.504    0.244   15.427
  603.543   63.714    0.226   22.939
  604.364   76.010    0.266   23.876
  605.184   83.572    0.301    5.754
  606.004   80.867    0.334    4.786
  606.824   73.822    0.328    4.282
  607.644   70.328    0.315    3.428
  608.465   73.552    0.314    3.775
  609.285   74.396    0.329    5.613
  610.105   74.057    0.341    7.743
  610.925   82.394    0.351    9.911
  611.745   82.858    0.351    8.547
  612.566   84.476    0.347    6.469
  613.386   86.898    0.345    4.893
  614.206   86.967    0.340    3.703
  615.026   78.726    0.335    3.510
  615.846   76.428    0.328    4.244
  616.667   75.287    0.320    6.311
  617.487   74.158    0.313    9.561
  618.307   73.819    0.305   12.230
  619.127   72.691    0.304   11.375
  619.948   72.746    0.305    9.107
  620.768   76.745    0.293    7.859
  621.588   81.941    0.278    7.175
  622.408   78.447    0.270   13.869
  623.228   74.939    0.262   23.514
  624.049   69.472    0.239   29.556
  624.869   65.978    0.227   25.955
  625.689   69.202    0.247   15.111
  626.509   74.384    0.285   12.319
  627.329   77.594    0.301   12.584
  628.150   78.044    0.293   13.607
  628.970   78.507    0.292   14.440
  629.790   78.971    0.297   14.476
  630.610   77.448    0.303   13.456
  631.430   79.462    0.308   14.825
  632.251   81.094    0.313   16.621
  633.071   81.544    0.310   18.312
  633.891   80.021    0.304   18.029
  634.711   78.513    0.299   16.770
  635.531   77.004    0.290   16.194
  636.352   76.637    0.288   15.944
  637.172   76.298    0.291   15.974
  637.992   75.564    0.296   15.707
  638.812   76.408    0.299   15.464
  639.633   78.857    0.293   15.504
  640.453   79.307    0.288   15.543
  641.273   78.179    0.292   16.178
  642.093   78.220    0.291   16.828
  642.913   81.825    0.287   17.212
  643.734   82.288    0.283   16.913
  644.554   79.963    0.282   16.029
  645.374   77.665    0.284   16.070
  646.194   76.537    0.288   18.051
  647.014   76.198    0.290   19.518
  647.835   75.859    0.290   19.913
  648.655   75.506    0.298   20.739
  649.475   74.378    0.305   20.406
  650.295   68.531    0.313   18.968
  651.115   68.572    0.317   17.977
  651.936   66.655    0.319   17.048
  652.756   65.935    0.313   15.857
  653.576   69.921    0.309   15.592
  654.396   77.116    0.304   15.057
  655.217   76.763    0.304   15.681
  656.037   75.635    0.310   16.966
  656.857   73.310    0.315   17.648
  657.677   69.421    0.334   18.704
  658.497   64.743    0.343   19.119
  659.318   63.221    0.351   18.462
  660.138   61.712    0.346   16.854
  660.958   61.754    0.332   15.973
  661.778   64.175    0.325   16.939
  662.598   67.780    0.318   15.746
  663.419   71.004    0.307   13.588
  664.239   74.228    0.269   29.393
  665.059   75.847    0.242   48.907
  665.879   66.423    0.161   44.646
  666.699   53.843    0.169   33.791
  667.520   60.617    0.227   25.575
  668.340   78.053    0.265   16.651
  669.160   87.193    0.283    9.508
  669.980   90.023    0.287    7.332
  670.801   88.092    0.291    7.076
  671.621   86.175    0.286    7.242
  672.441   86.244    0.272    7.393
  673.261   85.891    0.279    6.877
  674.081   85.158    0.287    6.400
  674.902   82.846    0.293    6.783
  675.722   79.760    0.286    7.464
  676.542   81.407    0.285    8.532
  677.362   82.223    0.291    8.244
  678.182   83.067    0.292    7.961
  679.003   84.713    0.264    8.286
  679.823   82.022    0.237   11.004
  680.643   80.485    0.230   11.460
  681.463   77.780    0.267    9.169
  682.283   84.145    0.289    8.215
  683.104   86.186    0.300    8.712
  683.924   87.016    0.309    9.074
  684.744   89.860    0.300    8.762
  685.564   87.535    0.294    7.850
  686.385   85.632    0.303    7.162
  687.205   84.517    0.305    6.416
  688.025   83.742    0.302    5.857
  688.845   86.177    0.300    5.347
  689.665   89.388    0.307    4.976
  690.486   91.823    0.298    5.586
  691.306   94.245    0.291    5.917
  692.126   91.539    0.292    6.398
  692.946   89.242    0.295    6.178
  693.766   87.691    0.301    5.851
  694.587   83.816    0.305    6.949
  695.407   83.871    0.307    8.251
  696.227   83.927    0.299    7.388
  697.047   87.137    0.281    6.619
  697.867   91.136    0.278    7.024
  698.688   88.838    0.286    8.176
  699.508   86.908    0.292   12.860
  700.328   83.019    0.262   15.864
  701.148   78.328    0.230   16.206
  701.969   72.072    0.211   15.349
  702.789   80.424    0.258   11.617
  703.609   87.592    0.299    8.787
  704.429   90.802    0.303    8.490
  705.249   92.040    0.293    8.349
  706.070   88.151    0.293    8.062
  706.890   87.023    0.296    9.050
  707.710   87.079    0.282    9.067
  708.530   87.147    0.281    8.129
  709.350   87.597    0.277    7.845
  710.171   88.046    0.268    7.575
  710.991   88.102    0.267    8.351
  711.811   84.988    0.256    9.024
  712.631   74.775    0.235    9.041
  713.451   78.013    0.237    7.376
  714.272   80.026    0.290    5.901
  715.092   82.842    0.306    4.640
  715.912   86.460    0.319    4.160
  716.732   84.149    0.318    4.664
  717.552   80.655    0.317    4.761
  718.373   79.540    0.315    4.598
  719.193   80.384    0.313    4.879
  720.013   80.834    0.307    5.473
  720.833   78.509    0.299    7.134
  721.654   74.606    0.265   12.323
  722.474   66.773    0.244   14.634
  723.294   60.899    0.249   12.867
  724.114   56.235    0.270    9.558
  724.934   56.290    0.296    6.587
  725.755   56.331    0.311    6.119
  726.575   56.020    0.311    9.625
  727.395   55.653    0.327   13.286
  728.215   52.947    0.351   13.829
  729.035   41.551    0.350   13.598
  729.856   38.451    0.351   11.742
  730.676   39.703    0.352   13.413
  731.496   38.575    0.350   23.186
  732.316   38.236    0.349   27.005
  733.136   39.474    0.353   29.733
