~VERSION INFORMATION
 VERS.                 2.0:   CWLS LOG ASCII STANDARD -VERSION 2.0
 WRAP.                  NO:   ONE LINE PER DEPTH STEP
~WELL INFORMATION BLOCK
#MNEM.UNIT           DATA                    DESCRIPTION OF MNEMONIC
#---------    -------------------            -------------------------------
# Generated from Intellog Unique Number	CC_80_83/WELL/2382
NULL.         -999.25                        : NULL_VALUE
WELL.         PEX PCEJ CHARD OV              : Well_name    - WELL
LOC .         10-29-080-08W4                 : Location     - LOCATION          
UWI .         AA/10-29-080-08W400             : Uwi          - UNIQUE WELL ID    
ENTR.         DW                             : Entered      - ENTERED BY        
SRVC.         SCHLUMBERGER                   : Scn          - SERVICE COMPANY   
DATE.         05 FEB 80                      : Date         - LOG DATE
STRT.M        260                            : top_depth    - START DEPTH       
STOP.M        448.092                        : bot_depth    - STOP DEPTH        
STEP.M        0.3                            : increment    - STEP LENGTH       
~CURVE INFORMATION BLOCK
#MNEM UNIT       ERCB CURVE CODE    CURVE DESCRIPTION
#-----------   ------------------   ----------------------------------
DEPT.M        00 001 00 00         : DEPTH        - DEPTH                       
DPHI.V/V      00 890 00 00         : PHID         - DENSITY POROSITY (LIMESTONE)
NPHI.V/V      00 330 00 00         : PHIN         - NEUTRON POROSITY (LIMESTONE)
GR  .API      00 310 00 00         : GR           - GAMMA RAY                   
ILD .OHMM     00 120 00 00         : RESD         - DEEP RESISTIVITY (DIL)      
~PARAMETER INFORMATION       
#MNEM.UNIT           DATA             DESCRIPTION OF MNEMONIC
#---------         -----------     ------------------------------
GL  .M        702.53               : gl           - GROUND LEVEL ELEVATION      
EREF.M        706.18               : kb           - ELEVATION OF DEPTH REFERENCE
DATM.M        706.18               : datum        - DATUM ELEVATION             
TDD .M        456                  : tdd          - TOTAL DEPTH DRILLER         
RUN .         ONE                  : Run          - RUN NUMBER                  
ENG .         BILL                 : Engineer     - RECORDING ENGINEER          
WIT .         JIM                  : Witness      - WITNESSED BY                
MUD .         GEL                  : Mud_type     - MUD TYPE                    
MATR.         LIMESTONE            : Logunit      - NEUTRON MATRIX              
TMAX.C        18                   : BHT          - MAXIMUM RECORDED TEMPERATURE
BHTD.M        456                  : BHTDEP       - MAXIMUM RECORDED TEMPERATURE
MATR.         1                    : LOGUNIT      - NEUTRON MATRIX              
RMT .C        25                   : MDTP         - TEMPERATURE OF MUD          
NEUT.         1                    : NEUTRON      - NEUTRON TYPE                
RESI.         0                    : RESIST       - RESISTIVITY TYPE            
RMC .OHMM     0.25                 : RMC          - RESISTIVITY OF MUD CAKE     
RMF .OHMM     0.25                 : RMF          - RESISTIVITY OF MUD FILTRATE 
SUFT.C        15                   : SUFT         - SURFACE TEMPERATURE         
~A  DEPTH     PHID     PHIN       GR     RESD
  260.000    0.252    0.620  116.450    2.984
  260.300    0.256    0.632  117.702    3.039
  260.600    0.259    0.627  115.220    3.155
  260.900    0.263    0.623  113.360    3.274
  261.200    0.264    0.624  118.348    3.335
  261.500    0.255    0.624  125.830    3.397
  261.800    0.247    0.622  120.233    3.525
  262.100    0.254    0.621  114.013    3.591
  262.400    0.266    0.621  110.284    3.870
  262.700    0.262    0.621  105.934    4.017
  263.000    0.255    0.618  110.300    4.248
  263.300    0.251    0.613  118.403    4.493
  263.600    0.248    0.586  104.088    4.577
  263.900    0.243    0.569  119.042    4.661
  264.200    0.233    0.562  129.013    4.659
  264.500    0.228    0.546  114.075    4.319
  264.800    0.233    0.538  104.743    4.079
  265.100    0.239    0.569  119.074    4.076
  265.400    0.248    0.575  117.215    4.152
  265.700    0.250    0.568  115.976    4.229
  266.000    0.250    0.553  116.606    4.472
  266.300    0.238    0.503  115.990    4.556
  266.600    0.228    0.489  119.112    4.818
  266.900    0.224    0.488  116.006    5.194
  267.200    0.208    0.476  114.145    6.387
  267.500    0.127    0.386  103.567    6.506
  267.800    0.155    0.343   87.384    6.261
  268.100    0.266    0.436   82.410    5.696
  268.400    0.262    0.511  111.686    4.989
  268.700    0.239    0.496  109.827    4.712
  269.000    0.228    0.494  107.342    4.536
  269.300    0.224    0.504  107.972    4.534
  269.600    0.222    0.519  122.305    4.706
  269.900    0.220    0.499  124.179    5.266
  270.200    0.223    0.483  107.996    5.675
  270.500    0.234    0.440   94.304    6.004
  270.800    0.242    0.457   91.200    6.718
  271.100    0.252    0.474   94.943    6.974
  271.400    0.260    0.485  103.670    7.805
  271.700    0.264    0.488  107.413    8.736
  272.000    0.273    0.441  105.552   10.345
  272.299    0.282    0.447  115.524   11.799
  272.599    0.288    0.445  109.304   12.958
  272.899    0.293    0.443   93.122   12.709
  273.199    0.288    0.436   81.921   11.562
  273.499    0.267    0.420  103.723    9.571
  273.799    0.192    0.414  111.203    8.227
  274.099    0.203    0.435  121.800    7.770
  274.399    0.224    0.456  124.919    9.031
  274.699    0.241    0.420  129.908   12.203
  274.999    0.262    0.424  118.085   13.404
  275.299    0.273    0.443  112.488   13.911
  275.599    0.252    0.457  106.269   12.653
  275.899    0.219    0.462  114.372   11.293
  276.199    0.221    0.470  123.098   10.872
  276.499    0.226    0.486  129.957   10.076
  276.799    0.227    0.489  133.078    9.697
  277.099    0.224    0.449  143.672   10.065
  277.399    0.224    0.474  131.847   11.055
  277.699    0.232    0.468  136.214   12.609
  277.999    0.262    0.427  113.804   14.932
  278.299    0.280    0.404   82.676   16.402
  278.599    0.279    0.405   83.307   18.015
  278.899    0.285    0.424   91.410   18.698
  279.199    0.295    0.428   83.322   18.689
  279.499    0.297    0.428   73.989   19.033
  279.799    0.301    0.435   83.962   19.024
  280.099    0.311    0.448   88.950   19.745
  280.399    0.315    0.443   86.467   20.111
  280.699    0.309    0.425   82.116   20.484
  280.999    0.282    0.419   74.650   20.088
  281.299    0.152    0.414   65.941   19.708
  281.599    0.171    0.426   65.951   18.613
  281.899    0.226    0.442   66.579   18.256
  282.199    0.288    0.455   72.191   18.244
  282.499    0.298    0.444   68.467   18.939
  282.799    0.294    0.436   67.849   20.412
  283.099    0.293    0.438   70.973   21.590
  283.399    0.296    0.425   71.600   21.991
  283.699    0.299    0.418   71.608   21.980
  283.999    0.304    0.427   74.729   21.557
  284.299    0.308    0.442   77.228   21.142
  284.599    0.307    0.439   69.141   20.735
  284.899    0.303    0.436   78.490   20.730
  285.199    0.299    0.435   84.101   20.718
  285.499    0.298    0.435   85.357   21.101
  285.799    0.289    0.453   82.250   21.093
  286.099    0.282    0.444   82.256   21.081
  286.399    0.284    0.429   86.623   20.674
  286.699    0.288    0.429   98.463   20.665
  286.999    0.289    0.448  100.338   20.270
  287.299    0.289    0.465   87.270   19.880
  287.599    0.291    0.454   97.865   19.499
  287.899    0.293    0.468  101.607   19.129
  288.199    0.286    0.455   97.256   18.410
  288.499    0.281    0.452  101.623   17.387
  288.799    0.272    0.459  116.576   16.739
  289.099    0.268    0.481  119.699   15.514
  289.399    0.268    0.509  119.082   14.381
  289.699    0.271    0.487  113.486   13.584
  289.999    0.262    0.475  120.968   13.073
  290.299    0.250    0.472  121.597   13.066
  290.599    0.259    0.467  116.000   13.820
  290.899    0.294    0.478   95.458   14.344
  291.199    0.347    0.557   84.258   14.887
  291.499    0.431    0.568   71.810   15.161
  291.799    0.471    0.595   63.100   15.446
  292.099    0.319    0.492   72.449   16.334
  292.399    0.323    0.465   65.607   16.956
  292.699    0.323    0.471   69.974   18.274
  292.999    0.325    0.456   72.474   19.327
  293.299    0.325    0.445   75.594   20.831
  293.599    0.321    0.422   68.129   21.622
  293.899    0.317    0.402   48.834   22.440
  294.199    0.309    0.415   49.465   23.288
  294.499    0.298    0.417   57.568   24.170
  294.799    0.300    0.419   52.593   24.163
  295.099    0.310    0.419   49.488   24.611
  295.399    0.312    0.423   50.740   23.688
  295.699    0.311    0.413   49.504   21.547
  295.999    0.306    0.407   52.001   18.871
  296.299    0.304    0.407   60.727   17.166
  296.599    0.302    0.408   63.848   15.912
  296.898    0.299    0.410   71.952   14.202
  297.198    0.278    0.440   94.377   13.669
  297.498    0.262    0.447   99.367   14.187
  297.798    0.261    0.448   98.751   15.582
  298.098    0.268    0.441  103.741   16.482
  298.398    0.273    0.429   93.163   17.432
  298.698    0.275    0.426   93.172   17.755
  298.998    0.281    0.453   97.538   17.089
  299.298    0.290    0.474   93.187   14.969
  299.598    0.300    0.462   97.553   11.933
  299.898    0.299    0.451   88.220    9.335
  300.198    0.199    0.476  112.514    6.900
  300.498    0.168    0.507  136.185    5.931
  300.798    0.161    0.548  144.911    5.817
  301.098    0.176    0.524  141.805    6.038
  301.398    0.204    0.495  132.472    7.018
  301.698    0.215    0.464  126.876    8.794
  301.998    0.254    0.478  129.374   11.022
  302.298    0.291    0.449  120.666   14.896
  302.598    0.302    0.436  118.183   17.311
  302.898    0.316    0.430  138.115   16.979
  303.198    0.313    0.474  151.823   14.872
  303.498    0.289    0.465  111.977   13.529
  303.798    0.248    0.473  112.608   11.849
  304.098    0.264    0.492  118.845   11.193
  304.398    0.258    0.500  121.967   10.773
  304.698    0.263    0.490  121.972   10.971
  304.998    0.254    0.476  104.544   11.605
  305.298    0.260    0.443   98.947   12.747
  305.598    0.263    0.418   91.484   14.812
  305.898    0.266    0.400   90.247   16.893
  306.198    0.265    0.389   88.384   18.554
  306.498    0.265    0.387   69.710   19.996
  306.798    0.274    0.393   69.097   19.990
  307.098    0.279    0.384   64.121   18.879
  307.398    0.269    0.395   61.639   17.174
  307.698    0.263    0.402   67.874   16.530
  307.998    0.263    0.412   84.072   16.834
  308.298    0.266    0.415   85.325   17.808
  308.598    0.288    0.411   74.124   18.480
  308.898    0.305    0.410   72.264   18.468
  309.198    0.307    0.400   67.913   18.463
  309.498    0.300    0.395   68.545   17.438
  309.798    0.271    0.396   73.533   14.989
  310.098    0.246    0.407   87.241   13.636
  310.398    0.217    0.428  102.817   11.502
  310.698    0.213    0.430  110.921    9.702
  310.998    0.212    0.429  115.286    8.339
  311.298    0.200    0.429  132.108    7.876
  311.598    0.194    0.423  128.380    7.725
  311.898    0.194    0.428  133.991    8.327
