~VERSION INFORMATION
 VERS.                 2.0:   CWLS LOG ASCII STANDARD -VERSION 2.0
 WRAP.                  NO:   ONE LINE PER DEPTH STEP
~WELL INFORMATION BLOCK
#MNEM.UNIT           DATA                    DESCRIPTION OF MNEMONIC
#---------    -------------------            -------------------------------
# Generated from Intellog Unique Number	CN_91_93/WELL/3550
WELL.         10-24-093-08W4                 : Well_name    - WELL
LOC .         AA/10-24-093-08W4/0            : Location     - LOCATION
UWI .         AA/10-24-093-08W400            : Uwi          - UNIQUE WELL ID
ENTR.         JOETTE                         : Entered      - ENTERED BY
SRVC.         SCHLUMBERGER                   : Scn          - SERVICE COMPANY
DATE.         03/16/92                       : Date         - LOG DATE
STRT.M        5                              : top_depth    - START DEPTH
STOP.M        225                            : bot_depth    - STOP DEPTH
STEP.M        0.25                           : increment    - STEP LENGTH
 NULL. -999.2500:NULL Value
~CURVE INFORMATION BLOCK
#MNEM UNIT       ERCB CURVE CODE    CURVE DESCRIPTION
#-----------   ------------------   ----------------------------------
DEPT.M        00 001 00 00         : DEPTH        - DEPTH
GR  .API      00 310 00 00         : GR           - GAMMA RAY
CALI.MM       00 280 01 00         : CAL          - CALIPER
NPHI.V/V      00 330 00 00         : PHIN         - NEUTRON POROSITY (SANDSTONE)
DPHI.V/V      00 890 00 00         : PHID         - DENSITY POROSITY (SANDSTONE)
ILD .OHMM     00 120 00 00         : RESD         - DEEP RESISTIVITY (DIL)
~PARAMETER INFORMATION
#MNEM.UNIT           DATA             DESCRIPTION OF MNEMONIC
#---------         -----------     ------------------------------
GL  .M        486.6                : gl           - GROUND LEVEL ELEVATION
EREF.M        486.6                : kb           - ELEVATION OF DEPTH REFERENCE
DATM.M        486.6                : datum        - DATUM ELEVATION
TDD .M        226.7                : tdd          - TOTAL DEPTH DRILLER
RUN .         ONE                  : Run          - RUN NUMBER
ENG .         BILL                 : Engineer     - RECORDING ENGINEER
WIT .         JIM                  : Witness      - WITNESSED BY
MUD .         GEL                  : Mud_type     - MUD TYPE
MATR.         SANDSTONE            : Logunit      - NEUTRON MATRIX
TMAX.C        18                   : BHT          - MAXIMUM RECORDED TEMPERATURE
BHTD.M        226.7                : BHTDEP       - MAXIMUM RECORDED TEMPERATURE
RMT .C        16                   : MDTP         - TEMPERATURE OF MUD
MUDD.KG/M     1.01                 : MWT          - MUD DENSITY
NEUT.         1                    : NEUTRON      - NEUTRON TYPE
RESI.         0                    : RESIST       - RESISTIVITY TYPE
RM  .OHMM     4.5                  : RM           - RESISTIVITY OF MUD
RMC .OHMM     4.5                  : RMC          - RESISTIVITY OF MUD CAKE
RMF .OHMM     4.5                  : RMF          - RESISTIVITY OF MUD FILTRATE
SUFT.C        4                    : SUFT         - SURFACE TEMPERATURE
~A  DEPTH       GR      CAL     PHIN     PHID     RESD
# ...
   41.500   52.734  178.518    0.543    0.121    0.000
   41.750   55.203  179.431    0.548    0.131    0.000
   42.000   55.735  179.354    0.546    0.153    0.000
   42.250   52.564  180.267    0.550    0.145    0.000
   42.500   48.128  181.231    0.555    0.120    0.000
   42.750   48.066  182.144    0.568    0.096    0.000
   43.000   47.364  182.067    0.565    0.089    0.000
   43.250   45.443  181.939    0.554    0.091    0.000
   43.500   47.881  181.836    0.556    0.113    0.000
   43.750   52.178  181.759    0.558    0.105    0.000
   44.000   52.132  180.614    0.554    0.107    0.000
   44.250   48.946  180.511    0.564    0.117    0.000
   44.500   44.494  179.367    0.577    0.129    0.000
   44.750   43.182  179.264    0.550    0.155    0.000
   45.000   39.996  178.120    0.544    0.171    0.000
   45.250   38.059  177.991    0.551    0.121    0.000
   45.500   45.497  177.914    0.560    0.130    0.000
   45.750   44.795  178.852    0.577    0.155    0.000
   46.000   42.233  178.724    0.584    0.109    0.000
   46.250   39.672  178.595    0.570    0.093    0.000
   46.500   38.360  179.585    0.559    0.089    0.000
   46.750   37.674  179.483    0.554    0.118    0.000
   47.000   42.627  180.396    0.553    0.124    0.000
   47.250   46.924  180.267    0.550    0.126    0.000
   47.500   45.613  181.180    0.548    0.134    0.000
   47.750   42.426  181.128    0.550    0.142    0.000
   48.000   39.240  182.016    0.559    0.156    0.000
   48.250   34.788  181.964    0.523    0.166    0.000
   48.500   33.477  181.810    0.528    0.200    0.000
   48.750   33.430  181.759    0.524    0.219    0.000
   49.000   33.353  182.672    0.533    0.233    0.000
   49.250   33.307  182.594    0.547    0.169    0.000
   49.500   33.855  182.492    0.557    0.119    0.000
   49.750   35.683  182.363    0.562    0.070    0.000
   50.000   36.246  182.234    0.547    0.073    0.000
   50.250   40.559  182.183    0.557    0.078    0.000
   50.500   38.607  181.013    0.561    0.053    0.000
   50.750   36.655  180.910    0.556    0.038    0.000
   51.000   35.374  180.833    0.554    0.040    0.000
   51.250   34.047  180.704    0.548    0.065    0.000
   51.500   33.361  180.550    0.546    0.077    0.000
   51.750   32.674  180.473    0.558    0.052    0.000
   52.000   33.237  180.396    0.552    0.027    0.000
   52.250   35.050  180.293    0.552    0.038    0.000
   52.500   34.348  180.293    0.555    0.060    0.000
   52.750   31.802  183.186    0.550    0.059    0.000
   53.000   29.241  183.186    0.549    0.051    0.000
   53.250   32.929  183.006    0.549    0.078    0.000
   53.500   32.867  182.877    0.552    0.104    0.000
   53.750   30.930  182.774    0.555    0.110    0.000
   54.000   30.228  182.697    0.539    0.123    0.000
   54.250   30.792  182.569    0.535    0.139    0.000
   54.500   28.855  182.466    0.524    0.112    0.000
   54.750   31.293  182.363    0.530    0.086    0.000
   55.000   31.231  182.234    0.544    0.138    0.000
   55.250   32.419  182.157    0.542    0.147    0.000
   55.500   33.608  182.080    0.546    0.152    0.000
   55.750   33.561  181.951    0.559    0.134    0.000
   56.000   30.344  182.890    0.548    0.196    0.000
   56.250   27.173  182.762    0.547    0.225    0.000
   56.500   25.237  183.700    0.538    0.177    0.000
   56.750   25.175  183.623    0.522    0.171    0.000
   57.000   26.988  183.520    0.527    0.202    0.000
   57.250   28.176  183.392    0.539    0.223    0.000
   57.500   33.739  183.314    0.551    0.175    0.000
   57.750   36.177  183.160    0.556    0.159    0.000
   58.000   36.725  183.057    0.562    0.158    0.000
   58.250   36.678  182.980    0.550    0.163    0.000
   58.500   35.351  182.903    0.547    0.166    0.000
   58.750   34.665  181.733    0.552    0.197    0.000
   59.000   37.103  181.604    0.551    0.207    0.000
   59.250   35.791  181.553    0.549    0.184    0.000
   59.500   35.104  180.383    0.548    0.184    0.000
   59.750   36.933  180.280    0.555    0.218    0.000
   60.000   38.121  180.203    0.556    0.227    0.000
   60.250   38.059  177.965    0.557    0.183    0.000
   60.500   35.498  177.888    0.556    0.180    0.000
   60.750   31.671  177.785    0.560    0.209    0.000
   61.000   30.360  177.682    0.568    0.207    0.000
   61.250   35.297  177.554    0.569    0.187    0.000
   61.500   39.610  177.477    0.577    0.144    0.000
   61.750   39.548  177.322    0.575    0.133    0.000
   62.000   37.612  177.271    0.562    0.145    0.000
   62.250   35.035  178.184    0.552    0.126    0.000
   62.500   33.098  178.107    0.536    0.148    0.000
   62.750   32.427  177.978    0.533    0.120    0.000
   63.000   32.365  177.875    0.539    0.117    0.000
   63.250   33.554  177.772    0.544    0.132    0.000
   63.500   38.491  177.695    0.543    0.130    0.000
   63.750   44.679  177.592    0.547    0.109    0.000
   64.000   43.352  177.489    0.539    0.050    0.000
   64.250   44.556  178.428    0.519    0.008    0.000
   64.500   45.119  178.274    0.482   -0.047    0.000
   64.750   44.417  178.171    0.417   -0.003    0.000
   65.000   43.730  178.094    0.430    0.023    0.000
   65.250   44.934  177.940    0.446    0.026    0.000
   65.500   43.622  177.862    0.475    0.068    0.000
   65.750   40.436  177.734    0.414    0.067    0.000
   66.000   35.344  177.682    0.405    0.042    0.000
   66.250   36.532  178.621    0.417    0.042    0.000
   66.500   35.845  178.492    0.446    0.049    0.000
   66.750   33.284  178.390    0.474    0.049    0.000
   67.000   30.738  178.287    0.503    0.056    0.000
   67.250   29.426  178.184    0.524    0.085    0.000
   67.500   29.364  178.081    0.494    0.114    0.000
   67.750   28.022  177.978    0.501    0.106    0.000
   68.000   27.976  177.850    0.508    0.094    0.000
   68.250   27.914  176.757    0.514    0.098    0.000
   68.500   25.977  176.628    0.518    0.110    0.000
   68.750   25.291  176.551    0.525    0.141    0.000
   69.000   30.853  175.355    0.537    0.170    0.000
   69.250   31.416  175.252    0.533    0.123    0.000
   69.500   30.105  175.175    0.521    0.098    0.000
   69.750   29.418  175.021    0.526    0.110    0.000
   70.000   29.357  174.969    0.536    0.120    0.000
   70.250   30.529  174.866    0.546    0.130    0.000
   70.500   38.607  174.738    0.559    0.142    0.000
   70.750   41.685  174.661    0.563    0.115    0.000
   71.000   42.874  174.506    0.554    0.102    0.000
   71.250   40.281  174.429    0.543    0.103    0.000
   71.500   41.485  175.393    0.549    0.106    0.000
   71.750   44.548  175.239    0.563    0.106    0.000
   72.000   43.221  175.136    0.568    0.112    0.000
   72.250   40.050  175.059    0.563    0.120    0.000
   72.500   40.613  176.024    0.564    0.119    0.000
   72.750   40.551  175.869    0.567    0.125    0.000
   73.000   37.990  175.792    0.560    0.149    0.000
   73.250   39.178  176.705    0.545    0.155    0.000
   73.500   44.116  176.628    0.533    0.164    0.000
   73.750   42.804  176.499    0.542    0.153    0.000
   74.000   43.977  177.412    0.552    0.103    0.000
   74.250   43.915  177.361    0.561    0.064    0.000
   74.500   48.243  177.258    0.567    0.069    0.000
   74.750   55.056  178.197    0.559    0.095    0.000
   75.000   63.103  178.094    0.566    0.101    3.195
   75.250   61.791  177.991    0.565    0.072    3.201
   75.500   64.870  178.930    0.551    0.041    3.263
   75.750   70.448  178.801    0.559    0.031    3.268
   76.000   74.136  178.672    0.569    0.042    3.335
   76.250   72.184  178.595    0.570    0.031    3.398
   76.500   75.262  178.518    0.572    0.011    3.403
   76.750   77.685  178.518    0.576   -0.004    3.412
   77.000   76.998  179.328    0.576    0.001    3.421
   77.250   73.187  179.251    0.577    0.007    3.424
   77.500   78.750  179.123    0.576   -0.016    3.318
   77.750   84.312  179.020    0.567   -0.042    3.270
