~VERSION INFORMATION
 VERS.                 2.0:   CWLS LOG ASCII STANDARD -VERSION 2.0
 WRAP.                  NO:   ONE LINE PER DEPTH STEP
~WELL INFORMATION BLOCK
#MNEM.UNIT           DATA                    DESCRIPTION OF MNEMONIC
#---------    -------------------            -------------------------------
# Generated from Intellog Unique Number	CN_91_93/WELL/2715
WELL.         10-13-091-12W4                 : Well_name    - WELL
LOC .         AA/10-13-091-12W4/0            : Location     - LOCATION
UWI .         AA/10-13-091-12W400            : Uwi          - UNIQUE WELL ID
ENTR.         JOETTE                         : Entered      - ENTERED BY
SRVC.         SCHLUMBERGER                   : Scn          - SERVICE COMPANY
DATE.         02/09/92                       : Date         - LOG DATE
STRT.M        40                             : top_depth    - START DEPTH
STOP.M        184                            : bot_depth    - STOP DEPTH
STEP.M        0.25                           : increment    - STEP LENGTH
 NULL. -999.2500:NULL Value
~CURVE INFORMATION BLOCK
#MNEM UNIT       ERCB CURVE CODE    CURVE DESCRIPTION
#-----------   ------------------   ----------------------------------
DEPT.M        00 001 00 00         : DEPTH        - DEPTH
GR  .API      00 310 00 00         : GR           - GAMMA RAY
DPHI.V/V      00 890 00 00         : PHID         - DENSITY POROSITY (SANDSTONE)
ILD .OHMM     00 120 00 00         : RESD         - DEEP RESISTIVITY (DIL)
~PARAMETER INFORMATION
#MNEM.UNIT           DATA             DESCRIPTION OF MNEMONIC
#---------         -----------     ------------------------------
GL  .M        451.4                : gl           - GROUND LEVEL ELEVATION
EREF.M        451.4                : kb           - ELEVATION OF DEPTH REFERENCE
DATM.M        451.4                : datum        - DATUM ELEVATION
TDD .M        224                  : tdd          - TOTAL DEPTH DRILLER
RUN .         ONE                  : Run          - RUN NUMBER
ENG .         BILL                 : Engineer     - RECORDING ENGINEER
WIT .         JIM                  : Witness      - WITNESSED BY
MUD .         GEL                  : Mud_type     - MUD TYPE
MATR.         SANDSTONE            : Logunit      - NEUTRON MATRIX
TMAX.C        10                   : BHT          - MAXIMUM RECORDED TEMPERATURE
BHTD.M        224                  : BHTDEP       - MAXIMUM RECORDED TEMPERATURE
RMT .C        18.9                 : MDTP         - TEMPERATURE OF MUD
MUDD.KG/M     9666.66              : MWT          - MUD DENSITY
NEUT.         1                    : NEUTRON      - NEUTRON TYPE
RESI.         0                    : RESIST       - RESISTIVITY TYPE
RM  .OHMM     9.5                  : RM           - RESISTIVITY OF MUD
RMC .OHMM     9.5                  : RMC          - RESISTIVITY OF MUD CAKE
RMF .OHMM     9.5                  : RMF          - RESISTIVITY OF MUD FILTRATE
SUFT.C        4                    : SUFT         - SURFACE TEMPERATURE
~A  DEPTH       GR     PHID     RESD
# ...
   94.250  116.319    0.294    7.483
   94.500  108.426    0.284    8.263
   94.750   93.538    0.323    7.446
   95.000   91.726    0.319    8.051
   95.250   93.869    0.296    8.231
   95.500   99.052    0.245   11.529
   95.750  103.020    0.245    8.784
   96.000   92.692    0.313   12.391
   96.250   84.191    0.302   12.402
   96.500   87.245    0.302    9.385
   96.750   93.036    0.322    9.729
   97.000   90.921    0.314    8.233
   97.250  100.667    0.312   11.137
   97.500   92.164    0.295   10.994
   97.750   86.095    0.293   10.629
   98.000   83.371    0.260    8.867
   98.250   88.555    0.282    9.065
   98.500   80.052    0.294   21.461
   98.750   77.329    0.270   14.932
   99.000   84.945    0.302   12.286
   99.250   95.298    0.326   14.049
   99.500  106.564    0.332   12.312
   99.750  105.665    0.316   12.499
  100.000  103.549    0.344   11.265
  100.250  119.984    0.372    8.827
  100.500  118.478    0.363    5.726
  100.750  110.278    0.296    6.062
  101.000   93.263    0.317    8.855
  101.250   71.988    0.309    8.442
  101.500   80.516    0.176   11.023
  101.750   76.882    0.112   14.098
  102.000   81.456    0.122   47.362
  102.250   96.067    0.228   27.662
  102.500   92.430    0.308   15.385
  102.750   83.928    0.282   14.059
  103.000   75.730    0.098   11.898
  103.250   86.387    0.113   10.798
  103.500  100.694    0.199   54.825
  103.750  103.141    0.316   38.408
  104.000  108.019    0.310   11.865
  104.250  138.139    0.290   10.253
  104.500  100.139    0.302   10.410
  104.750  111.100    0.312    8.870
  105.000  109.290    0.276    6.258
  105.250  121.163    0.291    7.462
  105.500  113.572    0.310    6.316
  105.750  113.892    0.328    5.574
  106.000  109.951    0.323    5.503
  106.250  102.360    0.330    5.508
  106.500  118.493    0.330    5.790
  106.750  116.074    0.318    6.438
  107.000  118.823    0.282    5.487
  107.250  114.883    0.316    5.341
  107.500   95.737    0.309    4.847
  107.750  107.915    0.297    5.132
  108.000  100.629    0.210    5.283
  108.250   98.819    0.240    6.525
  108.500  105.522    0.248    7.726
  108.750  118.005    0.306    8.591
  109.000  112.543    0.303    7.069
  109.250  113.773    0.300    5.982
  109.500  107.096    0.254    6.652
  109.750  113.495    0.274    6.166
  110.000  101.952    0.304    9.526
  110.250  107.439    0.301    6.910
  110.500  119.009    0.308    8.357
  110.750  115.983    0.283    8.307
  111.000  112.954    0.282    9.701
  111.250  114.791    0.290    8.324
  111.500  109.331    0.267    6.898
  111.750   94.140    0.279    6.809
  112.000   84.725    0.227    6.675
  112.250  113.629    0.192    7.267
  112.500  123.069    0.263    8.545
  112.750  131.901    0.284    9.567
  113.000  128.874    0.308    8.269
  113.250  135.881    0.308    7.046
  113.500  140.456    0.317    5.112
  113.750  135.604    0.327    5.684
  114.000  141.394    0.331    5.770
  114.250  144.450    0.337    5.501
  114.500  138.685    0.344    4.754
  114.750  130.790    0.367    4.079
  115.000  130.501    0.352    4.055
  115.250  115.917    0.382    3.948
  115.500  123.229    0.351    3.684
  115.750  113.510    0.342    3.874
  116.000  115.348    0.319    3.718
  116.250  127.830    0.324    3.749
  116.500  118.415    0.316    4.081
  116.750  112.044    0.321    5.111
  117.000  115.097    0.337    5.116
  117.250  137.006    0.334    4.946
  117.500  125.159    0.331    5.021
  117.750  112.704    0.318    5.061
  118.000  114.542    0.289    4.926
  118.250  114.859    0.267    5.072
  118.500  121.563    0.277    6.670
  118.750  153.811    0.283    7.416
  119.000  140.748    0.272    6.366
  119.250  133.464    0.266    6.152
  119.500  122.834    0.265    5.906
  119.750  120.717    0.271    6.705
  120.000  133.503    0.258    6.705
  120.250  131.995    0.245    6.583
  120.500  132.921    0.266    6.362
  120.750  128.983    0.268    6.327
  121.000   94.630    0.091    6.286
  121.250   98.597    0.075    6.940
  121.500  132.062    0.117   15.867
  121.750  132.077    0.295   25.204
  122.000  127.832    0.315    7.059
  122.250  117.809    0.284    5.851
  122.500  140.934    0.295    5.775
  122.750  117.838    0.314    5.543
  123.000  132.448    0.315    5.589
  123.250  127.594    0.278    5.365
  123.500  121.221    0.259    6.135
  123.750  121.235    0.248    7.161
  124.000  129.154    0.281    8.481
  124.250  122.477    0.287    8.371
  124.500  110.327    0.272    6.889
  124.750  116.423    0.284    6.705
  125.000  124.646    0.295    6.761
  125.250  121.618    0.286    6.445
  125.500  111.597    0.277    6.316
  125.750  129.247    0.264    6.781
  126.000  132.301    0.282    6.742
  126.250  132.011    0.290    6.471
  126.500  123.815    0.305    6.389
  126.750  120.481    0.291    6.353
  127.000  106.506    0.285    6.446
  127.250  106.824    0.271    6.776
  127.500  100.146    0.111    6.643
  127.750  111.109    0.213    8.146
  128.000  105.951    0.302    7.819
  128.250  119.041    0.334    6.949
  128.500  107.194    0.389    6.624
  128.750  144.309    0.371    4.772
  129.000  137.327    0.349    3.766
  129.250  130.651    0.364    3.442
  129.500  122.148    0.346    3.102
  129.750  135.238    0.315    3.777
  130.000  135.253    0.286    4.600
  130.250  132.833    0.351    5.563
  130.500  106.996    0.364    5.848
  130.750  102.753    0.353    5.090
  131.000  104.285    0.301    6.285
  131.250   89.400    0.272    5.991
  131.500   97.014    0.173    7.095
  131.750  101.285    0.424   10.079
  132.000   99.172    0.447    3.922
  132.250  101.313    0.485    5.231
  132.500   98.588    0.480    4.951
  132.750  106.204    0.484    4.855
  133.000  102.873    0.464    4.791
  133.250  109.577    0.458    4.898
  133.500   94.384    0.447    5.881
  133.750  100.480    0.349    6.403
  134.000   95.628    0.350    8.306
  134.250  108.414    0.375    8.855
  134.500  111.164    0.377    9.572
  134.750  102.052    0.352   10.870
  135.000  118.489    0.371    9.593
  135.250  121.846    0.374    6.222
  135.500  131.895    0.366    3.583
  135.750  127.957    0.356    3.537
  136.000  113.979    0.336    3.100
  136.250  111.560    0.315    3.103
  136.500  113.094    0.329    3.332
  136.750  111.285    0.336    3.359
  137.000  110.385    0.350    3.386
  137.250  123.777    0.359    3.535
  137.500  134.132    0.345    3.903
  137.750  127.757    0.310    3.826
  138.000  119.560    0.281    3.994
  138.250  122.007    0.272    3.834
  138.500  120.499    0.289    4.768
  138.750  120.816    0.330    4.063
  139.000  112.619    0.346    3.511
  139.250  102.596    0.360    3.347
  139.500  110.820    0.315    3.774
  139.750  100.496    0.290    4.727
  140.000  102.030    0.269    5.676
  140.250   85.315    0.237    6.720
  140.500   58.567    0.204   24.213
  140.750   42.463    0.313   55.746
  141.000   37.003    0.333   60.271
  141.250   39.144    0.374   53.564
  141.500   78.692    0.383    9.997
  141.750   90.870    0.335    8.885
  142.000  112.476    0.285    8.235
  142.250  118.572    0.274    7.961
  142.500  123.145    0.262    8.669
  142.750  114.339    0.263    8.739
  143.000  130.774    0.264    8.692
  143.250  134.133    0.264    8.575
  143.500  121.374    0.291    8.523
  143.750  130.207    0.289    7.735
  144.000  133.868    0.274    7.853
  144.250  134.491    0.303    7.129
  144.500  133.896    0.301    7.235
  144.750  125.089    0.284    6.803
  145.000  119.325    0.280    7.150
  145.250  104.740    0.281    6.912
  145.500   89.243    0.303    6.824
  145.750   41.209    0.349    6.783
  146.000   31.186    0.360    6.511
  146.250   28.767    0.360    6.892
  146.500   46.724    0.367   86.916
  146.750   51.298    0.346   75.112
  147.000   43.709    0.357   65.826
  147.250   40.985    0.350   29.881
  147.500   43.432    0.342   36.388
  147.750   40.100    0.344  152.932
  148.000   40.720    0.348   73.419
  148.250   37.693    0.340   50.367
