~VERSION INFORMATION
 VERS.                 2.0:   CWLS LOG ASCII STANDARD -VERSION 2.0
 WRAP.                  NO:   ONE LINE PER DEPTH STEP
~WELL INFORMATION BLOCK
#MNEM.UNIT           DATA                    DESCRIPTION OF MNEMONIC
#---------    -------------------            -------------------------------
# Generated from Intellog Unique Number	CW_82_90/WELL/1035
WELL.         14-17-082-21W4                 : Well_name    - WELL
LOC .         AA/14-17-082-21W4/0            : Location     - LOCATION
UWI .         AA/14-17-082-21W4/0            : Uwi          - UNIQUE WELL ID
ENTR.         JAYE                           : Entered      - ENTERED BY
SRVC.         SCHLUMBERGER                   : Scn          - SERVICE COMPANY
DATE.         1FEB 82                        : Date         - LOG DATE
STRT.M        220                            : top_depth    - START DEPTH
STOP.M        445                            : bot_depth    - STOP DEPTH
STEP.M        0.25                           : increment    - STEP LENGTH
 NULL. -999.2500:NULL Value
~CURVE INFORMATION BLOCK
#MNEM UNIT       ERCB CURVE CODE    CURVE DESCRIPTION
#-----------   ------------------   ----------------------------------
DEPT.M        00 001 00 00         : DEPTH        - DEPTH
CALI.MM       00 280 01 00         : CAL          - CALIPER
GR  .API      00 310 00 00         : GR           - GAMMA RAY
NPHI.V/V      00 330 00 00         : PHIN         - NEUTRON POROSITY (SANDSTONE)
DPHI.V/V      00 890 00 00         : PHID         - DENSITY POROSITY (SANDSTONE)
ILD .OHMM     00 120 00 00         : RESD         - DEEP RESISTIVITY (DIL)
~PARAMETER INFORMATION
#MNEM.UNIT           DATA             DESCRIPTION OF MNEMONIC
#---------         -----------     ------------------------------
GL  .M        619.5                : gl           - GROUND LEVEL ELEVATION
EREF.M        623.9                : kb           - ELEVATION OF DEPTH REFERENCE
DATM.M        619.5                : datum        - DATUM ELEVATION
TDD .M        453.5                : tdd          - TOTAL DEPTH DRILLER
RUN .         ONE                  : Run          - RUN NUMBER
ENG .         VANDENBRINK          : Engineer     - RECORDING ENGINEER
WIT .         WALKER               : Witness      - WITNESSED BY
BASE.         EDMONTON             : Branch       - HOME BASE OF LOGGING UNIT
MUD .         GEL CHEM             : Mud_type     - MUD TYPE
MATR.         SANDSTONE            : Logunit      - NEUTRON MATRIX
TMAX.C        22.2                 : BHT          - MAXIMUM RECORDED TEMPERATURE
BHTD.M        453.5                : BHTDEP       - MAXIMUM RECORDED TEMPERATURE
RMT .C        20.5                 : MDTP         - TEMPERATURE OF MUD
MUDD.KG/M     1070                 : MWT          - MUD DENSITY
NEUT.         1                    : NEUTRON      - NEUTRON TYPE
RESI.         0                    : RESIST       - RESISTIVITY TYPE
RM  .OHMM     4.89                 : RM           - RESISTIVITY OF MUD
RMC .OHMM     0.25                 : RMC          - RESISTIVITY OF MUD CAKE
RMF .OHMM     4.77                 : RMF          - RESISTIVITY OF MUD FILTRATE
SUFT.C        4                    : SUFT         - SURFACE TEMPERATURE
~A  DEPTH      CAL       GR     PHIN     PHID     RESD
# ...
  293.000  165.403   49.098    0.451    0.375   12.582
  293.250  165.403   52.273    0.449    0.364   12.639
  293.500  166.287   53.379    0.449    0.359   12.604
  293.750  166.887   53.550    0.452    0.357   12.618
  294.000  167.165   48.773    0.464    0.360   12.442
  294.250  167.240   48.314    0.457    0.359   12.317
  294.500  167.416   52.058    0.458    0.356   12.261
  294.750  166.739   53.853    0.449    0.355   12.276
  295.000  166.395   54.402    0.447    0.353   12.240
  295.250  166.260   51.498    0.453    0.351   12.184
  295.500  164.842   50.479    0.463    0.352   12.197
  295.750  164.607   50.337    0.475    0.360   12.303
  296.000  164.363   50.318    0.451    0.362   12.411
  296.250  165.272   49.797    0.432    0.333   12.755
  296.500  166.402   48.651    0.407    0.308   13.768
  296.750  169.203   47.693    0.388    0.251   15.031
  297.000  170.959   48.175    0.345    0.216   16.849
  297.250  170.087   47.281    0.313    0.178   18.599
  297.500  168.158   44.566    0.274    0.137   21.243
  297.750  165.483   41.355    0.227    0.067   24.036
  298.000  164.399   39.141    0.176   -0.025   26.784
  298.250  163.945   36.680    0.133   -0.040   30.250
  298.500  163.911   34.407    0.120   -0.043   32.406
  298.750  163.868   33.073    0.113   -0.043   32.748
  299.000  164.368   33.619    0.115   -0.027   32.782
  299.250  166.221   37.045    0.133   -0.012   32.151
  299.500  167.456   43.792    0.207    0.027   28.800
  299.750  169.001   48.285    0.308    0.128   23.702
  300.000  169.181   48.267    0.385    0.229   19.806
  300.250  166.403   51.064    0.435    0.322   15.669
  300.500  164.899   52.677    0.450    0.342   12.235
  300.750  164.124   52.974    0.482    0.354   12.019
  301.000  164.198   52.326    0.473    0.365   13.424
  301.250  164.587   53.938    0.457    0.371   14.351
  301.500  164.656   55.424    0.470    0.373   15.173
  301.750  164.723   53.397    0.485    0.373   15.452
  302.000  164.480   54.134    0.501    0.365   15.322
  302.250  164.750   58.062    0.483    0.355   14.801
  302.500  164.933   58.795    0.439    0.349   14.007
  302.750  165.109   52.700    0.448    0.350   13.576
  303.000  165.168   50.864    0.448    0.348   12.747
  303.250  165.142   50.156    0.445    0.344   12.062
  303.500  165.114   50.135    0.443    0.350   11.961
  303.750  165.389   50.181    0.440    0.351   12.114
  304.000  165.249   50.788    0.438    0.346   12.262
  304.250  165.118   51.962    0.440    0.342   12.252
  304.500  165.295   52.690    0.451    0.337   12.152
  304.750  165.471   52.552    0.466    0.337   12.144
  305.000  165.542   51.281    0.466    0.341   12.177
  305.250  165.189   51.885    0.464    0.335   12.308
  305.500  164.808   52.490    0.462    0.334   12.414
  305.750  164.589   53.286    0.462    0.334   12.497
  306.000  164.349   54.088    0.457    0.332   12.509
  306.250  163.662   56.198    0.453    0.330   12.547
  306.500  163.540   57.560    0.449    0.325   12.561
  306.750  163.081   59.669    0.455    0.333   12.481
  307.000  163.052   61.094    0.498    0.335   12.306
  307.250  163.018   61.513    0.492    0.343   11.932
  307.500  163.195   61.870    0.466    0.347   11.547
  307.750  163.871   61.726    0.449    0.340   11.175
  308.000  164.067   61.520    0.450    0.333   10.896
  308.250  164.458   58.743    0.494    0.337   10.704
  308.500  164.734   57.409    0.525    0.356   10.556
  308.750  164.701   58.459    0.512    0.365   10.648
  309.000  164.984   61.629    0.490    0.364   10.845
  309.250  164.621   65.563    0.491    0.356   10.938
  309.500  164.277   63.852    0.501    0.349   10.948
  309.750  164.352   62.205    0.489    0.351   11.065
  310.000  163.582   65.508    0.482    0.354   11.200
  310.250  163.759   66.864    0.497    0.356   11.195
  310.500  163.832   67.158    0.488    0.357   11.099
  310.750  164.103   66.389    0.472    0.359   10.944
  311.000  164.383   65.684    0.464    0.360   10.753
  311.250  164.462   66.162    0.458    0.364   10.745
  311.500  164.526   67.088    0.456    0.369   10.776
  311.750  164.712   67.632    0.469    0.365   10.709
  312.000  164.676   66.107    0.485    0.365   10.620
  312.250  164.641   64.338    0.505    0.366   10.512
  312.500  164.602   62.691    0.525    0.361   10.442
  312.750  164.670   60.604    0.519    0.342   10.435
  313.000  164.744   60.270    0.494    0.318   10.407
  313.250  164.493   61.631    0.475    0.312   10.301
  313.500  164.354   65.685    0.485    0.324   10.161
  313.750  164.424   66.796    0.485    0.335   10.115
  314.000  164.399   67.085    0.485    0.349   10.142
  314.250  164.464   66.196    0.488    0.359   10.154
  314.500  164.541   62.730    0.494    0.362   10.126
  314.750  164.182   62.398    0.501    0.363   10.060
  315.000  164.156   64.823    0.496    0.360   10.034
  315.250  162.961   67.562    0.457    0.355    9.970
  315.500  161.869   68.608    0.461    0.354    9.925
  315.750  162.043   72.725    0.481    0.356    9.808
  316.000  163.485   73.770    0.493    0.352    9.489
  316.250  165.137   76.949    0.471    0.352    9.287
  316.500  166.578   83.196    0.456    0.329    8.754
  316.750  168.119   92.011    0.445    0.303    7.566
  317.000  169.984   94.370    0.440    0.264    6.310
  317.250  173.632   94.793    0.446    0.228    5.334
  317.500  177.599   97.403    0.462    0.215    4.905
  317.750  181.771   95.633    0.522    0.231    4.336
  318.000  178.579   86.153    0.525    0.247    4.004
  318.250  169.917   83.817    0.519    0.258    3.377
  318.500  162.298   84.298    0.517    0.262    3.523
  318.750  165.108   90.043    0.525    0.252    3.475
  319.000  167.916   90.902    0.538    0.243    2.953
  319.250  166.723   96.962    0.533    0.238    2.711
  319.500  162.997   97.755    0.519    0.226    3.512
  319.750  163.070   93.292    0.503    0.231    4.245
  320.000  163.459   85.254    0.499    0.237    4.931
  320.250  163.429   81.599    0.505    0.235    5.750
  320.500  162.546   81.582    0.508    0.234    6.679
  320.750  161.253   78.871    0.493    0.241    8.011
  321.000  159.845   74.341    0.475    0.237    8.929
  321.250  159.181   75.513    0.482    0.253    9.350
  321.500  158.832   83.450    0.438    0.269    9.504
  321.750  159.209   88.256    0.433    0.265    9.248
  322.000  159.924   92.998    0.483    0.251    8.587
  322.250  161.782   92.980    0.463    0.243    7.796
  322.500  163.533   92.838    0.457    0.244    7.600
  322.750  164.135   91.063    0.471    0.246    7.768
  323.000  163.568   87.411    0.460    0.247    7.969
  323.250  163.013   87.768    0.467    0.243    7.785
  323.500  161.921   93.076    0.467    0.237    7.720
  323.750  161.680   91.367    0.477    0.231    7.802
  324.000  161.963   90.220    0.495    0.227    7.929
  324.250  162.243   91.267    0.474    0.236    8.229
  324.500  162.208   91.997    0.460    0.259    8.424
  324.750  162.171   91.981    0.441    0.258    8.386
  325.000  162.136   90.271    0.442    0.256    8.146
  325.250  162.311   89.125    0.451    0.243    8.499
  325.500  162.067   88.162    0.444    0.234    8.902
  325.750  161.503   88.143    0.441    0.235    9.501
  326.000  160.950   89.320    0.435    0.239    9.969
  326.250  161.330   94.376    0.450    0.239   10.700
  326.500  163.403  100.184    0.481    0.235    9.768
  326.750  165.161   96.971    0.472    0.239    8.933
  327.000  164.584   89.122    0.470    0.242    7.810
  327.250  162.454   76.007    0.451    0.254    7.907
  327.500  158.738   70.790    0.433    0.242    8.535
  327.750  158.180   67.637    0.442    0.228    9.011
  328.000  158.883   66.549    0.459    0.212    8.999
  328.250  160.312   71.046    0.424    0.050   11.251
  328.500  160.707   77.795    0.239    0.026   11.828
  328.750  160.667   79.593    0.265    0.053   11.797
  329.000  160.421   79.136    0.362    0.164   11.742
  329.250  160.492   78.612    0.433    0.235   11.280
