~VERSION INFORMATION
 VERS.                 2.0:   CWLS LOG ASCII STANDARD -VERSION 2.0
 WRAP.                  NO:   ONE LINE PER DEPTH STEP
~WELL INFORMATION BLOCK
#MNEM.UNIT           DATA                    DESCRIPTION OF MNEMONIC
#---------    -------------------            -------------------------------
# Generated from Intellog Unique Number	CN_94_101/WELL/3648
WELL.         10-14-096-13W4                 : Well_name    - WELL
LOC .         AA/10-14-096-13W4/0            : Location     - LOCATION
UWI .         AA/10-14-096-13W400            : Uwi          - UNIQUE WELL ID
ENTR.         J                              : Entered      - ENTERED BY
SRVC.         SCHLUMBERGER                   : Scn          - SERVICE COMPANY
DATE.         08/05/92                       : Date         - LOG DATE
STRT.F        50                             : top_depth    - START DEPTH
STOP.F        760.302                        : bot_depth    - STOP DEPTH
STEP.F        0.8202                         : increment    - STEP LENGTH
 NULL. -999.2500:NULL Value
~CURVE INFORMATION BLOCK
#MNEM UNIT       ERCB CURVE CODE    CURVE DESCRIPTION
#-----------   ------------------   ----------------------------------
DEPT.F        00 001 00 00         : DEPTH        - DEPTH
ILD .OHMM     00 120 00 00         : RESD         - DEEP RESISTIVITY (DIL)
GR  .API      00 310 00 00         : GR           - GAMMA RAY
NPHI.V/V      00 330 00 00         : PHIN         - NEUTRON POROSITY (SANDSTONE)
~PARAMETER INFORMATION
#MNEM.UNIT           DATA             DESCRIPTION OF MNEMONIC
#---------         -----------     ------------------------------
GL  .M        418.003              : gl           - GROUND LEVEL ELEVATION
EREF.M        419.527              : kb           - ELEVATION OF DEPTH REFERENCE
DATM.M        419.527              : datum        - DATUM ELEVATION
TDD .M        235.001              : tdd          - TOTAL DEPTH DRILLER
RUN .         ONE                  : Run          - RUN NUMBER
ENG .         BILL                 : Engineer     - RECORDING ENGINEER
WIT .         JIM                  : Witness      - WITNESSED BY
MUD .         GEL                  : Mud_type     - MUD TYPE
MATR.         SANDSTONE            : Logunit      - NEUTRON MATRIX
TMAX.F        40                   : BHT          - MAXIMUM RECORDED TEMPERATURE
BHTD.F        771                  : BHTDEP       - MAXIMUM RECORDED TEMPERATURE
RMT .F        40                   : MDTP         - TEMPERATURE OF MUD
MUDD.LB/G     0.001                : MWT          - MUD DENSITY
NEUT.         1                    : NEUTRON      - NEUTRON TYPE
RESI.         0                    : RESIST       - RESISTIVITY TYPE
RM  .OHMM     0.9                  : RM           - RESISTIVITY OF MUD
RMC .OHMM     0.9                  : RMC          - RESISTIVITY OF MUD CAKE
RMF .OHMM     0.9                  : RMF          - RESISTIVITY OF MUD FILTRATE
SUFT.F        39.2                 : SUFT         - SURFACE TEMPERATURE
~A  DEPTH     RESD       GR     PHIN
# ...
  227.986    7.328   85.513    0.423
  228.806    5.949   87.957    0.411
  229.626    5.422   88.028    0.408
  230.446    5.862   87.272    0.422
  231.266    5.043   90.117    0.391
  232.087    4.505   95.395    0.409
  232.907    4.432   90.210    0.440
  233.727    4.355   87.046    0.454
  234.547    3.675   92.713    0.449
  235.367    3.223   99.195    0.453
  236.188    2.774  100.045    0.453
  237.008    2.942   97.281    0.437
  237.828    3.246   98.131    0.422
  238.648    3.315  102.193    0.433
  239.469    3.519  101.838    0.445
  240.289    3.394   97.870    0.445
  241.109    3.212   95.118    0.448
  241.929    3.281   96.358    0.453
  242.749    3.833  100.431    0.420
  243.570    4.389   99.273    0.410
  244.390    4.572   95.707    0.435
  245.210    4.084   96.557    0.435
  246.030    3.942   99.012    0.430
  246.850    4.183  102.684    0.430
  247.671    4.439   99.909    0.422
  248.491    4.532   99.153    0.436
  249.311    4.908  102.813    0.431
  250.131    5.409   98.042    0.400
  250.951    6.315   89.658    0.390
  251.772    7.660   86.115    0.371
  252.592    6.590   84.520    0.371
  253.412    7.406   83.776    0.356
  254.232   10.085   83.020    0.356
  255.052    9.013   83.067    0.360
  255.873    9.932   81.909    0.351
  256.693   13.004   80.350    0.343
  257.513   13.291   80.798    0.334
  258.333   11.647   88.898    0.344
  259.154   10.212   88.118    0.361
  259.974   10.235   86.961    0.370
  260.794    9.692   84.610    0.363
  261.614    9.344   87.881    0.369
  262.434    9.187   87.101    0.369
  263.255    9.207   82.731    0.379
  264.075    9.233   79.567    0.385
  264.895    9.248   85.257    0.370
  265.715    9.268   83.698    0.364
  266.535   10.421   81.714    0.371
  267.356   10.444   81.383    0.374
  268.176    9.163   80.615    0.366
  268.996    9.906   79.056    0.352
  269.816   10.928   81.512    0.348
  270.636    8.873   81.960    0.354
  271.457    7.930   77.189    0.365
  272.277    8.578   73.611    0.372
  273.097    7.670   74.874    0.357
  273.917    8.293   77.731    0.352
  274.738    6.866   81.391    0.353
  275.558    7.287   85.866    0.355
  276.378    9.725   82.701    0.367
  277.198    9.381   80.327    0.365
  278.018    8.388   79.169    0.357
  278.839    7.939   82.841    0.371
  279.659    8.583   85.698    0.383
  280.479    8.602   84.151    0.390
  281.299    6.113   85.792    0.388
  282.119    4.870   85.862    0.377
  282.940    6.140   83.488    0.372
  283.760    7.887   82.721    0.360
  284.580    9.583   82.366    0.364
  285.400    9.060   80.004    0.355
  286.220    7.944   80.062    0.348
  287.041    7.232   82.128    0.340
  287.861    6.845   82.565    0.349
  288.681    6.860   83.013    0.367
  289.501    7.011   82.257    0.375
  290.322    7.300   83.508    0.392
  291.142    7.601   86.767    0.398
  291.962    6.924   88.821    0.399
  292.782    6.311   92.493    0.399
  293.602    6.697   92.138    0.404
  294.423    7.108   87.769    0.376
  295.243    6.600   88.630    0.339
  296.063    6.485   85.052    0.284
  296.883   14.500   81.072    0.337
  297.703   16.296   77.116    0.368
  298.524    8.209   87.200    0.440
  299.344    4.727   90.860    0.462
  300.164    2.829   85.687    0.416
  300.984    3.998   83.738    0.426
  301.804    6.101   82.569    0.396
  302.625    7.124   82.616    0.390
  303.445    6.742   85.072    0.417
  304.265    6.025   82.721    0.445
  305.085    3.035   83.559    0.458
  305.906    2.375   86.818    0.485
  306.726    2.618   89.297    0.478
  307.546    2.673   88.139    0.467
  308.366    2.785   88.588    0.466
  309.186    3.069   91.835    0.434
  310.007    4.020   91.881    0.395
  310.827    5.574   90.322    0.364
  311.647    7.881   89.979    0.368
  312.467    8.050   89.613    0.374
  313.287    7.915   88.054    0.403
  314.108    7.078   88.525    0.415
  314.928    5.857   90.969    0.361
  315.748    5.544   94.228    0.350
  316.568    8.460   95.479    0.299
  317.388   10.263   92.314    0.288
  318.209    8.823   88.748    0.264
  319.029   14.260   83.977    0.241
  319.849   20.948   87.247    0.249
  320.669   11.175   91.698    0.323
  321.490    7.082   94.969    0.328
  322.310    8.269   92.997    0.347
  323.130    9.122   94.260    0.337
  323.950    8.795   96.325    0.339
  324.770    9.334   93.952    0.342
  325.591    9.535   92.817    0.344
  326.411    9.561   94.057    0.340
  327.231   10.348   94.895    0.324
  328.051   10.970   94.540    0.322
  328.871   12.815   92.178    0.339
  329.692   13.091   90.218    0.336
  330.512   12.396   87.053    0.328
  331.332   11.958   84.301    0.328
  332.152   11.757   84.348    0.320
  332.972   11.342   85.197    0.319
  333.793   10.332   86.449    0.329
  334.613    9.234   88.491    0.324
  335.433    8.739   89.754    0.329
  336.253    8.753   87.392    0.340
  337.073    9.300   87.427    0.331
  337.894    9.310   93.508    0.318
  338.714    9.510   91.960    0.324
  339.534    9.531   89.197    0.330
  340.354   10.115   89.645    0.324
  341.175   10.537   91.699    0.323
  341.995   10.361   88.936    0.331
  342.815    9.433   87.365    0.329
  343.635    7.961   85.806    0.320
  344.455    8.947   83.857    0.289
  345.276   15.607   82.298    0.278
  346.096   18.931   80.739    0.270
  346.916   10.900   82.380    0.322
  347.736    7.049   84.032    0.368
  348.556    7.477   84.481    0.357
  349.377    7.931   82.520    0.346
  350.197    8.417   82.165    0.351
  351.017    9.470   85.034    0.360
  351.837    9.490   83.074    0.365
  352.657    8.645   82.719    0.353
  353.478    7.871   83.982    0.341
  354.298    8.191   86.024    0.333
  355.118    9.579   86.874    0.314
  355.938    9.230   80.497    0.314
  356.759    7.077   77.320    0.271
  357.579    6.205   76.163    0.163
  358.399  154.137   61.756    0.092
  359.219   79.142   54.565    0.103
  360.039    6.618   53.407    0.147
  360.860    6.507   77.165    0.173
  361.680    7.454   73.598    0.351
  362.500    8.543   74.448    0.339
  363.320    8.895   76.112    0.321
  364.140    8.098   76.950    0.314
  364.961    6.454   85.841    0.337
  365.781    5.659   96.752    0.365
  366.601    5.356   97.200    0.388
  367.421    5.266   97.637    0.388
  368.241    5.806   92.063    0.377
  369.062    6.405   88.496    0.371
  369.882    6.176   87.728    0.372
  370.702    6.308   93.006    0.378
  371.522    6.959   98.674    0.386
  372.343    7.669   96.713    0.391
  373.163    7.838   92.745    0.383
  373.983    7.418   91.587    0.392
  374.803   10.685   92.850    0.392
  375.623   12.240   88.882    0.342
  376.444    8.867   87.323    0.341
  377.264    6.420   90.570    0.390
  378.084    5.738   99.060    0.406
  378.904    6.089  101.114    0.414
  379.724    5.241   97.146    0.387
  380.545    4.421   94.382    0.400
  381.365    3.591   92.422    0.430
  382.185    3.031   95.680    0.452
  383.005    2.814  101.761    0.448
  383.825    3.414   97.781    0.418
  384.646    3.988   96.635    0.380
  385.466    4.743   98.288    0.371
  386.286    7.239   95.926    0.365
  387.106    9.858   92.348    0.371
  387.927    8.310   90.387    0.370
  388.747    6.751   87.222    0.363
  389.567    5.484   81.648    0.377
  390.387    5.496   86.926    0.398
  391.207    6.421   90.185    0.386
  392.028    7.501   93.042    0.360
  392.848    7.099   99.111    0.345
  393.668    6.715   99.571    0.316
  394.488    6.351   95.603    0.324
  395.308    7.708   93.229    0.339
  396.129   10.693   89.662    0.280
  396.949   13.736   86.509    0.273
  397.769   10.941   88.150    0.303
  398.589    6.803   91.409    0.312
  399.409    6.566   97.903    0.324
  400.230    6.969  100.347    0.349
  401.050    7.115   98.787    0.346
  401.870    7.408   94.820    0.341
  402.690    6.752   94.465    0.357
  403.510    6.034  100.132    0.367
  404.331    5.821  101.407    0.359
  405.151    6.418   99.435    0.361
