~VERSION INFORMATION
 VERS.                 2.0:   CWLS LOG ASCII STANDARD -VERSION 2.0
 WRAP.                  NO:   ONE LINE PER DEPTH STEP
~WELL INFORMATION BLOCK
#MNEM.UNIT           DATA                    DESCRIPTION OF MNEMONIC
#---------    -------------------            -------------------------------
# Generated from Intellog Unique Number	CC_88_90/WELL/2304
WELL.         11-14-090-09W4                 : Well_name    - WELL
LOC .         AA/11-14-090-09W4/0            : Location     - LOCATION
UWI .         AA/11-14-090-09W400            : Uwi          - UNIQUE WELL ID
ENTR.         DW                             : Entered      - ENTERED BY
SRVC.         SCHLUMBERGER                   : Scn          - SERVICE COMPANY
STRT.M        15.24                          : top_depth    - START DEPTH
STOP.M        133.74                         : bot_depth    - STOP DEPTH
STEP.M        0.25                           : increment    - STEP LENGTH
 NULL. -999.2500:NULL Value
~CURVE INFORMATION BLOCK
#MNEM UNIT       ERCB CURVE CODE    CURVE DESCRIPTION
#-----------   ------------------   ----------------------------------
DEPT.M        00 001 00 00         : DEPTH        - DEPTH
GR  .API      00 310 00 00         : GR           - GAMMA RAY
DPHI.V/V      00 890 00 00         : PHID         - DENSITY POROSITY (SANDSTONE)
NPHI.V/V      00 330 00 00         : PHIN         - NEUTRON POROSITY (SANDSTONE)
ILD .OHMM     00 120 00 00         : RESD         - DEEP RESISTIVITY (DIL)
~PARAMETER INFORMATION
#MNEM.UNIT           DATA             DESCRIPTION OF MNEMONIC
#---------         -----------     ------------------------------
GL  .M        369.113              : gl           - GROUND LEVEL ELEVATION
EREF.M        370.332              : kb           - ELEVATION OF DEPTH REFERENCE
DATM.M        370.332              : datum        - DATUM ELEVATION
TDD .M        134.112              : tdd          - TOTAL DEPTH DRILLER
RUN .         ONE                  : Run          - RUN NUMBER
ENG .         BILL                 : Engineer     - RECORDING ENGINEER
WIT .         JIM                  : Witness      - WITNESSED BY
MUD .         GEL                  : Mud_type     - MUD TYPE
MATR.         SANDSTONE            : Logunit      - NEUTRON MATRIX
TMAX.C        23.8889              : BHT          - MAXIMUM RECORDED TEMPERATURE
BHTD.M        134.112              : BHTDEP       - MAXIMUM RECORDED TEMPERATURE
MATR.         1                    : LOGUNIT      - NEUTRON MATRIX
RMT .C        25                   : MDTP         - TEMPERATURE OF MUD
NEUT.         0                    : NEUTRON      - NEUTRON TYPE
RESI.         0                    : RESIST       - RESISTIVITY TYPE
RMC .OHMM     0.25                 : RMC          - RESISTIVITY OF MUD CAKE
RMF .OHMM     0.25                 : RMF          - RESISTIVITY OF MUD FILTRATE
SUFT.C        4                    : SUFT         - SURFACE TEMPERATURE
~A  DEPTH       GR     PHID     PHIN     RESD
# ...
   58.740   75.481    0.253    0.387   10.171
   58.990   77.029    0.250    0.375    8.908
   59.240   79.783    0.247    0.377    8.335
   59.490   80.183    0.245    0.384    8.083
   59.740   78.299    0.248    0.379    7.998
   59.990   76.497    0.254    0.393    9.091
   60.240   75.662    0.257    0.385    9.124
   60.490   74.891    0.254    0.375    8.187
   60.740   74.625    0.251    0.376    7.222
   60.990   75.397    0.258    0.389    7.583
   61.240   76.327    0.276    0.436   10.084
   61.490   77.968    0.281    0.453   10.532
   61.740   74.933    0.279    0.443    8.339
   61.990   73.626    0.281    0.444    5.348
   62.240   77.919    0.286    0.463    3.603
   62.490   82.124    0.280    0.462    3.769
   62.740   85.373    0.254    0.426    4.837
   62.990   84.996    0.245    0.400    6.516
   63.240   82.234    0.248    0.393    7.823
   63.490   78.322    0.243    0.372    9.964
   63.740   75.761    0.230    0.341   12.307
   63.990   76.284    0.211    0.343   11.395
   64.240   71.705    0.170    0.343   10.450
   64.490   64.993    0.152    0.341   12.405
   64.740   63.272    0.194    0.341   16.128
   64.990   65.698    0.241    0.350   16.664
   65.240   66.744    0.240    0.378   12.820
   65.490   67.336    0.250    0.412   11.086
   65.740   68.704    0.242    0.408   10.581
   65.990   70.877    0.223    0.392    9.857
   66.240   73.085    0.228    0.384    8.912
   66.490   73.789    0.253    0.386    9.376
   66.740   72.635    0.265    0.409   11.867
   66.990   72.373    0.290    0.432   12.150
   67.240   70.424    0.325    0.465    8.181
   67.490   64.595    0.337    0.478    3.915
   67.740   59.430    0.324    0.475    2.821
   67.990   59.138    0.312    0.485    3.681
   68.240   60.016    0.307    0.486    3.832
   68.490   63.471    0.288    0.492    3.966
   68.740   71.221    0.274    0.469    4.481
   68.990   68.694    0.268    0.442    4.854
   69.240   58.345    0.257    0.442    5.130
   69.490   60.480    0.247    0.444    6.236
   69.740   61.794    0.260    0.443    7.685
   69.990   58.294    0.279    0.449    6.245
   70.240   56.805    0.286    0.454    4.897
   70.490   61.121    0.281    0.445    6.042
   70.740   66.420    0.265    0.412    8.303
   70.990   66.040    0.237    0.365    9.844
   71.240   61.889    0.234    0.344    9.089
   71.490   64.228    0.249    0.360    9.775
   71.740   69.454    0.251    0.385   11.217
   71.990   70.194    0.254    0.413    9.593
   72.240   69.560    0.276    0.458    5.695
   72.490   72.195    0.266    0.498    5.106
   72.740   70.423    0.260    0.503    5.338
   72.990   70.097    0.274    0.484    5.174
   73.240   72.483    0.281    0.459    5.117
   73.490   72.552    0.276    0.440    5.562
   73.740   72.129    0.280    0.441    6.107
   73.990   74.231    0.264    0.457    5.497
   74.240   76.012    0.271    0.472    4.991
   74.490   74.731    0.285    0.462    5.251
   74.740   71.862    0.274    0.454    5.544
   74.990   70.860    0.259    0.474    5.311
   75.240   71.651    0.269    0.467    5.134
   75.490   70.123    0.270    0.434    5.118
   75.740   68.338    0.267    0.426    5.480
   75.990   70.710    0.269    0.438    6.219
   76.240   75.823    0.265    0.444    6.747
   76.490   77.218    0.246    0.443    6.390
   76.740   74.278    0.226    0.418    5.480
   76.990   69.432    0.178    0.363    5.064
   77.240   60.689    0.125    0.318    6.205
   77.490   53.961    0.134    0.278    4.120
   77.740   55.691    0.203    0.234    6.694
   77.990   57.051    0.232    0.252   29.342
   78.240   57.799    0.278    0.285   22.121
   78.490   62.950    0.305    0.303   11.601
   78.740   61.974    0.306    0.301   13.645
   78.990   54.228    0.299    0.301   16.081
   79.240   55.278    0.273    0.325   16.079
   79.490   56.352    0.263    0.341   13.716
   79.740   57.780    0.279    0.354   11.621
   79.990   61.906    0.298    0.353   11.370
   80.240   66.615    0.310    0.329   12.964
   80.490   72.225    0.315    0.302   15.955
   80.740   81.082    0.297    0.299   17.536
   80.990   78.392    0.258    0.345   10.907
   81.240   73.984    0.243    0.351    9.647
   81.490   74.237    0.244    0.342   11.450
   81.740   76.786    0.252    0.351    9.889
   81.990   74.939    0.274    0.343   11.495
   82.240   60.514    0.273    0.362   16.787
   82.490   58.160    0.261    0.345   15.284
   82.740   61.419    0.265    0.348   12.868
   82.990   60.456    0.275    0.351   15.185
   83.240   58.261    0.273    0.314   19.314
   83.490   55.892    0.276    0.305   21.184
   83.740   54.153    0.279    0.295   17.481
   83.990   54.643    0.282    0.294   18.319
   84.240   56.444    0.276    0.316   20.544
   84.490   58.595    0.268    0.343   17.657
   84.740   60.829    0.274    0.350   13.838
   84.990   61.251    0.267    0.353   14.177
   85.240   61.095    0.245    0.354   14.390
   85.490   64.425    0.219    0.351   13.601
   85.740   64.023    0.228    0.345   13.932
   85.990   57.598    0.263    0.335   15.621
   86.240   56.577    0.258    0.320   17.041
   86.490   57.066    0.219    0.320   18.603
   86.740   65.418    0.212    0.332   16.128
   86.990   68.516    0.240    0.349   10.932
   87.240   64.466    0.252    0.361    9.454
   87.490   66.285    0.235    0.365   12.541
   87.740   68.319    0.236    0.366   12.381
   87.990   69.204    0.242    0.362   11.460
   88.240   69.314    0.252    0.349   10.452
   88.490   68.293    0.259    0.343   11.679
   88.740   66.571    0.252    0.342   14.632
   88.990   65.957    0.233    0.331   14.367
   89.240   66.794    0.224    0.335   12.621
   89.490   67.975    0.220    0.328   12.149
   89.740   67.046    0.227    0.322   12.315
   89.990   64.189    0.233    0.332   12.250
   90.240   61.112    0.232    0.347   12.220
   90.490   58.525    0.253    0.348   12.003
   90.740   61.125    0.260    0.347   12.303
   90.990   67.781    0.238    0.350   14.566
   91.240   69.860    0.201    0.358   15.060
   91.490   68.293    0.182    0.364   13.084
   91.740   72.059    0.198    0.363   12.823
   91.990   74.372    0.214    0.363   11.743
   92.240   73.994    0.223    0.362   10.726
   92.490   69.451    0.227    0.365   10.077
   92.740   67.005    0.232    0.372    9.821
   92.990   71.221    0.236    0.364   10.015
   93.240   73.559    0.235    0.337   10.144
   93.490   72.025    0.237    0.329   10.342
   93.740   67.440    0.230    0.337   10.095
   93.990   64.993    0.227    0.351    9.474
   94.240   65.995    0.240    0.357    8.672
   94.490   66.554    0.248    0.352    8.552
   94.740   67.367    0.232    0.362   10.478
   94.990   69.862    0.231    0.372    9.708
   95.240   73.309    0.235    0.382    8.743
   95.490   75.380    0.230    0.369    9.073
   95.740   77.481    0.222    0.333    9.132
   95.990   80.722    0.215    0.337    9.123
   96.240   74.342    0.205    0.360    8.965
   96.490   71.760    0.209    0.344    8.899
   96.740   73.243    0.224    0.336    8.457
   96.990   72.330    0.231    0.353    8.710
   97.240   70.215    0.223    0.343   10.127
   97.490   68.989    0.216    0.317    9.430
   97.740   70.274    0.231    0.332    8.544
   97.990   71.740    0.237    0.343    9.558
   98.240   72.453    0.234    0.335   10.509
   98.490   70.664    0.237    0.329    9.966
   98.740   64.731    0.234    0.322    9.842
   98.990   61.961    0.227    0.326    9.593
   99.240   60.315    0.233    0.318   10.234
   99.490   58.865    0.234    0.308   11.714
   99.740   56.460    0.233    0.311   12.018
   99.990   52.787    0.246    0.318   11.352
  100.240   52.300    0.257    0.318   13.273
  100.490   54.329    0.265    0.311   14.598
  100.740   56.752    0.267    0.312   15.448
  100.990   57.985    0.267    0.325   16.288
  101.240   57.433    0.267    0.334   16.561
  101.490   55.665    0.269    0.332   15.705
  101.740   54.183    0.279    0.341   13.439
  101.990   53.455    0.277    0.351   12.444
