~Version : LASO    vs 4.00 
VERS.                2.00:   CWLS Log ASCII Standard -VERSION 2.0
WRAP.                  NO:
~Well Information Block
#MNEM.UNIT       Data                        Description of Mnemonic
#----.----      -------------------------- : -----------------------------
STRT.M             1.0000:
STOP.M           202.5000:
STEP.M             0.1000:
NULL.           -999.2500:
COMP.  MOBIL OIL CANADA                    :COMPANY
WELL.  MOBIL 90 CLARKE CREEK 16-31         :WELL
FLD.   CLARKE CREEK                        :FIELD
LOC.   16-31-089-07W4                      :LOCATION
CTRY.  CANADA                              :COUNTRY
PROV.  ALBERTA                             :PROVINCE
SRVC.  BRITISH PLASTERBOARD                :SERVICE COMPANY
DATE.  22-JAN-90                           :LOG DATE
UWI.   AA/16-31-089-07W400                 :UNIQUE WELL ID
~Parameter Information Block
#MNEM.UNIT       Data                        Description of Mnemonic
#----.----      -------------------------- : -----------------------------
RUN .                   1                 : Run Number
GL  .M           453.6000                 : Ground Level Elevation
DREF.                  GD                 : Depth Reference
EREF.M           453.6000                 : Elevation of Depth Reference
TDL .M           204.5000                 : Total Depth Logger
TDD .M           204.5000                 : Total Depth Driller
~Curve Information Block
#MNEM.UNIT        API CODE    Curve Description
#---------    ------------    -------------------------------------------
DEPT.M                    :   DEPTH
CALI.mm                   :   CALI
DPHI.V/V                  :   DPHI
DT  .US/M     60 520  0  1:   2 SONIC INTERVAL TRANSIT TIME (COMPENSATED)
GR  .API                  :   GR
ILD .Ohmm                 :   ILD
NPHI.V/V                  :   NPHI
RHOB.K/M3     45 350  1  1:   3 BULK DENSITY
~A  Depth           CALI        DPHI          DT          GR         ILD        NPHI        RHOB
# ...
117.2000        148.1355      0.3449    533.4000    110.4119     14.3945      0.4979    977.2000
117.3000        146.6378      0.3460    519.9200    111.1598     14.3634      0.4414    963.5000
117.4000        146.1364      0.3534    522.2400    110.7804     14.3877      0.4277    956.9000
117.5000        146.4550      0.3592    524.9200    108.3422     14.4131      0.4208    945.9000
117.6000        148.7747      0.3486    510.4000    104.3198     14.6709      0.4204    987.7000
117.7000        151.8373      0.3381    509.8400    103.0973     15.1901      0.4295   1029.5000
117.8000        154.9386      0.3216    488.9600    104.0774     15.3361      0.4180   1106.2000
117.9000        156.7118      0.3022    465.0000    105.7464     15.6369      0.4050   1194.0000
118.0000        157.1204      0.2992    465.1200    105.5366     15.4312      0.4260   1238.5000
118.1000        156.3996      0.3063    465.3600    110.7420     14.4976      0.4524   1251.9000
118.2000        156.7465      0.3152    474.4800    112.6922     13.0555      0.4644   1168.3000
118.3000        157.4977      0.3207    489.4400    109.8176     11.1715      0.4640   1130.0000
118.4000        157.9614      0.3234    504.4000    111.4367      9.5481      0.4536   1089.7000
118.5000        157.6982      0.3230    516.7600    108.8605      7.5373      0.4421   1101.4000
118.6000        157.7235      0.3187    523.0000    104.3722      7.3366      0.4867   1124.7000
118.7000        158.4660      0.3170    529.2400    104.6344      7.4130      0.5244   1202.5000
118.8000        158.2416      0.3118    533.4000    105.7254      7.6777      0.5564   1160.4000
118.9000        157.4414      0.3036    536.7200    106.9066      8.0964      0.5745   1118.8000
119.0000        156.6757      0.2889    529.4000    108.3929      8.6883      0.5750   1107.1000
119.1000        156.3862      0.2789    529.0000    109.3745      9.3494      0.5740   1146.7000
119.2000        155.9681      0.2713    535.4800    110.2407     10.0700      0.5728   1180.4000
119.3000        156.2753      0.2682    521.4400    108.3779     11.4019      0.5726   1247.1001
119.4000        156.3659      0.2680    510.8400    108.1154     12.3596      0.5603   1243.1001
119.5000        157.1610      0.2647    502.8800    108.1023     12.9256      0.5067   1236.7000
119.6000        157.2265      0.2693    499.3600    107.5873     13.5708      0.4875   1245.1001
119.7000        157.2696      0.2762    494.2000    106.5442     13.8071      0.4764   1213.6001
119.8000        156.9747      0.2820    487.5200    104.9594     13.8994      0.4927   1208.5000
119.9000        156.9338      0.2813    481.0000    103.4566     14.3768      0.4951   1204.3000
120.0000        156.9651      0.2789    475.7600    102.5792     15.0616      0.4813   1236.0000
120.1000        156.2844      0.2705    470.7200    100.2116     15.0900      0.4539   1238.5000
120.2000        155.8973      0.2626    466.2000     98.9715     15.3765      0.4366   1236.3000
120.3000        154.8945      0.2588    463.9600     97.3667     15.9398      0.4393   1259.6001
120.4000        153.4931      0.2574    457.5600     94.1159     16.2365      0.4496   1306.4000
120.5000        152.0242      0.2561    447.9600     91.2854     16.3963      0.4484   1311.9000
120.6000        151.0985      0.2538    451.6400     88.9916     16.7209      0.4242   1269.2000
120.7000        150.1331      0.2427    455.0400     86.7426     17.2306      0.4091   1265.5000
120.8000        148.7510      0.2034    431.6000     82.7078     18.5867      0.3969   1289.1001
120.9000        146.8791      0.1469    397.5600     85.5478     23.0987      0.3691   1509.0000
121.0000        144.7862      0.1049    356.4400     88.4680     30.7284      0.3512   1657.0000
121.1000        144.7996      0.1089    329.3200     91.9109     40.5143      0.3741   1704.6000
121.2000        145.4826      0.1443    353.8400     94.4138     40.6070      0.3932   1651.8000
121.3000        146.4511      0.2236    388.8400     95.6040     33.8688      0.4090   1366.1001
121.4000        147.6276      0.2530    423.8400     93.9819     27.5734      0.4222   1190.3000
121.5000        150.2358      0.2653    458.8400     90.7154     23.6327      0.4563   1222.4000
121.6000        152.9431      0.2729    483.1200     92.9369     20.1980      0.4687   1184.9000
121.7000        154.6809      0.2739    499.8800     92.8553     18.3893      0.4794   1189.3000
121.8000        157.0730      0.2742    499.5600     94.5957     17.8911      0.4830   1220.7000
121.9000        157.9157      0.2762    494.2800     98.0406     17.8012      0.4838   1187.8000
122.0000        156.5950      0.2802    486.9600    101.5385     17.5216      0.4683   1158.4000
122.1000        155.1210      0.2819    482.7600    104.0231     18.1176      0.4604   1148.3000
122.2000        155.8766      0.2846    478.6400    104.9365     18.5108      0.4512   1196.1001
122.3000        156.8577      0.2921    486.7200    105.1931     18.6028      0.4479   1183.2000
122.4000        155.4682      0.3070    486.6800    103.5975     18.9903      0.4477   1157.3000
122.5000        153.2903      0.3151    486.6400    100.8895     19.0413      0.4459   1181.1001
122.6000        152.6941      0.3254    491.6000     97.5935     18.4685      0.4483   1143.1000
122.7000        152.5894      0.3369    498.6800     96.9192     18.4166      0.4525   1054.9000
122.8000        150.3595      0.3494    499.7600    101.5251     18.4300      0.4617    949.2000
122.9000        149.1744      0.3485    505.6400    107.2739     17.9503      0.4732    902.2000
123.0000        148.3927      0.3457    503.3600    114.1317     17.6172      0.4859    964.9000
123.1000        148.3026      0.3366    481.9200    120.0879     17.8034      0.5017    924.9000
123.2000        149.0876      0.3219    482.0800    121.9941     17.5305      0.5139    907.1000
123.3000        149.5144      0.3138    488.8400    120.6790     16.6453      0.4853   1069.2000
123.4000        150.2836      0.3096    479.4400    117.0892     16.6225      0.4607   1095.5000
123.5000        150.6648      0.3060    492.2400    115.7337     16.9170      0.4466    991.5000
123.6000        151.1479      0.3057    480.2800    115.5789     17.2494      0.4286   1051.4000
123.7000        151.2904      0.3003    474.2800    115.5810     17.3502      0.4405   1036.1000
123.8000        152.0603      0.2985    490.3200    113.3946     17.3827      0.4436   1081.0000
123.9000        152.1581      0.2968    480.4000    111.1565     16.8469      0.4589   1121.8000
124.0000        150.8712      0.3023    468.0000    109.9223     15.7890      0.4845   1150.1000
124.1000        150.6198      0.3230    466.0400    108.3214     14.7426      0.5091   1176.3000
124.2000        151.0293      0.3438    465.4800    105.0875     13.2832      0.5183   1049.7000
124.3000        150.7231      0.3608    485.4000    100.6249     11.3974      0.5207   1068.2000
124.4000        150.7271      0.3765    510.7600     98.1679      9.7454      0.5425   1074.3000
124.5000        151.0770      0.3872    536.0800     98.3604      8.9442      0.5636    922.5000
124.6000        151.9709      0.3818    539.2000     97.2528      8.8934      0.6000    819.2000
124.7000        153.5220      0.3819    544.1600     96.1546      9.0507      0.6000    872.7000
124.8000        153.6585      0.3807    565.6800     97.1957      9.2288      0.6000    916.9000
124.9000        153.3632      0.3794    587.2000     96.8448      9.1069      0.6000    963.7000
125.0000        153.0216      0.3784    589.3200     98.2953      8.4994      0.6000    956.2000
125.1000        153.3738      0.3898    547.8000     99.7875      8.4735      0.6000    947.9000
125.2000        153.3116      0.3869    541.3200    101.4142      8.3499      0.6000    942.9000
125.3000        152.9394      0.3839    535.8000    101.6308      8.0946      0.6000   1055.3000
125.4000        152.5506      0.3810    530.7200    103.4764      7.9001      0.6000   1114.7000
