~VERSION INFORMATION
 VERS.                 2.0:   CWLS LOG ASCII STANDARD -VERSION 2.0
 WRAP.                  NO:   ONE LINE PER DEPTH STEP
~WELL INFORMATION BLOCK
#MNEM.UNIT           DATA                    DESCRIPTION OF MNEMONIC
#---------    -------------------            -------------------------------
# Generated from Intellog Unique Number	CC_84_87/WELL/2298
NULL.         -999.25                        : NULL_VALUE
WELL.         PEX PECJ HANGST OV             : Well_name    - WELL              
LOC .         10-08-087-09W4                 : Location     - LOCATION          
UWI .         AA/10-08-087-09W400            : Uwi          - UNIQUE WELL ID    
ENTR.         JHS                            : Entered      - ENTERED BY        
SRVC.         DRESSER ATLAS                  : Scn          - SERVICE COMPANY   
DATE.         18 JAN 81                      : Date         - LOG DATE
STRT.M        68                             : top_depth    - START DEPTH       
STOP.M        175.101                        : bot_depth    - STOP DEPTH        
STEP.M        0.3                            : increment    - STEP LENGTH       
~CURVE INFORMATION BLOCK
#MNEM UNIT       ERCB CURVE CODE    CURVE DESCRIPTION
#-----------   ------------------   ----------------------------------
DEPT.M        00 001 00 00         : DEPTH        - DEPTH                       
DPHI.V/V      00 890 00 00         : PHID         - DENSITY POROSITY (LIMESTONE)
NPHI.V/V      00 330 00 00         : PHIN         - NEUTRON POROSITY (LIMESTONE)
GR  .API      00 310 00 00         : GR           - GAMMA RAY                   
ILD .OHMM     00 120 00 00         : RESD         - DEEP RESISTIVITY (DIL)      
~PARAMETER INFORMATION       
#MNEM.UNIT           DATA             DESCRIPTION OF MNEMONIC
#---------         -----------     ------------------------------
GL  .M        432.1                : gl           - GROUND LEVEL ELEVATION      
EREF.M        437.2                : kb           - ELEVATION OF DEPTH REFERENCE
DATM.M        437.2                : datum        - DATUM ELEVATION             
TDD .M        185                  : tdd          - TOTAL DEPTH DRILLER         
RUN .         ONE                  : Run          - RUN NUMBER                  
ENG .         BILL                 : Engineer     - RECORDING ENGINEER          
WIT .         JIM                  : Witness      - WITNESSED BY                
MUD .         GEL                  : Mud_type     - MUD TYPE                    
MATR.         LIMESTONE            : Logunit      - NEUTRON MATRIX              
TMAX.C        60                   : BHT          - MAXIMUM RECORDED TEMPERATURE
BHTD.M        185                  : BHTDEP       - MAXIMUM RECORDED TEMPERATURE
MATR.         1                    : LOGUNIT      - NEUTRON MATRIX              
RMT .C        25                   : MDTP         - TEMPERATURE OF MUD          
NEUT.         1                    : NEUTRON      - NEUTRON TYPE                
RESI.         0                    : RESIST       - RESISTIVITY TYPE            
RMC .OHMM     0.25                 : RMC          - RESISTIVITY OF MUD CAKE     
RMF .OHMM     0.25                 : RMF          - RESISTIVITY OF MUD FILTRATE 
SUFT.C        15                   : SUFT         - SURFACE TEMPERATURE         
~A  DEPTH     PHID     PHIN       GR     RESD
   68.000    0.352    0.418   73.750    9.324
   68.300    0.382    0.448   85.632    7.281
   68.600    0.295    0.488   93.140    7.148
   68.900    0.301    0.470   92.521    6.887
   69.200    0.305    0.531   90.654    6.385
   69.500    0.302    0.499   93.160    5.920
   69.800    0.324    0.457   92.542    5.703
   70.100    0.371    0.479   93.799    5.288
   70.400    0.403    0.500   97.556    5.093
   70.700    0.377    0.520   96.314    4.907
   71.000    0.315    0.483   94.446    5.005
   71.300    0.323    0.454   99.452    6.062
   71.600    0.337    0.467   92.584    7.202
   71.900    0.330    0.411   81.341    8.082
   72.200    0.343    0.426   79.473    8.403
   72.500    0.388    0.434   85.730    7.941
   72.800    0.408    0.452   76.362    8.100
   73.100    0.305    0.442   78.244   10.192
   73.400    0.299    0.408   69.501   10.598
   73.700    0.206    0.347   68.259   11.230
   74.000    0.308    0.396   77.640   12.363
   74.300    0.337    0.435   83.272   14.139
   74.600    0.236    0.407   72.029   14.702
   74.900    0.231    0.362   66.411   13.894
   75.200    0.318    0.378   77.043   13.129
   75.500    0.322    0.371   78.925   12.892
   75.800    0.323    0.337   73.933   14.192
   76.100    0.087    0.259   69.564   17.189
   76.400    0.102    0.242   60.821   17.870
   76.700    0.240    0.302   58.953   14.498
   77.000    0.313    0.435   69.586   12.697
   77.300    0.347    0.466   73.967   13.976
   77.600    0.392    0.491   80.225    7.595
   77.900    0.502    0.550   84.607    6.779
   78.200    0.260    0.453   87.737    6.530
   78.500    0.215    0.463   87.120    6.789
   78.800    0.136    0.438   75.252    7.618
   79.100    0.240    0.468   75.884    7.770
   79.400    0.247    0.482   87.141    7.927
   79.700    0.271    0.465   87.147    7.933
   80.000    0.313    0.463   84.029    7.355
   80.300    0.348    0.481   85.912    6.690
   80.600    0.446    0.532   86.544    6.086
   80.900    0.490    0.550   80.926    5.753
   81.200    0.383    0.509   85.308    5.868
   81.500    0.297    0.474   92.815    5.872
   81.800    0.293    0.451   95.947    5.989
   82.100    0.283    0.456   99.079    6.109
   82.400    0.291    0.459   95.335    6.351
   82.700    0.304    0.428   88.467    6.861
   83.000    0.307    0.435   91.599    7.553
   83.300    0.320    0.454   88.483    8.157
   83.600    0.308    0.432   80.364    8.981
   83.900    0.228    0.425   68.495    9.888
   84.200    0.258    0.418   66.002   10.280
   84.500    0.297    0.422   77.260   10.093
   84.800    0.307    0.406   87.267    9.539
   85.100    0.281    0.432   90.399    8.844
   85.400    0.274    0.431   92.906    8.201
   85.700    0.261    0.420   99.787    7.604
   86.000    0.259    0.414   97.919    7.186
   86.300    0.288    0.437  100.426    6.537
   86.600    0.324    0.466  100.433    5.947
   86.900    0.369    0.482   99.815    5.207
   87.200    0.371    0.507   97.948    4.736
   87.500    0.308    0.491  101.079    4.309
   87.800    0.334    0.493  103.586    3.846
   88.100    0.351    0.497   97.343    3.498
   88.400    0.411    0.514   94.226    3.244
   88.700    0.382    0.538   99.857    3.246
   89.000    0.376    0.504   96.114    3.440
   89.300    0.397    0.512   94.246    4.087
   89.600    0.303    0.468   91.753    4.857
   89.900    0.364    0.470   92.386    5.555
   90.200    0.320    0.476  106.768    5.887
   90.500    0.339    0.483   98.650    5.891
   90.800    0.333    0.461   98.031    5.895
   91.100    0.301    0.450   99.289    6.129
   91.400    0.295    0.438  102.420    6.748
   91.700    0.269    0.411   99.303    7.288
   92.000    0.278    0.425  103.684    7.725
   92.300    0.289    0.420  103.691    7.878
   92.600    0.293    0.416  106.823    7.885
   92.900    0.274    0.410  109.330    7.890
   93.200    0.253    0.386  109.337    8.203
   93.500    0.256    0.369  104.969    8.860
   93.800    0.248    0.386  105.601   10.134
   94.100    0.154    0.390   96.858   10.947
   94.400    0.205    0.368   95.615   11.166
   94.700    0.245    0.407  105.622   10.755
   95.000    0.254    0.393  112.504   10.361
   95.300    0.256    0.415  107.511    9.793
   95.600    0.263    0.421   97.518    9.255
   95.900    0.292    0.423  106.274    8.913
   96.200    0.342    0.423   96.907    8.423
   96.500    0.335    0.442   96.289    7.811
   96.800    0.249    0.439  100.046    7.243
   97.100    0.253    0.426  103.803    7.247
   97.400    0.261    0.422  106.310    7.680
   97.700    0.272    0.416  109.442    8.784
   98.000    0.275    0.416  105.699    9.671
   98.300    0.274    0.402   98.206   10.249
   98.600    0.266    0.383   93.213   10.454
   98.900    0.274    0.409   95.720   10.264
   99.200    0.291    0.421   95.102    9.888
   99.500    0.295    0.411   97.609    9.168
   99.800    0.262    0.414   91.990    8.501
  100.100    0.267    0.418   91.373    8.187
  100.400    0.256    0.427   95.130    8.040
  100.700    0.257    0.409   97.636    8.044
  101.000    0.250    0.415  100.768    8.206
  101.300    0.257    0.418  101.402    8.214
  101.600    0.274    0.438   98.908    8.064
  101.900    0.270    0.449   95.789    7.917
  102.200    0.281    0.443   98.922    8.075
  102.500    0.276    0.434   92.054    8.396
  102.800    0.281    0.428   86.436    8.401
  103.100    0.305    0.413   88.943    7.940
  103.400    0.333    0.423   92.701    6.952
  103.700    0.407    0.490   97.707    5.030
  104.000    0.440    0.524   98.339    4.240
  104.300    0.473    0.507   99.596    3.857
  104.600    0.480    0.501   95.227    3.860
  104.900    0.356    0.476   96.484    4.586
  105.200    0.283    0.441  102.742    6.471
  105.500    0.283    0.436   99.623    7.543
  105.800    0.319    0.423   92.755    8.628
  106.100    0.357    0.458   84.012    9.145
  106.400    0.322    0.435   85.894    9.152
  106.700    0.354    0.441   80.276    8.815
  107.000    0.378    0.470   80.908    8.653
  107.300    0.349    0.474   83.416    8.498
  107.600    0.281    0.423   84.047    8.667
  107.900    0.143    0.429   85.929   10.103
  108.200    0.211    0.373   82.811   10.707
  108.500    0.313    0.399   90.318   11.345
  108.800    0.294    0.421   94.076   11.139
  109.100    0.231    0.410   88.457    9.942
  109.400    0.281    0.428   85.964    7.617
  109.700    0.350    0.457   93.471    5.106
  110.000    0.414    0.503   84.728    3.987
  110.300    0.482    0.442   78.486    3.425
  110.600    0.506    0.506   79.743    3.116
  110.900    0.434    0.451   79.124    3.497
  111.200    0.447    0.481   74.132    4.400
  111.500    0.531    0.533   73.514    5.329
  111.800    0.497    0.498   72.271    5.980
  112.100    0.496    0.503   76.028    6.460
  112.400    0.310    0.491   79.784    6.844
  112.700    0.295    0.442   78.541    7.680
  113.000    0.325    0.432   81.048    7.686
  113.300    0.460    0.436   77.930    7.126
  113.600    0.471    0.501   83.562    6.006
  113.900    0.227    0.472   84.194    4.781
  114.200    0.297    0.480   87.951    4.187
  114.500    0.305    0.475   99.833    3.808
  114.800    0.345    0.476  102.340    3.598
  115.100    0.353    0.491   97.972    3.401
  115.400    0.336    0.473   95.479    3.340
  115.700    0.377    0.501   94.861    3.406
  116.000    0.386    0.504   96.744    3.541
  116.300    0.320    0.468  100.499    3.974
  116.600    0.264    0.477   98.632    4.132
  116.900    0.277    0.465   91.764    4.295
  117.201    0.306    0.442   98.021    4.552
  117.501    0.300    0.465   94.904    4.824
  117.801    0.344    0.487   89.285    4.921
  118.101    0.399    0.486   90.542    4.831
  118.401    0.359    0.502   91.174    4.834
  118.701    0.374    0.489   93.056    4.569
  119.001    0.390    0.491   89.312    4.487
  119.301    0.387    0.492   94.321    5.034
  119.601    0.372    0.477   96.202    5.981
  119.901    0.346    0.461   86.208    7.819
