~VERSION INFORMATION
 VERS.                 2.0:   CWLS LOG ASCII STANDARD -VERSION 2.0
 WRAP.                  NO:   ONE LINE PER DEPTH STEP
~WELL INFORMATION BLOCK
#MNEM.UNIT           DATA                    DESCRIPTION OF MNEMONIC
#---------    -------------------            -------------------------------
# Generated from Intellog Unique Number	CC_84_87/WELL/2329
NULL.         -999.25                        : NULL_VALUE
WELL.         SUN CHEECHAM                   : Well_name    - WELL              
LOC .         11-17-084-07W4                 : Location     - LOCATION          
UWI .         AA/11-17-084-07W4/0            : Uwi          - UNIQUE WELL ID    
ENTR.         RJA                            : Entered      - ENTERED BY        
SRVC.         SCHLUMBERGER                   : Scn          - SERVICE COMPANY   
DATE.         02 FEB 80                      : Date         - LOG DATE
STRT.M        215                            : top_depth    - START DEPTH       
STOP.M        478.091                        : bot_depth    - STOP DEPTH        
STEP.M        0.3                            : increment    - STEP LENGTH       
~CURVE INFORMATION BLOCK
#MNEM UNIT       ERCB CURVE CODE    CURVE DESCRIPTION
#-----------   ------------------   ----------------------------------
DEPT.M        00 001 00 00         : DEPTH        - DEPTH                       
DPHI.V/V      00 890 00 00         : PHID         - DENSITY POROSITY (LIMESTONE)
NPHI.V/V      00 330 00 00         : PHIN         - NEUTRON POROSITY (LIMESTONE)
GR  .API      00 310 00 00         : GR           - GAMMA RAY                   
ILD .OHMM     00 120 00 00         : RESD         - DEEP RESISTIVITY (DIL)      
~PARAMETER INFORMATION       
#MNEM.UNIT           DATA             DESCRIPTION OF MNEMONIC
#---------         -----------     ------------------------------
GL  .M        679.4                : gl           - GROUND LEVEL ELEVATION      
EREF.M        682.4                : kb           - ELEVATION OF DEPTH REFERENCE
DATM.M        682.4                : datum        - DATUM ELEVATION             
TDD .M        482                  : tdd          - TOTAL DEPTH DRILLER         
RUN .         ONE                  : Run          - RUN NUMBER                  
ENG .         BILL                 : Engineer     - RECORDING ENGINEER          
WIT .         JIM                  : Witness      - WITNESSED BY                
MUD .         GEL                  : Mud_type     - MUD TYPE                    
MATR.         LIMESTONE            : Logunit      - NEUTRON MATRIX              
TMAX.C        43                   : BHT          - MAXIMUM RECORDED TEMPERATURE
BHTD.M        482                  : BHTDEP       - MAXIMUM RECORDED TEMPERATURE
MATR.         1                    : LOGUNIT      - NEUTRON MATRIX              
RMT .C        25                   : MDTP         - TEMPERATURE OF MUD          
NEUT.         1                    : NEUTRON      - NEUTRON TYPE                
RESI.         0                    : RESIST       - RESISTIVITY TYPE            
RMC .OHMM     0.25                 : RMC          - RESISTIVITY OF MUD CAKE     
RMF .OHMM     0.25                 : RMF          - RESISTIVITY OF MUD FILTRATE 
SUFT.C        4                    : SUFT         - SURFACE TEMPERATURE         
~A  DEPTH     PHID     PHIN       GR     RESD
# ...
  423.794    0.318    0.360   55.303   38.440
  424.094    0.344    0.355   44.325   48.021
  424.394    0.326    0.351   43.103   44.578
  424.694    0.320    0.372   48.588   31.330
  424.994    0.303    0.368   54.684   22.851
  425.294    0.281    0.366   71.144   16.666
  425.594    0.237    0.376   79.069   14.366
  425.893    0.211    0.351   83.945   12.154
  426.193    0.244    0.349   83.942   12.612
  426.493    0.263    0.366   74.793   14.628
  426.793    0.273    0.383   65.645   18.274
  427.093    0.276    0.394   62.594   18.614
  427.393    0.273    0.379   71.128   16.344
  427.693    0.291    0.367   81.491   14.088
  427.993    0.263    0.349   83.928   13.323
  428.293    0.263    0.363   84.536   14.616
  428.593    0.298    0.392   71.728   18.948
  428.893    0.310    0.409   66.849   22.808
  429.193    0.298    0.402   70.504   24.563
  429.493    0.281    0.385   73.551   25.020
  429.793    0.292    0.375   72.329   24.555
  430.093    0.298    0.387   69.278   27.957
  430.393    0.311    0.413   68.056   30.672
  430.693    0.325    0.447   77.810   38.316
  430.993    0.313    0.439   78.417   40.503
  431.293    0.322    0.427   80.854   42.816
  431.593    0.338    0.409   86.340   45.260
  431.893    0.346    0.404   96.703   39.742
  432.193    0.327    0.406  104.017   20.756
  432.493    0.290    0.387  105.844   11.043
  432.793    0.247    0.378  111.330    7.761
  433.093    0.184    0.387  112.547    6.942
  433.393    0.192    0.403  108.886    6.565
  433.693    0.193    0.424  101.567    6.564
  433.993    0.206    0.432   95.467    6.564
  434.293    0.175    0.436  100.342    6.811
  434.593    0.188    0.444  106.438    6.810
  434.893    0.203    0.440  105.825    6.937
  435.193    0.170    0.443  103.994    7.065
  435.493    0.171    0.446  102.772    7.197
  435.793    0.155    0.390  101.551    7.196
  436.093    0.163    0.413  105.817    7.195
  436.393    0.165    0.389  100.326    7.193
  436.693    0.176    0.386   96.666    7.193
  436.993    0.171    0.402  100.931    7.059
  437.293    0.177    0.418   99.099    7.058
  437.593    0.187    0.410   97.878    7.058
  437.893    0.177    0.417  103.973    6.927
  438.193    0.186    0.420  100.921    6.799
  438.493    0.202    0.413   98.480    6.925
  438.793    0.188    0.402  102.137    7.053
  439.093    0.185    0.415  105.183    6.923
  439.393    0.197    0.423  110.058    6.669
  439.693    0.206    0.411  112.496    6.546
  439.993    0.209    0.415  108.834    6.668
  440.293    0.215    0.421  102.735    6.792
  440.593    0.217    0.402  100.904    7.048
  440.893    0.197    0.386  106.389    6.917
  441.193    0.185    0.390  111.874    6.664
  441.493    0.161    0.405  110.042    6.186
  441.793    0.171    0.428  108.821    5.960
  442.093    0.186    0.443  111.257    6.071
  442.393    0.169    0.449  111.865    6.184
  442.693    0.162    0.427  110.033    6.299
  442.993    0.187    0.444  106.981    6.416
  443.293    0.176    0.451  105.760    6.297
  443.593    0.188    0.435  103.929    6.414
  443.893    0.200    0.423  100.877    6.533
  444.193    0.210    0.419  101.486    6.532
  444.493    0.179    0.429   99.043    6.654
  444.793    0.210    0.434   95.383    6.904
  445.093    0.222    0.410   89.893    7.716
  445.393    0.228    0.391   81.964    8.007
  445.693    0.239    0.393   76.474    8.464
  445.993    0.247    0.396   80.130    8.463
  446.293    0.237    0.384   86.225    8.003
  446.593    0.223    0.386   98.418    7.569
  446.893    0.205    0.379  102.074    6.897
  447.193    0.200    0.379  103.291    6.403
  447.493    0.206    0.402  106.947    6.402
  447.793    0.199    0.410  104.506    6.401
  448.093    0.206    0.394  103.284    6.401
  448.393    0.182    0.408  113.038    6.399
  448.693    0.191    0.416  114.255    6.281
  448.993    0.187    0.431  111.204    6.165
  449.293    0.196    0.440  106.323    6.050
  449.593    0.203    0.432  105.102    6.050
  449.893    0.234    0.435   99.001    5.937
  450.193    0.217    0.429   94.731    5.937
  450.492    0.246    0.406   84.973    6.160
  450.792    0.246    0.418   89.849    6.758
  451.092    0.199    0.406  100.822    7.278
  451.392    0.182    0.394  103.259    7.551
  451.692    0.229    0.398   94.719    7.412
  451.992    0.203    0.390   94.717    7.141
  452.292    0.206    0.391   96.545    6.880
  452.592    0.233    0.404   90.445    6.628
  452.892    0.210    0.379   92.272    6.752
  453.192    0.223    0.400   98.976    7.137
  453.492    0.247    0.420   98.364    6.876
  453.792    0.226    0.393   96.533    6.749
  454.092    0.229    0.393   92.872    6.501
  454.392    0.238    0.397   89.821    6.623
  454.692    0.222    0.398   85.550    6.746
  454.992    0.227    0.392   83.109    6.621
  455.292    0.231    0.391   89.204    6.620
  455.592    0.205    0.375   91.641    6.869
  455.892    0.210    0.373   87.980    7.536
  456.192    0.225    0.369   85.539    8.268
  456.492    0.244    0.391   84.317    8.740
  456.792    0.275    0.388   72.120    9.069
  457.092    0.291    0.361   79.434    8.901
  457.392    0.231    0.355   92.847    9.066
  457.692    0.220    0.387   99.552   10.322
  457.992    0.257    0.415   97.110   14.148
  458.292    0.287    0.406   86.132   18.006
  458.592    0.270    0.416   76.374   22.493
  458.892    0.286    0.414   59.299   22.075
  459.192    0.308    0.389   44.053   21.269
  459.492    0.307    0.401   45.270   20.491
  459.792    0.304    0.404   52.585   20.112
  460.092    0.327    0.395   60.509   22.898
  460.392    0.286    0.415   56.848   28.078
  460.692    0.319    0.440   50.139   30.805
  460.992    0.345    0.422   47.697   29.677
  461.292    0.353    0.427   48.305   29.129
  461.592    0.334    0.411   47.693   26.543
  461.892    0.303    0.383   48.300   23.744
  462.192    0.311    0.379   48.298   18.309
  462.492    0.308    0.374   69.636   16.997
  462.792    0.255    0.370   77.561   16.075
  463.092    0.243    0.383   70.851   16.072
  463.392    0.289    0.409   56.825   15.775
  463.692    0.293    0.383   67.187   13.851
  463.992    0.198    0.339   86.088   11.085
  464.292    0.147    0.346   97.671    9.037
  464.592    0.176    0.369  107.424    8.084
  464.892    0.164    0.383  109.252    7.367
  465.192    0.200    0.395  109.249    6.838
  465.492    0.155    0.401  109.856    6.838
  465.792    0.177    0.393  106.805    7.095
  466.092    0.190    0.364   97.047    7.362
  466.392    0.215    0.370   98.873    7.361
  466.692    0.192    0.385   98.871    7.360
  466.992    0.187    0.397   95.210    7.091
  467.292    0.194    0.393   97.038    7.222
  467.592    0.193    0.368  101.913    7.357
  467.892    0.180    0.374  101.911    7.356
  468.192    0.194    0.395   93.372    7.633
  468.492    0.200    0.360   95.199    7.632
  468.792    0.209    0.376   98.856    7.490
  469.092    0.185    0.392   97.634    7.217
  469.392    0.231    0.389   98.851    6.576
  469.692    0.199    0.384   98.239    6.219
  469.992    0.199    0.409   84.212    5.667
  470.292    0.222    0.421   65.308    5.261
  470.592    0.319    0.442   51.891    4.976
  470.892    0.273    0.372   72.620    4.883
  471.192    0.221    0.341   86.032    4.883
  471.492    0.193    0.348   77.494    5.258
  471.792    0.150    0.247   96.393    6.213
  472.092    0.173    0.312  107.366    6.944
  472.392    0.182    0.329  111.632    7.341
  472.692    0.157    0.323  112.849    7.905
  472.992    0.113    0.298  112.238    8.356
  473.292    0.112    0.271  104.918    8.998
  473.592    0.126    0.300  103.086    9.338
  473.892    0.109    0.322  102.474    9.870
  474.192    0.127    0.310   99.424   10.243
  474.492    0.110    0.302  102.470   10.433
  474.792    0.088    0.311  104.297   10.239
  475.091    0.094    0.342   96.368   10.430
  475.391    0.092    0.378   81.732   11.025
  475.691    0.000    0.399   87.217   12.553
