~VERSION INFORMATION
 VERS.                 2.0:   CWLS LOG ASCII STANDARD -VERSION 2.0
 WRAP.                  NO:   ONE LINE PER DEPTH STEP
~WELL INFORMATION BLOCK
#MNEM.UNIT           DATA                    DESCRIPTION OF MNEMONIC
#---------    -------------------            -------------------------------
# Generated from Intellog Unique Number	CN_94_101/WELL/5053
WELL.         16-03-098-07W4                 : Well_name    - WELL
LOC .         AA/16-03-098-07W4/0            : Location     - LOCATION
UWI .         AA/16-03-098-07W400            : Uwi          - UNIQUE WELL ID
ENTR.         TIM                            : Entered      - ENTERED BY
SRVC.         SCHLUMBERGER                   : Scn          - SERVICE COMPANY
DATE.         08/13/92                       : Date         - LOG DATE
STRT.M        0                              : top_depth    - START DEPTH
STOP.M        80                             : bot_depth    - STOP DEPTH
STEP.M        0.25                           : increment    - STEP LENGTH
 NULL. -999.2500:NULL Value
~CURVE INFORMATION BLOCK
#MNEM UNIT       ERCB CURVE CODE    CURVE DESCRIPTION
#-----------   ------------------   ----------------------------------
DEPT.M        00 001 00 00         : DEPTH        - DEPTH
GR  .API      00 310 00 00         : GR           - GAMMA RAY
NPHI.V/V      00 330 00 00         : PHIN         - NEUTRON POROSITY (SANDSTONE)
ILD .OHMM     00 120 00 00         : RESD         - DEEP RESISTIVITY (DIL)
~PARAMETER INFORMATION
#MNEM.UNIT           DATA             DESCRIPTION OF MNEMONIC
#---------         -----------     ------------------------------
GL  .M        315                  : gl           - GROUND LEVEL ELEVATION
EREF.M        315                  : kb           - ELEVATION OF DEPTH REFERENCE
DATM.M        315                  : datum        - DATUM ELEVATION
TDD .M        86                   : tdd          - TOTAL DEPTH DRILLER
RUN .         ONE                  : Run          - RUN NUMBER
ENG .         BILL                 : Engineer     - RECORDING ENGINEER
WIT .         JIM                  : Witness      - WITNESSED BY
MUD .         GEL                  : Mud_type     - MUD TYPE
MATR.         SANDSTONE            : Logunit      - NEUTRON MATRIX
TMAX.C        8                    : BHT          - MAXIMUM RECORDED TEMPERATURE
BHTD.M        80                   : BHTDEP       - MAXIMUM RECORDED TEMPERATURE
RMT .C        10                   : MDTP         - TEMPERATURE OF MUD
MUDD.KG/M     1010                 : MWT          - MUD DENSITY
NEUT.         1                    : NEUTRON      - NEUTRON TYPE
RESI.         0                    : RESIST       - RESISTIVITY TYPE
RM  .OHMM     6                    : RM           - RESISTIVITY OF MUD
RMC .OHMM     6                    : RMC          - RESISTIVITY OF MUD CAKE
RMF .OHMM     6                    : RMF          - RESISTIVITY OF MUD FILTRATE
SUFT.C        4                    : SUFT         - SURFACE TEMPERATURE
~A  DEPTH       GR     PHIN     RESD
    0.000   81.018    0.395    0.000
    0.250   65.040    0.341    0.000
    0.500   53.358    0.510    0.000
    0.750   30.012    0.565    0.000
    1.000   22.627    0.567    0.000
    1.250   25.675    0.575    0.000
    1.500   32.404    0.567    0.000
    1.750   35.456    0.560    0.000
    2.000   39.116    0.559    0.000
    2.250   42.167    0.562    0.000
    2.500   42.147    0.557    0.000
    2.750   38.442    0.550    0.000
    3.000   32.282    0.539    0.000
    3.250   34.719    0.542    0.000
    3.500   43.289    0.532    0.000
    3.750   54.320    0.532    0.000
    4.000   55.527    0.537    0.000
    4.250   52.438    0.529    0.000
    4.500   58.556    0.526    0.000
    4.750   60.374    0.517    0.000
    5.000   57.897    0.499    0.000
    5.250   51.125    0.489    0.000
    5.500   56.018    0.506    0.000
    5.750   60.906    0.511    0.000
    6.000   57.817    0.506    0.000
    6.250   55.955    0.516    0.000
    6.500   51.028    0.516    0.000
    6.750   57.145    0.526    0.000
    7.000   52.215    0.539    0.000
    7.250   64.470    0.528    0.000
    7.500   74.882    0.533    0.000
    7.750   66.266    0.540    0.000
    8.000   57.656    0.545    0.000
    8.250   53.340    0.540    0.000
    8.500   57.616    0.535    0.000
    8.750   55.755    0.530    0.000
    9.000   61.872    0.525    0.000
    9.250   53.259    0.513    0.000
    9.500   50.168    0.490    0.000
    9.750   44.624    0.447    0.000
   10.000   33.556    0.418    0.000
   10.250   35.377    0.402    0.000
   10.500   22.465    0.388    0.000
   10.750   24.901    0.365    0.000
   11.000   26.724    0.370    0.000
   11.250   27.927    0.413    0.000
   11.500   26.682    0.417    0.000
   11.750   27.887    0.417    0.000
   12.000   30.324    0.420    0.000
   12.250   41.966    0.425    0.000
   12.500   33.353    0.480    0.000
   12.750   21.671    0.536    0.000
   13.000   17.968    0.506    0.000
   13.250   15.488    0.482    0.000
   13.500   15.471    0.477    0.000
   13.750   17.289    0.466    0.000
   14.000   15.428    0.457    0.000
   14.250   15.408    0.457    0.000
   14.500   16.615    0.449    0.000
   14.750   14.757    0.441    0.000
   15.000   19.647    0.444    7.556
   15.250   19.013    0.459    5.763
   15.500   20.218    0.491    5.599
   15.750   16.513    0.484    5.364
   16.000   17.723    0.468    5.517
   16.250   25.679    0.438    6.636
   16.500   28.117    0.409   51.540
   16.750   23.186    0.369   56.923
   17.000   19.484    0.351   74.578
   17.250   24.374    0.361   77.811
   17.500   33.558    0.348   78.902
   17.750   32.921    0.353   74.508
   18.000   31.062    0.360   79.983
   18.250   23.063    0.365  107.817
   18.500   26.724    0.373  117.394
   18.750   25.478    0.353  119.045
   19.000   21.162    0.331  129.615
   19.250   27.893    0.310  129.574
   19.500   22.349    0.266  122.363
   19.750   27.853    0.288  120.596
   20.000   37.035    0.315  124.035
   20.250   31.493    0.337  131.267
   20.500   21.653    0.307  135.016
   20.750   19.175    0.285  133.066
   21.000   22.224    0.270  122.128
   21.250   33.252    0.265  110.514
   21.500   35.689    0.273   97.192
   21.750   35.667    0.290   95.788
   22.000   33.194    0.319  108.840
   22.250   41.764    0.345  127.257
   22.500   42.358    0.359  148.785
   22.750   38.655    0.365  157.442
   23.000   37.405    0.399  157.399
   23.250   30.636    0.404  146.538
   23.500   28.772    0.412  136.427
   23.750   33.051    0.399  121.698
   24.000   34.872    0.391  111.707
   24.250   36.080    0.377   94.131
   24.500   42.809    0.386   76.007
   24.750   47.085    0.379   60.505
   25.000   53.816    0.389   48.164
   25.250   69.754    0.414   36.738
   25.500   74.031    0.443   31.400
   25.750   71.555    0.439   28.821
   26.000   68.464    0.453   28.004
   26.250   60.468    0.436   27.209
   26.500   72.107    0.419   27.590
   26.750   79.452    0.416   29.198
   27.000   76.365    0.418   33.654
   27.250   67.750    0.421   47.347
   27.500   54.227    0.411   58.599
   27.750   42.543    0.388   59.418
   28.000   35.157    0.371   48.669
   28.250   41.278    0.385   27.924
   28.500   49.237    0.405   20.408
   28.750   62.719    0.411   17.695
   29.000   86.023    0.393   16.241
   29.250   84.775    0.405   19.817
   29.500   82.909    0.425   28.279
   29.750   73.071    0.448   38.668
   30.000   49.114    0.440   47.182
   30.250   41.112    0.420   60.083
   30.500   39.253    0.392   77.609
   30.750   33.093    0.392   94.697
   31.000   34.300    0.399   96.025
   31.250   33.667    0.389   95.995
   31.500   26.281    0.399   95.965
   31.750   25.647    0.414   95.934
   32.000   29.924    0.404   95.901
   32.250   36.655    0.405  102.944
   32.500   22.518    0.405  118.662
   32.750   16.972    0.416  136.763
   33.000   15.722    0.411  136.726
   33.250   17.543    0.409  132.841
   33.500   18.137    0.406  127.251
   33.750   15.048    0.394  118.471
   34.000   16.866    0.384  108.733
   34.250   15.010    0.377   96.994
   34.500   14.990    0.387   89.024
   34.750   16.811    0.404   84.076
   35.000   20.471    0.393   79.394
   35.250   27.817    0.403   88.944
   35.500   26.566    0.391  164.008
   35.750   21.025    0.351  205.884
   36.000   19.777    0.329  205.827
   36.250   22.821    0.323  197.152
   36.500   27.102    0.331  186.173
   36.750   28.310    0.351  180.890
   37.000   23.380    0.383  170.823
   37.250   25.812    0.411  165.988
   37.500   22.721    0.415  161.272
   37.750   28.225    0.408  163.526
   38.000   28.205    0.396  168.203
   38.250   28.796    0.388  191.129
   38.500   28.167    0.383  202.266
   38.750   23.848    0.377  205.094
   39.000   22.600    0.368  205.046
   39.250   22.580    0.382  204.965
   39.500   32.381    0.395  202.020
   39.750   42.795    0.393  196.287
   40.000   31.727    0.372  188.021
   40.250   43.368    0.330  177.550
   40.500   35.983    0.322  165.306
   40.750   31.666    0.332  141.299
   41.000   29.189    0.320  117.383
   41.250   26.716    0.294  100.332
   41.500   34.675    0.319   84.552
   41.750   37.108    0.332   66.356
   42.000   26.654    0.325   54.348
   42.250   30.930    0.352   45.151
   42.500   41.344    0.367   39.708
   42.750   45.620    0.359   31.608
   43.000   43.145    0.359   22.452
   43.250   38.824    0.389   16.884
   43.500   30.829    0.446   12.340
   43.750   19.145    0.496    9.412
   44.000   19.739    0.546    9.410
   44.250   27.084    0.561   14.835
   44.500   20.926    0.560   17.345
   44.750   21.518    0.556   17.586
   45.000   32.548    0.556   16.142
   45.250   44.190    0.556   16.136
   45.500   50.307    0.556   17.322
   45.750   56.422    0.555   17.816
   46.000   45.357    0.555   15.448
   46.250   29.376    0.555   16.117
   46.500   26.898    0.557   16.343
   46.750   37.929    0.557   12.289
   47.000   61.232    0.550    9.923
   47.250  108.472    0.542   10.062
   47.500  109.066    0.535   10.203
   47.750  104.750    0.532   10.494
   48.000   95.523    0.528   10.197
   48.250  103.482    0.523    8.117
   48.500  116.965    0.519    7.557
   48.750  121.239    0.517    7.554
   49.000  115.083    0.514    7.552
   49.250  117.513    0.514    8.581
   49.500  121.790    0.512    8.702
   49.750  115.634    0.515    8.217
   50.000  123.593    0.522    8.214
   50.250  103.933    0.529    8.818
   50.500  100.841    0.537    9.465
   50.750   91.617    0.542   10.161
   51.000   76.248    0.547   10.601
   51.250   87.892    0.546   10.598
   51.500  104.444    0.527   10.594
   51.750   94.601    0.496   10.004
   52.000  109.314    0.459   10.144
   52.250  114.817    0.436   11.204
   52.500  100.067    0.416   12.199
   52.750   92.065    0.439   13.666
   53.000   64.426    0.431   15.311
   53.250   44.765    0.413   18.418
   53.500   36.152    0.391   24.828
   53.750   26.923    0.379   30.294
   54.000   35.498    0.368   31.606
