~VERSION INFORMATION
 VERS.                 2.0:   CWLS LOG ASCII STANDARD -VERSION 2.0
 WRAP.                  NO:   ONE LINE PER DEPTH STEP
~WELL INFORMATION BLOCK
#MNEM.UNIT           DATA                    DESCRIPTION OF MNEMONIC
#---------    -------------------            -------------------------------
# Generated from Intellog Unique Number	CC_80_83/WELL/2337
NULL.         -999.25                        : NULL_VALUE
WELL.         PEX PCEJU HOUSE OV             : Well_name    - WELL              
LOC .         10-08-081-13W4                 : Location     - LOCATION          
UWI .         AA/10-08-081-13W400            : Uwi          - UNIQUE WELL ID    
ENTR.         DW                             : Entered      - ENTERED BY        
SRVC.         DRESSER ATLAS                  : Scn          - SERVICE COMPANY   
DATE.         31 JAN 81                      : Date         - LOG DATE
STRT.M        225                            : top_depth    - START DEPTH       
STOP.M        474.891                        : bot_depth    - STOP DEPTH        
STEP.M        0.3                            : increment    - STEP LENGTH       
~CURVE INFORMATION BLOCK
#MNEM UNIT       ERCB CURVE CODE    CURVE DESCRIPTION
#-----------   ------------------   ----------------------------------
DEPT.M        00 001 00 00         : DEPTH        - DEPTH                       
DPHI.V/V      00 890 00 00         : PHID         - DENSITY POROSITY (LIMESTONE)
NPHI.V/V      00 330 00 00         : PHIN         - NEUTRON POROSITY (LIMESTONE)
GR  .API      00 310 00 00         : GR           - GAMMA RAY                   
ILD .OHMM     00 120 00 00         : RESD         - DEEP RESISTIVITY (DIL)      
~PARAMETER INFORMATION       
#MNEM.UNIT           DATA             DESCRIPTION OF MNEMONIC
#---------         -----------     ------------------------------
GL  .M        667.8                : gl           - GROUND LEVEL ELEVATION      
EREF.M        670.7                : kb           - ELEVATION OF DEPTH REFERENCE
DATM.M        670.7                : datum        - DATUM ELEVATION             
TDD .M        477                  : tdd          - TOTAL DEPTH DRILLER         
RUN .         ONE                  : Run          - RUN NUMBER                  
ENG .         BILL                 : Engineer     - RECORDING ENGINEER          
WIT .         JIM                  : Witness      - WITNESSED BY                
MUD .         GEL                  : Mud_type     - MUD TYPE                    
MATR.         LIMESTONE            : Logunit      - NEUTRON MATRIX              
TMAX.C        18                   : BHT          - MAXIMUM RECORDED TEMPERATURE
BHTD.M        4772                 : BHTDEP       - MAXIMUM RECORDED TEMPERATURE
MATR.         1                    : LOGUNIT      - NEUTRON MATRIX              
RMT .C        25                   : MDTP         - TEMPERATURE OF MUD          
NEUT.         1                    : NEUTRON      - NEUTRON TYPE                
RESI.         0                    : RESIST       - RESISTIVITY TYPE            
RMC .OHMM     0.25                 : RMC          - RESISTIVITY OF MUD CAKE     
RMF .OHMM     0.25                 : RMF          - RESISTIVITY OF MUD FILTRATE 
SUFT.C        4                    : SUFT         - SURFACE TEMPERATURE         
~A  DEPTH     PHID     PHIN       GR     RESD
  225.000    0.256    0.507  124.744    3.212
  225.300    0.291    0.511  126.578    3.214
  225.600    0.301    0.561  122.141    3.157
  225.900    0.266    0.580  127.726    3.158
  226.200    0.272    0.590  122.034    3.101
  226.500    0.268    0.543  115.722    3.103
  226.800    0.256    0.542  117.553    3.105
  227.100    0.255    0.562  109.977    3.107
  227.400    0.248    0.582  117.447    3.171
  227.700    0.242    0.552  122.417    3.172
  228.000    0.245    0.541  119.231    3.235
  228.300    0.249    0.535  128.583    3.364
  228.600    0.249    0.556  128.528    3.366
  228.900    0.247    0.585  122.215    3.369
  229.200    0.246    0.564  115.266    3.436
  229.500    0.235    0.585  108.946    3.438
  229.800    0.237    0.599  119.558    3.376
  230.100    0.249    0.542  113.864    3.314
  230.400    0.246    0.554  125.719    3.317
  230.700    0.240    0.549  120.662    3.384
  231.000    0.236    0.554  118.714    3.451
  231.300    0.230    0.543  123.067    3.658
  231.600    0.228    0.566  121.760    3.803
  231.900    0.231    0.490  111.054    3.956
  232.200    0.234    0.510  115.393    3.957
  232.500    0.239    0.525  120.360    3.886
  232.800    0.243    0.548  109.022    3.815
  233.100    0.248    0.546  119.633    3.604
  233.400    0.252    0.550  120.831    3.538
  233.700    0.264    0.542  123.286    3.344
  234.000    0.279    0.557  118.854    3.220
  234.300    0.289    0.544  110.026    3.044
  234.600    0.299    0.566  104.959    2.988
  234.900    0.303    0.593  103.028    2.824
  235.200    0.282    0.573  118.016    2.771
  235.500    0.281    0.588  109.824    2.721
  235.800    0.282    0.597  121.690    2.723
  236.100    0.287    0.580  124.144    2.778
  236.400    0.290    0.590  117.199    2.833
  236.700    0.288    0.589  124.041    2.836
  237.000    0.285    0.585  113.341    2.837
  237.300    0.282    0.562  120.807    2.895
  237.600    0.291    0.533  110.726    2.896
  237.900    0.299    0.534  107.544    2.899
  238.200    0.298    0.551  116.272    2.900
  238.500    0.294    0.571  114.335    2.959
  238.800    0.295    0.571  109.278    3.018
  239.100    0.297    0.526  114.235    3.138
  239.400    0.293    0.537  112.310    3.263
  239.700    0.159    0.559  115.387    3.265
  240.000    0.242    0.562  108.445    3.395
  240.300    0.305    0.528  102.757    3.463
  240.600    0.296    0.549  119.634    3.533
  240.900    0.316    0.530  111.424    3.604
  241.200    0.330    0.552  103.859    3.819
  241.500    0.324    0.564  113.824    4.126
  241.800    0.276    0.532  132.595    4.208
  242.100    0.268    0.507  124.393    4.212
  242.400    0.295    0.503  129.990    4.215
  242.700    0.315    0.474  124.292    4.139
  243.000    0.272    0.500  114.838    3.985
  243.300    0.252    0.497  114.167    3.839
  243.600    0.254    0.506  122.894    3.768
  243.900    0.265    0.540  136.006    3.700
  244.200    0.256    0.513  119.030    3.702
  244.500    0.252    0.493  107.697    3.706
  244.800    0.281    0.496  111.407    3.780
  245.100    0.289    0.520  107.597    3.855
  245.400    0.275    0.547  115.065    4.410
  245.700    0.233    0.430   89.309    5.242
  246.000    0.249    0.423   85.505    6.600
  246.300    0.260    0.442   82.945    7.845
  246.600    0.264    0.444   87.278    9.876
  246.900    0.282    0.443   92.879   10.878
  247.200    0.301    0.447   93.442   11.095
  247.500    0.293    0.431   92.148   11.533
  247.800    0.278    0.427   83.946   12.226
  248.100    0.267    0.437  105.213   11.774
  248.400    0.256    0.461  109.552   11.125
  248.700    0.244    0.440  100.720   10.314
  249.000    0.232    0.455  100.674    9.379
  249.300    0.229    0.463  100.626    8.211
  249.600    0.265    0.481  134.426    7.760
  249.900    0.294    0.483  126.853    7.765
  250.200    0.295    0.502   91.698    8.714
  250.500    0.308    0.501   69.703   10.559
  250.800    0.319    0.425   55.868   12.794
  251.100    0.321    0.431   50.802   14.637
  251.400    0.316    0.452   53.251   15.513
  251.700    0.305    0.451   55.088   14.382
  252.000    0.284    0.448   66.948   12.831
  252.300    0.225    0.440  120.813    9.637
  252.600    0.112    0.492  117.627    7.102
  252.900    0.170    0.515  119.456    6.216
  253.200    0.243    0.450  108.743    5.138
  253.500    0.248    0.479  118.729    4.584
  253.800    0.252    0.506  126.824    3.937
  254.100    0.245    0.521  134.927    3.720
  254.400    0.231    0.521  129.858    3.583
  254.700    0.234    0.534  126.048    3.655
  255.000    0.246    0.497  135.406    3.800
  255.300    0.256    0.500  137.233    4.694
  255.600    0.273    0.476  124.015    6.139
  255.900    0.281    0.451  110.807    7.729
  256.200    0.290    0.408  103.860    9.363
  256.500    0.278    0.454   74.348   11.345
  256.800    0.271    0.413   82.445   11.141
  257.100    0.259    0.412   98.070   11.146
  257.400    0.238    0.456  113.061    9.946
  257.700    0.219    0.452  111.118    9.399
  258.000    0.208    0.430  104.185    8.716
  258.300    0.199    0.443  118.553    8.234
  258.600    0.182    0.437  124.148    7.778
  258.900    0.221    0.445  112.187    7.211
  259.200    0.233    0.490  110.882    6.684
  259.500    0.255    0.475  127.757    7.086
  259.800    0.286    0.444   94.481    7.654
  260.100    0.289    0.460   80.641   10.204
  260.400    0.286    0.447   79.964   12.129
  260.700    0.284    0.430   95.585   12.612
  261.000    0.285    0.447  107.446   12.623
  261.300    0.294    0.427  100.492   12.629
  261.600    0.303    0.414   93.549   12.883
  261.900    0.304    0.411   98.520   13.924
  262.200    0.307    0.445   82.792   14.199
  262.500    0.310    0.439   94.029   14.209
  262.800    0.311    0.421   96.489   14.494
  263.100    0.307    0.409   97.693   14.232
  263.400    0.292    0.426   90.108   14.238
  263.700    0.290    0.431   95.709   13.981
  264.000    0.293    0.452  101.303   13.989
  264.300    0.295    0.445  116.297   13.742
  264.600    0.299    0.447  116.246   13.749
  264.900    0.299    0.444   91.121   13.755
  265.200    0.294    0.429   91.696   14.033
  265.500    0.288    0.436  100.421   14.310
  265.800    0.274    0.425  112.285   14.884
  266.100    0.258    0.431  131.665   14.891
  266.400    0.255    0.436  114.692   14.905
  266.700    0.260    0.389  106.489   15.203
  267.000    0.297    0.392   66.949   15.508
  267.300    0.296    0.388   61.255   15.820
  267.600    0.240    0.389   74.370   15.236
  267.900    0.236    0.422   96.888   14.123
  268.200    0.281    0.428  104.362   12.845
  268.500    0.307    0.438   74.847   12.370
  268.800    0.297    0.456   64.141   11.688
  269.100    0.163    0.492   68.475   10.428
  269.400    0.164    0.440  103.534    8.787
  269.700    0.197    0.470  118.523    7.546
  270.000    0.178    0.494  142.928    6.733
  270.300    0.183    0.482  129.712    6.241
  270.600    0.190    0.470  136.557    5.677
  270.900    0.187    0.491  149.670    5.263
  271.200    0.181    0.517  147.112    5.068
  271.500    0.175    0.498  135.145    5.072
  271.800    0.119    0.483  140.745    5.272
  272.100    0.133    0.464  145.084    5.806
  272.400    0.164    0.488  124.346    6.273
  272.700    0.204    0.498  133.071    6.042
  273.000    0.210    0.516  137.409    5.601
  273.300    0.232    0.544  146.761    5.192
  273.600    0.253    0.584  147.342    3.975
  273.900    0.247    0.554  143.527    3.349
  274.200    0.246    0.509  132.822    3.759
  274.500    0.256    0.475  121.483    4.468
  274.800    0.255    0.441  123.934    5.518
  275.100    0.245    0.429  124.523    7.942
  275.400    0.245    0.443  128.224   10.589
  275.700    0.251    0.432  128.806   11.885
  276.000    0.267    0.428  120.612   11.673
  276.299    0.273    0.422  111.152   11.455
  276.599    0.275    0.447  111.107   10.622
  276.899    0.281    0.466  117.324    9.659
