~VERSION INFORMATION
 VERS.                 2.0:   CWLS LOG ASCII STANDARD -VERSION 2.0
 WRAP.                  NO:   ONE LINE PER DEPTH STEP
~WELL INFORMATION BLOCK
#MNEM.UNIT           DATA                    DESCRIPTION OF MNEMONIC
#---------    -------------------            -------------------------------
# Generated from Intellog Unique Number	CC_88_90/WELL/3152
WELL.         CANADIAN KEWANEE               : Well_name    - WELL
LOC .         AA/11-31-088-13W4/0            : Location     - LOCATION
UWI .         AA/11-31-088-13W400            : Uwi          - UNIQUE WELL ID
ENTR.         JOETTE                         : Entered      - ENTERED BY
SRVC.         SCHLUMBERGER                   : Scn          - SERVICE COMPANY
DATE.         03/06/92                       : Date         - LOG DATE
STRT.M        30.480                         : top_depth    - START DEPTH
STOP.M        131.480                        : bot_depth    - STOP DEPTH
STEP.M        0.25                           : increment    - STEP LENGTH
 NULL. -999.2500:NULL Value
~CURVE INFORMATION BLOCK
#MNEM UNIT       ERCB CURVE CODE    CURVE DESCRIPTION
#-----------   ------------------   ----------------------------------
DEPT.M        00 001 00 00         : DEPTH        - DEPTH
GR  .API      00 310 00 00         : GR           - GAMMA RAY
NPHI.V/V      00 330 00 00         : PHIN         - NEUTRON POROSITY (SANDSTONE)
ILD .OHMM     00 120 00 00         : RESD         - DEEP RESISTIVITY (DIL)
~PARAMETER INFORMATION
#MNEM.UNIT           DATA             DESCRIPTION OF MNEMONIC
#---------         -----------     ------------------------------
GL  .M        492.1                : gl           - GROUND LEVEL ELEVATION
EREF.M        492.1                : kb           - ELEVATION OF DEPTH REFERENCE
DATM.M        492.1                : datum        - DATUM ELEVATION
TDD .M        198.12               : tdd          - TOTAL DEPTH DRILLER
RUN .         ONE                  : Run          - RUN NUMBER
ENG .         BILL                 : Engineer     - RECORDING ENGINEER
WIT .         JIM                  : Witness      - WITNESSED BY
MUD .         GEL                  : Mud_type     - MUD TYPE
MATR.         SANDSTONE            : Logunit      - NEUTRON MATRIX
TMAX.C        4.44444              : BHT          - MAXIMUM RECORDED TEMPERATURE
BHTD.M        198.12               : BHTDEP       - MAXIMUM RECORDED TEMPERATURE
RMT .C        4.44444              : MDTP         - TEMPERATURE OF MUD
MUDD.KG/M     1030                 : MWT          - MUD DENSITY
NEUT.         1                    : NEUTRON      - NEUTRON TYPE
RESI.         0                    : RESIST       - RESISTIVITY TYPE
RM  .OHMM     4.5                  : RM           - RESISTIVITY OF MUD
RMC .OHMM     4.5                  : RMC          - RESISTIVITY OF MUD CAKE
RMF .OHMM     4.5                  : RMF          - RESISTIVITY OF MUD FILTRATE
SUFT.C        4                    : SUFT         - SURFACE TEMPERATURE
~A  DEPTH       GR     PHIN     RESD
   30.480   85.425    0.440   11.950
   30.730   84.199    0.452   10.482
   30.980   87.275    0.452   10.554
   31.230   96.496    0.457   11.798
   31.480  112.478    0.459   11.650
   31.730  106.336    0.466   11.061
   31.980  105.725    0.480   12.012
   32.230  119.863    0.484   11.937
   32.480  127.241    0.450   11.568
   32.730  113.723    0.440   12.079
   32.980  111.268    0.469   12.004
   33.230  124.792    0.501   10.829
   33.480  121.108    0.520   10.094
   33.730  110.048    0.520    9.358
   33.980  109.437    0.512    8.770
   34.230  105.138    0.486    8.548
   34.480  102.683    0.483    8.325
   34.730  103.916    0.483    8.690
   34.980  112.523    0.476    9.056
   35.230  105.765    0.481    9.566
   35.480   93.477    0.483    9.784
   35.730  100.855    0.483    9.635
   35.980   95.942    0.489    9.414
   36.230  108.237    0.496    9.192
   36.480  115.614    0.499    8.896
   36.730  119.920    0.497    8.896
   36.980  127.297    0.495    8.747
   37.230  112.551    0.486    8.378
   37.480  104.565    0.471    7.789
   37.730  107.641    0.510    7.860
   37.980  118.706    0.534    8.005
   38.230  121.168    0.504    7.563
   38.480  121.171    0.473    7.341
   38.730  109.497    0.455    6.973
   38.980   90.449    0.507    6.384
   39.230   89.838    0.521    5.722
   39.480   93.528    0.550    5.722
   39.730   94.760    0.568    5.425
   39.980  108.899    0.536    7.549
   40.230  120.578    0.499    9.013
   40.480  126.727    0.450   13.925
   40.730  125.501    0.421   21.181
   40.980  106.453    0.413   30.490
   41.230   84.331    0.424   29.535
   41.480   97.856    0.426   28.580
   41.730   89.255    0.428   26.745
   41.980   91.102    0.494   15.377
   42.230   99.094    0.493   14.936
   42.480   99.712    0.486    7.603
   42.730  102.173    0.490    8.113
   42.980   96.030    0.504    9.798
   43.230  102.794    0.516   13.169
   43.480  124.307    0.553   14.633
   43.730  135.987    0.550   15.878
   43.980  129.230    0.518   18.809
   44.230  116.941    0.490    6.562
   44.480  102.195    0.485    6.927
   44.730  112.646    0.473    9.858
   44.980  114.493    0.478   13.155
   45.230  118.183    0.519   17.919
   45.480  121.874    0.507   20.043
   45.730  118.189    0.481   19.015
   45.980  115.734    0.472   17.253
   46.230  118.196    0.462   16.591
   46.480  120.043    0.454   17.689
   46.730  108.984    0.444   15.414
   46.980  100.998    0.444   15.339
   47.230  102.229    0.442   15.556
   47.480  113.295    0.439   15.702
   47.730  102.850    0.435   17.899
   47.980  101.625    0.453   17.969
   48.230  104.701    0.479   17.821
   48.480  110.849    0.478   17.819
   48.730  112.082    0.471   18.257
   48.980  105.325    0.461   18.622
   49.230  109.630    0.463   19.060
   49.480  109.633    0.468   20.011
   49.730  107.792    0.460   20.669
   49.980  108.410    0.452   20.960
   50.230   99.809    0.429   21.031
   50.480   99.812    0.419   21.176
   50.730   97.972    0.411   21.467
   50.980   83.225    0.408   21.759
   51.230   88.145    0.415   22.563
   51.480   94.909    0.427   23.002
   51.730   89.380    0.433   24.540
   51.980   91.842    0.434   25.417
   52.230  101.678    0.437   26.588
   52.480  102.296    0.440   26.733
   52.730   93.081    0.411   26.657
   52.980  105.375    0.383   26.802
   53.230  120.742    0.374   27.093
   53.480  120.131    0.350   27.238
   53.730  117.061    0.354   27.603
   53.980  120.137    0.388   27.893
   54.230  109.079    0.394   28.039
   54.480   99.249    0.407   26.644
   54.730   94.949    0.428   21.729
   54.980   98.640    0.517   18.868
   55.230   99.258    0.536    6.181
   55.480  100.490    0.510    5.740
   55.730   98.650    0.501    5.371
   55.980   91.892    0.494    5.148
   56.230   96.197    0.484    5.219
   56.480  108.492    0.524    5.217
   56.730   94.975    0.547    5.069
   56.980   95.593    0.547    4.700
   57.230  102.356    0.483    4.552
   57.480   92.526    0.412    8.070
   57.730  101.747    0.424    9.608
   57.980  100.522    0.416   10.705
   58.230   89.463    0.366   12.170
   58.480   88.852    0.366   17.960
   58.730   94.386    0.397   26.317
   58.980   98.691    0.397   24.848
   59.230   95.621    0.403   24.551
   59.480   88.864    0.393   24.770
   59.730   91.325    0.387   24.989
   59.980  118.369    0.393   26.086
   60.230  104.852    0.448   27.477
   60.480   93.178    0.448   28.502
   60.730   90.723    0.440   27.987
   60.980   89.498    0.433   27.544
   61.230  112.239    0.428   27.176
   61.480  123.919    0.436   22.116
   61.730  113.475    0.435   20.427
   61.980  114.708    0.425   15.073
   62.230  114.710    0.401   17.051
   62.480  104.266    0.372   14.848
   62.730   98.738    0.406   14.700
   62.980   97.512    0.409   16.825
   63.230  109.806    0.419   24.375
   63.480  120.258    0.419   29.505
   63.730  110.427    0.417   28.842
   63.980  107.357    0.389   27.227
   64.230  109.819    0.382   24.879
   64.480  108.593    0.386   21.505
   64.730  108.597    0.411   22.236
   64.980  116.589    0.416   22.601
   65.230  112.290    0.415   22.745
   65.480   93.241    0.412   23.256
   65.730   87.099    0.408   23.768
   65.980   82.800    0.411   23.324
   66.230   80.960    0.416   23.470
   66.480   72.974    0.411   23.321
   66.730   64.987    0.385   23.026
   66.980   74.823    0.388   22.218
   67.230   83.430    0.397   21.777
   67.480   88.350    0.389   21.188
   67.730   96.957    0.383   20.599
   67.980  116.012    0.377   20.599
   68.230  106.797    0.406   20.228
   68.480  117.862    0.411   20.300
   68.730  127.084    0.414   20.151
   68.980  120.327    0.414   19.710
   69.230  116.642    0.407   19.121
   69.480  120.948    0.412   18.679
   69.730  124.024    0.424   18.236
   69.980  128.329    0.434   18.382
   70.230  116.655    0.428   19.332
   70.480  110.512    0.372   19.330
   70.730   95.766    0.404   19.109
   70.980   90.239    0.415   18.887
   71.230   97.002    0.431   19.177
   71.480  102.536    0.449   19.396
   71.730  110.528    0.434   19.834
   71.980  106.844    0.405   19.686
   72.230  111.764    0.411   18.730
   72.480  106.850    0.404   17.115
   72.730  108.697    0.393   16.233
   72.980  105.627    0.371   15.571
   73.230   93.954    0.367   15.056
   73.480   93.957    0.369   15.201
   73.730  104.408    0.362   17.031
   73.980  102.567    0.365   17.177
   74.230  110.560    0.401   17.174
   74.480  116.708    0.408   15.779
   74.730  103.806    0.418   15.338
   74.980   81.685    0.430   14.529
   75.230   82.302    0.428   14.674
   75.480  101.972    0.389   14.598
   75.730  102.590    0.392   14.450
   75.980   88.457    0.394   14.521
   76.230   79.857    0.384   14.812
   76.480   83.548    0.383   14.809
   76.730   81.093    0.421   14.735
   76.980   77.408    0.431   14.806
   77.230   94.619    0.433   14.950
   77.480  107.528    0.382   14.950
   77.730  105.073    0.383   14.947
   77.980   96.472    0.397   14.872
   78.230  105.079    0.414   14.872
   78.480  108.770    0.421   14.648
   78.730   95.867    0.419   14.572
   78.980   91.568    0.382   14.130
   79.230   87.884    0.382   13.835
   79.480   89.116    0.409   13.906
   79.730   77.443    0.416   13.758
   79.980   80.519    0.426   13.758
   80.230  111.865    0.435   13.314
   80.480  114.941    0.442   13.164
   80.730  114.329    0.449   13.309
   80.980  111.260    0.461   13.234
   81.230   84.836    0.452   13.158
   81.480   81.767    0.415   13.010
   81.730   84.843    0.389   12.861
   81.980   89.148    0.386   12.713
   82.230  103.900    0.380   12.565
   82.480  130.330    0.411   12.417
   82.730  124.188    0.428   12.268
   82.980  111.899    0.417   12.338
   83.230  104.529    0.398   12.336
   83.480  105.146    0.395   12.334
   83.730   91.013    0.398   12.334
   83.980   85.486    0.398   12.184
   84.230   83.031    0.392   12.108
   84.480   82.420    0.387   12.108
