~VERSION INFORMATION
 VERS.                 2.0:   CWLS LOG ASCII STANDARD -VERSION 2.0
 WRAP.                  NO:   ONE LINE PER DEPTH STEP
~WELL INFORMATION BLOCK
#MNEM.UNIT           DATA                    DESCRIPTION OF MNEMONIC
#---------    -------------------            -------------------------------
# Generated from Intellog Unique Number	CX_WELLS/WELL/3472
WELL.         AMOCO GREGGIRE                 : Well_name    - WELL
LOC .         AA/16-05-085-07W4/0            : Location     - LOCATION
UWI .         AA/16-05-085-07W400            : Uwi          - UNIQUE WELL ID
ENTR.         T                              : Entered      - ENTERED BY
SRVC.         SCHLUMBERGER                   : Scn          - SERVICE COMPANY
STRT.F        150                            : top_depth    - START DEPTH
STOP.F        911.975                        : bot_depth    - STOP DEPTH
STEP.F        0.82                           : increment    - STEP LENGTH
 NULL. -999.2500:NULL Value
~CURVE INFORMATION BLOCK
#MNEM UNIT       ERCB CURVE CODE    CURVE DESCRIPTION
#-----------   ------------------   ----------------------------------
DEPT.F        00 001 00 00         : DEPTH        - DEPTH
GR  .API      00 310 00 00         : GR           - GAMMA RAY
DPHI.V/V      00 890 00 00         : PHID         - DENSITY POROSITY (SANDSTONE)
ILD .OHMM     00 120 00 00         : RESD         - DEEP RESISTIVITY (OTHER)
~PARAMETER INFORMATION
#MNEM.UNIT           DATA             DESCRIPTION OF MNEMONIC
#---------         -----------     ------------------------------
GL  .F        1647                 : gl           - GROUND LEVEL ELEVATION
EREF.F        1657                 : kb           - ELEVATION OF DEPTH REFERENCE
DATM.F        1657                 : datum        - DATUM ELEVATION
TDD .F        934                  : tdd          - TOTAL DEPTH DRILLER
RUN .         ONE                  : Run          - RUN NUMBER
ENG .         BILL                 : Engineer     - RECORDING ENGINEER
WIT .         JIM                  : Witness      - WITNESSED BY
MUD .         GEL                  : Mud_type     - MUD TYPE
MATR.         SANDSTONE            : Logunit      - NEUTRON MATRIX
TMAX.F        64.4                 : BHT          - MAXIMUM RECORDED TEMPERATURE
BHTD.F        934                  : BHTDEP       - MAXIMUM RECORDED TEMPERATURE
MATR.         1                    : LOGUNIT      - NEUTRON MATRIX
RMT .F        50                   : MDTP         - TEMPERATURE OF MUD
NEUT.         1                    : NEUTRON      - NEUTRON TYPE
RESI.         9.8                  : RESIST       - RESISTIVITY TYPE
RMC .OHMM     9.7                  : RMC          - RESISTIVITY OF MUD CAKE
RMF .OHMM     8.7                  : RMF          - RESISTIVITY OF MUD FILTRATE
SUFT.F        39.2                 : SUFT         - SURFACE TEMPERATURE
~A  DEPTH       GR     PHID     RESD
# ...
  505.971   87.194    0.304   12.672
  506.791   84.903    0.297   13.468
  507.612   83.181    0.271   14.260
  508.432   78.579    0.194   19.785
  509.252   79.747    0.156   51.518
  510.072   83.230    0.203   48.963
  510.892   88.459    0.261   38.329
  511.713   89.622    0.302   25.331
  512.533   93.109    0.318   18.835
  513.353   92.548    0.329   10.368
  514.173   91.412    0.321   10.178
  514.993   90.273    0.310   10.976
  515.814   86.826    0.292   11.176
  516.634   84.523    0.263   11.383
  517.454   78.188    0.236   11.391
  518.274   74.159    0.206   11.592
  519.094   76.487    0.129   17.116
  519.915   81.125    0.003   62.447
  520.735   86.346    0.040   56.937
  521.555   90.984    0.128   48.666
  522.375   99.668    0.233   39.805
  523.196  107.199    0.264   28.580
  524.016  108.949    0.282   10.262
  524.836  106.076    0.272    9.877
  525.656  103.203    0.279    9.881
  526.476   99.179    0.288    9.889
  527.297   89.950    0.294    9.896
  528.117   88.815    0.296    9.905
  528.937   87.675    0.297    9.713
  529.757   85.384    0.295    9.521
  530.577   84.819    0.292    9.331
  531.398   83.683    0.292    9.538
  532.218   83.122    0.294    9.544
  533.038   83.138    0.295    9.549
  533.858   82.576    0.296    9.557
  534.678   81.437    0.295    9.562
  535.499   79.720    0.286    9.768
  536.319   78.580    0.269    9.971
  537.139   78.600    0.227   10.372
  537.959   78.617    0.197   10.380
  538.780   78.633    0.137   10.387
  539.600   75.760    0.084   10.590
  540.420   71.158   -0.031   11.188
  541.240   66.552    0.047   14.940
  542.060   65.990    0.167   21.843
  542.881   81.033    0.222   27.564
  543.701   85.672    0.260   22.646
  544.521   88.581    0.287   20.484
  545.341   90.331    0.287   13.594
  546.161   91.502    0.283    9.659
  546.982   91.523    0.281    8.485
  547.802   90.957    0.275    8.297
  548.622   90.981    0.264    8.499
  549.442   90.993    0.231    9.494
  550.262   89.854    0.184    9.893
  551.083   85.826    0.171    9.901
  551.903   81.797    0.150    9.709
  552.723   81.813    0.182    9.912
  553.543   84.719    0.230   18.985
  554.364   87.624    0.260   14.459
  555.184   91.689    0.272   11.904
  556.004   95.754    0.262   10.137
  556.824   99.818    0.245    9.555
  557.644  101.564    0.236    8.970
  558.465  104.469    0.230    8.190
  559.285  109.108    0.221    7.606
  560.105  113.173    0.212    7.218
  560.925  116.664    0.207    7.029
  561.745  117.828    0.200    7.032
  562.566  120.163    0.191    7.042
  563.386  122.490    0.180    7.047
  564.206  125.392    0.178    7.056
  565.026  124.834    0.184    7.062
  565.846  121.961    0.190    7.069
  566.667  119.670    0.200    7.075
  567.487  119.691    0.209    7.082
  568.307  120.284    0.220    7.088
  569.127  120.874    0.226    7.292
  569.948  121.472    0.237    7.893
  570.768  121.489    0.242    8.292
  571.588  121.509    0.239    8.496
  572.408  122.095    0.227    8.703
  573.228  125.000    0.205    8.708
  574.049  128.487    0.190    8.125
  574.869  130.819    0.180    7.736
  575.689  131.990    0.172    7.545
  576.509  132.003    0.171    7.355
  577.329  132.601    0.181    7.167
  578.150  133.195    0.207    7.172
  578.970  134.370    0.232    7.179
  579.790  135.538    0.249    6.992
  580.610  137.870    0.264    6.798
  581.430  139.623    0.275    6.613
  582.251  140.213    0.281    6.617
  583.071  141.967    0.285    6.626
  583.891  142.569    0.287    6.629
  584.711  142.581    0.282    6.442
  585.531  140.282    0.276    6.251
  586.352  137.413    0.248    6.059
  587.172  137.429    0.240    6.067
  587.992  137.446    0.232    6.074
  588.812  137.466    0.223    6.081
  589.633  137.482    0.214    6.483
  590.453  136.347    0.208    6.884
  591.273  136.359    0.199    7.481
  592.093  135.797    0.198    7.687
  592.913  135.236    0.200    7.889
  593.734  136.416    0.203    8.294
  594.554  136.436    0.208    8.693
  595.374  135.288    0.210    8.895
  596.194  131.842    0.214    9.301
  597.014  132.432    0.211    9.503
  597.835  137.074    0.205    9.506
  598.655  140.557    0.198    9.514
  599.475  142.885    0.194    9.523
  600.295  144.638    0.187    9.531
  601.115  144.077    0.178    9.731
  601.936  140.626    0.167    9.741
  602.756  136.598    0.157    9.746
  603.576  131.995    0.141   10.148
  604.396  129.700    0.127   10.350
  605.217  124.516    0.112   11.738
  606.037  119.910    0.090   13.518
  606.857  116.464    0.095   19.239
  607.677  119.943    0.121   15.897
  608.497  126.896    0.147   12.358
  609.318  132.695    0.160   11.968
  610.138  135.600    0.185   11.186
  610.958  137.354    0.190   10.800
  611.778  137.944    0.186   10.610
  612.598  139.119    0.184   10.419
  613.419  140.291    0.181   10.032
  614.239  142.041    0.179    9.447
  615.059  142.635    0.180    9.456
  615.879  140.918    0.191   11.433
  616.699  135.734    0.200   13.607
  617.520  129.972    0.208   13.419
  618.340  133.459    0.221   12.835
  619.160  135.208    0.226   11.856
  619.980  134.651    0.197   10.681
  620.801  131.782    0.190    9.897
  621.621  130.061    0.160   11.285
  622.441  132.388    0.151   11.883
  623.261  136.449    0.148   10.709
  624.081  140.518    0.179   10.319
  624.902  141.108    0.195    9.932
  625.722  141.706    0.197    9.546
  626.542  142.882    0.196    8.766
  627.362  142.890    0.196    8.379
  628.182  141.754    0.196    8.385
  629.003  138.308    0.196    8.390
  629.823  136.587    0.198    8.595
  630.643  133.136    0.199    9.193
  631.463  123.333    0.201    9.594
  632.283  121.616    0.202   10.193
  633.104  117.588    0.202   10.791
  633.924  115.293    0.203   10.995
  634.744  115.891    0.207   11.001
  635.564  115.911    0.215   10.614
  636.385  118.816    0.223    9.242
  637.205  122.873    0.228    7.476
  638.025  130.405    0.234    6.302
  638.845  135.625    0.245    7.096
  639.665  136.797    0.235    7.889
  640.486  136.817    0.223    8.881
  641.306  136.825    0.220   10.075
  642.126  135.112    0.223   10.275
  642.946  133.973    0.221   10.678
  643.766  133.989    0.219   11.078
  644.587  133.427    0.214   11.284
  645.407  132.292    0.208   10.701
  646.227  131.153    0.204   10.509
  647.047  130.013    0.203   10.320
  647.867  127.718    0.204   10.520
  648.688  123.694    0.206   11.318
  649.508  111.580    0.206   16.643
  650.328  110.441    0.199   16.453
  651.148  108.150    0.188   12.128
  651.969  106.424    0.147   11.345
  652.789  105.285    0.123   10.760
  653.609  107.039    0.151   10.767
  654.429  112.833    0.179   10.970
  655.249  119.783    0.169   11.174
  656.070  129.048    0.160   10.591
  656.890  137.153    0.165   10.204
  657.710  138.329    0.170    9.619
  658.530  138.919    0.171    9.231
  659.350  139.521    0.171    9.437
  660.171  140.111    0.173    9.839
  660.991  140.127    0.175    9.844
  661.811  140.148    0.179    9.456
  662.631  139.008    0.181    8.084
  663.451  134.980    0.186    7.107
  664.272  130.373    0.194    6.719
  665.092  122.878    0.201    6.529
  665.912  117.694    0.212    6.338
  666.732  114.252    0.211    6.345
  667.552  113.686    0.206    6.353
  668.373  112.555    0.202    6.951
  669.193  110.837    0.203    7.746
  670.013  110.268    0.203    8.343
  670.833  109.136    0.202    8.550
  671.654  109.148    0.200    8.555
  672.474  109.173    0.195    8.563
  673.294  109.763    0.185    8.767
  674.114  112.090    0.180    8.969
  674.934  116.729    0.176    8.780
  675.755  120.790    0.177    8.199
  676.575  126.010    0.177    7.611
  677.395  130.653    0.178    6.831
  678.215  132.398    0.178    8.215
  679.035  128.374    0.172   10.787
  679.856  123.772    0.161   10.204
  680.676  120.317    0.147    9.616
  681.496  116.866    0.134    8.637
  682.316  116.887    0.135    7.266
  683.136  120.370    0.165    6.683
