~VERSION INFORMATION
 VERS.                 2.0:   CWLS LOG ASCII STANDARD -VERSION 2.0
 WRAP.                  NO:   ONE LINE PER DEPTH STEP
~WELL INFORMATION BLOCK
#MNEM.UNIT           DATA                    DESCRIPTION OF MNEMONIC
#---------    -------------------            -------------------------------
# Generated from Intellog Unique Number	CN_91_93/WELL/2882
WELL.         10-11-092-17W4                 : Well_name    - WELL
LOC .         AA/10-11-092-17W4/0            : Location     - LOCATION
UWI .         AA/10-11-092-17W400            : Uwi          - UNIQUE WELL ID
ENTR.         JOETTE                         : Entered      - ENTERED BY
SRVC.         SCHLUMBERGER                   : Scn          - SERVICE COMPANY
DATE.         03/31/92                       : Date         - LOG DATE
STRT.M        30                             : top_depth    - START DEPTH
STOP.M        260                            : bot_depth    - STOP DEPTH
STEP.M        0.25                           : increment    - STEP LENGTH
 NULL. -999.2500:NULL Value
~CURVE INFORMATION BLOCK
#MNEM UNIT       ERCB CURVE CODE    CURVE DESCRIPTION
#-----------   ------------------   ----------------------------------
DEPT.M        00 001 00 00         : DEPTH        - DEPTH
CALI.MM       00 280 01 00         : CAL          - CALIPER
GR  .API      00 310 00 00         : GR           - GAMMA RAY
NPHI.V/V      00 330 00 00         : PHIN         - NEUTRON POROSITY (SANDSTONE)
DPHI.V/V      00 890 00 00         : PHID         - DENSITY POROSITY (SANDSTONE)
ILD .OHMM     00 120 00 00         : RESD         - DEEP RESISTIVITY (DIL)
~PARAMETER INFORMATION
#MNEM.UNIT           DATA             DESCRIPTION OF MNEMONIC
#---------         -----------     ------------------------------
GL  .M        502.2                : gl           - GROUND LEVEL ELEVATION
EREF.M        505.87               : kb           - ELEVATION OF DEPTH REFERENCE
DATM.M        505.87               : datum        - DATUM ELEVATION
TDD .M        263.3                : tdd          - TOTAL DEPTH DRILLER
RUN .         ONE                  : Run          - RUN NUMBER
ENG .         BILL                 : Engineer     - RECORDING ENGINEER
WIT .         JIM                  : Witness      - WITNESSED BY
MUD .         GEL                  : Mud_type     - MUD TYPE
MATR.         SANDSTONE            : Logunit      - NEUTRON MATRIX
TMAX.C        22                   : BHT          - MAXIMUM RECORDED TEMPERATURE
BHTD.M        263.3                : BHTDEP       - MAXIMUM RECORDED TEMPERATURE
RMT .C        22                   : MDTP         - TEMPERATURE OF MUD
MUDD.KG/M     1100                 : MWT          - MUD DENSITY
NEUT.         1                    : NEUTRON      - NEUTRON TYPE
RESI.         0                    : RESIST       - RESISTIVITY TYPE
RM  .OHMM     11.7                 : RM           - RESISTIVITY OF MUD
RMC .OHMM     11.7                 : RMC          - RESISTIVITY OF MUD CAKE
RMF .OHMM     11.7                 : RMF          - RESISTIVITY OF MUD FILTRATE
SUFT.C        4                    : SUFT         - SURFACE TEMPERATURE
~A  DEPTH      CAL       GR     PHIN     PHID     RESD
# ...
   66.500  218.374   80.943    0.563    0.256    4.612
   66.750  219.331   81.500    0.559    0.251    4.610
   67.000  219.257   82.066    0.534    0.256    4.607
   67.250  219.212   83.799    0.525    0.249    4.604
   67.500  218.194   84.374    0.536    0.239    4.688
   67.750  215.171   85.523    0.551    0.226    4.861
   68.000  210.202   85.505    0.568    0.204    4.950
   68.250  211.130   85.469    0.573    0.140    5.133
   68.500  218.972   85.433    0.563    0.243    5.226
   68.750  221.891   85.415    0.556    0.250    5.321
   69.000  222.848   87.148    0.570    0.259    5.318
   69.250  222.789   87.130    0.581    0.254    5.027
   69.500  222.744   85.909    0.588    0.258    4.843
   69.750  220.708   85.873    0.599    0.267    4.578
   70.000  218.673   86.448    0.581    0.259    4.491
   70.250  217.655   86.996    0.564    0.237    4.407
   70.500  219.556   86.385    0.555    0.243    4.323
   70.750  221.486   85.164    0.577    0.258    4.321
   71.000  222.444   86.313    0.598    0.247    4.319
   71.250  222.369   86.888    0.594    0.253    4.317
   71.500  222.339   86.861    0.579    0.254    4.314
   71.750  221.277   85.631    0.557    0.236    4.312
   72.000  219.271   85.613    0.538    0.238    4.309
   72.250  217.251   86.169    0.532    0.240    4.306
   72.500  214.198   87.912    0.527    0.247    4.304
   72.750  213.165   87.885    0.532    0.258    4.223
   73.000  212.132   87.849    0.554    0.268    4.144
   73.250  212.102   87.831    0.591    0.263    3.990
   73.500  212.057   86.609    0.597    0.256    3.915
   73.750  211.997   86.573    0.594    0.266    3.841
   74.000  211.923   87.148    0.594    0.261    3.838
   74.250  211.878   87.112    0.598    0.248    3.837
   74.500  211.833   84.104    0.603    0.238    3.979
   74.750  211.788   82.910    0.614    0.254    4.051
   75.000  211.758   81.688    0.626    0.265    4.201
   75.250  212.656   82.236    0.633    0.275    4.438
   75.500  212.611   81.626    0.605    0.272    4.520
   75.750  212.581   80.413    0.599    0.270    4.776
   76.000  212.536   79.776    0.588    0.267    5.139
   76.250  212.491   80.943    0.588    0.261    5.530
   76.500  212.416   82.694    0.580    0.251    5.736
   76.750  211.399   79.695    0.556    0.240    6.173
   77.000  208.360   76.704    0.561    0.232    6.286
   77.250  201.416   73.714    0.575    0.211    6.401
   77.500  190.505   73.678    0.568    0.156    6.279
   77.750  195.384   76.615    0.530    0.105    6.161
   78.000  202.254   77.764    0.492    0.165    6.272
   78.250  207.148   75.366    0.514    0.204    6.505
   78.500  210.051   72.376    0.509    0.246    6.623
   78.750  209.992   70.562    0.498    0.266    6.869
   79.000  209.962   69.933    0.498    0.262    6.991
   79.250  209.887   70.499    0.499    0.273    6.860
   79.500  209.857   71.640    0.509    0.281    6.607
   79.750  210.785   72.816    0.525    0.269    6.133
   80.000  211.728   73.382    0.531    0.272    5.285
   80.250  209.692   74.531    0.520    0.263    4.727
   80.500  204.693   75.088    0.519    0.248    4.228
   80.750  202.673   75.663    0.553    0.243    3.644
   81.000  200.667   76.812    0.570    0.242    3.320
   81.250  200.607   77.971    0.612    0.224    3.025
   81.500  206.489   80.907    0.614    0.228    2.705
   81.750  210.395   86.205    0.608    0.252    2.605
   82.000  213.299   87.363    0.612    0.262    2.603
   82.250  214.242   85.549    0.621    0.280    2.602
   82.500  214.182   82.550    0.636    0.303    2.601
   82.750  214.137   82.532    0.640    0.297    2.598
   83.000  215.050   83.089    0.628    0.291    2.598
   83.250  215.020   84.831    0.617    0.305    2.596
   83.500  215.963   85.406    0.606    0.310    2.595
   83.750  215.918   84.768    0.591    0.311    2.594
   84.000  216.846   85.343    0.583    0.311    2.592
   84.250  214.810   87.678    0.611    0.306    2.590
   84.500  212.790   88.234    0.604    0.298    2.638
   84.750  210.739   88.216    0.586    0.297    2.685
   85.000  210.709   86.995    0.583    0.308    2.785
   85.250  210.650   84.588    0.597    0.288    3.053
   85.500  210.620   83.969    0.611    0.259    3.167
   85.750  211.548   82.748    0.613    0.237    3.285
   86.000  211.503   80.943    0.622    0.256    3.283
   86.250  212.416   82.110    0.626    0.279    3.221
   86.500  212.371   82.667    0.618    0.287    3.159
   86.750  212.341   82.038    0.586    0.280    3.158
   87.000  212.296   81.427    0.573    0.274    3.215
   87.250  211.248   79.021    0.570    0.278    3.334
   87.500  211.203   77.809    0.577    0.284    3.458
   87.750  211.158   77.180    0.574    0.277    3.933
   88.000  211.083   76.551    0.567    0.263    4.081
   88.250  211.053   78.886    0.544    0.250    4.393
   88.500  210.994   78.868    0.537    0.234    5.584
   88.750  210.919   77.647    0.513    0.220    6.593
   89.000  209.901   77.036    0.488    0.197    7.364
   89.250  207.866   75.222    0.486    0.143    8.533
   89.500  205.860   74.010    0.479    0.148    9.357
   89.750  209.751   72.196    0.465    0.174   10.069
   90.000  208.704   70.975    0.442    0.186   10.442
   90.250  203.735   70.957    0.446    0.202   10.059
   90.500  199.739   70.912    0.444    0.224    8.997
   90.750  197.703   72.079    0.426    0.213    7.754
   91.000  204.573   73.821    0.412    0.183    7.331
   91.250  208.479   77.350    0.455    0.156    6.678
   91.500  209.392   79.685    0.497    0.225    6.084
   91.750  207.371   78.473    0.512    0.225    5.969
   92.000  203.360   74.881    0.506    0.227    6.190
   92.250  200.367   72.492    0.499    0.235    6.787
   92.500  196.356   70.086    0.490    0.243    7.582
   92.750  193.348   67.679    0.482    0.255    8.951
   93.000  189.337   65.865    0.471    0.225   10.374
   93.250  187.301   66.440    0.474    0.199   11.588
   93.500  187.256   68.775    0.465    0.205   13.679
   93.750  187.226   69.924    0.468    0.239   15.855
   94.000  186.179   68.721    0.471    0.249   17.384
   94.250  184.143   66.323    0.452    0.233   19.416
   94.500  182.108   65.102    0.430    0.219   21.282
   94.750  180.102   65.066    0.413    0.223   22.486
   95.000  178.052   65.030    0.410    0.228   23.322
   95.250  177.019   65.012    0.407    0.235   23.311
   95.500  176.959   64.985    0.418    0.249   23.299
   95.750  176.959   64.356    0.430    0.250   23.276
   96.000  176.884   63.737    0.429    0.245   22.841
   96.250  177.797   63.117    0.403    0.228   22.411
   96.500  177.737   62.480    0.400    0.212   20.041
   96.750  178.680   61.869    0.393    0.209   18.605
   97.000  179.638   61.824    0.385    0.207   16.028
   97.250  179.593   61.797    0.386    0.210   15.443
   97.500  179.548   61.177    0.416    0.226   14.601
   97.750  179.503   61.150    0.430    0.242   13.803
   98.000  179.444   61.698    0.452    0.253   14.054
   98.250  180.371   61.680    0.459    0.287   15.121
   98.500  182.272   61.644    0.451    0.289   15.686
   98.750  182.242   60.432    0.453    0.247   15.676
   99.000  183.200   59.803    0.465    0.226   14.550
   99.250  186.104   60.971    0.452    0.208   12.539
   99.500  193.961   65.685    0.385    0.189   11.640
   99.750  199.843   70.400    0.411    0.209   10.031
  100.000  205.725   75.698    0.468    0.238    8.807
  100.250  209.601   79.820    0.485    0.239    6.792
  100.500  209.571   82.756    0.481    0.245    5.239
  100.750  209.496   84.498    0.495    0.252    3.966
  101.000  209.466   83.268    0.536    0.263    3.612
  101.250  208.419   81.481    0.551    0.265    3.747
  101.500  204.407   78.481    0.535    0.249    4.033
  101.750  202.387   74.889    0.551    0.221    4.588
  102.000  203.330   74.854    0.543    0.199    4.759
  102.250  207.236   77.790    0.510    0.181    4.934
  102.500  211.142   80.735    0.477    0.159    4.932
  102.750  213.043   81.867    0.487    0.246    4.930
