~VERSION INFORMATION
 VERS.                 2.0:   CWLS LOG ASCII STANDARD -VERSION 2.0
 WRAP.                  NO:   ONE LINE PER DEPTH STEP
~WELL INFORMATION BLOCK
#MNEM.UNIT           DATA                    DESCRIPTION OF MNEMONIC
#---------    -------------------            -------------------------------
# Generated from Intellog Unique Number	CN_91_93/WELL/2788
WELL.         PETRO CANADA                   : Well_name    - WELL
LOC .         AA/10-29-093-17W4/0            : Location     - LOCATION
UWI .         AA/10-29-093-17W400            : Uwi          - UNIQUE WELL ID
ENTR.         JOETTE                         : Entered      - ENTERED BY
SRVC.         SCHLUMBERGER                   : Scn          - SERVICE COMPANY
DATE.         03/24/92                       : Date         - LOG DATE
STRT.F        200                            : top_depth    - START DEPTH
STOP.F        860.269                        : bot_depth    - STOP DEPTH
STEP.F        0.82                           : increment    - STEP LENGTH
 NULL. -999.2500:NULL Value
~CURVE INFORMATION BLOCK
#MNEM UNIT       ERCB CURVE CODE    CURVE DESCRIPTION
#-----------   ------------------   ----------------------------------
DEPT.F        00 001 00 00         : DEPTH        - DEPTH
GR  .API      00 310 00 00         : GR           - GAMMA RAY
NPHI.V/V      00 330 00 00         : PHIN         - NEUTRON POROSITY (SANDSTONE)
DPHI.V/V      00 890 00 00         : PHID         - DENSITY POROSITY (SANDSTONE)
ILD .OHMM     00 120 00 00         : RESD         - DEEP RESISTIVITY (DIL)
~PARAMETER INFORMATION
#MNEM.UNIT           DATA             DESCRIPTION OF MNEMONIC
#---------         -----------     ------------------------------
GL  .F        1673.9               : gl           - GROUND LEVEL ELEVATION
EREF.F        1684.9               : kb           - ELEVATION OF DEPTH REFERENCE
DATM.F        1684.9               : datum        - DATUM ELEVATION
TDD .F        897                  : tdd          - TOTAL DEPTH DRILLER
RUN .         ONE                  : Run          - RUN NUMBER
ENG .         BILL                 : Engineer     - RECORDING ENGINEER
WIT .         JIM                  : Witness      - WITNESSED BY
MUD .         GEL                  : Mud_type     - MUD TYPE
MATR.         SANDSTONE            : Logunit      - NEUTRON MATRIX
TMAX.F        70                   : BHT          - MAXIMUM RECORDED TEMPERATURE
BHTD.F        897                  : BHTDEP       - MAXIMUM RECORDED TEMPERATURE
RMT .F        69                   : MDTP         - TEMPERATURE OF MUD
MUDD.LB/G     8.6                  : MWT          - MUD DENSITY
NEUT.         1                    : NEUTRON      - NEUTRON TYPE
RESI.         0                    : RESIST       - RESISTIVITY TYPE
RM  .OHMM     0.49                 : RM           - RESISTIVITY OF MUD
RMC .OHMM     0.49                 : RMC          - RESISTIVITY OF MUD CAKE
RMF .OHMM     0.49                 : RMF          - RESISTIVITY OF MUD FILTRATE
SUFT.F        39.2                 : SUFT         - SURFACE TEMPERATURE
~A  DEPTH       GR     PHIN     PHID     RESD
# ...
  485.433   93.448    0.436    0.155    9.303
  486.253   92.973    0.435    0.148    9.333
  487.073   90.722    0.438    0.171    9.362
  487.894   89.041    0.446    0.262    9.216
  488.714   89.169    0.455    0.271    8.908
  489.534   90.503    0.458    0.235    8.436
  490.354   92.440    0.451    0.211    7.553
  491.175   93.742    0.445    0.201    6.636
  491.995   95.076    0.441    0.196    6.399
  492.815   95.807    0.444    0.193    5.955
  493.635   95.332    0.449    0.193    6.093
  494.455   94.858    0.467    0.204    6.344
  495.276   93.780    0.469    0.227    6.731
  496.096   93.305    0.469    0.233    6.892
  496.916   93.466    0.469    0.254    6.785
  497.736   94.800    0.470    0.261    6.668
  498.556   96.134    0.473    0.257    6.089
  499.377   98.674    0.477    0.249    5.552
  500.197   99.975    0.490    0.228    5.066
  501.017  101.944    0.498    0.234    4.801
  501.837  103.279    0.506    0.243    5.401
  502.657  104.042    0.507    0.251    5.840
  503.478  104.106    0.503    0.241    6.564
  504.298   96.999    0.493    0.224    7.245
  505.118   89.860    0.481    0.212    7.853
  505.938   76.692    0.471    0.219    7.865
  506.759   72.632    0.462    0.265    7.597
  507.579   72.094    0.460    0.292    7.064
  508.399   72.222    0.464    0.289    6.818
  509.219   76.666    0.478    0.261    6.109
  510.039   79.745    0.488    0.250    5.474
  510.860   83.491    0.505    0.242    5.180
  511.680   87.871    0.507    0.240    4.909
  512.500   89.808    0.507    0.237    4.745
  513.320   91.777    0.509    0.237    4.760
  514.140   94.920    0.511    0.236    4.775
  514.961   99.269    0.521    0.236    4.882
  515.781  103.014    0.527    0.236    5.091
  516.601  104.951    0.531    0.236    5.300
  517.421  104.476    0.535    0.235    5.415
  518.241  103.399    0.537    0.234    5.436
  519.062  101.750    0.538    0.234    5.347
  519.882  100.641    0.537    0.232    5.164
  520.702   99.595    0.534    0.229    5.280
  521.522   99.056    0.528    0.227    6.048
  522.343   98.075    0.520    0.219    7.339
  523.163   97.568    0.511    0.209    7.942
  523.983   97.029    0.481    0.195    8.126
  524.803   95.984    0.452    0.181    7.708
  525.623   94.938    0.446    0.165    7.439
  526.444   93.796    0.439    0.157    7.179
  527.264   92.719    0.436    0.157    6.798
  528.084   94.053    0.452    0.163    6.092
  528.904   97.830    0.476    0.176    5.454
  529.724  101.005    0.470    0.188    5.068
  530.545  103.481    0.470    0.202    4.624
  531.365  108.496    0.495    0.204    4.379
  532.185  114.019    0.527    0.205    4.154
  533.005  120.843    0.544    0.202    4.015
  533.825  123.383    0.551    0.202    4.021
  534.646  124.717    0.547    0.200    3.962
  535.466  120.022    0.542    0.190    4.050
  536.286  118.309    0.538    0.175    4.217
  537.106  115.391    0.535    0.159    4.563
  537.927  110.093    0.531    0.150    5.133
  538.747  105.366    0.529    0.139    6.107
  539.567  101.274    0.528    0.130    7.553
  540.387   95.976    0.529    0.127    7.875
  541.207   95.501    0.534    0.141    7.186
  542.028   99.247    0.541    0.171    6.547
  542.848  105.404    0.547    0.186    5.644
  543.668  111.022    0.550    0.186    5.560
  544.488  113.530    0.548    0.183    6.012
  545.308  117.911    0.544    0.180    6.892
  546.129  120.451    0.538    0.177    7.601
  546.949  120.611    0.527    0.177    8.232
  547.769  120.707    0.509    0.177    8.578
  548.589  120.200    0.421    0.179    8.769
  549.409  119.725    0.426    0.180    8.797
  550.230  118.045    0.434    0.182    8.825
  551.050  116.364    0.440    0.185    8.853
  551.870  112.272    0.439    0.186    8.722
  552.690  108.751    0.437    0.189    8.571
  553.510  104.659    0.441    0.192    8.285
  554.331  104.184    0.456    0.193    8.002
  555.151  107.391    0.467    0.196    7.877
  555.971  108.661    0.481    0.199    7.760
  556.791  111.233    0.491    0.202    7.927
  557.612  113.170    0.497    0.201    8.260
  558.432  114.536    0.498    0.181    8.599
  559.252  115.267    0.496    0.188    9.499
  560.072  117.807    0.490    0.195    9.704
  560.892  118.538    0.485    0.196    9.921
  561.713  116.254    0.488    0.186    9.582
  562.533  113.336    0.498    0.193    8.751
  563.353  109.847    0.503    0.151    8.445
  564.173  106.928    0.437    0.134    8.010
  564.993  104.645    0.394    0.113    7.872
  565.814  102.329    0.395    0.119    7.761
  566.634  104.266    0.411    0.192    7.773
  567.454  106.838    0.424    0.209    7.798
  568.274  105.158    0.435    0.215    7.835
  569.094  101.668    0.434    0.225    8.004
  569.915  100.623    0.429    0.230    8.177
  570.735  100.084    0.429    0.227    8.360
  571.555  100.212    0.432    0.223    8.553
  572.375  102.752    0.438    0.219    8.581
  573.196  105.292    0.446    0.213    8.446
  574.016  109.069    0.458    0.197    8.473
  574.836  111.006    0.467    0.192    8.184
  575.656  109.929    0.470    0.194    8.056
  576.476  105.805    0.468    0.203    7.781
  577.297  112.026    0.457    0.214    7.665
  578.117  111.551    0.444    0.227    7.677
  578.937  108.665    0.433    0.229    7.557
  579.757  106.349    0.427    0.233    7.581
  580.577  104.669    0.428    0.233    7.751
  581.398  103.591    0.429    0.232    7.943
  582.218  104.925    0.435    0.231    7.955
  583.038  108.068    0.453    0.229    7.974
  583.858  109.973    0.492    0.219    7.702
  584.678  115.020    0.504    0.213    7.022
  585.499  115.687    0.505    0.204    4.818
  586.319  115.245    0.493    0.176    5.629
  587.139  111.723    0.478    0.155    6.454
  587.959  108.202    0.465    0.143    6.474
  588.780  105.919    0.454    0.139    5.908
  589.600  105.444    0.445    0.149    5.186
  590.420  105.604    0.440    0.166    4.467
  591.240  105.700    0.441    0.197    3.372
  592.060  106.432    0.446    0.222    3.448
  592.881  108.401    0.453    0.229    3.949
  593.701  110.972    0.463    0.236    4.527
  594.521  112.242    0.473    0.252    5.387
  595.341  113.576    0.501    0.271    6.409
  596.161  113.705    0.514    0.283    7.482
  596.982  112.024    0.524    0.253    8.748
  597.802  109.773    0.489    0.198    8.135
  598.622  108.663    0.480    0.146    7.698
  599.442  107.014    0.471    0.154    6.763
  600.262  104.699    0.469    0.166    6.784
  601.083  107.874    0.470    0.176    7.348
  601.903  110.414    0.472    0.187    7.377
  602.723  111.716    0.477    0.196    7.250
  603.543  113.082    0.488    0.206    7.136
  604.364  113.845    0.494    0.218    8.994
  605.184  114.512    0.496    0.225   10.500
  606.004  114.672    0.491    0.211   12.037
  606.824  115.403    0.482    0.196   12.066
  607.644  113.691    0.452    0.179   11.220
  608.465  108.995    0.446    0.165   10.046
  609.285  102.460    0.430    0.151    9.529
  610.105  102.017    0.424    0.143    9.372
  610.925  103.319    0.415    0.154    9.225
  611.745  105.288    0.412    0.169    9.255
  612.566  107.860    0.409    0.183    9.284
  613.386  108.527    0.408    0.197    9.321
  614.206  109.258    0.408    0.202    9.350
  615.026  108.180    0.409    0.199    9.380
  615.846  108.911    0.412    0.196    9.402
  616.667  110.880    0.432    0.193    9.432
  617.487  112.881    0.441    0.193    9.462
  618.307  113.580    0.444    0.192    9.867
  619.127  113.677    0.444    0.190   10.486
  619.948  114.440    0.442    0.187   10.908
  620.768  114.568    0.441    0.195   13.236
  621.588  114.696    0.439    0.198   14.336
  622.408  114.221    0.434    0.203   13.342
  623.228  114.350    0.430    0.204   12.624
  624.049  113.907    0.421    0.203   12.417
  624.869  113.368    0.412    0.202   16.254
  625.689  112.258    0.403    0.195   17.927
  626.509  109.436    0.395    0.192   14.325
  627.329  108.294    0.394    0.185   12.339
