~VERSION INFORMATION
 VERS.                 2.0:   CWLS LOG ASCII STANDARD -VERSION 2.0
 WRAP.                  NO:   ONE LINE PER DEPTH STEP
~WELL INFORMATION BLOCK
#MNEM.UNIT           DATA                    DESCRIPTION OF MNEMONIC
#---------    -------------------            -------------------------------
# Generated from Intellog Unique Number	CN_91_93/WELL/3694
WELL.         10-12-093-08W4                 : Well_name    - WELL
LOC .         AA/10-12-093-08W4/0            : Location     - LOCATION
UWI .         AA/10-12-093-08W400            : Uwi          - UNIQUE WELL ID
ENTR.         JOETTE                         : Entered      - ENTERED BY
SRVC.         SCHLUMBERGER                   : Scn          - SERVICE COMPANY
DATE.         03/22/92                       : Date         - LOG DATE
STRT.M        75                             : top_depth    - START DEPTH
STOP.M        225                            : bot_depth    - STOP DEPTH
STEP.M        0.25                           : increment    - STEP LENGTH
 NULL. -999.2500:NULL Value
~CURVE INFORMATION BLOCK
#MNEM UNIT       ERCB CURVE CODE    CURVE DESCRIPTION
#-----------   ------------------   ----------------------------------
DEPT.M        00 001 00 00         : DEPTH        - DEPTH
CALI.MM       00 280 01 00         : CAL          - CALIPER
GR  .API      00 310 00 00         : GR           - GAMMA RAY
NPHI.V/V      00 330 00 00         : PHIN         - NEUTRON POROSITY (SANDSTONE)
DPHI.V/V      00 890 00 00         : PHID         - DENSITY POROSITY (SANDSTONE)
ILD .OHMM     00 120 00 00         : RESD         - DEEP RESISTIVITY (DIL)
~PARAMETER INFORMATION
#MNEM.UNIT           DATA             DESCRIPTION OF MNEMONIC
#---------         -----------     ------------------------------
GL  .M        475.8                : gl           - GROUND LEVEL ELEVATION
EREF.M        475.8                : kb           - ELEVATION OF DEPTH REFERENCE
DATM.M        475.8                : datum        - DATUM ELEVATION
TDD .M        256.7                : tdd          - TOTAL DEPTH DRILLER
RUN .         ONE                  : Run          - RUN NUMBER
ENG .         BILL                 : Engineer     - RECORDING ENGINEER
WIT .         JIM                  : Witness      - WITNESSED BY
MUD .         GEL                  : Mud_type     - MUD TYPE
MATR.         SANDSTONE            : Logunit      - NEUTRON MATRIX
TMAX.C        16                   : BHT          - MAXIMUM RECORDED TEMPERATURE
BHTD.M        256.7                : BHTDEP       - MAXIMUM RECORDED TEMPERATURE
RMT .C        14                   : MDTP         - TEMPERATURE OF MUD
MUDD.KG/M     1070                 : MWT          - MUD DENSITY
NEUT.         1                    : NEUTRON      - NEUTRON TYPE
RESI.         0                    : RESIST       - RESISTIVITY TYPE
RM  .OHMM     4.5                  : RM           - RESISTIVITY OF MUD
RMC .OHMM     4.5                  : RMC          - RESISTIVITY OF MUD CAKE
RMF .OHMM     4.5                  : RMF          - RESISTIVITY OF MUD FILTRATE
SUFT.C        4                    : SUFT         - SURFACE TEMPERATURE
~A  DEPTH      CAL       GR     PHIN     PHID     RESD
# ...
  111.500  139.988   99.151    0.472    0.322   53.401
  111.750  140.099  100.985    0.466    0.287   51.974
  112.000  141.123  102.810    0.492    0.301   50.568
  112.250  141.171  107.612    0.527    0.315   49.217
  112.500  142.226  106.459    0.551    0.323   48.558
  112.750  142.290  102.924    0.569    0.333   47.909
  113.000  142.353  109.512    0.559    0.326   47.947
  113.250  143.409  113.719    0.553    0.329   47.977
  113.500  143.488  106.611    0.565    0.357   48.008
  113.750  144.544  107.840    0.580    0.363   48.039
  114.000  145.615  103.123    0.591    0.309   48.070
  114.250  147.632  109.107    0.581    0.346   48.100
  114.500  148.703  107.358    0.588    0.392   48.131
  114.750  140.810  100.249    0.576    0.400   48.169
  115.000  138.904   97.905    0.549    0.354   48.200
  115.250  138.968   96.752    0.535    0.330   48.239
  115.500  140.023   97.395    0.515    0.278   48.254
  115.750  139.110   98.634    0.492    0.278   48.963
  116.000  136.211   99.257    0.476    0.289   49.691
  116.250  134.274   99.882    0.504    0.295   51.129
  116.500  133.328  112.435    0.520    0.267   53.356
  116.750  133.392  107.113    0.491    0.224   54.892
  117.000  137.425   98.218    0.464    0.246   58.894
  117.250  138.481   88.718    0.453    0.020   62.302
  117.500  136.591   73.868    0.436   -0.019   71.684
  117.750  136.622   66.164    0.384    0.082   93.494
  118.000  135.709   67.988    0.231    0.143  204.294
  118.250  136.765   77.555    0.274    0.184  150.411
  118.500  136.812   91.299    0.327    0.221  113.872
  118.750  136.875   88.965    0.382    0.291   82.676
  119.000  137.931   91.971    0.450    0.314   69.011
  119.250  137.994   94.391    0.477    0.304   56.815
  119.500  138.057   87.282    0.468    0.305   55.288
  119.750  138.152   81.375    0.473    0.294   55.332
  120.000  138.231   83.190    0.465    0.010   55.350
  120.250  138.263   80.846    0.389    0.059   55.403
  120.500  138.326   77.320    0.406    0.161   55.420
  120.750  139.382   80.326    0.453    0.201   55.465
  121.000  140.438   85.724    0.474    0.193   52.497
  121.250  141.493   92.312    0.505    0.199   51.069
  121.500  142.565   97.719    0.510    0.292   47.667
  121.750  143.637   97.162    0.520    0.291   46.378
  122.000  144.661  100.178    0.496    0.288   45.773
  122.250  146.709  101.416    0.506    0.287   45.167
  122.500  149.750  100.858    0.511    0.287   45.196
  122.750  152.823  102.683    0.496    0.286   45.218
  123.000  153.863  106.285    0.506    0.286   46.534
  123.250  154.918  110.501    0.517    0.283   47.873
  123.500  155.990  108.147    0.525    0.266   49.259
  123.750  157.046  101.039    0.467    0.233   48.608
  124.000  157.125  104.659    0.455    0.278   47.309
  124.250  157.156  102.911    0.465    0.268   46.029
  124.500  158.228   99.366    0.493    0.257   43.566
  124.750  159.284  101.786    0.521    0.291   42.395
  125.000  160.324  110.766    0.535    0.302   42.422
  125.250  164.373  117.355    0.525    0.311   43.650
  125.500  169.415  103.696    0.530    0.324   46.191
  125.750  161.506  102.543    0.549    0.309   48.196
  126.000  158.607  108.555    0.544    0.292   49.591
  126.250  159.647  108.574    0.510    0.293   48.250
  126.500  157.757  118.140    0.482    0.306   45.661
  126.750  155.819  111.032    0.507    0.319   43.825
  127.000  153.929  102.137    0.528    0.323   42.647
  127.250  152.968   99.207    0.543    0.277   42.076
  127.500  152.070  102.222    0.515    0.356   41.526
  127.750  152.118  101.655    0.524    0.354   41.560
  128.000  152.165   98.120    0.532    0.326   41.573
  128.250  152.244   99.349    0.545    0.278   42.783
  128.500  153.284  104.747    0.547    0.254   45.267
  128.750  153.348  108.963    0.546    0.478   45.295
  129.000  153.411  104.841    0.549    0.415   44.078
  129.250  155.475  108.443    0.517    0.283   44.106
  129.500  158.516  120.392    0.503    0.286   46.020
  129.750  163.542  121.025    0.515    0.275   48.691
  130.000  164.582  118.085    0.511    0.255   52.241
  130.250  149.757  109.190    0.495    0.281   56.050
  130.500  146.858  102.677    0.497    0.308   57.672
  130.750  146.906   94.974    0.500    0.321   58.520
  131.000  146.008   89.652    0.505    0.338   63.668
  131.250  145.047   95.645    0.432    0.340   60.252
  131.500  144.149  103.425    0.460    0.310   53.178
  131.750  144.197  107.036    0.474    0.280   48.949
  132.000  147.237   98.736    0.482    0.259   46.965
  132.250  149.317   95.797    0.483    0.257   44.459
  132.500  147.364   95.239    0.478    0.231   43.257
  132.750  149.412   95.277    0.476    0.254   40.943
  133.000  154.438   95.324    0.483    0.275   39.836
  133.250  154.502   89.993    0.533    0.428   37.698
  133.500  147.633   85.862    0.569    0.456   35.675
  133.750  150.674   88.282    0.586    0.473   35.198
  134.000  153.699   96.667    0.588    0.428   35.721
  134.250  154.754  100.278    0.582    0.412   36.240
  134.500  146.893   96.743    0.576    0.402   38.882
  134.750  143.994   92.017    0.571    0.414   40.576
  135.000  144.042   88.482    0.568    0.420   40.596
  135.250  146.090   86.137    0.564    0.415   39.517
  135.500  149.147  100.468    0.555    0.368   37.922
  135.750  147.209   95.742    0.548    0.370   38.479
  136.000  143.334   91.025    0.541    0.401   40.706
  136.250  145.351   93.436    0.533    0.379   41.884
  136.500  148.391   94.665    0.483    0.302   40.200
  136.750  144.516   99.467    0.509    0.345   38.037
  137.000  144.548   99.505    0.523    0.389   36.502
  137.250  150.566   94.183    0.511    0.327   39.713
  137.500  152.615   85.883    0.474    0.035   45.053
  137.750  148.708   82.348    0.441    0.168   45.082
  138.000  145.825   96.688    0.421    0.223   43.262
  138.250  145.872   96.131    0.421    0.317   39.821
  138.500  150.898   97.369    0.494    0.298   36.642
  138.750  154.916  102.162    0.512    0.293   34.196
  139.000  156.980  106.368    0.520    0.291   31.913
  139.250  153.073  102.238    0.519    0.281   29.792
  139.500  151.167   99.903    0.536    0.274   28.981
  139.750  150.253  101.718    0.556    0.296   29.412
  140.000  150.301  101.765    0.552    0.289   29.839
  140.250  150.364  100.612    0.538    0.281   30.282
  140.500  151.420  100.641    0.528    0.292   30.723
  140.750  152.460  101.274    0.537    0.319   30.747
  141.000  153.516   95.357    0.539    0.329   30.336
  141.250  153.579   97.181    0.532    0.337   30.791
  141.500  153.658  102.598    0.539    0.349   32.127
  141.750  151.736   99.649    0.555    0.361   33.998
  142.000  147.829   96.123    0.550    0.287   34.486
  142.250  145.891   96.161    0.525    0.260   34.036
  142.500  142.000   96.794    0.525    0.261   34.052
  142.750  140.094   96.832    0.518    0.264   34.080
  143.000  139.149   94.488    0.509    0.253   35.066
  143.250  138.204   89.762    0.497    0.220   36.582
  143.500  137.306   86.217    0.474    0.258   40.926
  143.750  137.354   91.019    0.421    0.227   43.301
  144.000  136.440   98.799    0.424    0.248   39.299
  144.250  137.496  101.219    0.498    0.263   34.691
  144.500  136.567   96.493    0.521    0.253   35.701
  144.750  136.614   97.722    0.498    0.244   36.722
  145.000  133.700   89.422    0.496    0.227   37.785
  145.250  132.818   84.696    0.471    0.270   39.985
  145.500  132.849   79.374    0.470    0.288   43.503
  145.750  131.920   80.603    0.478    0.295   47.330
  146.000  131.999   75.887    0.441    0.301   51.494
  146.250  132.046   80.679    0.418    0.309   55.248
  146.500  132.125   87.268    0.364    0.318   57.646
  146.750  132.157   92.675    0.355    0.326   60.992
  147.000  132.236   92.127    0.360    0.306   64.532
  147.250  132.315   89.783    0.373    0.279   67.333
  147.500  131.354   91.012    0.395    0.280   70.277
  147.750  131.433   95.814    0.408    0.266   72.311
