~VERSION INFORMATION
 VERS.                 2.0:   CWLS LOG ASCII STANDARD -VERSION 2.0
 WRAP.                  NO:   ONE LINE PER DEPTH STEP
~WELL INFORMATION BLOCK
#MNEM.UNIT           DATA                    DESCRIPTION OF MNEMONIC
#---------    -------------------            -------------------------------
# Generated from Intellog Unique Number	CS_77_79/WELL/936
WELL.         PEX PCEJ THORNBURY OV          : Well_name    - WELL
LOC .         AA/10-08-079-14W4/0            : Location     - LOCATION
UWI .         AA/10-08-079-14W4/0            : Uwi          - UNIQUE WELL ID
ENTR.         JHS                            : Entered      - ENTERED BY
SRVC.         SCHLUMBERGER                   : Scn          - SERVICE COMPANY
STRT.M        275                            : top_depth    - START DEPTH
STOP.M        525                            : bot_depth    - STOP DEPTH
STEP.M        0.25                           : increment    - STEP LENGTH
 NULL. -999.2500:NULL Value
~CURVE INFORMATION BLOCK
#MNEM UNIT       ERCB CURVE CODE    CURVE DESCRIPTION
#-----------   ------------------   ----------------------------------
DEPT.M        00 001 00 00         : DEPTH        - DEPTH
DPHI.V/V      00 890 00 00         : PHID         - DENSITY POROSITY (LIMESTONE)
NPHI.V/V      00 330 00 00         : PHIN         - NEUTRON POROSITY (LIMESTONE)
GR  .API      00 310 00 00         : GR           - GAMMA RAY
ILD .OHMM     00 120 00 00         : RESD         - DEEP RESISTIVITY (DIL)
RHOB.KG/M3    00 350 00 00         : DENS         - BULK DENSITY
~PARAMETER INFORMATION
#MNEM.UNIT           DATA             DESCRIPTION OF MNEMONIC
#---------         -----------     ------------------------------
GL  .M        700.7                : gl           - GROUND LEVEL ELEVATION
EREF.M        703.6                : kb           - ELEVATION OF DEPTH REFERENCE
DATM.M        703.6                : datum        - DATUM ELEVATION
TDD .M        527                  : tdd          - TOTAL DEPTH DRILLER
RUN .         ONE                  : Run          - RUN NUMBER
ENG .         BILL                 : Engineer     - RECORDING ENGINEER
WIT .         JIM                  : Witness      - WITNESSED BY
MUD .         GEL                  : Mud_type     - MUD TYPE
MATR.         LIMESTONE            : Logunit      - NEUTRON MATRIX
TMAX.C        22                   : BHT          - MAXIMUM RECORDED TEMPERATURE
BHTD.M        527                  : BHTDEP       - MAXIMUM RECORDED TEMPERATURE
MATR.         1                    : LOGUNIT      - NEUTRON MATRIX
RMT .C        25                   : MDTP         - TEMPERATURE OF MUD
NEUT.         1                    : NEUTRON      - NEUTRON TYPE
RESI.         0                    : RESIST       - RESISTIVITY TYPE
RMC .OHMM     0.25                 : RMC          - RESISTIVITY OF MUD CAKE
RMF .OHMM     0.25                 : RMF          - RESISTIVITY OF MUD FILTRATE
SUFT.C        15                   : SUFT         - SURFACE TEMPERATURE
~A  DEPTH     PHID     PHIN       GR     RESD     DENS
# ...
  348.000    0.213    0.413   77.531   10.551    0.000
  348.250    0.224    0.400   67.608   12.514    0.000
  348.500    0.312    0.395   55.825   14.564    0.000
  348.750    0.318    0.408   49.001   17.277    0.000
  349.000    0.308    0.399   45.895   19.365    0.000
  349.250    0.305    0.410   47.129   21.296    0.000
  349.500    0.320    0.402   47.741   23.869    0.000
  349.750    0.315    0.412   45.878   27.270    0.000
  350.000    0.319    0.407   44.011   29.422    0.000
  350.250    0.333    0.391   47.725   34.250    0.000
  350.500    0.318    0.384   51.437   38.384    0.000
  350.750    0.301    0.383   49.571   45.538    0.000
  351.000    0.319    0.381   43.367   51.031    0.000
  351.250    0.329    0.394   42.121   58.285    0.000
  351.500    0.328    0.407   44.594   61.742    0.000
  351.750    0.314    0.408   45.208   58.392    0.000
  352.000    0.302    0.415   48.921   55.225    0.000
  352.250    0.317    0.399   45.195   49.353    0.000
  352.500    0.329    0.399   45.809   43.277    0.000
  352.750    0.329    0.409   50.142   38.677    0.000
  353.000    0.335    0.436   48.896   33.919    0.000
  353.250    0.336    0.419   45.171   29.746    0.000
  353.500    0.328    0.429   46.404   25.124    0.000
  353.750    0.307    0.409   43.919   22.447    0.000
  354.000    0.320    0.404   49.491   19.322    0.000
  354.250    0.323    0.388   47.006   18.269    0.000
  354.500    0.320    0.388   49.479   16.333    0.000
  354.750    0.323    0.409   48.233   15.739    0.000
  355.000    0.327    0.408   45.747   15.456    0.000
  355.250    0.325    0.407   49.461   15.466    0.000
  355.500    0.325    0.396   51.313   15.485    0.000
  355.750    0.313    0.386   46.969   15.496    0.000
  356.000    0.298    0.387   38.284   15.507    0.000
  356.250    0.314    0.388   48.196   15.823    0.000
  356.500    0.304    0.388   48.810   15.835    0.000
  356.750    0.308    0.393   42.605   16.145    0.000
  357.000    0.322    0.390   46.938   15.858    0.000
  357.250    0.328    0.400   45.691   15.866    0.000
  357.500    0.330    0.406   43.206   15.293    0.000
  357.750    0.325    0.398   48.159   15.019    0.000
  358.000    0.318    0.397   41.334   14.480    0.000
  358.250    0.319    0.417   47.525   14.218    0.000
  358.500    0.317    0.432   48.141   14.229    0.000
  358.750    0.314    0.438   51.232   14.247    0.000
  359.000    0.317    0.416   52.467   14.528    0.000
  359.250    0.313    0.417   49.362   14.537    0.000
  359.500    0.317    0.408   48.115   14.552    0.000
  359.750    0.321    0.406   46.249   14.560    0.000
  360.000    0.327    0.411   42.523   14.573    0.000
  360.250    0.342    0.412   41.277   14.586    0.000
  360.500    0.339    0.414   38.793   14.604    0.000
  360.750    0.317    0.418   42.506   14.342    0.000
  361.000    0.316    0.433   41.259   14.349    0.000
  361.250    0.333    0.431   43.114   14.360    0.000
  361.500    0.326    0.416   43.727   14.372    0.000
  361.750    0.327    0.407   46.200   14.654    0.000
  362.000    0.327    0.401   41.235   14.668    0.000
  362.250    0.331    0.399   43.709   14.965    0.000
  362.500    0.327    0.387   48.040   14.972    0.000
  362.750    0.315    0.394   50.515   14.984    0.000
  363.000    0.302    0.402   46.788   15.286    0.000
  363.250    0.303    0.386   46.163   15.294    0.000
  363.500    0.321    0.378   47.396   15.309    0.000
  363.750    0.328    0.380   48.631   15.321    0.000
  364.000    0.306    0.385   49.243   15.333    0.000
  364.250    0.291    0.378   51.097   15.347    0.000
  364.500    0.305    0.380   49.230   15.071    0.000
  364.750    0.299    0.385   51.703   14.803    0.000
  365.000    0.299    0.371   54.797   14.815    0.000
  365.250    0.301    0.369   55.410   15.109    0.000
  365.500    0.309    0.347   57.883   15.410    0.000
  365.750    0.306    0.313   55.398   16.320    0.000
  366.000    0.294    0.305   52.912   18.641    0.000
  366.250    0.276    0.296   52.286   20.502    0.000
  366.500    0.252    0.286   51.041   20.137    0.000
  366.750    0.215    0.238   47.936   27.256    0.000
  367.000    0.148    0.155   39.872   45.406    0.000
  367.250    0.007    0.162   40.486   60.315    0.000
  367.500    0.000    0.176   39.858   67.598    0.000
  367.750    0.012    0.194   37.994   58.180    0.000
  368.000    0.037    0.257   39.227   42.248    0.000
  368.250    0.100    0.358   49.138   23.553    0.000
  368.500    0.302    0.422   47.891   17.762    0.000
  368.750    0.305    0.406   51.606   15.877    0.000
  369.000    0.283    0.395   55.319   15.014    0.000
  369.250    0.268    0.388   52.833   14.744    0.000
  369.500    0.264    0.398   56.546   14.756    0.000
  369.750    0.268    0.417   60.878   14.769    0.000
  370.000    0.277    0.417   61.490   14.780    0.000
  370.250    0.284    0.410   60.246   14.794    0.000
  370.500    0.265    0.394   62.099   15.380    0.000
  370.750    0.262    0.394   62.093   15.387    0.000
  371.000    0.268    0.405   55.269   15.700    0.000
  371.250    0.266    0.414   52.782   15.708    0.000
  371.500    0.268    0.409   52.156   15.725    0.000
  371.750    0.283    0.398   52.771   15.733    0.000
  372.000    0.268    0.404   52.765   15.167    0.000
  372.250    0.256    0.409   54.618   14.896    0.000
  372.500    0.254    0.416   59.570   14.904    0.000
  372.750    0.262    0.411   54.606   14.919    0.000
  373.000    0.271    0.410   57.699   14.928    0.000
  373.250    0.272    0.396   50.874   14.944    0.000
  373.500    0.282    0.375   50.249   15.241    0.000
  373.750    0.288    0.380   52.722   15.252    0.000
  374.000    0.276    0.405   54.575   14.983    0.000
  374.250    0.272    0.411   54.569   14.991    0.000
  374.500    0.282    0.403   51.463   15.005    0.000
  374.750    0.278    0.406   52.697   14.740    0.000
  375.000    0.274    0.406   51.451   14.749    0.000
  375.250    0.277    0.418   54.544   14.765    0.000
  375.500    0.281    0.415   60.116   14.774    0.000
  375.750    0.294    0.416   57.631   14.787    0.000
  376.000    0.295    0.415   60.723   14.519    0.000
  376.250    0.279    0.409   63.816   14.533    0.000
  376.500    0.263    0.397   55.752   14.278    0.000
  376.750    0.258    0.389   52.648   14.287    0.000
  377.000    0.265    0.389   53.260   14.296    0.000
  377.250    0.266    0.394   51.395   14.040    0.000
  377.500    0.258    0.408   53.248   14.054    0.000
  377.750    0.253    0.421   55.101   13.800    0.000
  378.000    0.247    0.414   56.955   13.302    0.000
  378.250    0.267    0.402   66.866   13.061    0.000
  378.500    0.261    0.403   67.479   12.589    0.000
  378.750    0.272    0.409   63.755   12.134    0.000
  379.000    0.287    0.397   63.748   11.698    0.000
  379.250    0.271    0.393   61.882   11.485    0.000
  379.500    0.260    0.383   64.356   11.069    0.000
  379.750    0.256    0.395   66.208   10.666    0.000
  380.000    0.251    0.404   66.204    9.899    0.000
  380.250    0.266    0.399   65.577    9.189    0.000
  380.500    0.281    0.419   66.191    9.196    0.000
  380.750    0.272    0.428   73.003    9.378    0.000
  381.000    0.270    0.409   65.559   10.316    0.000
  381.250    0.298    0.393   52.536   11.345    0.000
  381.500    0.293    0.373   41.372   12.476    0.000
  381.750    0.287    0.387   42.605   13.989    0.000
  382.000    0.292    0.393   43.840   14.268    0.000
  382.250    0.289    0.414   50.032   14.275    0.000
  382.500    0.291    0.428   41.348   14.292    0.000
  382.750    0.299    0.424   41.961   14.573    0.000
  383.000    0.292    0.420   43.814   14.582    0.000
  383.250    0.285    0.408   41.949   14.603    0.000
  383.500    0.280    0.407   44.422   14.610    0.000
  383.750    0.285    0.404   47.516   14.348    0.000
  384.000    0.301    0.396   48.128   14.358    0.000
  384.250    0.317    0.409   46.883   14.370    0.000
