~Version : LASO    vs 4.00 - DATA COPYRIGHT - RILEYS DATASHARE INTERNATIONAL
 VERS.                2.0 :   CWLS Log ASCII Standard -VERSION 2.0
 WRAP.                 NO :   One line per depth step
~Well Information Block
#MNEM.UNIT       Data                        Description of Mnemonic
#----.----      -------------------------- : -----------------------------
 STRT.FT           30.0000                 : Start Depth
 STOP.FT          463.0000                 : End Depth
 STEP.FT            0.5000                 : Depth Increment
 NULL.           -999.25                   : NULL Value
 COMP.    PACIFIC PETROLEUMS LIMITED       : COMPANY
 WELL.    BAYSEL-ASHLAND STPBK CH#21 13-30 : WELL NAME
 FLD .    STPBK. OIL SANDS                 : FIELD NAME
 LOC .    13-30-091-08W4                     : WELL LOCATION
 PROV.    ALBERTA                          : PROVINCE
 SRVC.    SCHLUMBERGER                     : LOGGING SERVICE COMPANY
 DATE.    01-MAR-73                        : DATE LOGGED
 UWI .    AA/13-30-091-08W400              : UNIQUE WELL ID
~Curve Information Block
#MNEM.UNIT        API CODE                   Curve Description
#----.----      LG--CV-CL--M               : -----------------
 DEPT.FT         0   1  0  0               : 1 DEPTH
 CALI.IN        45 280  1  1               : 2 DENSITY CALIPER
 DPHI.%         45 890 12  1               : 3 DENSITY POROSITY (SANDSTONE)
 GR  .GAPI      45 310  1  1               : 4 GAMMA RAY
 RHOB.G/C3      45 350  1  1               : 5 BULK DENSITY
 LLS .OHMM      11 220  9  1               : 6 FOCUSSED RESISTIVITY
 SP  .MV        11  10  1  1               : 7 SPONTANEOUS POTENTIAL
 NPHI.%         41 890  3  1               : 8 NEUTRON POROSITY (SANDSTONE)
~Parameter Information Block
#MNEM.UNIT       Data                        Description of Mnemonic
#----.----      -------------------------- : -----------------------------
 RUN .                   1                 : Run Number
 GL  .FT         1240.0000                 : Ground Level Elevation
 DREF.                  KB                 : Depth Reference
 EREF.FT         1244.0000                 : Elevation of Depth Reference
 TDL .FT          464.0000                 : Total Depth Logger
 TDD .FT          455.0000                 : Total Depth Driller
 CSGL.FT            0.0000                 : Casing Bottom Logger
 CSGD.FT            0.0000                 : Casing Bottom Driller
 CSGS.IN          219.0000                 : Casing Size
 CSGW.LBS           0.0000                 : Casing Weight
 BHT .DEGF         52.0000                 : Bottom Hole Temperature
 BS  .IN            6.2500                 : Bit Size
 DFD .           1110.0000                 : Mud Weight (Density)
 DFV .             89.0000                 : Mud Viscosity
 DFL .              4.5000                 : Mud Fluid Loss
 DFPH.              9.0000                 : Mud pH
 RM  .OHMM          4.6200                 : Mud Resistivity
 RMT .DEGF         49.0000                 : Mud Resistivity Temperature
 RMF .OHMM          5.0000                 : Mud Filtrate Resistivity
 RMFT.DEGF         20.0000                 : RMF Temperature
 RMC .OHMM          5.3000                 : Mud Cake Resistivity
 RMCT.DEGF         20.0000                 : RMC Temperature
~Asc DEPTH      CALI       DPHI       GR         RHOB       LLS        SP         NPHI 
# ...
  394.0000     6.1970    28.1700    33.2300     2.1822    94.2388    53.7150    33.5700
  394.5000     6.1800    28.3020    33.8000     2.1755    74.2386    53.7900    33.2100
  395.0000     6.1700    28.8180    28.3200     2.1682    59.0242    53.8950    33.8580
  395.5000     6.1840    29.1600    28.3700     2.1654    49.6398    53.5350    33.4260
  396.0000     6.1940    28.7700    28.4500     2.1646    47.6244    53.9550    32.8560
  396.5000     6.2040    27.2880    28.5200     2.1980    72.4152    52.4250    31.9380
  397.0000     6.2140    27.5400    27.6700     2.1905    64.4807    49.4550    31.0800
  397.5000     6.2170    27.9060    22.8900     2.1799    53.4847    49.5000    31.6980
  398.0000     6.2200    28.2540    24.3800     2.1870    45.3555    49.5750    31.7220
  398.5000     6.2230    28.0680    25.2400     2.1869    39.6123    51.8550    31.3320
  399.0000     6.2260    27.8160    25.8500     2.1868    36.9003    51.6450    31.2240
  399.5000     6.2190    27.4140    28.3000     2.1967    31.4652    51.4800    32.1960
  400.0000     6.2130    27.0120    30.7100     2.2049    38.5327    51.2550    33.9720
  400.5000     6.2070    26.1720    32.1700     2.2152    47.1010    51.8100    33.3480
  401.0000     6.2020    25.6800    29.4300     2.2235    57.5215    52.6350    32.3100
  401.5000     6.2010    25.4400    29.8600     2.2306    67.6441    52.7700    31.2600
  402.0000     6.2000    25.9680    30.0700     2.2194    73.7615    52.8750    30.0480
  402.5000     6.1980    26.4240    25.9500     2.2087    70.5716    52.5300    30.6960
  403.0000     6.2020    26.8800    25.0700     2.1984    42.4063    52.0050    32.2260
  403.5000     6.1950    27.1620    26.0700     2.1988    36.3940    51.9750    31.4580
  404.0000     6.1860    27.2640    27.3800     2.1992    35.7627    54.7350    31.5300
  404.5000     6.1920    27.9480    28.4700     2.1841    30.2712    51.0150    31.6800
  405.0000     6.1990    27.3180    30.1700     2.1982    47.1010    51.1950    32.4540
  405.5000     6.2100    26.4660    30.7100     2.2159    86.5825    51.3750    35.3760
  406.0000     6.2260    25.6140    27.3500     2.2349    70.4417    50.9850    34.7520
  406.5000     6.2420    25.8240    25.6900     2.2220    48.0651    50.5200    32.9460
  407.0000     6.2530    25.7580    25.0300     2.2229    32.7967    49.3650    31.8180
  407.5000     6.2420    25.0620    26.3400     2.2251    26.0753    47.7600    32.4540
  408.0000     6.2340    23.7840    29.3100     2.2445    38.2851    49.7850    30.0360
  408.5000     6.3040    22.7820    26.0800     2.2777    75.7582    51.4350    28.1940
  409.0000     6.3460    24.5640    20.3100     2.2551   178.4144    50.8950    29.9460
  409.5000     6.3610    26.0220    14.5400     2.2208   247.4172    50.3550    32.4060
  410.0000     6.3760    27.4800    12.9100     2.1908   310.3344    51.5250    32.2260
  410.5000     6.3910    28.7700    12.8800     2.1713   394.6662    52.7850    32.6520
  411.0000     6.4000    28.5420    12.8500     2.1751   488.6860    53.5950    32.8260
  411.5000     6.4000    28.2540    13.5300     2.1810   381.4432    53.4750    30.8760
  412.0000     6.4000    27.6480    14.3300     2.1803   439.1672    53.5950    31.2180
  412.5000     6.4000    26.6580    15.1300     2.1995   201.1083    54.1350    32.3580
  413.0000     6.3240    26.2260    16.2800     2.2129    94.9358    54.5550    33.0300
  413.5000     6.2280    25.7700    17.7500     2.2207    44.8157    52.6950    31.0200
  414.0000     6.1540    24.2880    21.9700     2.2403    12.4575    51.2550    31.2540
  414.5000     6.1910    22.3860    27.3700     2.2664    12.9727    58.0950    30.7860
  415.0000     6.2380    21.0960    31.7400     2.2903    13.9005    66.8700    30.4080
  415.5000     6.2850    20.1240    34.6900     2.3060    15.4678    75.5400    32.4120
  416.0000     6.3170    20.5440    36.4400     2.3188    20.0553    79.9500    33.4860
  416.5000     6.3120    21.0960    36.8900     2.3080    22.9631    77.1750    32.3940
  417.0000     6.3080    21.4020    31.4900     2.2988    33.4989    75.3000    30.9540
  417.5000     6.3030    21.6780    30.9500     2.2894    50.7961    73.1100    29.8320
  418.0000     6.2940    21.9360    30.5200     2.2901    30.6923    69.3900    28.9920
  418.5000     6.2850    21.8820    27.9900     2.2908    15.0048    66.3750    30.3000
  419.0000     6.2770    21.7020    26.3000     2.2892    15.9452    63.6150    29.8020
  419.5000     6.3040    21.2940    28.3200     2.2946    19.6169    69.1050    29.5680
  420.0000     6.3250    20.7240    30.7400     2.3042    40.4977    72.8100    31.6500
  420.5000     6.3390    20.4900    20.0700     2.3103   114.9820    65.0100    30.0840
  421.0000     6.3510    24.2820    11.5700     2.2450   326.4600    59.0100    30.9120
  421.5000     6.3630    26.1000     9.6000     2.2191   636.5462    57.3900    30.9600
  422.0000     6.3800    26.7720    10.5600     2.2066   332.5293    56.1750    31.1220
  422.5000     6.3730    27.3720    11.6500     2.1961   189.4218    54.4200    32.1120
  423.0000     6.3600    27.0240    12.4800     2.1942   192.2339    52.6350    32.7780
  423.5000     6.3470    26.3580    13.4500     2.2191   195.4474    50.9700    31.8480
  424.0000     6.3340    25.6920    13.1500     2.2224   132.1387    49.6350    31.0920
  424.5000     6.3290    25.5180    12.8100     2.2231   146.3625    51.5400    31.6020
  425.0000     6.3250    25.2660    12.8300     2.2292   164.0703    52.7250    31.6140
  425.5000     6.3210    24.6180    12.8500     2.2376   166.5060    53.5200    30.3900
  426.0000     6.3160    24.8400    12.5400     2.2395   255.5229    53.9550    29.8920
  426.5000     6.3120    25.6260    11.3400     2.2216   232.8252    54.0750    30.6120
  427.0000     6.2950    26.5260    10.5900     2.2081   201.4791    54.6150    29.6400
  427.5000     6.2680    26.2260    13.4600     2.2106   223.9907    55.3800    30.0720
  428.0000     6.2320    25.8600    15.7900     2.2173   246.2804    56.3850    30.0240
  428.5000     6.1780    25.2780    21.5200     2.2293    69.3474    57.7200    30.0360
  429.0000     6.1880    24.8040    29.9100     2.2406    23.2611    59.4300    30.6480
  429.5000     6.2010    24.3840    38.3000     2.2445     9.9044    65.3400    33.1980
  430.0000     6.2260    24.1440    46.6900     2.2449     6.4481    75.9450    36.9420
  430.5000     6.2870    26.3040    52.1400     2.2181     5.0284    82.1850    40.6860
  431.0000     6.3460    27.8280    54.8200     2.1813     5.6057    84.8250    42.7860
  431.5000     6.3920    29.3520    54.8000     2.1564     5.7734    85.2150    44.2740
  432.0000     6.3880    32.0760    53.6000     2.1283     7.3626    85.3500    45.7440
  432.5000     6.3590    36.3420    51.9500     2.0794     8.8111    84.7650    48.7980
  433.0000     6.3490    40.6080    50.2700     2.0161     9.7596    84.5100    51.6420
  433.5000     6.3440    42.0600    49.5100     1.9980     9.4239    84.9900    52.9500
  434.0000     6.3390    43.2480    48.0800     1.9099     8.3990    85.6800    54.6360
  434.5000     6.3340    39.9000    48.5500     1.9627     6.7271    87.9000    57.7860
  435.0000     6.3290    37.0620    45.8900     2.0002     6.5983    88.9200    55.8360
  435.5000     6.3240    33.2640    49.3900     2.0970     8.3990    89.3850    53.2020
  436.0000     6.3190    39.1080    45.9200     2.0202     8.9584    90.1650    51.2520
  436.5000     6.3140    45.0000    42.0200     1.9966    11.4770    90.4350    55.2600
  437.0000     6.3090    45.0000    37.7300     1.8279    10.1819    94.2600    58.0620
  437.5000     6.3090    45.0000    36.1300     1.7066     8.8599    95.5050    58.0500
  438.0000     6.3100    45.0000    35.5400     1.7955     7.7881    96.3150    58.0200
  438.5000     6.3110    45.1380    39.5900     1.8708     6.1522    93.0450    56.7000
  439.0000     6.3120    42.2940    45.2800     1.9461     5.7628    91.2150    58.0140
