~VERSION INFORMATION
 VERS.                 2.0:   CWLS LOG ASCII STANDARD -VERSION 2.0
 WRAP.                  NO:   ONE LINE PER DEPTH STEP
~WELL INFORMATION BLOCK
#MNEM.UNIT           DATA                    DESCRIPTION OF MNEMONIC
#---------    -------------------            -------------------------------
# Generated from Intellog Unique Number	CC_88_90/WELL/3157
WELL.         TRIAD OIL CO.                  : Well_name    - WELL
LOC .         AA/13-22-088-12W4/0            : Location     - LOCATION
UWI .         AA/13-22-088-12W400            : Uwi          - UNIQUE WELL ID
ENTR.         JOETTE                         : Entered      - ENTERED BY
SRVC.         SCHLUMBERGER                   : Scn          - SERVICE COMPANY
DATE.         03/11/92                       : Date         - LOG DATE
STRT.M        60.96                          : top_depth    - START DEPTH
STOP.M        185.96                         : bot_depth    - STOP DEPTH
STEP.M        0.25                           : increment    - STEP LENGTH
 NULL. -999.2500:NULL Value
~CURVE INFORMATION BLOCK
#MNEM UNIT       ERCB CURVE CODE    CURVE DESCRIPTION
#-----------   ------------------   ----------------------------------
DEPT.M        00 001 00 00         : DEPTH        - DEPTH
ILD .OHMM     00 120 00 00         : RESD         - DEEP RESISTIVITY (DIL)
NPHI.V/V      00 330 00 00         : PHIN         - NEUTRON POROSITY (SANDSTONE)
GR  .API      00 310 00 00         : GR           - GAMMA RAY
~PARAMETER INFORMATION
#MNEM.UNIT           DATA             DESCRIPTION OF MNEMONIC
#---------         -----------     ------------------------------
GL  .M        463.357              : gl           - GROUND LEVEL ELEVATION
EREF.M        464.942              : kb           - ELEVATION OF DEPTH REFERENCE
DATM.M        464.942              : datum        - DATUM ELEVATION
TDD .M        186.538              : tdd          - TOTAL DEPTH DRILLER
RUN .         ONE                  : Run          - RUN NUMBER
ENG .         BILL                 : Engineer     - RECORDING ENGINEER
WIT .         JIM                  : Witness      - WITNESSED BY
MUD .         GEL                  : Mud_type     - MUD TYPE
MATR.         SANDSTONE            : Logunit      - NEUTRON MATRIX
TMAX.C        9.44444              : BHT          - MAXIMUM RECORDED TEMPERATURE
BHTD.M        186.538              : BHTDEP       - MAXIMUM RECORDED TEMPERATURE
RMT .C        23.8889              : MDTP         - TEMPERATURE OF MUD
MUDD.KG/M     9166.66              : MWT          - MUD DENSITY
NEUT.         1                    : NEUTRON      - NEUTRON TYPE
RESI.         0                    : RESIST       - RESISTIVITY TYPE
RM  .OHMM     4.62                 : RM           - RESISTIVITY OF MUD
RMC .OHMM     4.62                 : RMC          - RESISTIVITY OF MUD CAKE
RMF .OHMM     4.62                 : RMF          - RESISTIVITY OF MUD FILTRATE
SUFT.C        4                    : SUFT         - SURFACE TEMPERATURE
~A  DEPTH     RESD     PHIN       GR
# ...
  115.210   14.060    0.370   94.467
  115.460   14.056    0.374   98.408
  115.710   13.848    0.383  103.329
  115.960   13.646    0.378  100.898
  116.210   13.438    0.378  101.895
  116.460   13.833    0.380  104.369
  116.710   14.830    0.373  106.347
  116.960   15.226    0.374  106.364
  117.210   14.219    0.379  104.909
  117.460   13.614    0.372  104.926
  117.710   13.608    0.373  103.962
  117.960   14.001    0.385  101.032
  118.210   15.599    0.393  105.467
  118.460   18.598    0.379  110.388
  118.710   14.788    0.359  105.500
  118.960   12.780    0.353  100.122
  119.210   11.573    0.383   92.782
  119.460   13.570    0.404   90.347
  119.710   13.764    0.402   96.249
  119.960   13.158    0.395  109.021
  120.210   13.353    0.399  109.529
  120.460   14.150    0.401  107.097
  120.710   14.545    0.377  108.581
  120.960   13.739    0.355  110.564
  121.210   12.131    0.371  106.653
  121.460   10.122    0.397   95.880
  121.710    9.917    0.412   99.334
  121.960    9.710    0.413  105.726
  122.210    9.507    0.395  111.142
  122.460    8.498    0.408  110.669
  122.710    7.692    0.422  111.666
  122.960    6.886    0.434  112.174
  123.210    6.881    0.433  112.190
  123.460    8.279    0.420  117.112
  123.710   11.678    0.407  121.056
  123.960   13.273    0.397  119.107
  124.210   12.469    0.396  114.710
  124.460   10.859    0.402  109.331
  124.710    9.453    0.403  107.386
  124.960    8.646    0.388  110.836
  125.210   10.444    0.405  114.286
  125.460   11.639    0.413  116.759
  125.710    9.833    0.407  117.757
  125.960   12.031    0.410  118.755
  126.210   14.028    0.406  121.714
  126.460   12.620    0.395  116.826
  126.710   11.212    0.384  110.958
  126.960   12.409    0.401  105.580
  127.210   14.206    0.414  108.539
  127.460   16.402    0.407  119.354
  127.710   16.799    0.401  120.846
  127.960   15.392    0.385  120.863
  128.210   16.988    0.364  120.871
  128.460   17.183    0.345  123.835
  128.710   15.976    0.344  110.606
  128.960   14.369    0.373  101.304
  129.210   13.162    0.378  103.282
  129.460   14.159    0.366  115.564
  129.710   16.556    0.366  119.014
  129.960   14.748    0.375  118.050
  130.210   13.341    0.376  120.523
  130.460   12.735    0.380  118.084
  130.710   13.531    0.387  114.667
  130.960   16.730    0.392  117.631
  131.210   17.125    0.379  121.571
  131.460   15.517    0.382  123.064
  131.710   15.111    0.376  121.114
  131.960   16.506    0.369  115.736
  132.210   15.901    0.362  106.435
  132.460   15.295    0.375  103.999
  132.710   16.692    0.368   99.602
  132.960   20.892    0.360   98.147
  133.210   26.093    0.357  106.506
  133.460   19.679    0.334  105.542
  133.710   14.267    0.337  100.654
  133.960   14.263    0.363   96.747
  134.210   13.857    0.375  100.687
  134.460   13.851    0.379  105.609
  134.710   13.645    0.384  110.530
  134.960   13.439    0.388  110.060
  135.210   13.435    0.390  108.115
  135.460   13.229    0.389  110.094
  135.710   13.423    0.384  115.015
  135.960   13.419    0.375  114.051
  136.210   13.613    0.369  112.110
  136.460   13.608    0.362  111.146
  136.710   13.603    0.356  109.696
  136.960   13.598    0.372  107.256
  137.210   13.993    0.382  104.330
  137.460   13.187    0.387  101.408
  137.710   10.979    0.381  100.444
  137.960    7.969    0.383   99.971
  138.210    6.763    0.389   99.002
  138.460    6.557    0.393  101.471
  138.710    6.953    0.394  109.830
  138.960    8.149    0.399  115.732
  139.210    9.946    0.419  118.201
  139.460   12.142    0.434  117.241
  139.710   12.738    0.429  117.258
  139.960   12.933    0.425  117.765
  140.210   12.926    0.404  120.234
  140.460   12.922    0.372  116.331
  140.710   13.115    0.364  113.896
  140.960   13.112    0.372  111.946
  141.210   13.307    0.379  112.944
  141.460   14.103    0.383  114.432
  141.710   15.298    0.382  113.468
  141.960   16.895    0.373  114.466
  142.210   19.093    0.363  115.476
  142.460   12.680    0.350  114.503
  142.710    7.669    0.351  112.558
  142.960    5.659    0.361  109.142
  143.210    5.854    0.380  103.764
  143.460    6.451    0.417   97.895
  143.710    8.248    0.455   99.383
  143.960   10.644    0.461  103.814
  144.210   10.640    0.440  106.287
  144.460   13.639    0.422   98.457
  144.710   17.838    0.411   94.060
  144.960   17.032    0.405   87.701
  145.210   14.223    0.401   87.227
  145.460   12.816    0.393   87.244
  145.710   13.410    0.391   85.789
  145.960   11.604    0.394   83.354
  146.210    8.996    0.402   81.409
  146.460    8.189    0.400   86.820
  146.710    8.183    0.402   96.160
  146.960    8.576    0.405  105.005
  147.210    8.774    0.414  112.382
  147.460    8.968    0.423  112.399
  147.710    9.363    0.413  111.431
  147.960    9.758    0.405  109.004
  148.210   10.154    0.406  107.549
  148.460   10.347    0.412  107.562
  148.710   10.344    0.415  110.031
  148.960   10.136    0.416  113.485
  149.210   10.133    0.412  113.011
  149.460   10.328    0.415  111.556
  149.710    9.521    0.408  113.543
  149.960    8.114    0.403  114.042
  150.210    8.910    0.413  115.530
  150.460   12.909    0.421  117.509
  150.710   17.910    0.422  118.997
  150.960   18.505    0.374  118.523
  151.210   18.100    0.355  115.597
  151.460   18.094    0.355  109.729
  151.710   19.291    0.362   95.032
  151.960   42.914    0.368   89.658
  152.210   82.958    0.316   89.675
  152.460   80.350    0.228   93.619
  152.710   57.716    0.141   87.256
  152.960   51.103   -0.007   77.954
  153.210   72.525    0.059   69.143
  153.460   69.114    0.084   63.765
  153.710   63.903    0.094   67.215
  153.960   62.296    0.103   70.665
  154.210   66.095    0.112   68.719
  154.460   82.108    0.124   67.265
  154.710   80.302    0.137   70.224
  154.960   75.291    0.130   73.683
  155.210   68.076    0.118   73.695
  155.460   63.666    0.102   73.716
  155.710   64.662    0.104   73.243
  155.960   63.856    0.112   71.293
  156.210   52.436    0.120   64.934
  156.460   40.016    0.114   63.484
  156.710   42.012    0.117   66.930
  156.960   41.206    0.156   71.365
  157.210   38.798    0.190   72.857
  157.460   34.788    0.199   70.421
  157.710   30.578    0.206   67.982
  157.960   28.369    0.221   66.037
  158.210   23.358    0.234   66.552
  158.460   20.950    0.245   69.503
  158.710   19.740    0.272   75.414
  158.960   19.536    0.307   77.879
  159.210   19.129    0.329   78.394
  159.460   18.924    0.347   77.916
  159.710   18.719    0.339   79.891
  159.960   18.515    0.331   84.326
  160.210   18.308    0.335   85.814
  160.460   18.502    0.341   86.321
  160.710   19.096    0.344   86.342
  160.960   19.294    0.343   85.374
  161.210   19.488    0.336   83.433
  161.460   19.683    0.341   80.993
  161.710   19.277    0.348   79.048
  161.960   18.871    0.345   78.084
  162.210   18.466    0.340   80.561
  162.460   17.857    0.343   83.034
  162.710   17.453    0.348   82.556
  162.960   17.248    0.354   76.688
  163.210   17.242    0.358   74.739
  163.460   17.439    0.354   72.794
  163.710   17.434    0.347   74.282
  163.960   17.026    0.344   74.793
  164.210   16.221    0.349   72.358
  164.460   15.415    0.341   69.926
  164.710   15.409    0.336   69.453
  164.960   14.804    0.340   73.883
  165.210   13.998    0.352   75.862
  165.460   15.593    0.364   75.388
  165.710   17.991    0.357   75.401
  165.960   18.987    0.349   85.231
  166.210   18.181    0.345   86.727
  166.460   18.175    0.349   85.264
  166.710   19.370    0.357   81.358
  166.960   20.367    0.354   81.374
  167.210   19.562    0.347   83.843
  167.460   19.355    0.341   83.868
  167.710   21.352    0.342   81.433
  167.960   20.346    0.350   78.993
  168.210   18.939    0.357   77.539
  168.460   19.335    0.368   79.027
  168.710   20.931    0.372   80.024
  168.960   19.925    0.371   77.593
  169.210   21.320    0.368   75.648
