~VERSION INFORMATION
 VERS.                 2.0:   CWLS LOG ASCII STANDARD -VERSION 2.0
 WRAP.                  NO:   ONE LINE PER DEPTH STEP
~WELL INFORMATION BLOCK
#MNEM.UNIT           DATA                    DESCRIPTION OF MNEMONIC
#---------    -------------------            -------------------------------
# Generated from Intellog Unique Number	CS_77_79/WELL/935
WELL.         PEX PCEJ THORNBURY OV          : Well_name    - WELL
LOC .         AA/10-08-079-13W4/0            : Location     - LOCATION
UWI .         AA/10-08-079-13W4/0            : Uwi          - UNIQUE WELL ID
ENTR.         JHS                            : Entered      - ENTERED BY
SRVC.         SCHLUMBERGER                   : Scn          - SERVICE COMPANY
STRT.M        260                            : top_depth    - START DEPTH
STOP.M        515                            : bot_depth    - STOP DEPTH
STEP.M        0.25                           : increment    - STEP LENGTH
 NULL. -999.2500:NULL Value
~CURVE INFORMATION BLOCK
#MNEM UNIT       ERCB CURVE CODE    CURVE DESCRIPTION
#-----------   ------------------   ----------------------------------
DEPT.M        00 001 00 00         : DEPTH        - DEPTH
DPHI.V/V      00 890 00 00         : PHID         - DENSITY POROSITY (LIMESTONE)
NPHI.V/V      00 330 00 00         : PHIN         - NEUTRON POROSITY (LIMESTONE)
GR  .API      00 310 00 00         : GR           - GAMMA RAY
ILD .OHMM     00 120 00 00         : RESD         - DEEP RESISTIVITY (DIL)
RHOB.KG/M3    00 350 00 00         : DENS         - BULK DENSITY
~PARAMETER INFORMATION
#MNEM.UNIT           DATA             DESCRIPTION OF MNEMONIC
#---------         -----------     ------------------------------
GL  .M        685.55               : gl           - GROUND LEVEL ELEVATION
EREF.M        688.75               : kb           - ELEVATION OF DEPTH REFERENCE
DATM.M        688.75               : datum        - DATUM ELEVATION
TDD .M        522                  : tdd          - TOTAL DEPTH DRILLER
RUN .         ONE                  : Run          - RUN NUMBER
ENG .         BILL                 : Engineer     - RECORDING ENGINEER
WIT .         JIM                  : Witness      - WITNESSED BY
MUD .         GEL                  : Mud_type     - MUD TYPE
MATR.         LIMESTONE            : Logunit      - NEUTRON MATRIX
TMAX.C        26                   : BHT          - MAXIMUM RECORDED TEMPERATURE
BHTD.M        522                  : BHTDEP       - MAXIMUM RECORDED TEMPERATURE
MATR.         1                    : LOGUNIT      - NEUTRON MATRIX
RMT .C        25                   : MDTP         - TEMPERATURE OF MUD
NEUT.         1                    : NEUTRON      - NEUTRON TYPE
RESI.         0                    : RESIST       - RESISTIVITY TYPE
RMC .OHMM     0.25                 : RMC          - RESISTIVITY OF MUD CAKE
RMF .OHMM     0.25                 : RMF          - RESISTIVITY OF MUD FILTRATE
SUFT.C        15                   : SUFT         - SURFACE TEMPERATURE
~A  DEPTH     PHID     PHIN       GR     RESD     DENS
  260.000    0.275    0.471   80.576    4.593    0.000
  260.250    0.255    0.435   88.028    4.507    0.000
  260.500    0.251    0.451   91.148    4.259    0.000
  260.750    0.236    0.473   90.537    4.180    0.000
  261.000    0.249    0.493   84.355    4.025    0.000
  261.250    0.271    0.457   86.229    3.950    0.000
  261.500    0.277    0.450   93.680    3.803    0.000
  261.750    0.268    0.469   78.201    3.663    0.000
  262.000    0.278    0.481   85.653    3.527    0.000
  262.250    0.315    0.481   85.668    3.461    0.000
  262.500    0.302    0.512   79.486    3.333    0.000
  262.750    0.283    0.507   84.461    3.210    0.000
  263.000    0.288    0.483   83.851    3.209    0.000
  263.250    0.285    0.476   88.824    3.209    0.000
  263.500    0.284    0.479   86.981    3.332    0.000
  263.750    0.305    0.458   91.954    3.395    0.000
  264.000    0.315    0.450   88.869    3.459    0.000
  264.250    0.291    0.476   83.924    3.525    0.000
  264.500    0.257    0.450   83.322    3.524    0.000
  264.750    0.251    0.449   83.335    3.458    0.000
  265.000    0.291    0.469   77.152    3.394    0.000
  265.250    0.294    0.517   74.068    3.393    0.000
  265.500    0.277    0.503   79.041    3.393    0.000
  265.750    0.305    0.511   84.633    3.457    0.000
  266.000    0.291    0.503   83.407    3.523    0.000
  266.250    0.290    0.488   75.984    3.590    0.000
  266.500    0.294    0.491   79.099    3.727    0.000
  266.750    0.278    0.476   85.932    3.797    0.000
  267.000    0.276    0.465   87.185    3.869    0.000
  267.250    0.300    0.494   88.440    3.943    0.000
  267.500    0.306    0.472   85.356    4.017    0.000
  267.750    0.280    0.457   90.330    4.017    0.000
  268.000    0.281    0.449   86.624    4.093    0.000
  268.250    0.296    0.441   81.060    4.093    0.000
  268.500    0.284    0.462   75.499    4.170    0.000
  268.750    0.256    0.434   91.008    4.170    0.000
  269.000    0.296    0.445   92.263    4.249    0.000
  269.250    0.314    0.474   80.500    4.329    0.000
  269.500    0.311    0.467   89.811    4.495    0.000
  269.750    0.250    0.451   86.726    4.580    0.000
  270.000    0.224    0.441   84.883    4.755    0.000
  270.250    0.214    0.451   88.618    4.845    0.000
  270.500    0.192    0.462   84.913    4.845    0.000
  270.750    0.249    0.466   88.646    4.754    0.000
  271.000    0.273    0.480   96.718    4.665    0.000
  271.250    0.254    0.491   85.575    4.409    0.000
  271.500    0.241    0.479   89.308    4.166    0.000
  271.750    0.254    0.473   81.887    4.012    0.000
  272.000    0.298    0.481   88.098    4.088    0.000
  272.250    0.310    0.494   83.776    4.166    0.000
  272.500    0.290    0.507   79.454    4.407    0.000
  272.750    0.265    0.490   85.047    4.576    0.000
  273.000    0.249    0.478   83.198    4.662    0.000
  273.250    0.245    0.474   77.635    4.575    0.000
  273.500    0.232    0.478   86.947    4.489    0.000
  273.750    0.241    0.469   84.482    4.405    0.000
  274.000    0.253    0.454   86.978    4.242    0.000
  274.250    0.291    0.444   83.893    4.242    0.000
  274.500    0.290    0.466   88.246    4.163    0.000
  274.750    0.289    0.479   80.823    4.085    0.000
  275.000    0.306    0.488   75.262    4.162    0.000
  275.250    0.321    0.495   77.136    4.321    0.000
  275.500    0.273    0.472   75.293    4.659    0.000
  275.750    0.263    0.465   81.500    5.118    0.000
  276.000    0.276    0.479   89.575    6.295    0.000
  276.250    0.295    0.481   93.926    8.833    0.000
  276.500    0.239    0.438   82.784   11.071    0.000
  276.750    0.241    0.422   74.743   12.162    0.000
  277.000    0.264    0.427   63.599   12.628    0.000
  277.250    0.206    0.398   59.276   12.627    0.000
  277.500    0.243    0.406   63.629   12.626    0.000
  277.750    0.254    0.398   67.364   12.159    0.000
  278.000    0.242    0.383   71.717   11.491    0.000
  278.250    0.266    0.394   76.689   10.458    0.000
  278.500    0.245    0.410   74.851    9.518    0.000
  278.750    0.240    0.429   75.479    8.034    0.000
  279.000    0.233    0.413   81.072    6.172    0.000
  279.250    0.227    0.415   85.424    5.210    0.000
  279.500    0.232    0.436   81.721    4.653    0.000
  279.750    0.245    0.451   89.794    4.398    0.000
  280.000    0.272    0.479  100.343    4.397    0.000
  280.250    0.293    0.462   95.401    4.481    0.000
  280.500    0.287    0.453   97.277    4.740    0.000
  280.750    0.272    0.457   93.570    5.722    0.000
  281.000    0.271    0.462   86.772    7.588    0.000
  281.250    0.298    0.478   84.923   10.448    0.000
  281.500    0.362    0.441   81.839   14.119    0.000
  281.750    0.356    0.432   74.417   18.375    0.000
  282.000    0.341    0.401   65.133   20.186    0.000
  282.250    0.330    0.350   48.411   19.076    0.000
  282.500    0.313    0.362   44.089   18.028    0.000
  282.750    0.308    0.377   43.487   17.037    0.000
  283.000    0.337    0.386   45.356   17.036    0.000
  283.250    0.329    0.385   53.430   17.034    0.000
  283.500    0.308    0.393   49.728   16.715    0.000
  283.750    0.315    0.384   55.318   16.402    0.000
  284.000    0.326    0.367   57.196   15.501    0.000
  284.250    0.316    0.356   64.024   14.649    0.000
  284.500    0.284    0.342   74.576   13.844    0.000
  284.750    0.245    0.358   85.130   13.331    0.000
  285.000    0.224    0.367   83.904   13.081    0.000
  285.250    0.268    0.383   83.298   12.836    0.000
  285.500    0.274    0.384   89.512   13.079    0.000
  285.750    0.265    0.366   91.385   13.580    0.000
  286.000    0.272    0.375   88.302   13.579    0.000
  286.250    0.279    0.391   81.499   13.578    0.000
  286.500    0.290    0.389   76.553   12.592    0.000
  286.750    0.299    0.405   65.410   12.126    0.000
  287.000    0.278    0.404   76.582   12.126    0.000
  287.250    0.262    0.414   81.555   12.829    0.000
  287.500    0.274    0.424   78.472   13.831    0.000
  287.750    0.343    0.436   86.544   16.383    0.000
  288.000    0.334    0.387   73.541   17.998    0.000
  288.250    0.313    0.372   68.603   19.773    0.000
  288.500    0.302    0.367   72.332   20.920    0.000
  288.750    0.302    0.373   71.728   21.316    0.000
  289.000    0.330    0.377   71.122   21.719    0.000
  289.250    0.309    0.375   67.416   21.718    0.000
  289.500    0.304    0.391   71.772   21.311    0.000
  289.750    0.333    0.393   64.969   20.912    0.000
  290.000    0.312    0.377   70.563   20.520    0.000
  290.250    0.301    0.373   73.674   20.137    0.000
  290.500    0.303    0.402   71.833   19.759    0.000
  290.750    0.310    0.414   67.506   19.389    0.000
  291.000    0.319    0.416   64.424   19.027    0.000
  291.250    0.307    0.398   73.734   18.671    0.000
  291.500    0.288    0.388   83.045   18.321    0.000
  291.750    0.277    0.385   86.160   18.668    0.000
  292.000    0.281    0.372   79.354   19.383    0.000
  292.250    0.304    0.382   76.272   19.382    0.000
  292.500    0.293    0.359   68.229   19.747    0.000
  292.750    0.292    0.357   74.441   19.747    0.000
  293.000    0.298    0.367   83.755   19.377    0.000
  293.250    0.306    0.374   89.350   19.014    0.000
  293.500    0.299    0.379   89.981   19.013    0.000
  293.750    0.279    0.364   85.037   18.657    0.000
  294.000    0.295    0.344   63.356   18.655    0.000
  294.250    0.298    0.333   43.538   18.654    0.000
  294.500    0.280    0.347   53.471   18.305    0.000
  294.750    0.273    0.375   60.925   17.299    0.000
  295.000    0.274    0.385   56.599   16.975    0.000
  295.250    0.262    0.375   60.331   16.042    0.000
  295.500    0.257    0.362   62.208   14.327    0.000
  295.750    0.270    0.365   71.516   13.040    0.000
  296.000    0.248    0.391   77.730   11.007    0.000
  296.250    0.212    0.402   77.127    9.831    0.000
