~VERSION INFORMATION
 VERS.                 2.0:   CWLS LOG ASCII STANDARD -VERSION 2.0
 WRAP.                  NO:   ONE LINE PER DEPTH STEP
~WELL INFORMATION BLOCK
#MNEM.UNIT           DATA                    DESCRIPTION OF MNEMONIC
#---------    -------------------            -------------------------------
# Generated from Intellog Unique Number	CC_88_90/WELL/2299
WELL.         10-29-090-16W4                 : Well_name    - WELL
LOC .         AA/10-29-090-16W4/0            : Location     - LOCATION
UWI .         AA/10-29-090-16W400            : Uwi          - UNIQUE WELL ID
ENTR.         DW                             : Entered      - ENTERED BY
SRVC.         SCHLUMBERGER                   : Scn          - SERVICE COMPANY
STRT.M        75                             : top_depth    - START DEPTH
STOP.M        234.75                         : bot_depth    - STOP DEPTH
STEP.M        0.25                           : increment    - STEP LENGTH
 NULL. -999.2500:NULL Value
~CURVE INFORMATION BLOCK
#MNEM UNIT       ERCB CURVE CODE    CURVE DESCRIPTION
#-----------   ------------------   ----------------------------------
DEPT.M        00 001 00 00         : DEPTH        - DEPTH
GR  .API      00 310 00 00         : GR           - GAMMA RAY
DPHI.V/V      00 890 00 00         : PHID         - DENSITY POROSITY (SANDSTONE)
NPHI.V/V      00 330 00 00         : PHIN         - NEUTRON POROSITY (SANDSTONE)
ILD .OHMM     00 120 00 00         : RESD         - DEEP RESISTIVITY (DIL)
~PARAMETER INFORMATION
#MNEM.UNIT           DATA             DESCRIPTION OF MNEMONIC
#---------         -----------     ------------------------------
GL  .M        485.33               : gl           - GROUND LEVEL ELEVATION
EREF.M        488.62               : kb           - ELEVATION OF DEPTH REFERENCE
DATM.M        488.62               : datum        - DATUM ELEVATION
TDD .M        244                  : tdd          - TOTAL DEPTH DRILLER
RUN .         ONE                  : Run          - RUN NUMBER
ENG .         BILL                 : Engineer     - RECORDING ENGINEER
WIT .         JIM                  : Witness      - WITNESSED BY
MUD .         GEL                  : Mud_type     - MUD TYPE
MATR.         SANDSTONE            : Logunit      - NEUTRON MATRIX
TMAX.C        27                   : BHT          - MAXIMUM RECORDED TEMPERATURE
BHTD.M        244                  : BHTDEP       - MAXIMUM RECORDED TEMPERATURE
MATR.         1                    : LOGUNIT      - NEUTRON MATRIX
RMT .C        25                   : MDTP         - TEMPERATURE OF MUD
NEUT.         1                    : NEUTRON      - NEUTRON TYPE
RESI.         0                    : RESIST       - RESISTIVITY TYPE
RMC .OHMM     0.25                 : RMC          - RESISTIVITY OF MUD CAKE
RMF .OHMM     0.25                 : RMF          - RESISTIVITY OF MUD FILTRATE
SUFT.C        15                   : SUFT         - SURFACE TEMPERATURE
~A  DEPTH       GR     PHID     PHIN     RESD
   75.000  113.094    0.339    0.456   18.421
   75.250  118.090    0.329    0.451   17.021
   75.500  124.116    0.323    0.470   13.620
   75.750  130.281    0.317    0.498   10.169
   76.000  134.943    0.317    0.530    7.908
   76.250  137.488    0.291    0.575    6.652
   76.500  138.926    0.234    0.609    5.692
   76.750  139.446    0.261    0.559    5.310
   77.000  140.410    0.270    0.528    5.185
   77.250  143.720    0.245    0.548    5.211
   77.500  147.685    0.233    0.571    5.308
   77.750  147.598    0.231    0.577    5.390
   78.000  143.860    0.216    0.585    5.473
   78.250  145.115    0.215    0.565    5.482
   78.500  147.834    0.218    0.506    5.401
   78.750  150.120    0.220    0.485    5.347
   79.000  151.794    0.221    0.505    5.401
   79.250  151.573    0.224    0.513    5.473
   79.500  148.796    0.230    0.515    5.570
   79.750  145.654    0.239    0.540    5.948
   80.000  143.718    0.238    0.577    6.082
   80.250  145.482    0.225    0.601    6.281
   80.500  148.587    0.215    0.605    6.560
   80.750  149.407    0.218    0.601    6.579
   81.000  147.584    0.230    0.595    6.350
   81.250  143.285    0.244    0.581    5.965
   81.500  142.555    0.235    0.575    5.590
   81.750  147.367    0.232    0.590    5.260
   82.000  153.398    0.253    0.589    4.904
   82.250  155.627    0.280    0.563    4.389
   82.500  153.748    0.294    0.560    3.805
   82.750  151.839    0.300    0.583    3.570
   83.000  153.350    0.292    0.594    3.269
   83.250  149.931    0.300    0.596    3.039
   83.500  142.332    0.318    0.606    2.920
   83.750  137.796    0.326    0.619    2.784
   84.000  137.783    0.330    0.616    2.703
   84.250  142.441    0.333    0.601    2.659
   84.500  144.907    0.332    0.605    2.619
   84.750  142.860    0.319    0.616    2.572
   85.000  139.962    0.314    0.626    2.547
   85.250  138.882    0.320    0.633    2.552
   85.500  138.418    0.309    0.629    2.550
   85.750  138.380    0.294    0.635    2.546
   86.000  139.111    0.305    0.658    2.578
   86.250  143.323    0.315    0.653    2.625
   86.500  147.648    0.309    0.649    2.657
   86.750  149.179    0.303    0.659    2.715
   87.000  149.498    0.303    0.645    2.853
   87.250  145.452    0.296    0.655    3.029
   87.500  142.468    0.291    0.658    3.297
   87.750  142.431    0.302    0.662    3.426
   88.000  145.771    0.311    0.663    3.479
   88.250  150.122    0.303    0.649    3.594
   88.500  150.131    0.289    0.619    3.643
   88.750  146.395    0.281    0.560    3.647
   89.000  145.635    0.293    0.536    3.599
   89.250  147.930    0.298    0.534    3.537
   89.500  145.614    0.297    0.540    3.483
   89.750  138.529    0.303    0.554    3.426
   90.000  136.624    0.304    0.563    3.373
   90.250  139.445    0.294    0.573    3.363
   90.500  137.909    0.285    0.549    3.447
   90.750  132.962    0.291    0.523    3.619
   91.000  127.888    0.282    0.501    4.293
   91.250  123.606    0.265    0.479    5.573
   91.500  120.665    0.268    0.484    6.655
   91.750  119.982    0.219    0.481    6.914
   92.000  126.133    0.195    0.458    6.893
   92.250  129.954    0.222    0.495    6.992
   92.500  128.473    0.246    0.519    7.353
   92.750  125.461    0.242    0.465    8.049
   93.000  120.071    0.241    0.438    8.994
   93.250  113.684    0.242    0.429    9.898
   93.500  115.926    0.250    0.429   10.759
   93.750  117.971    0.266    0.446   11.457
   94.000  114.881    0.279    0.473   11.793
   94.250  111.639    0.274    0.482   11.640
   94.500  112.702    0.253    0.464   11.272
   94.750  120.259    0.234    0.463   11.047
   95.000  127.104    0.243    0.483    9.439
   95.250  129.742    0.259    0.493    8.481
   95.500  128.209    0.254    0.505    8.414
   95.750  120.168    0.237    0.524    8.636
   96.000  107.813    0.230    0.512   10.435
   96.250  106.046    0.237    0.470   13.149
   96.500  108.394    0.264    0.479   14.669
   96.750  104.086    0.290    0.506   15.253
   97.000   98.414    0.308    0.497   15.673
   97.250   99.998    0.304    0.468   15.772
   97.500  104.749    0.262    0.453   15.506
   97.750  105.530    0.230    0.440   15.730
   98.000   98.865    0.223    0.447   15.985
   98.250   92.019    0.271    0.456   16.349
   98.500   92.535    0.314    0.452   16.989
   98.750   97.592    0.310    0.442   17.346
   99.000   99.237    0.309    0.432   17.020
   99.250   99.419    0.301    0.426   16.623
   99.500  103.843    0.288    0.432   14.721
   99.750  110.763    0.288    0.459   12.844
  100.000  115.220    0.305    0.453   12.187
  100.250  115.760    0.311    0.426   12.059
  100.500  114.621    0.294    0.464   12.091
  100.750  112.387    0.282    0.498   12.927
  101.000  106.552    0.242    0.496   12.956
  101.250   99.775    0.225    0.508   12.546
  101.500  103.482    0.258    0.490   10.909
  101.750  116.168    0.292    0.430    7.836
  102.000  125.701    0.281    0.429    5.559
  102.250  139.686    0.250    0.465    4.499
  102.500  143.612    0.248    0.504    3.738
  102.750  139.406    0.238    0.529    3.425
  103.000  132.611    0.209    0.571    3.492
  103.250  131.858    0.193    0.589    3.640
  103.500  143.544    0.210    0.528    3.949
  103.750  149.170    0.257    0.532    4.354
  104.000  145.402    0.260    0.577    5.440
  104.250  137.273    0.244    0.539    6.718
  104.500  129.853    0.255    0.471    7.391
  104.750  126.892    0.272    0.468    7.305
  105.000  128.195    0.258    0.477    6.956
  105.250  127.316    0.233    0.466    6.839
  105.500  125.733    0.231    0.451    6.845
  105.750  124.089    0.243    0.467    7.894
  106.000  121.402    0.258    0.497    9.461
  106.250  116.575    0.256    0.504   11.173
  106.500  109.159    0.232    0.481   13.469
  106.750  101.112    0.269    0.426   14.446
  107.000   97.667    0.303    0.410   14.989
  107.250   97.696    0.316    0.423   17.511
  107.500   98.340    0.326    0.445   20.804
  107.750   98.822    0.292    0.438   22.719
  108.000   98.728    0.162    0.367   23.724
  108.250   97.834    0.053    0.322   23.855
  108.500  101.569    0.120    0.334   22.287
  108.750  106.062    0.200    0.356   17.445
  109.000  110.920    0.219    0.382   12.864
  109.250  118.980    0.248    0.417   10.968
  109.500  127.633    0.279    0.430    9.028
  109.750  132.317    0.266    0.436    7.761
  110.000  130.816    0.272    0.450    7.320
  110.250  122.747    0.285    0.485    7.460
  110.500  116.189    0.294    0.550    7.669
  110.750  116.173    0.305    0.558    8.526
  111.000  115.973    0.300    0.460   10.488
  111.250  112.521    0.264    0.461   11.092
  111.500  114.597    0.218    0.450   11.031
  111.750  119.135    0.237    0.441   10.471
  112.000  121.643    0.246    0.472    9.498
  112.250  122.065    0.207    0.504    8.731
  112.500  121.522    0.213    0.515    8.347
  112.750  120.971    0.203    0.550    7.701
  113.000  115.456    0.171    0.543    7.358
  113.250  113.468    0.164    0.477    7.231
  113.500  118.486    0.211    0.463    7.141
  113.750  125.277    0.265    0.523    6.975
  114.000  128.915    0.271    0.526    6.641
  114.250  126.780    0.275    0.484    6.457
  114.500  127.711    0.282    0.465    5.988
  114.750  133.060    0.265    0.491    5.735
  115.000  137.645    0.246    0.504    5.903
  115.250  136.853    0.249    0.477    6.039
  115.500  132.621    0.257    0.474    6.508
  115.750  133.214    0.260    0.502    8.468
  116.000  135.997    0.253    0.529    9.262
  116.250  129.866    0.251    0.572    8.044
  116.500  122.173    0.196    0.551    6.523
  116.750  126.491    0.142    0.467    5.607
  117.000  137.556    0.213    0.459    4.624
  117.250  140.984    0.249    0.483    4.169
  117.500  137.550    0.253    0.515    4.008
  117.750  136.456    0.244    0.549    3.943
  118.000  139.611    0.236    0.551    4.033
  118.250  141.114    0.230    0.552    4.239
