~VERSION INFORMATION
 VERS.                 2.0:   CWLS LOG ASCII STANDARD -VERSION 2.0
 WRAP.                  NO:   ONE LINE PER DEPTH STEP
~WELL INFORMATION BLOCK
#MNEM.UNIT           DATA                    DESCRIPTION OF MNEMONIC
#---------    -------------------            -------------------------------
# Generated from Intellog Unique Number	CX_WELLS/WELL/1182
WELL.         10-26-088-16W4                 : Well_name    - WELL
LOC .         AA/10-26-088-16W4/0            : Location     - LOCATION
UWI .         AA/10-26-088-16W400            : Uwi          - UNIQUE WELL ID
ENTR.         DW                             : Entered      - ENTERED BY
SRVC.         SCHLUMBERGER                   : Scn          - SERVICE COMPANY
STRT.M        85                             : top_depth    - START DEPTH
STOP.M        275                            : bot_depth    - STOP DEPTH
STEP.M        0.25                           : increment    - STEP LENGTH
 NULL. -999.2500:NULL Value
~CURVE INFORMATION BLOCK
#MNEM UNIT       ERCB CURVE CODE    CURVE DESCRIPTION
#-----------   ------------------   ----------------------------------
DEPT.M        00 001 00 00         : DEPTH        - DEPTH
GR  .API      00 310 00 00         : GR           - GAMMA RAY
NPHI.V/V      00 330 00 00         : PHIN         - NEUTRON POROSITY (SANDSTONE)
DPHI.V/V      00 890 00 00         : PHID         - DENSITY POROSITY (SANDSTONE)
ILD .OHMM     00 120 00 00         : RESD         - DEEP RESISTIVITY (DIL)
~PARAMETER INFORMATION
#MNEM.UNIT           DATA             DESCRIPTION OF MNEMONIC
#---------         -----------     ------------------------------
GL  .M        537.55               : gl           - GROUND LEVEL ELEVATION
EREF.M        540.75               : kb           - ELEVATION OF DEPTH REFERENCE
DATM.M        540.75               : datum        - DATUM ELEVATION
TDD .M        282                  : tdd          - TOTAL DEPTH DRILLER
RUN .         ONE                  : Run          - RUN NUMBER
ENG .         BILL                 : Engineer     - RECORDING ENGINEER
WIT .         JIM                  : Witness      - WITNESSED BY
MUD .         GEL                  : Mud_type     - MUD TYPE
MATR.         SANDSTONE            : Logunit      - NEUTRON MATRIX
TMAX.C        32.7                 : BHT          - MAXIMUM RECORDED TEMPERATURE
BHTD.M        282                  : BHTDEP       - MAXIMUM RECORDED TEMPERATURE
MATR.         1                    : LOGUNIT      - NEUTRON MATRIX
RMT .C        25                   : MDTP         - TEMPERATURE OF MUD
NEUT.         1                    : NEUTRON      - NEUTRON TYPE
RESI.         0                    : RESIST       - RESISTIVITY TYPE
RMC .OHMM     0.25                 : RMC          - RESISTIVITY OF MUD CAKE
RMF .OHMM     0.25                 : RMF          - RESISTIVITY OF MUD FILTRATE
SUFT.C        15                   : SUFT         - SURFACE TEMPERATURE
~A  DEPTH       GR     PHIN     PHID     RESD
# ...
  215.500  108.321    0.414    0.183    7.880
  215.750  110.828    0.425    0.215    8.197
  216.000  113.315    0.437    0.220    8.681
  216.250  116.402    0.447    0.223    9.026
  216.500  119.510    0.451    0.235    9.384
  216.750  119.572    0.446    0.249    9.757
  217.000  117.270    0.434    0.250    9.969
  217.250  114.347    0.420    0.241   10.171
  217.500  112.606    0.415    0.212   10.387
  217.750  110.885    0.409    0.188   10.597
  218.000  108.583    0.391    0.174   11.023
  218.250  106.261    0.397    0.202   11.252
  218.500  106.945    0.406    0.231   11.698
  218.750  108.229    0.412    0.237   11.941
  219.000  108.933    0.420    0.244   12.182
  219.250  108.373    0.426    0.246   11.772
  219.500  108.455    0.430    0.245   11.576
  219.750  109.159    0.433    0.241   10.982
  220.000  111.044    0.439    0.226   10.607
  220.250  112.349    0.440    0.221   10.827
  220.500  113.012    0.441    0.232   11.680
  220.750  112.514    0.435    0.250   12.599
  221.000  111.373    0.418    0.250   13.590
  221.250  109.673    0.397    0.218   14.940
  221.500  107.351    0.378    0.190   15.533
  221.750  105.029    0.341    0.160   15.566
  222.000  102.105    0.361    0.146   14.760
  222.250  100.364    0.385    0.176   14.011
  222.500  105.275    0.401    0.203   13.777
  222.750  106.580    0.396    0.228   13.799
  223.000  106.642    0.400    0.235   13.576
  223.250  106.144    0.404    0.223   13.356
  223.500  105.604    0.399    0.197   13.147
  223.750  105.707    0.402    0.180   12.239
  224.000  105.188    0.407    0.180   11.186
  224.250  105.270    0.406    0.172    9.319
  224.500  105.954    0.398    0.194    7.487
  224.750  107.258    0.397    0.247    6.970
  225.000  107.300    0.358    0.262    7.382
  225.250  105.579    0.428    0.270    8.576
  225.500  100.251    0.464    0.278    9.771
  225.750   91.918    0.405    0.287   12.220
  226.000   84.767    0.390    0.302   16.141
  226.250   72.227    0.388    0.312   24.266
  226.500   53.656    0.388    0.341   32.666
  226.750   50.733    0.380    0.356   40.830
  227.000   49.633    0.362    0.356   53.989
  227.250   49.094    0.372    0.333   58.207
  227.500   49.798    0.383    0.319   57.295
  227.750   51.082    0.391    0.306   52.366
  228.000   52.346    0.396    0.296   49.630
  228.250   54.833    0.397    0.292   52.559
  228.500   59.184    0.396    0.288   61.029
  228.750   58.645    0.400    0.285   70.901
  229.000   56.903    0.406    0.276   77.903
  229.250   52.819    0.414    0.285   79.559
  229.500   52.259    0.416    0.303   78.272
  229.750   51.139    0.405    0.315   75.640
  230.000   53.646    0.408    0.309   74.338
  230.250   54.930    0.415    0.302   70.528
  230.500   54.992    0.422    0.303   65.658
  230.750   53.913    0.430    0.315   61.092
  231.000   53.353    0.423    0.325   51.871
  231.250   55.259    0.407    0.318   35.966
  231.500   57.766    0.400    0.308   28.896
  231.750   60.253    0.400    0.296   25.442
  232.000   63.921    0.401    0.291   20.067
  232.250   67.650    0.417    0.291   15.256
  232.500   68.914    0.440    0.296   12.027
  232.750   71.421    0.458    0.303   12.744
  233.000   70.903    0.486    0.308   15.929
  233.250   67.959    0.455    0.314   21.051
  233.500   65.657    0.451    0.320   25.832
  233.750   66.320    0.442    0.325   29.448
  234.000   67.625    0.444    0.326   30.058
  234.250   68.889    0.456    0.322   27.501
  234.500   70.815    0.463    0.317   25.108
  234.750   72.079    0.455    0.300   17.742
  235.000   75.187    0.449    0.253   15.630
  235.250   78.876    0.439    0.217   13.264
  235.500   83.766    0.432    0.192    9.542
  235.750   91.061    0.459    0.227    8.716
  236.000  103.787    0.488    0.248    6.270
  236.250  113.506    0.510    0.272    5.038
  236.500  116.013    0.541    0.284    3.828
  236.750  116.697    0.570    0.275    3.630
  237.000  117.380    0.575    0.264    3.571
  237.250  115.058    0.540    0.252    3.647
  237.500  112.736    0.508    0.239    3.725
  237.750  108.590    0.491    0.220    3.944
  238.000  103.864    0.463    0.198    4.253
  238.250   99.739    0.461    0.168    4.587
  238.500  101.023    0.486    0.156    5.137
  238.750  105.914    0.509    0.185    5.246
  239.000  110.804    0.515    0.212    5.067
  239.250  118.120    0.514    0.267    4.894
  239.500  118.202    0.504    0.277    4.815
  239.750  111.072    0.465    0.252    5.191
  240.000  102.718    0.403    0.224    6.857
  240.250   84.748    0.372    0.247   10.126
  240.500   83.649    0.392    0.255   11.120
  240.750   83.731    0.401    0.273   11.579
  241.000   81.430    0.412    0.287   11.598
  241.250   79.108    0.421    0.296   11.404
  241.500   79.169    0.432    0.297   11.026
  241.750   78.650    0.431    0.269   11.044
  242.000   76.328    0.429    0.258   10.859
  242.250   74.027    0.428    0.260   10.888
  242.500   72.285    0.431    0.284   10.905
  242.750   73.570    0.440    0.309   11.131
  243.000   72.450    0.449    0.306   11.368
  243.250   67.122    0.447    0.308   12.497
  243.500   63.578    0.442    0.315   13.724
  243.750   61.256    0.426    0.324   16.533
  244.000   61.358    0.406    0.331   28.802
  244.250   63.244    0.399    0.340   39.492
  244.500   64.528    0.395    0.341   42.623
  244.750   67.015    0.393    0.331   39.679
  245.000   68.900    0.393    0.314   36.939
  245.250   73.210    0.392    0.303   36.342
  245.500   78.101    0.392    0.291   36.437
  245.750   79.986    0.391    0.286   36.495
  246.000   81.892    0.391    0.284   36.552
  246.250   81.374    0.392    0.276   37.310
  246.500   81.456    0.392    0.273   38.812
  246.750   80.937    0.392    0.273   39.637
  247.000   79.216    0.390    0.273   38.975
  247.250   78.718    0.389    0.272   37.684
  247.500   78.820    0.387    0.272   37.724
  247.750   79.463    0.384    0.275   38.506
  248.000   79.565    0.381    0.280   40.035
  248.250   77.264    0.376    0.284   43.988
  248.500   76.123    0.371    0.287   49.256
  248.750   75.024    0.382    0.301   56.150
  249.000   75.065    0.394    0.300   66.446
  249.250   75.748    0.401    0.299   69.120
  249.500   74.629    0.402    0.299   66.796
  249.750   72.928    0.403    0.301   63.273
  250.000   72.409    0.399    0.303   57.829
  250.250   73.694    0.397    0.303   49.986
  250.500   76.180    0.395    0.298   39.428
  250.750   81.071    0.393    0.294   32.266
  251.000   85.360    0.389    0.282   30.038
  251.250   92.075    0.384    0.239   34.242
  251.500   95.183    0.368    0.184   42.822
  251.750   92.840    0.342    0.149   51.589
  252.000   89.316    0.315    0.083   63.305
  252.250   83.989    0.309    0.115   63.505
  252.500   79.864    0.340    0.128   55.913
  252.750   85.957    0.367    0.208   50.143
  253.000   92.049    0.376    0.304   40.286
  253.250   98.764    0.371    0.294   33.582
  253.500  100.649    0.366    0.283   27.482
  253.750  103.136    0.370    0.295   24.659
  254.000  111.052    0.381    0.275   22.537
  254.250  112.958    0.394    0.265   22.585
  254.500  106.408    0.403    0.273   22.656
  254.750   95.070    0.426    0.288   22.680
  255.000   86.116    0.454    0.307   24.031
  255.250   75.960    0.419    0.345   25.436
  255.500   63.419    0.387    0.363   29.551
  255.750   59.294    0.358    0.354   34.951
  256.000   61.180    0.363    0.333   46.166
  256.250   65.469    0.373    0.322   62.147
  256.500   76.992    0.389    0.319   56.800
  256.750   92.723    0.402    0.328   45.635
  257.000  115.065    0.410    0.336   37.365
  257.250  119.956    0.410    0.333   34.133
  257.500  118.856    0.407    0.325   31.196
  257.750  114.731    0.400    0.312   29.566
  258.000  111.186    0.391    0.293   27.539
  258.250  107.082    0.381    0.271   27.122
  258.500  104.760    0.375    0.269   27.164
  258.750  104.241    0.378    0.270   27.727
