~VERSION INFORMATION
 VERS.                 2.0:   CWLS LOG ASCII STANDARD -VERSION 2.0
 WRAP.                  NO:   ONE LINE PER DEPTH STEP
~WELL INFORMATION BLOCK
#MNEM.UNIT           DATA                    DESCRIPTION OF MNEMONIC
#---------    -------------------            -------------------------------
# Generated from Intellog Unique Number	CC_80_83/WELL/2355
NULL.         -999.25                        : NULL_VALUE
WELL.         PEX PCEJ HANGST OV             : Well_name    - WELL
LOC .         10-14-082-10W4                 : Location     - LOCATION          
UWI .         AA/10-14-082-10W400            : Uwi          - UNIQUE WELL ID    
ENTR.         DW                             : Entered      - ENTERED BY        
SRVC.         DRESSER ATLAS                  : Scn          - SERVICE COMPANY   
DATE.         24 FEB 80                      : Date         - LOG DATE
STRT.M        250                            : top_depth    - START DEPTH       
STOP.M        484.891                        : bot_depth    - STOP DEPTH        
STEP.M        0.3                            : increment    - STEP LENGTH       
~CURVE INFORMATION BLOCK
#MNEM UNIT       ERCB CURVE CODE    CURVE DESCRIPTION
#-----------   ------------------   ----------------------------------
DEPT.M        00 001 00 00         : DEPTH        - DEPTH                       
GR  .API      00 310 00 00         : GR           - GAMMA RAY                   
ILD .OHMM     00 120 00 00         : RESD         - DEEP RESISTIVITY (DIL)      
DPHI.V/V      00 890 00 00         : PHID         - DENSITY POROSITY (LIMESTONE)
NPHI.V/V      00 330 00 00         : PHIN         - NEUTRON POROSITY (LIMESTONE)
~PARAMETER INFORMATION       
#MNEM.UNIT           DATA             DESCRIPTION OF MNEMONIC
#---------         -----------     ------------------------------
GL  .M        706.79               : gl           - GROUND LEVEL ELEVATION      
EREF.M        710.48               : kb           - ELEVATION OF DEPTH REFERENCE
DATM.M        710.48               : datum        - DATUM ELEVATION             
TDD .M        496                  : tdd          - TOTAL DEPTH DRILLER         
RUN .         ONE                  : Run          - RUN NUMBER                  
ENG .         BILL                 : Engineer     - RECORDING ENGINEER          
WIT .         JIM                  : Witness      - WITNESSED BY                
MUD .         GEL                  : Mud_type     - MUD TYPE                    
MATR.         LIMESTONE            : Logunit      - NEUTRON MATRIX              
TMAX.C        17                   : BHT          - MAXIMUM RECORDED TEMPERATURE
BHTD.M        496                  : BHTDEP       - MAXIMUM RECORDED TEMPERATURE
MATR.         1                    : LOGUNIT      - NEUTRON MATRIX              
RMT .C        25                   : MDTP         - TEMPERATURE OF MUD          
NEUT.         1                    : NEUTRON      - NEUTRON TYPE                
RESI.         0                    : RESIST       - RESISTIVITY TYPE            
RMC .OHMM     0.25                 : RMC          - RESISTIVITY OF MUD CAKE     
RMF .OHMM     0.25                 : RMF          - RESISTIVITY OF MUD FILTRATE 
SUFT.C        15                   : SUFT         - SURFACE TEMPERATURE         
~A  DEPTH       GR     RESD     PHID     PHIN
  250.000  107.886    1.894    0.252    0.421
  250.300  109.121    1.859    0.252    0.449
  250.600  105.987    1.825    0.246    0.459
  250.900  104.723    1.826    0.241    0.454
  251.200  106.581    1.792    0.234    0.436
  251.500  106.568    1.826    0.232    0.436
  251.800  102.188    1.861    0.238    0.452
  252.100  101.550    1.897    0.240    0.455
  252.400   95.922    1.934    0.238    0.452
  252.700   94.036    1.971    0.227    0.457
  253.000   99.631    2.008    0.228    0.437
  253.300  102.741    2.166    0.239    0.381
  253.600   99.608    2.335    0.245    0.391
  253.900   98.969    2.471    0.245    0.393
  254.200  102.697    2.665    0.234    0.385
  254.500  101.432    2.716    0.233    0.395
  254.800  102.042    2.820    0.244    0.411
  255.100  101.406    2.821    0.234    0.416
  255.400  102.016    2.821    0.210    0.415
  255.700  115.098    2.770    0.207    0.405
  256.000  113.836    2.619    0.210    0.387
  256.300  103.842    2.619    0.211    0.387
  256.600  101.334    2.619    0.209    0.390
  256.900   95.709    2.825    0.211    0.400
  257.200  101.929    2.879    0.214    0.415
  257.500   98.797    2.934    0.215    0.431
  257.800  103.770    2.671    0.210    0.430
  258.100   94.404    2.526    0.206    0.400
  258.400   98.130    2.526    0.206    0.398
  258.700  100.610    2.575    0.209    0.384
  259.000  103.091    2.724    0.201    0.379
  259.300  112.432    2.938    0.200    0.380
  259.600  124.265    2.994    0.203    0.377
  259.900  103.048    2.884    0.200    0.401
  260.200   96.172    2.885    0.203    0.394
  260.500   98.029    2.832    0.220    0.380
  260.800   93.649    2.886    0.220    0.391
  261.100   91.760    2.941    0.214    0.427
  261.400   91.745    3.055    0.208    0.413
  261.700   98.592    3.056    0.191    0.401
  262.000  101.700    2.943    0.183    0.376
  262.300  101.683    2.783    0.162    0.346
  262.600   91.693    3.235    0.236    0.286
  262.900   57.376    4.370    0.225    0.333
  263.200   69.836    6.246    0.224    0.321
  263.500   81.672    8.438    0.225    0.319
  263.800   88.516    9.271    0.234    0.326
  264.100   86.007    8.285    0.244    0.313
  264.400   77.883    7.544    0.246    0.311
  264.700   79.118    7.267    0.254    0.317
  265.000   83.469    7.406    0.264    0.327
  265.300   78.465    8.772    0.260    0.329
  265.600   67.226    9.459    0.247    0.331
  265.900   71.578    8.613    0.230    0.333
  266.200   81.542    7.842    0.231    0.354
  266.500   93.376    7.141    0.236    0.368
  266.800   84.008    7.278    0.270    0.374
  267.100   69.025    8.460    0.321    0.386
  267.400   78.357   10.405    0.405    0.401
  267.700   80.845   11.648    0.438    0.416
  268.000   93.927   13.288    0.301    0.373
  268.300   96.404   15.160    0.300    0.359
  268.600   92.652   15.163    0.336    0.352
  268.900   88.272   13.806    0.369    0.373
  269.200   85.138   10.615    0.410    0.413
  269.500   95.725    8.635    0.261    0.402
  269.799  103.197    7.863    0.278    0.316
  270.099   59.528    7.718    0.282    0.303
  270.399   53.276    9.492    0.274    0.295
  270.699   57.628   12.351    0.295    0.306
  270.999   25.805   14.906    0.293    0.305
  271.299   34.523   16.074    0.278    0.308
  271.599   46.981   16.382    0.257    0.310
  271.899   55.699   15.781    0.246    0.320
  272.199   63.792   13.839    0.237    0.326
  272.499   67.519   12.601    0.234    0.328
  272.799   68.749   11.474    0.223    0.313
  273.099   71.232   11.476    0.190    0.314
  273.399   73.713   12.144    0.224    0.313
  273.699   61.226   13.596    0.282    0.307
  273.999   73.683   14.938    0.282    0.302
  274.299   77.410   17.366    0.272    0.303
  274.599   73.031   18.035    0.273    0.315
  274.899   69.276   17.701    0.288    0.334
  275.199   69.258   16.735    0.286    0.334
  275.499   54.904   14.402    0.275    0.333
  275.799   56.133   12.396    0.269    0.387
  276.099   78.573   11.719    0.269    0.387
  276.399   69.203   11.944    0.281    0.376
  276.699   56.716   12.404    0.301    0.353
  276.999   69.173   13.628    0.290    0.345
  277.299   71.654   15.258    0.285    0.338
  277.599   85.361   15.551    0.286    0.315
  277.899   72.249   15.849    0.295    0.321
  278.199   68.494   16.152    0.298    0.342
  278.499   72.841   16.157    0.295    0.347
  278.799   89.045   16.159    0.273    0.342
  279.099   97.757   16.163    0.292    0.337
  279.399   98.367   15.866    0.299    0.342
  279.699   90.248   15.870    0.296    0.337
  279.999   77.136   16.173    0.296    0.332
  280.299   76.498   16.178    0.302    0.342
  280.599   73.988   15.584    0.291    0.330
  280.899   80.210   14.733    0.274    0.323
  281.199   83.316   13.928    0.267    0.322
  281.499   83.299   13.168    0.259    0.319
  281.799   83.288   12.448    0.251    0.337
  282.099   98.865   11.550    0.242    0.338
  282.399  102.593   10.717    0.237    0.329
  282.699  109.438   10.323    0.251    0.337
  282.999   95.080   10.133    0.253    0.337
  283.299   90.074   10.135    0.251    0.332
  283.599   93.180    8.888    0.246    0.334
  283.899   81.317    7.230    0.235    0.351
  284.199   75.065    6.340    0.162    0.366
  284.499  113.092    5.062    0.179    0.376
  284.799  116.196    4.439    0.187    0.413
  285.099  122.416    3.749    0.188    0.411
  285.399  122.405    3.350    0.205    0.397
  285.699  127.376    3.108    0.176    0.424
  285.999  123.623    2.830    0.174    0.458
  286.299  114.877    2.676    0.207    0.437
  286.599  125.463    2.578    0.226    0.400
  286.899  122.331    2.627    0.239    0.396
  287.199  119.200    2.997    0.249    0.402
  287.499  122.928    4.365    0.260    0.371
  287.799  107.946    5.896    0.282    0.328
  288.099   92.965   10.964    0.293    0.332
  288.399   81.724   12.508    0.275    0.342
  288.699   96.051   12.277    0.220    0.333
  288.999   99.778   11.607    0.214    0.333
  289.299  104.128   10.768    0.220    0.343
  289.599   99.127   10.374    0.235    0.340
  289.899   94.749   11.186    0.250    0.353
  290.199   95.355   10.776    0.254    0.339
  290.499   92.848    9.812    0.247    0.324
  290.799   92.210    7.544    0.229    0.327
  291.099   99.056    5.910    0.209    0.347
  291.399  119.619    5.588    0.208    0.353
  291.699  120.853    5.695    0.224    0.348
  291.999  117.722    6.376    0.238    0.348
  292.299  111.470    8.296    0.243    0.357
  292.599  103.345   10.794    0.237    0.356
  292.899  107.071   12.085    0.231    0.353
  293.199  113.295   12.317    0.239    0.354
  293.499  117.027   12.553    0.278    0.353
  293.799  105.787   12.556    0.279    0.346
  294.099   87.680   12.095    0.279    0.345
  294.398   88.920   11.013    0.283    0.351
  294.698   91.397    9.129    0.244    0.334
  294.998   95.746    8.631    0.233    0.324
  295.298  100.726    8.471    0.228    0.327
  295.598  102.579    8.798    0.221    0.332
  295.898  100.697    9.136    0.216    0.323
  296.198  105.669    9.669    0.224    0.321
  296.498  101.914    9.855    0.229    0.336
  296.798   94.418   10.043    0.227    0.334
  297.098   86.296    9.858    0.224    0.331
  297.398   75.680    9.320    0.216    0.326
  297.698   84.391    8.811    0.206    0.321
  297.998   87.500    8.175    0.194    0.318
  298.298   93.722    7.585    0.189    0.324
  298.598  101.813    7.037    0.189    0.349
  298.898  103.048    6.171    0.187    0.355
  299.198  108.647    5.619    0.181    0.362
  299.498  107.385    5.213    0.178    0.367
  299.798  112.980    5.117    0.172    0.344
  300.098  114.838    5.119    0.165    0.346
  300.398  110.456    5.217    0.162    0.350
  300.698  109.198    5.418    0.199    0.343
  300.998  101.700    5.841    0.229    0.316
  301.298   95.448    7.184    0.253    0.321
  301.598   89.821   10.864    0.250    0.324
  301.898   84.819   11.072    0.240    0.324
