~VERSION INFORMATION
 VERS.                 2.0:   CWLS LOG ASCII STANDARD -VERSION 2.0
 WRAP.                  NO:   ONE LINE PER DEPTH STEP
~WELL INFORMATION BLOCK
#MNEM.UNIT           DATA                    DESCRIPTION OF MNEMONIC
#---------    -------------------            -------------------------------
# Generated from Intellog Unique Number	CN_94_101/WELL/3257
WELL.         10-02-095-06W4                 : Well_name    - WELL
LOC .         AA/10-02-095-06W4/0            : Location     - LOCATION
UWI .         AA/10-02-095-06W400            : Uwi          - UNIQUE WELL ID
ENTR.         TIM                            : Entered      - ENTERED BY
SRVC.         SCHLUMBERGER                   : Scn          - SERVICE COMPANY
DATE.         06/18/92                       : Date         - LOG DATE
STRT.M        100                            : top_depth    - START DEPTH
STOP.M        340                            : bot_depth    - STOP DEPTH
STEP.M        0.25                           : increment    - STEP LENGTH
 NULL. -999.2500:NULL Value
~CURVE INFORMATION BLOCK
#MNEM UNIT       ERCB CURVE CODE    CURVE DESCRIPTION
#-----------   ------------------   ----------------------------------
DEPT.M        00 001 00 00         : DEPTH        - DEPTH
GR  .API      00 310 00 00         : GR           - GAMMA RAY
NPHI.V/V      00 330 00 00         : PHIN         - NEUTRON POROSITY (SANDSTONE)
DPHI.V/V      00 890 00 00         : PHID         - DENSITY POROSITY (SANDSTONE)
ILD .OHMM     00 120 00 00         : RESD         - DEEP RESISTIVITY (DIL)
~PARAMETER INFORMATION
#MNEM.UNIT           DATA             DESCRIPTION OF MNEMONIC
#---------         -----------     ------------------------------
GL  .M        595.5                : gl           - GROUND LEVEL ELEVATION
EREF.M        598.5                : kb           - ELEVATION OF DEPTH REFERENCE
DATM.M        598.5                : datum        - DATUM ELEVATION
TDD .M        344                  : tdd          - TOTAL DEPTH DRILLER
RUN .         ONE                  : Run          - RUN NUMBER
ENG .         BILL                 : Engineer     - RECORDING ENGINEER
WIT .         JIM                  : Witness      - WITNESSED BY
MUD .         GEL                  : Mud_type     - MUD TYPE
MATR.         SANDSTONE            : Logunit      - NEUTRON MATRIX
TMAX.C        14                   : BHT          - MAXIMUM RECORDED TEMPERATURE
BHTD.M        344                  : BHTDEP       - MAXIMUM RECORDED TEMPERATURE
RMT .C        14                   : MDTP         - TEMPERATURE OF MUD
MUDD.KG/M     1050                 : MWT          - MUD DENSITY
NEUT.         1                    : NEUTRON      - NEUTRON TYPE
RESI.         0                    : RESIST       - RESISTIVITY TYPE
RM  .OHMM     3.15                 : RM           - RESISTIVITY OF MUD
RMC .OHMM     3.15                 : RMC          - RESISTIVITY OF MUD CAKE
RMF .OHMM     3.15                 : RMF          - RESISTIVITY OF MUD FILTRATE
SUFT.C        4                    : SUFT         - SURFACE TEMPERATURE
~A  DEPTH       GR     PHIN     PHID     RESD
# ...
  187.000   81.266    0.462    0.223   25.661
  187.250   79.505    0.464    0.199   26.701
  187.500   76.534    0.468    0.188   26.756
  187.750   73.549    0.469    0.210   26.777
  188.000   67.551    0.469    0.217   25.820
  188.250   63.356    0.468    0.239   24.906
  188.500   57.977    0.463    0.246   23.572
  188.750   55.611    0.450    0.262   22.719
  189.000   57.483    0.445    0.274   22.318
  189.250   61.170    0.451    0.272   21.114
  189.500   64.239    0.457    0.263   19.983
  189.750   69.151    0.461    0.254   19.260
  190.000   72.838    0.469    0.248   18.221
  190.250   77.131    0.480    0.245   17.569
  190.500   80.818    0.518    0.244   15.698
  190.750   85.730    0.522    0.244   13.762
  191.000   92.444    0.503    0.244   11.838
  191.250  102.185    0.499    0.237   10.178
  191.500  115.571    0.535    0.221    8.754
  191.750  124.707    0.574    0.204    7.388
  192.000  132.040    0.585    0.178    6.477
  192.250  131.490    0.585    0.163    5.466
  192.500  131.532    0.582    0.145    5.076
  192.750  132.192    0.576    0.142    5.082
  193.000  133.472    0.569    0.146    4.994
  193.250  134.739    0.564    0.149    5.296
  193.500  136.005    0.562    0.153    5.622
  193.750  134.850    0.562    0.154    5.626
  194.000  132.512    0.562    0.165    5.635
  194.250  130.132    0.562    0.167    5.541
  194.500  128.358    0.559    0.168    5.547
  194.750  127.189    0.557    0.169    5.351
  195.000  123.626    0.555    0.169    5.160
  195.250  121.274    0.560    0.173    4.789
  195.500  120.091    0.568    0.174    4.533
  195.750  120.147    0.578    0.179    4.367
  196.000  121.427    0.588    0.184    4.135
  196.250  122.679    0.573    0.186    4.062
  196.500  123.959    0.571    0.182    3.990
  196.750  124.028    0.572    0.180    3.850
  197.000  123.465    0.578    0.178    3.855
  197.250  121.732    0.583    0.179    3.787
  197.500  121.774    0.585    0.182    3.795
  197.750  121.210    0.584    0.187    3.800
  198.000  120.083    0.579    0.188    3.808
  198.250  118.914    0.575    0.190    3.814
  198.500  117.745    0.567    0.190    3.894
  198.750  114.815    0.559    0.190    3.977
  199.000  113.632    0.547    0.191    4.056
  199.250  111.858    0.534    0.192    4.221
  199.500  110.689    0.521    0.193    4.564
  199.750  108.337    0.519    0.195    4.933
  200.000  106.563    0.521    0.199    5.234
  200.250  104.211    0.526    0.201    5.657
  200.500  103.042    0.527    0.203    6.118
  200.750  100.071    0.521    0.205    6.360
  201.000   97.127    0.490    0.205    6.496
  201.250   95.944    0.492    0.203    6.632
  201.500   94.789    0.496    0.201    6.770
  201.750   96.055    0.497    0.198    6.779
  202.000   97.927    0.499    0.194    6.790
  202.250   99.193    0.504    0.187    6.801
  202.500   99.262    0.507    0.184    6.686
  202.750   99.909    0.510    0.177    6.450
  203.000   99.979    0.500    0.174    6.214
  203.250   99.429    0.487    0.174    5.884
  203.500   97.682    0.475    0.178    5.888
  203.750   97.105    0.474    0.181    5.903
  204.000   95.950    0.484    0.187    5.908
  204.250   96.610    0.516    0.190    6.034
  204.500   98.496    0.528    0.193    6.046
  204.750  100.381    0.544    0.196    6.056
  205.000  101.647    0.540    0.198    6.066
  205.250  103.519    0.546    0.198    5.739
  205.500  105.390    0.556    0.193    5.531
  205.750  106.051    0.574    0.190    5.233
  206.000  105.501    0.574    0.186    4.950
  206.250  104.951    0.544    0.185    4.865
  206.500  104.401    0.507    0.184    4.691
  206.750  104.457    0.511    0.185    4.701
  207.000  105.723    0.527    0.187    4.620
  207.250  106.384    0.535    0.192    4.538
  207.500  107.031    0.540    0.194    4.378
  207.750  108.930    0.535    0.197    4.302
  208.000  109.577    0.532    0.199    4.148
  208.250  110.857    0.533    0.201    4.077
  208.500  111.518    0.555    0.205    4.083
  208.750  110.968    0.571    0.209    4.090
  209.000  109.813    0.561    0.211    4.097
  209.250  108.025    0.551    0.213    4.104
  209.500  106.264    0.546    0.217    4.189
  209.750  104.518    0.534    0.224    4.277
  210.000  102.771    0.506    0.233    4.450
  210.250  102.194    0.501    0.235    4.630
  210.500  101.658    0.493    0.227    4.816
  210.750  102.332    0.499    0.222    5.108
  211.000  102.979    0.511    0.217    5.417
  211.250  105.456    0.520    0.215    5.639
  211.500  108.538    0.534    0.212    5.435
  211.750  113.450    0.553    0.207    4.676
  212.000  115.308    0.562    0.205    3.871
  212.250  115.377    0.576    0.198    3.085
  212.500  114.222    0.583    0.190    2.810
  212.750  113.067    0.590    0.187    2.980
  213.000  110.715    0.588    0.183    3.476
  213.250  108.940    0.579    0.184    3.829
  213.500  107.180    0.567    0.188    4.218
  213.750  106.644    0.546    0.193    4.561
  214.000  106.672    0.538    0.195    4.932
  214.250  106.136    0.533    0.199    5.231
  214.500  104.375    0.521    0.199    5.443
  214.750  102.010    0.500    0.195    5.775
  215.000  101.446    0.484    0.187    6.004
  215.250  101.515    0.471    0.183    6.744
  215.500  102.781    0.458    0.176    7.152
  215.750  104.667    0.450    0.171    7.585
  216.000  105.905    0.449    0.170    7.744
  216.250  105.975    0.454    0.169    7.756
  216.500  106.030    0.457    0.172    7.199
  216.750  106.072    0.462    0.173    6.554
  217.000  106.733    0.467    0.175    5.856
  217.250  107.393    0.476    0.178    5.540
  217.500  106.238    0.484    0.182    5.445
  217.750  104.478    0.490    0.187    5.667
  218.000  102.717    0.482    0.191    6.010
  218.250  102.181    0.476    0.193    6.251
  218.500  103.461    0.486    0.196    6.505
  218.750  103.489    0.530    0.198    6.649
  219.000  102.334    0.527    0.198    6.654
  219.250   99.982    0.520    0.200    6.668
  219.500   96.997    0.496    0.204    6.810
  219.750   97.053    0.481    0.206    6.816
  220.000   99.529    0.464    0.206    6.577
  220.250  102.625    0.450    0.198    6.337
  220.500  104.497    0.461    0.185    5.995
  220.750  102.131    0.480    0.170    5.892
  221.000   99.174    0.477    0.177    6.017
  221.250   96.808    0.473    0.191    6.143
  221.500   95.020    0.466    0.200    6.271
  221.750   93.273    0.455    0.215    6.528
  222.000   93.329    0.450    0.190    6.659
  222.250   96.411    0.458    0.170    6.673
  222.500  101.323    0.468    0.161    6.681
  222.750  104.391    0.478    0.159    6.695
  223.000   99.618    0.486    0.161    6.703
  223.250   96.633    0.486    0.166    6.720
  223.500   91.254    0.486    0.171    6.725
  223.750   92.520    0.486    0.181    6.736
  224.000   94.378    0.486    0.188    6.498
  224.250   98.079    0.489    0.195    6.031
  224.500  100.556    0.501    0.195    5.598
  224.750  100.598    0.511    0.193    4.906
  225.000  100.681    0.523    0.185    4.140
  225.250  100.709    0.534    0.180    3.918
  225.500  100.159    0.548    0.178    3.923
  225.750  100.214    0.557    0.180    4.086
  226.000  100.270    0.567    0.187    4.168
  226.250  100.959    0.569    0.190    4.420
  226.500  102.830    0.560    0.197    4.262
  226.750  104.068    0.531    0.204    3.598
  227.000  108.980    0.530    0.209    3.095
  227.250  113.287    0.557    0.214    2.817
  227.500  115.145    0.569    0.215    2.665
  227.750  114.595    0.581    0.215    2.620
  228.000  112.243    0.592    0.213    2.626
  228.250  110.482    0.589    0.212    2.678
  228.500  108.708    0.582    0.209    2.952
  228.750  106.961    0.568    0.203    3.129
  229.000  105.792    0.558    0.196    3.514
  229.250  103.427    0.548    0.192    4.179
  229.500  101.075    0.535    0.190    4.694
  229.750   99.328    0.529    0.190    4.976
  230.000   98.764    0.525    0.192    5.485
  230.250   98.820    0.521    0.193    5.817
