~VERSION INFORMATION
 VERS.                 2.0:   CWLS LOG ASCII STANDARD -VERSION 2.0
 WRAP.                  NO:   ONE LINE PER DEPTH STEP
~WELL INFORMATION BLOCK
#MNEM.UNIT           DATA                    DESCRIPTION OF MNEMONIC
#---------    -------------------            -------------------------------
# Generated from Intellog Unique Number	CN_94_101/WELL/5060
WELL.         16-21-098-13W4                 : Well_name    - WELL
LOC .         AA/16-21-098-13W4/0            : Location     - LOCATION
UWI .         AA/16-21-098-13W400            : Uwi          - UNIQUE WELL ID
ENTR.         JOETTE                         : Entered      - ENTERED BY
SRVC.         SCHLUMBERGER                   : Scn          - SERVICE COMPANY
DATE.         08/28/92                       : Date         - LOG DATE
STRT.M        350                            : top_depth    - START DEPTH
STOP.M        560                            : bot_depth    - STOP DEPTH
STEP.M        0.25                           : increment    - STEP LENGTH
 NULL. -999.2500:NULL Value
~CURVE INFORMATION BLOCK
#MNEM UNIT       ERCB CURVE CODE    CURVE DESCRIPTION
#-----------   ------------------   ----------------------------------
DEPT.M        00 001 00 00         : DEPTH        - DEPTH
DPHI.V/V      00 890 00 00         : PHID         - DENSITY POROSITY (SANDSTONE)
NPHI.V/V      00 330 00 00         : PHIN         - NEUTRON POROSITY (SANDSTONE)
GR  .API      00 310 00 00         : GR           - GAMMA RAY
ILD .OHMM     00 120 00 00         : RESD         - DEEP RESISTIVITY (DIL)
~PARAMETER INFORMATION
#MNEM.UNIT           DATA             DESCRIPTION OF MNEMONIC
#---------         -----------     ------------------------------
GL  .M        790.35               : gl           - GROUND LEVEL ELEVATION
EREF.M        793.6                : kb           - ELEVATION OF DEPTH REFERENCE
DATM.M        793.6                : datum        - DATUM ELEVATION
TDD .M        494                  : tdd          - TOTAL DEPTH DRILLER
RUN .         ONE                  : Run          - RUN NUMBER
ENG .         BILL                 : Engineer     - RECORDING ENGINEER
WIT .         JIM                  : Witness      - WITNESSED BY
MUD .         GEL                  : Mud_type     - MUD TYPE
MATR.         SANDSTONE            : Logunit      - NEUTRON MATRIX
TMAX.C        21                   : BHT          - MAXIMUM RECORDED TEMPERATURE
BHTD.M        494                  : BHTDEP       - MAXIMUM RECORDED TEMPERATURE
RMT .C        16                   : MDTP         - TEMPERATURE OF MUD
MUDD.KG/M     1090                 : MWT          - MUD DENSITY
NEUT.         1                    : NEUTRON      - NEUTRON TYPE
RESI.         0                    : RESIST       - RESISTIVITY TYPE
RM  .OHMM     4.6                  : RM           - RESISTIVITY OF MUD
RMC .OHMM     4.3                  : RMC          - RESISTIVITY OF MUD CAKE
RMF .OHMM     4                    : RMF          - RESISTIVITY OF MUD FILTRATE
SUFT.C        4                    : SUFT         - SURFACE TEMPERATURE
~A  DEPTH     PHID     PHIN       GR     RESD
# ...
  480.500    0.210    0.469  119.771   25.879
  480.750    0.212    0.469  120.406   27.390
  481.000    0.213    0.465  120.428   29.536
  481.250    0.214    0.457  118.631   42.227
  481.500    0.214    0.447  116.839   89.575
  481.750    0.217    0.438  115.637  146.069
  482.000    0.218    0.434  112.632  130.524
  482.250    0.219    0.430  110.829   83.167
  482.500    0.220    0.420  107.217   78.632
  482.750    0.220    0.427  106.021  108.281
  483.000    0.224    0.435  107.262   67.699
  483.250    0.223    0.429  107.886   56.118
  483.500    0.215    0.410  108.515   50.150
  483.750    0.191    0.365  107.936   93.277
  484.000    0.179    0.303  103.707  114.724
  484.250    0.160    0.290   99.483 2235.210
  484.500    0.143    0.261   93.439 2909.050
  484.750    0.124    0.253   86.788 3257.290
  485.000    0.108    0.253   87.423 3138.370
  485.250    0.155    0.266   89.866 2857.810
  485.500    0.167    0.315  130.540 2651.490
  485.750    0.177    0.341  182.739 2282.100
  486.000    0.185    0.389  197.321   26.059
  486.250    0.187    0.437  210.690   15.115
  486.500    0.185    0.468  219.812   10.580
  486.750    0.184    0.483  223.474    7.405
  487.000    0.185    0.488  219.256    7.838
  487.250    0.194    0.490  213.206    8.294
  487.500    0.197    0.490  198.063    8.455
  487.750    0.197    0.490  171.994    8.300
  488.000    0.196    0.501  128.338    7.997
  488.250    0.196    0.510  117.441    8.151
  488.500    0.200    0.511  112.009    8.307
  488.750    0.209    0.510  110.813    8.959
  489.000    0.213    0.508  113.262    9.483
  489.250    0.218    0.507  113.290    9.664
  489.500    0.224    0.507  112.706    6.158
  489.750    0.228    0.507  112.728    4.647
  490.000    0.228    0.507  112.150    3.506
  490.250    0.226    0.504  112.161    2.907
  490.500    0.225    0.501  111.577    2.597
  490.750    0.222    0.498  112.212    2.598
  491.000    0.210    0.501  112.240    3.136
  491.250    0.200    0.505  112.251    4.925
  491.500    0.189    0.508  113.487    7.736
  491.750    0.187    0.503  114.723    8.500
  492.000    0.185    0.489  116.571    8.664
  492.250    0.180    0.449  117.200    8.667
  492.500    0.177    0.425  118.436    8.834
  492.750    0.180    0.397  118.464    9.349
  493.000    0.191    0.369  118.475    9.894
  493.250    0.191    0.387  112.437   10.472
  493.500    0.184    0.417  112.453   10.475
  493.750    0.181    0.432  112.482    9.904
  494.000    0.214    0.456  113.105    9.189
  494.250    0.214    0.460  114.347    9.545
  494.500    0.207    0.469  116.790    9.913
  494.750    0.199    0.475  117.425   10.296
  495.000    0.197    0.475  115.627   10.494
  495.250    0.189    0.469  115.650   10.111
  495.500    0.197    0.463  118.099    9.035
  495.750    0.205    0.455  119.329    7.925
  496.000    0.211    0.448  118.750    7.779
  496.250    0.211    0.447  118.166    7.781
  496.500    0.206    0.453  120.009    7.357
  496.750    0.205    0.468  121.245    7.934
  497.000    0.221    0.491  123.699    8.398
  497.250    0.230    0.505  126.137    8.090
  497.500    0.229    0.503  124.946    7.366
  497.750    0.223    0.500  118.296    6.461
  498.000    0.235    0.500  115.285    6.710
  498.250    0.241    0.501  115.307    6.841
  498.500    0.245    0.506  117.757    6.467
  498.750    0.251    0.507  120.206    5.566
  499.000    0.259    0.502  120.228    4.614
  499.250    0.254    0.504  115.403    4.046
  499.500    0.249    0.508  112.999    3.754
  499.750    0.251    0.518  112.409    3.484
  500.000    0.244    0.524  113.038    3.420
  500.250    0.238    0.527  114.280    3.357
  500.500    0.248    0.525  114.909    3.621
  500.750    0.254    0.518  115.538    3.832
  501.000    0.248    0.514  115.555    4.211
  501.250    0.243    0.503  115.577    4.373
  501.500    0.245    0.502  117.425    4.457
  501.750    0.240    0.503  118.661    4.294
  502.000    0.235    0.496  116.858    3.910
  502.250    0.235    0.490  118.706    3.697
  502.500    0.234    0.490  121.756    3.840
  502.750    0.229    0.497  130.890    3.989
  503.000    0.232    0.509  130.912    3.990
  503.250    0.244    0.521  131.541    3.772
  503.500    0.259    0.537  132.777    3.012
  503.750    0.280    0.548  121.262    2.272
  504.000    0.296    0.552  115.218    1.683
  504.250    0.291    0.544  111.601    1.591
  504.500    0.282    0.520  112.236    1.476
  504.750    0.273    0.513  109.219    1.477
  505.000    0.266    0.489  101.355    1.505
  505.250    0.266    0.460   94.705    1.563
  505.500    0.271    0.428   78.960    1.686
  505.750    0.271    0.422   74.731    2.503
  506.000    0.266    0.406   68.687    2.649
  506.250    0.262    0.415   64.463    3.858
  506.500    0.264    0.441   60.845    8.340
  506.750    0.260    0.446   58.441   12.615
  507.000    0.254    0.467   60.896   19.080
  507.250    0.253    0.471   63.946   26.768
  507.500    0.248    0.485   69.428   26.776
  507.750    0.254    0.505   86.437   22.617
  508.000    0.258    0.519   88.886   13.621
  508.250    0.252    0.516   94.975    9.715
  508.500    0.241    0.513   98.031    5.961
  508.750    0.256    0.514   95.626    4.850
  509.000    0.258    0.518   95.655    4.021
  509.250    0.255    0.525   98.705    3.946
  509.500    0.261    0.523   99.941    4.022
  509.750    0.231    0.518   99.963    4.338
  510.000    0.223    0.515  100.603    4.422
  510.250    0.203    0.513  101.221    4.423
  510.500    0.210    0.506  103.075    4.182
  510.750    0.212    0.517  105.518    4.105
  511.000    0.248    0.528  111.613    3.955
  511.250    0.256    0.530  112.843    3.957
  511.500    0.256    0.534  114.079    3.741
  511.750    0.253    0.528  115.921    3.537
  512.000    0.254    0.519  115.944    2.988
  512.250    0.249    0.493  114.146    2.878
  512.500    0.246    0.442  115.382    2.721
  512.750    0.240    0.391  115.410    2.671
  513.000    0.237    0.387  113.001    3.048
  513.250    0.238    0.380   68.738    3.477
  513.500    0.246    0.359   51.168    5.066
  513.750    0.250    0.325   45.118    6.231
  514.000    0.252    0.297   37.255    9.786
  514.250    0.253    0.290   28.790   13.989
  514.500    0.253    0.284   25.779   89.934
  514.750    0.255    0.319   23.363  752.228
  515.000    0.252    0.365   26.425 1322.310
  515.250    0.246    0.381   31.907  329.241
  515.500    0.245    0.392   39.209   14.548
  515.750    0.248    0.391   48.938   41.685
  516.000    0.254    0.384   48.354  121.710
  516.250    0.269    0.378   47.169  244.030
  516.500    0.275    0.376   46.579  437.141
  516.750    0.280    0.371   47.219  294.667
  517.000    0.282    0.363   48.444   90.217
  517.250    0.276    0.355   50.899  158.589
  517.500    0.271    0.354   53.348  214.304
  517.750    0.264    0.356   55.185   53.355
  518.000    0.261    0.363   57.645   57.543
  518.250    0.267    0.380   58.869   53.389
  518.500    0.266    0.385   62.543   27.150
  518.750    0.265    0.383   64.380   18.650
  519.000    0.257    0.381   65.610   17.636
  519.250    0.257    0.380   68.070   18.662
  519.500    0.256    0.380   69.300   19.383
  519.750    0.259    0.382   69.924   17.321
  520.000    0.252    0.383   71.160   17.328
  520.250    0.244    0.382   70.576   18.685
  520.500    0.248    0.377   68.172   17.666
  520.750    0.262    0.370   62.133   19.053
  521.000    0.270    0.363   57.904   20.547
  521.250    0.281    0.360   54.286   94.176
  521.500    0.288    0.358   51.882  185.307
  521.750    0.292    0.361   52.523  232.275
  522.000    0.294    0.366   53.753  285.704
  522.250    0.291    0.361   53.775  296.740
  522.500    0.282    0.357   53.185  142.619
  522.750    0.277    0.362   52.607  132.333
  523.000    0.271    0.367   52.624  132.375
  523.250    0.265    0.361   52.652  228.382
  523.500    0.260    0.360   53.281  200.294
  523.750    0.263    0.364   53.905   99.952
