~VERSION INFORMATION
 VERS.                 2.0:   CWLS LOG ASCII STANDARD -VERSION 2.0
 WRAP.                  NO:   ONE LINE PER DEPTH STEP
~WELL INFORMATION BLOCK
#MNEM.UNIT           DATA                    DESCRIPTION OF MNEMONIC
#---------    -------------------            -------------------------------
# Generated from Intellog Unique Number	CC_80_83/WELL/2349
NULL.         -999.25                        : NULL_VALUE
WELL.         PEX PCEJ HANGST OV             : Well_name    - WELL
LOC .         10-11-082-08W4                 : Location     - LOCATION          
UWI .         AA/10-11-082-08W4/0            : Uwi          - UNIQUE WELL ID    
ENTR.         DW                             : Entered      - ENTERED BY        
SRVC.         DRESSER ATLAS                  : Scn          - SERVICE COMPANY   
DATE.         03 MAR 80                      : Date         - LOG DATE
STRT.M        265                            : top_depth    - START DEPTH       
STOP.M        495.091                        : bot_depth    - STOP DEPTH        
STEP.M        0.3                            : increment    - STEP LENGTH       
~CURVE INFORMATION BLOCK
#MNEM UNIT       ERCB CURVE CODE    CURVE DESCRIPTION
#-----------   ------------------   ----------------------------------
DEPT.M        00 001 00 00         : DEPTH        - DEPTH                       
DPHI.V/V      00 890 00 00         : PHID         - DENSITY POROSITY (LIMESTONE)
NPHI.V/V      00 330 00 00         : PHIN         - NEUTRON POROSITY (LIMESTONE)
GR  .API      00 310 00 00         : GR           - GAMMA RAY                   
ILD .OHMM     00 120 00 00         : RESD         - DEEP RESISTIVITY (DIL)      
~PARAMETER INFORMATION       
#MNEM.UNIT           DATA             DESCRIPTION OF MNEMONIC
#---------         -----------     ------------------------------
GL  .M        723                  : gl           - GROUND LEVEL ELEVATION      
EREF.M        726.6                : kb           - ELEVATION OF DEPTH REFERENCE
DATM.M        726.6                : datum        - DATUM ELEVATION             
TDD .M        498                  : tdd          - TOTAL DEPTH DRILLER         
RUN .         ONE                  : Run          - RUN NUMBER                  
ENG .         BILL                 : Engineer     - RECORDING ENGINEER          
WIT .         JIM                  : Witness      - WITNESSED BY                
MUD .         GEL                  : Mud_type     - MUD TYPE                    
MATR.         LIMESTONE            : Logunit      - NEUTRON MATRIX              
TMAX.C        16                   : BHT          - MAXIMUM RECORDED TEMPERATURE
BHTD.M        498                  : BHTDEP       - MAXIMUM RECORDED TEMPERATURE
MATR.         1                    : LOGUNIT      - NEUTRON MATRIX              
RMT .C        25                   : MDTP         - TEMPERATURE OF MUD          
NEUT.         1                    : NEUTRON      - NEUTRON TYPE                
RESI.         0                    : RESIST       - RESISTIVITY TYPE            
RMC .OHMM     0.25                 : RMC          - RESISTIVITY OF MUD CAKE     
RMF .OHMM     0.25                 : RMF          - RESISTIVITY OF MUD FILTRATE 
SUFT.C        15                   : SUFT         - SURFACE TEMPERATURE         
~A  DEPTH     PHID     PHIN       GR     RESD
# ...
  369.396    0.390    0.478   91.037    3.752
  369.696    0.382    0.460   92.308    3.973
  369.996    0.341    0.449   89.798    3.974
  370.296    0.339    0.475   82.249    4.050
  370.596    0.373    0.478   82.892    4.128
  370.896    0.367    0.479   81.639    4.455
  371.196    0.385    0.483   75.980    4.629
  371.496    0.420    0.469   74.730    5.091
  371.796    0.393    0.453   75.374    5.494
  372.096    0.289    0.431   76.641    6.159
  372.396    0.258    0.431   78.543    6.774
  372.696    0.340    0.464   77.290    6.775
  372.996    0.315    0.478   77.302    6.648
  373.296    0.300    0.423   80.460    6.523
  373.596    0.245    0.384   88.657    6.523
  373.896    0.234    0.394   86.779    6.907
  374.196    0.245    0.405   83.638    7.314
  374.496    0.275    0.420   86.798    7.314
  374.796    0.315    0.428   86.809    7.177
  375.096    0.336    0.429   85.560    6.652
  375.396    0.309    0.455   88.718    6.283
  375.695    0.252    0.442   86.838    5.713
  375.995    0.259    0.415   82.439    5.097
  376.295    0.245    0.419   89.378    4.462
  376.595    0.230    0.425   88.128    3.981
  376.895    0.229    0.379   84.359    3.689
  377.195    0.235    0.402   78.070    3.419
  377.495    0.266    0.409   79.971    3.292
  377.795    0.244    0.362   77.460    3.230
  378.095    0.214    0.344   68.654    3.356
  378.395    0.197    0.330   59.844    3.834
  378.695    0.256    0.324   54.817    4.727
  378.995    0.254    0.341   54.199    6.533
  379.295    0.256    0.357   51.688    9.560
  379.595    0.259    0.334   51.067   12.963
  379.895    0.270    0.345   54.856   15.682
  380.195    0.274    0.364   55.500   15.984
  380.495    0.274    0.363   54.247   15.985
  380.795    0.276    0.335   54.256   15.100
  381.095    0.281    0.320   53.641   14.816
  381.395    0.281    0.335   53.646   14.538
  381.695    0.280    0.337   55.548   14.539
  381.995    0.281    0.330   56.816   14.267
  382.295    0.285    0.322   56.198   14.268
  382.595    0.285    0.323   51.800   14.543
  382.895    0.280    0.320   50.547   15.108
  383.195    0.276    0.315   53.076   15.109
  383.495    0.277    0.312   57.495   15.697
  383.795    0.278    0.335   49.950   16.000
  384.095    0.280    0.352   50.587   16.001
  384.395    0.277    0.347   54.378   16.003
  384.695    0.283    0.366   55.018   15.702
  384.995    0.285    0.353   54.397   15.704
  385.295    0.285    0.351   56.927   15.409
  385.595    0.282    0.341   61.975   15.410
  385.895    0.285    0.337   62.614   15.120
  386.195    0.285    0.338   57.586   15.413
  386.495    0.279    0.341   51.929   14.559
  386.795    0.278    0.329   48.788   14.285
  387.095    0.278    0.318   53.209   14.017
  387.395    0.282    0.321   54.477   14.018
  387.695    0.284    0.327   53.858   14.019
  387.995    0.284    0.336   51.981   14.290
  388.295    0.283    0.355   52.620   14.291
  388.595    0.282    0.368   53.260   14.292
  388.895    0.283    0.379   52.638   14.024
  389.195    0.288    0.382   48.870   13.761
  389.495    0.287    0.375   49.509   13.762
  389.795    0.284    0.358   56.448   13.763
  390.095    0.283    0.349   56.457   13.764
  390.395    0.284    0.354   54.576   13.766
  390.695    0.282    0.354   55.218   13.767
  390.995    0.275    0.357   57.747   13.508
  391.295    0.267    0.353   57.759   13.509
  391.595    0.272    0.353   54.617   13.256
  391.895    0.279    0.361   57.147   13.257
  392.195    0.280    0.359   59.045   13.257
  392.495    0.278    0.360   57.797   13.259
  392.795    0.275    0.371   54.658   13.260
  393.095    0.272    0.360   52.148   13.261
  393.395    0.270    0.351   52.788   13.517
  393.695    0.276    0.354   51.539   13.777
  393.995    0.276    0.354   52.179   14.044
  394.295    0.265    0.358   54.707   14.044
  394.595    0.268    0.351   53.459   14.315
  394.895    0.275    0.328   52.209   14.047
  395.195    0.280    0.334   54.107   14.048
  395.495    0.281    0.341   53.487   14.049
  395.795    0.281    0.346   49.719   14.051
  396.095    0.276    0.339   49.728   14.051
  396.395    0.273    0.347   52.887   13.528
  396.695    0.274    0.354   54.789   13.274
  396.995    0.280    0.347   56.058   12.302
  397.295    0.299    0.380   59.846   10.975
  397.595    0.325    0.405   68.044    8.409
  397.895    0.339    0.417   78.132    6.822
  398.195    0.329    0.405   79.401    6.203
  398.495    0.334    0.408   69.964    5.859
  398.795    0.345    0.428   80.054    5.535
  399.095    0.376    0.451   82.581    5.328
  399.395    0.383    0.446   78.813    4.754
  399.695    0.396    0.454   80.711    4.006
  399.995    0.424    0.489   87.022    3.643
  400.294    0.392    0.482   89.549    3.128
  400.594    0.331    0.477   92.708    2.845
  400.894    0.335    0.479   91.462    2.636
  401.194    0.381    0.492   91.469    2.637
  401.494    0.418    0.484   88.961    3.013
  401.794    0.456    0.478   82.041    3.508
  402.094    0.394    0.442   75.753    4.580
  402.394    0.315    0.398   74.503    5.646
  402.694    0.381    0.419   80.814    6.830
  402.994    0.423    0.438   83.341    7.657
  403.294    0.414    0.414   77.682    8.108
  403.594    0.381    0.402   73.284    8.423
  403.894    0.319    0.387   79.594    8.424
  404.194    0.415    0.412   78.975    8.265
  404.494    0.301    0.408   80.872    8.752
  404.794    0.292    0.397   88.442    9.092
  405.094    0.378    0.388   89.713    9.627
  405.394    0.424    0.394   89.093   10.793
  405.694    0.375    0.393   88.470   11.647
  405.994    0.180    0.350   81.551   12.100
  406.294    0.186    0.350   84.083   12.570
  406.594    0.198    0.343   85.982   12.571
  406.894    0.264    0.329   89.140   11.874
  407.194    0.456    0.390   78.443   10.594
  407.494    0.480    0.406   83.493    9.099
  407.794    0.423    0.414   85.391    8.118
  408.094    0.411    0.411   82.882    7.668
  408.394    0.450    0.405   87.301    7.669
  408.694    0.460    0.391   85.421    7.967
  408.994    0.344    0.379   90.471    9.102
  409.294    0.219    0.323   93.629   11.011
  409.594    0.227    0.334   87.340   12.823
  409.894    0.208    0.340   80.422   13.578
  410.194    0.197    0.338   81.692   13.323
  410.494    0.203    0.341   89.260   12.347
  410.794    0.238    0.350   93.050   11.443
  411.094    0.296    0.361   90.540    9.828
  411.394    0.378    0.379   81.103    8.126
  411.694    0.385    0.410   83.632    7.250
  411.994    0.386    0.397   77.342    6.848
  412.294    0.365    0.402   81.761    6.719
  412.594    0.349    0.410   83.662    6.849
  412.894    0.380    0.416   84.302    7.115
  413.194    0.411    0.412   79.902    7.116
  413.494    0.451    0.399   82.432    7.253
  413.794    0.401    0.381   81.182    7.828
  414.094    0.245    0.342   77.415    8.609
  414.394    0.228    0.325   78.055    9.651
  414.694    0.221    0.331   77.433   10.416
  414.994    0.225    0.355   79.963   10.617
  415.294    0.241    0.368   85.641   10.028
  415.594    0.271    0.377   80.612    7.539
  415.894    0.357    0.416   71.805    5.776
  416.194    0.447    0.432   78.743    4.867
  416.494    0.442    0.430   86.943    4.686
  416.794    0.411    0.417   84.433    4.962
  417.094    0.337    0.390   80.032    6.117
  417.394    0.244    0.355   76.263    8.139
  417.694    0.235    0.352   75.017    9.660
  417.994    0.215    0.351   74.394   10.425
  418.294    0.185    0.345   70.625   11.038
  418.594    0.138    0.340   64.336   11.467
  418.894    0.147    0.341   66.239   12.142
  419.194    0.216    0.351   68.767   12.614
  419.494    0.231    0.361   74.446   12.377
  419.794    0.227    0.364   78.234   11.691
  420.094    0.216    0.372   70.686   11.256
  420.394    0.187    0.368   65.026   11.473
  420.694    0.161    0.347   73.855   12.382
  420.994    0.233    0.343   64.416   12.863
  421.294    0.217    0.347   60.018   12.864
