~VERSION INFORMATION
 VERS.                 2.0:   CWLS LOG ASCII STANDARD -VERSION 2.0
 WRAP.                  NO:   ONE LINE PER DEPTH STEP
~WELL INFORMATION BLOCK
#MNEM.UNIT           DATA                    DESCRIPTION OF MNEMONIC
#---------    -------------------            -------------------------------
# Generated from Intellog Unique Number	CN_94_101/WELL/1075
WELL.         11-32-094-06W4                 : Well_name    - WELL
LOC .         AA/11-32-094-06W4/0            : Location     - LOCATION
UWI .         AA/11-32-094-06W400            : Uwi          - UNIQUE WELL ID
ENTR.         JOETTE                         : Entered      - ENTERED BY
SRVC.         SCHLUMBERGER                   : Scn          - SERVICE COMPANY
DATE.         04/10/92                       : Date         - LOG DATE
STRT.M        100                            : top_depth    - START DEPTH
STOP.M        310                            : bot_depth    - STOP DEPTH
STEP.M        0.25                           : increment    - STEP LENGTH
 NULL. -999.2500:NULL Value
~CURVE INFORMATION BLOCK
#MNEM UNIT       ERCB CURVE CODE    CURVE DESCRIPTION
#-----------   ------------------   ----------------------------------
DEPT.M        00 001 00 00         : DEPTH        - DEPTH
ILD .OHMM     00 120 00 00         : RESD         - DEEP RESISTIVITY (DIL)
DPHI.V/V      00 890 00 00         : PHID         - DENSITY POROSITY (SANDSTONE)
NPHI.V/V      00 330 00 00         : PHIN         - NEUTRON POROSITY (SANDSTONE)
GR  .API      00 310 00 00         : GR           - GAMMA RAY
CALI.MM       00 280 01 00         : CAL          - CALIPER
~PARAMETER INFORMATION
#MNEM.UNIT           DATA             DESCRIPTION OF MNEMONIC
#---------         -----------     ------------------------------
GL  .M        588.65               : gl           - GROUND LEVEL ELEVATION
EREF.M        591.35               : kb           - ELEVATION OF DEPTH REFERENCE
DATM.M        591.35               : datum        - DATUM ELEVATION
TDD .M        313                  : tdd          - TOTAL DEPTH DRILLER
RUN .         ONE                  : Run          - RUN NUMBER
ENG .         BILL                 : Engineer     - RECORDING ENGINEER
WIT .         JIM                  : Witness      - WITNESSED BY
MUD .         GEL                  : Mud_type     - MUD TYPE
MATR.         SANDSTONE            : Logunit      - NEUTRON MATRIX
TMAX.C        16                   : BHT          - MAXIMUM RECORDED TEMPERATURE
BHTD.M        313                  : BHTDEP       - MAXIMUM RECORDED TEMPERATURE
RMT .C        19                   : MDTP         - TEMPERATURE OF MUD
MUDD.KG/M     1050                 : MWT          - MUD DENSITY
NEUT.         1                    : NEUTRON      - NEUTRON TYPE
RESI.         0                    : RESIST       - RESISTIVITY TYPE
RM  .OHMM     8.17                 : RM           - RESISTIVITY OF MUD
RMC .OHMM     8.17                 : RMC          - RESISTIVITY OF MUD CAKE
RMF .OHMM     8.17                 : RMF          - RESISTIVITY OF MUD FILTRATE
SUFT.C        4                    : SUFT         - SURFACE TEMPERATURE
~A  DEPTH     RESD     PHID     PHIN       GR      CAL
# ...
  246.000    3.442    0.252    0.518   88.401  220.188
  246.250    3.198    0.254    0.525   90.286  218.219
  246.500    3.144    0.250    0.537   93.427  216.249
  246.750    3.208    0.237    0.551   95.924  212.261
  247.000    3.405    0.229    0.544   98.467  210.317
  247.250    3.541    0.250    0.540   97.884  211.489
  247.500    3.829    0.265    0.543   96.717  210.567
  247.750    4.056    0.259    0.539   94.340  208.623
  248.000    4.468    0.246    0.531   92.545  205.681
  248.250    4.647    0.222    0.522   92.620  203.687
  248.500    4.658    0.225    0.492   92.680  200.721
  248.750    4.667    0.240    0.478   92.740  200.846
  249.000    4.590    0.233    0.477   92.799  200.921
  249.250    4.774    0.214    0.488   94.699  200.024
  249.500    5.257    0.196    0.489   92.321  199.076
  249.750    6.366    0.180    0.469   88.687  195.088
  250.000    7.276    0.169    0.439   85.067  189.056
  250.250   10.056    0.155    0.417   80.222  179.958
  250.500   11.079    0.145    0.382   76.587  172.929
  250.750   11.312    0.194    0.364   71.757  169.937
  251.000   10.913    0.225    0.406   67.509  174.125
  251.250   10.523    0.246    0.422   68.182  175.247
  251.500    9.785    0.234    0.396   65.789  174.350
  251.750    9.616    0.225    0.406   64.623  172.381
  252.000   10.005    0.226    0.423   72.056  173.528
  252.250   12.809    0.232    0.437   75.810  176.669
  252.500   30.666    0.243    0.441   73.417  175.746
  252.750   31.893    0.250    0.414   71.025  170.761
  253.000   33.801    0.284    0.397   69.230  167.795
  253.250   35.187    0.264    0.390   71.129  166.848
  253.500   32.060    0.253    0.380   76.110  165.926
  253.750   24.193    0.262    0.391   77.381  166.026
  254.000   21.631    0.280    0.390   75.003  166.126
  254.250   19.005    0.285    0.384   73.224  166.250
  254.500   18.318    0.276    0.372   72.655  167.397
  254.750   17.033    0.280    0.365   72.102  169.541
  255.000   16.730    0.285    0.372   76.469  170.663
  255.250   15.838    0.270    0.383   82.661  174.876
  255.500   14.993    0.228    0.403   87.627  176.970
  255.750   13.935    0.189    0.420   96.302  184.274
  256.000   13.437    0.207    0.436  101.252  185.346
  256.250   12.733    0.214    0.454  104.393  188.511
  256.500   12.278    0.220    0.465  105.680  189.658
  256.750   12.071    0.223    0.458  104.528  188.786
  257.000   11.646    0.216    0.460  102.120  188.861
  257.250   11.444    0.216    0.471  102.165  188.936
  257.500   11.041    0.210    0.468  104.678  189.061
  257.750   10.457    0.207    0.460  108.447  189.136
  258.000   10.276    0.208    0.462  108.507  190.257
  258.250    9.551    0.224    0.466  111.035  190.357
  258.500    9.037    0.227    0.470  112.919  191.529
  258.750    8.088    0.223    0.480  110.526  191.604
  259.000    7.653    0.223    0.505  108.747  191.704
  259.250    7.248    0.215    0.502  108.806  191.779
  259.500    6.993    0.228    0.497  110.093  190.882
  259.750    7.140    0.211    0.487  111.992  190.981
  260.000    7.567    0.191    0.492  109.599  191.106
  260.250    8.332    0.181    0.494  106.593  191.181
  260.500    9.351    0.185    0.462  106.638  192.303
  260.750   10.297    0.188    0.439  107.311  193.425
  261.000   11.560    0.186    0.434  109.241  193.525
  261.250   12.258    0.181    0.421  106.848  193.650
  261.500   12.754    0.180    0.417  103.842  192.727
  261.750   13.022    0.183    0.425  103.289  191.780
  262.000   13.296    0.186    0.427  103.962  190.858
  262.250   13.321    0.193    0.426  102.167  189.961
  262.500   13.346    0.194    0.424   96.723  187.992
  262.750   13.378    0.191    0.422   95.541  186.048
  263.000   13.653    0.194    0.422   93.747  183.082
  263.250   14.767    0.187    0.424   90.741  179.093
  263.500   15.357    0.185    0.428   87.121  172.039
  263.750   16.602    0.187    0.420   84.728  167.029
  264.000   17.613    0.187    0.411   87.256  163.091
  264.250   17.974    0.197    0.414   89.171  162.144
  264.500   18.000    0.211    0.404   87.391  162.268
  264.750   17.056    0.206    0.396   86.853  162.318
  265.000   17.073    0.210    0.405   86.883  163.465
  265.250   17.105    0.216    0.406   88.782  163.540
  265.500   18.854    0.222    0.398   88.229  163.690
  265.750   19.598    0.223    0.389   83.996  164.787
  266.000   20.791    0.223    0.384   81.603  164.887
  266.250   21.218    0.222    0.383   85.343  165.011
  266.500   20.880    0.218    0.379   87.855  165.111
  266.750   20.518    0.205    0.387   86.689  165.211
  267.000   20.163    0.210    0.411   87.362  165.286
  267.250   19.452    0.203    0.412   91.729  165.386
  267.500   19.124    0.190    0.411   96.082  165.536
  267.750   18.802    0.196    0.394   96.755  165.611
  268.000   18.485    0.195    0.392   94.362  165.685
  268.250   18.901    0.188    0.397   84.626  165.835
  268.500   19.279    0.188    0.393   85.299  165.835
  268.750   20.060    0.194    0.384   87.213  162.969
  269.000   21.280    0.192    0.370   87.856  156.912
  269.250   22.142    0.187    0.373   86.690  157.012
  269.500   22.184    0.188    0.381   85.538  156.089
  269.750   22.227    0.204    0.389   83.788  156.164
  270.000   22.279    0.213    0.405   82.607  157.311
  270.250   21.883    0.207    0.412   82.637  157.411
  270.500   21.524    0.212    0.413   82.697  158.533
  270.750   21.152    0.217    0.412   85.823  160.727
  271.000   20.805    0.213    0.395   89.562  160.777
  271.250   20.855    0.202    0.387   91.492  161.899
  271.500   21.273    0.238    0.395   94.004  163.020
  271.750   22.567    0.237    0.401   92.838  163.120
  272.000   23.917    0.233    0.396   89.832  163.220
  272.250   25.856    0.225    0.397   83.131  164.342
  272.500   27.443    0.201    0.397   80.738  164.467
  272.750   27.482    0.193    0.375   80.813  164.567
  273.000   27.032    0.201    0.366   82.085  164.667
  273.250   26.563    0.197    0.369   82.758  164.766
  273.500   26.103    0.193    0.374   83.446  164.866
  273.750   25.195    0.200    0.383   83.506  164.966
  274.000   25.195    0.206    0.385   84.792  165.066
  274.250   27.797    0.204    0.391   86.079  164.169
  274.500   26.328    0.205    0.394   83.671  164.294
  274.750   25.859    0.207    0.386   80.665  164.369
  275.000   25.909    0.210    0.381   78.287  164.443
  275.250   27.472    0.214    0.375   76.507  164.443
  275.500   30.843    0.232    0.366   75.355  162.649
  275.750   32.704    0.242    0.371   75.400  162.699
  276.000   32.168    0.250    0.377   75.445  162.824
  276.250   31.005    0.238    0.387   75.520  162.899
  276.500   28.276    0.221    0.395   77.435  162.999
  276.750   27.280    0.209    0.381   80.546  163.098
  277.000   26.318    0.207    0.374   83.671  163.198
  277.250   26.368    0.202    0.379   83.118  164.370
  277.500   27.449    0.215    0.387   80.725  165.517
  277.750   29.105    0.246    0.388   81.398  165.567
  278.000   30.861    0.254    0.380   83.298  165.667
  278.250   31.509    0.255    0.367   79.679  166.789
  278.500   29.830    0.237    0.368   73.606  166.888
  278.750   27.698    0.208    0.377   76.732  169.057
  279.000   24.788    0.198    0.374   82.311  169.157
  279.250   23.027    0.178    0.374   89.131  169.257
  279.500   21.391    0.173    0.380   95.323  170.379
  279.750   21.011    0.174    0.387  100.902  170.454
  280.000   23.148    0.244    0.385   88.698  171.576
  280.250   25.490    0.250    0.377   72.799  168.610
  280.500   30.272    0.257    0.368   55.690  165.693
  280.750   34.619    0.251    0.355   47.763  165.768
  281.000   41.939    0.240    0.339   52.130  165.868
  281.250   42.019    0.242    0.346   55.869  166.018
  281.500   35.481    0.253    0.377   70.063  166.068
  281.750   23.018    0.251    0.395   73.174  167.190
  282.000   21.791    0.214    0.408   78.139  167.314
  282.250   27.390    0.217    0.416   82.492  167.414
