~VERSION INFORMATION
 VERS.                 2.0:   CWLS LOG ASCII STANDARD -VERSION 2.0
 WRAP.                  NO:   ONE LINE PER DEPTH STEP
~WELL INFORMATION BLOCK
#MNEM.UNIT           DATA                    DESCRIPTION OF MNEMONIC
#---------    -------------------            -------------------------------
# Generated from Intellog Unique Number	CX_WELLS/WELL/1182
WELL.         10-26-088-16W4                 : Well_name    - WELL
LOC .         AA/10-26-088-16W4/0            : Location     - LOCATION
UWI .         AA/10-26-088-16W400            : Uwi          - UNIQUE WELL ID
ENTR.         DW                             : Entered      - ENTERED BY
SRVC.         SCHLUMBERGER                   : Scn          - SERVICE COMPANY
STRT.M        85                             : top_depth    - START DEPTH
STOP.M        275                            : bot_depth    - STOP DEPTH
STEP.M        0.25                           : increment    - STEP LENGTH
 NULL. -999.2500:NULL Value
~CURVE INFORMATION BLOCK
#MNEM UNIT       ERCB CURVE CODE    CURVE DESCRIPTION
#-----------   ------------------   ----------------------------------
DEPT.M        00 001 00 00         : DEPTH        - DEPTH
GR  .API      00 310 00 00         : GR           - GAMMA RAY
NPHI.V/V      00 330 00 00         : PHIN         - NEUTRON POROSITY (SANDSTONE)
DPHI.V/V      00 890 00 00         : PHID         - DENSITY POROSITY (SANDSTONE)
ILD .OHMM     00 120 00 00         : RESD         - DEEP RESISTIVITY (DIL)
~PARAMETER INFORMATION
#MNEM.UNIT           DATA             DESCRIPTION OF MNEMONIC
#---------         -----------     ------------------------------
GL  .M        537.55               : gl           - GROUND LEVEL ELEVATION
EREF.M        540.75               : kb           - ELEVATION OF DEPTH REFERENCE
DATM.M        540.75               : datum        - DATUM ELEVATION
TDD .M        282                  : tdd          - TOTAL DEPTH DRILLER
RUN .         ONE                  : Run          - RUN NUMBER
ENG .         BILL                 : Engineer     - RECORDING ENGINEER
WIT .         JIM                  : Witness      - WITNESSED BY
MUD .         GEL                  : Mud_type     - MUD TYPE
MATR.         SANDSTONE            : Logunit      - NEUTRON MATRIX
TMAX.C        32.7                 : BHT          - MAXIMUM RECORDED TEMPERATURE
BHTD.M        282                  : BHTDEP       - MAXIMUM RECORDED TEMPERATURE
MATR.         1                    : LOGUNIT      - NEUTRON MATRIX
RMT .C        25                   : MDTP         - TEMPERATURE OF MUD
NEUT.         1                    : NEUTRON      - NEUTRON TYPE
RESI.         0                    : RESIST       - RESISTIVITY TYPE
RMC .OHMM     0.25                 : RMC          - RESISTIVITY OF MUD CAKE
RMF .OHMM     0.25                 : RMF          - RESISTIVITY OF MUD FILTRATE
SUFT.C        15                   : SUFT         - SURFACE TEMPERATURE
~A  DEPTH       GR     PHIN     PHID     RESD
# ...
  128.500   59.216    0.457    0.372   18.513
  128.750   59.278    0.462    0.368   17.564
  129.000   59.381    0.466    0.362   18.601
  129.250   59.442    0.469    0.355   19.699
  129.500   59.525    0.478    0.349   20.873
  129.750   59.627    0.477    0.348   21.283
  130.000   60.912    0.471    0.355   21.328
  130.250   61.595    0.470    0.366   20.235
  130.500   61.677    0.470    0.369   18.847
  130.750   61.780    0.469    0.370   17.862
  131.000   61.821    0.470    0.369   13.825
  131.250   65.571    0.472    0.363   13.367
  131.500   67.416    0.479    0.355   12.897
  131.750   71.104    0.489    0.347   11.788
  132.000   75.394    0.498    0.344   10.974
  132.250   80.326    0.513    0.349    9.847
  132.500   83.413    0.521    0.350    8.360
  132.750   86.501    0.534    0.354    7.928
  133.000   88.386    0.540    0.357    7.799
  133.250   86.064    0.519    0.358    7.677
  133.500   83.742    0.514    0.355    7.415
  133.750   82.622    0.547    0.351    7.299
  134.000   83.907    0.564    0.349    7.307
  134.250   84.590    0.576    0.344    7.326
  134.500   84.071    0.561    0.341    7.204
  134.750   82.350    0.504    0.337    7.087
  135.000   82.432    0.501    0.333    6.724
  135.250   84.338    0.511    0.328    7.388
  135.500   84.421    0.515    0.323    9.759
  135.750   82.700    0.505    0.315   15.222
  136.000   79.756    0.497    0.314   22.479
  136.250   75.030    0.494    0.342   24.685
  136.500   69.101    0.482    0.354   27.627
  136.750   62.572    0.478    0.365   31.527
  137.000   57.224    0.475    0.373   32.762
  137.250   52.498    0.470    0.388   32.865
  137.500   48.372    0.466    0.397   32.917
  137.750   47.853    0.463    0.405   32.969
  138.000   47.956    0.461    0.407   32.453
  138.250   48.639    0.461    0.405   32.504
  138.500   49.302    0.461    0.406   32.589
  138.750   49.425    0.461    0.406   33.265
  139.000   49.487    0.462    0.405   33.954
  139.250   49.590    0.462    0.403   34.062
  139.500   49.693    0.461    0.401   34.097
  139.750   50.355    0.460    0.397   34.187
  140.000   51.018    0.459    0.394   34.259
  140.250   52.303    0.458    0.390   34.951
  140.500   53.006    0.457    0.382   35.694
  140.750   53.068    0.457    0.373   37.111
  141.000   53.171    0.454    0.364   38.564
  141.250   53.253    0.452    0.357   41.621
  141.500   53.335    0.447    0.343   44.100
  141.750   53.438    0.443    0.325   45.827
  142.000   51.738    0.434    0.315   45.923
  142.250   51.178    0.399    0.306   43.570
  142.500   51.861    0.339    0.289   42.083
  142.750   53.746    0.370    0.270   40.646
  143.000   56.233    0.412    0.275   39.259
  143.250   57.538    0.440    0.283   38.644
  143.500   58.822    0.429    0.290   37.979
  143.750   58.904    0.418    0.294   37.384
  144.000   58.385    0.419    0.295   36.799
  144.250   58.488    0.422    0.299   35.543
  144.500   59.172    0.430    0.301   34.949
  144.750   61.057    0.438    0.305   32.570
  145.000   62.942    0.444    0.310   31.425
  145.250   64.227    0.446    0.314   28.722
  145.500   66.153    0.447    0.320   24.386
  145.750   66.795    0.451    0.327   18.192
  146.000   68.701    0.453    0.335   11.936
  146.250   70.587    0.464    0.342    8.742
  146.500   71.249    0.478    0.339    7.560
  146.750   71.332    0.490    0.307    8.006
  147.000   72.657    0.509    0.304    8.960
  147.250   73.340    0.509    0.305   11.001
  147.500   68.594    0.324    0.275   14.266
  147.750   65.049    0.335    0.228   16.891
  148.000   60.322    0.377    0.216   16.626
  148.250   60.405    0.403    0.245   16.050
  148.500   67.741    0.442    0.258   14.942
  148.750   68.404    0.472    0.305   14.693
  149.000   67.905    0.470    0.317   14.455
  149.250   67.987    0.460    0.321   14.485
  149.500   68.671    0.457    0.311   15.348
  149.750   68.753    0.456    0.306   16.254
  150.000   68.815    0.453    0.310   18.191
  150.250   70.140    0.456    0.313   19.623
  150.500   71.424    0.455    0.302   21.973
  150.750   70.305    0.451    0.267   23.690
  151.000   69.765    0.446    0.258   27.551
  151.250   68.085    0.437    0.243   28.614
  151.500   67.546    0.305    0.222   29.750
  151.750   67.007    0.261    0.188   29.269
  152.000   66.488    0.275    0.148   26.751
  152.250   69.596    0.304    0.135   24.003
  152.500   70.258    0.337    0.148   19.285
  152.750   70.983    0.361    0.175   15.211
  153.000   71.666    0.414    0.216   13.400
  153.250   72.329    0.431    0.271   12.949
  153.500   75.437    0.448    0.295   13.225
  153.750   77.903    0.450    0.301   13.742
  154.000   79.208    0.450    0.302   14.561
  154.250   79.891    0.448    0.301   15.123
  154.500   78.792    0.453    0.306   15.437
  154.750   78.252    0.460    0.310   15.765
  155.000   77.754    0.460    0.312   15.798
  155.250   77.816    0.460    0.316   15.831
  155.500   79.121    0.458    0.320   15.873
  155.750   79.203    0.457    0.321   15.898
  156.000   79.865    0.453    0.323   15.641
  156.250   81.150    0.452    0.323   15.388
  156.500   83.056    0.449    0.320   14.870
  156.750   84.340    0.454    0.318   13.584
  157.000   85.044    0.460    0.314   11.323
  157.250   86.349    0.468    0.311    9.975
  157.500   87.032    0.475    0.304    8.787
  157.750   88.296    0.484    0.298    8.031
  158.000   90.803    0.489    0.293    7.206
  158.250   90.906    0.499    0.300    6.833
  158.500   90.366    0.510    0.296    7.108
  158.750   89.827    0.507    0.290    7.390
  159.000   89.930    0.490    0.276    7.539
  159.250   92.437    0.482    0.264    7.282
  159.500   94.281    0.496    0.292    7.034
  159.750   97.389    0.503    0.290    7.048
  160.000  100.477    0.511    0.260    7.472
  160.250   99.357    0.518    0.244    7.765
  160.500   97.636    0.527    0.254    7.921
  160.750   95.314    0.501    0.272    7.659
  161.000   94.194    0.499    0.264    7.004
  161.250   94.297    0.509    0.255    6.758
  161.500   97.965    0.529    0.244    6.291
  161.750  106.482    0.532    0.233    6.073
  162.000  111.373    0.541    0.233    5.663
  162.250  113.300    0.559    0.239    5.464
  162.500  113.983    0.568    0.252    5.277
  162.750  114.646    0.586    0.258    5.192
  163.000  115.349    0.600    0.255    5.017
  163.250  114.230    0.612    0.255    5.025
  163.500  112.529    0.628    0.253    4.949
  163.750  111.409    0.621    0.246    5.046
  164.000  110.849    0.560    0.223    5.344
  164.250  109.128    0.566    0.219    6.095
  164.500  105.625    0.572    0.226    7.480
  164.750  100.898    0.578    0.266    9.880
  165.000   97.333    0.477    0.275   13.064
  165.250   90.804    0.471    0.296   14.629
  165.500   86.699    0.462    0.298   15.194
  165.750   84.397    0.457    0.303   15.517
  166.000   83.236    0.451    0.304   15.265
  166.250   81.536    0.445    0.293   15.018
  166.500   81.017    0.440    0.293   14.506
  166.750   81.701    0.438    0.292   14.018
  167.000   81.762    0.438    0.287   13.784
  167.250   83.046    0.437    0.273   13.314
  167.500   86.776    0.436    0.262   13.349
  167.750   88.040    0.440    0.264   13.625
  168.000   89.925    0.453    0.271   13.901
  168.250   90.008    0.464    0.278   14.736
  168.500   90.090    0.454    0.290   15.313
  168.750   89.591    0.431    0.296   15.639
  169.000   89.073    0.424    0.290   15.097
  169.250   89.155    0.424    0.285   14.062
  169.500   90.460    0.429    0.282   13.328
  169.750   91.724    0.440    0.282   12.644
  170.000   93.609    0.448    0.275   12.446
  170.250   94.292    0.447    0.273   12.466
  170.500   94.374    0.440    0.276   12.486
  170.750   93.876    0.440    0.270   12.758
  171.000   93.958    0.446    0.261   13.257
  171.250   94.061    0.457    0.266   13.285
  171.500   93.522    0.462    0.272   13.320
  171.750   93.604    0.457    0.272   13.341
