~VERSION INFORMATION
 VERS.                 2.0:   CWLS LOG ASCII STANDARD -VERSION 2.0
 WRAP.                  NO:   ONE LINE PER DEPTH STEP
~WELL INFORMATION BLOCK
#MNEM.UNIT           DATA                    DESCRIPTION OF MNEMONIC
#---------    -------------------            -------------------------------
# Generated from Intellog Unique Number	CN_94_101/WELL/5019
WELL.         TEXACO EXPLOORATION            : Well_name    - WELL
LOC .         AA/11-09-099-15W4/0            : Location     - LOCATION
UWI .         AA/11-09-099-15W400            : Uwi          - UNIQUE WELL ID
ENTR.         TIM                            : Entered      - ENTERED BY
SRVC.         SCHLUMBERGER                   : Scn          - SERVICE COMPANY
DATE.         08/13/92                       : Date         - LOG DATE
STRT.M        270                            : top_depth    - START DEPTH
STOP.M        460                            : bot_depth    - STOP DEPTH
STEP.M        0.25                           : increment    - STEP LENGTH
 NULL. -999.2500:NULL Value
~CURVE INFORMATION BLOCK
#MNEM UNIT       ERCB CURVE CODE    CURVE DESCRIPTION
#-----------   ------------------   ----------------------------------
DEPT.M        00 001 00 00         : DEPTH        - DEPTH
GR  .API      00 310 00 00         : GR           - GAMMA RAY
ILD .OHMM     00 120 00 00         : RESD         - DEEP RESISTIVITY (DIL)
NPHI.V/V      00 330 00 00         : PHIN         - NEUTRON POROSITY (SANDSTONE)
DPHI.V/V      00 890 00 00         : PHID         - DENSITY POROSITY (SANDSTONE)
~PARAMETER INFORMATION
#MNEM.UNIT           DATA             DESCRIPTION OF MNEMONIC
#---------         -----------     ------------------------------
GL  .M        723.9                : gl           - GROUND LEVEL ELEVATION
EREF.M        727.3                : kb           - ELEVATION OF DEPTH REFERENCE
DATM.M        727.3                : datum        - DATUM ELEVATION
TDD .M        462                  : tdd          - TOTAL DEPTH DRILLER
RUN .         ONE                  : Run          - RUN NUMBER
ENG .         BILL                 : Engineer     - RECORDING ENGINEER
WIT .         JIM                  : Witness      - WITNESSED BY
MUD .         GEL                  : Mud_type     - MUD TYPE
MATR.         SANDSTONE            : Logunit      - NEUTRON MATRIX
TMAX.C        31.1                 : BHT          - MAXIMUM RECORDED TEMPERATURE
BHTD.M        462                  : BHTDEP       - MAXIMUM RECORDED TEMPERATURE
RMT .C        31.1                 : MDTP         - TEMPERATURE OF MUD
MUDD.KG/M     1130                 : MWT          - MUD DENSITY
NEUT.         1                    : NEUTRON      - NEUTRON TYPE
RESI.         0                    : RESIST       - RESISTIVITY TYPE
RM  .OHMM     6                    : RM           - RESISTIVITY OF MUD
RMC .OHMM     6                    : RMC          - RESISTIVITY OF MUD CAKE
RMF .OHMM     6                    : RMF          - RESISTIVITY OF MUD FILTRATE
SUFT.C        4                    : SUFT         - SURFACE TEMPERATURE
~A  DEPTH       GR     RESD     PHIN     PHID
# ...
  313.500  151.547    4.246    0.531    0.231
  313.750  151.551    4.033    0.533    0.232
  314.000  152.168    4.031    0.540    0.240
  314.250  152.173    4.026    0.549    0.250
  314.500  152.178    4.023    0.554    0.254
  314.750  151.569    4.022    0.566    0.252
  315.000  149.123    4.018    0.582    0.251
  315.250  147.902    4.015    0.593    0.254
  315.500  147.294    4.012    0.601    0.260
  315.750  143.011    4.009    0.596    0.266
  316.000  139.951    4.006    0.573    0.271
  316.250  141.793    4.003    0.547    0.269
  316.500  142.412    3.790    0.528    0.268
  316.750  139.966    3.786    0.550    0.266
  317.000  136.907    3.784    0.562    0.257
  317.250  136.911    3.781    0.585    0.254
  317.500  139.978    3.778    0.485    0.254
  317.750  144.273    3.774    0.476    0.251
  318.000  141.826    3.979    0.495    0.245
  318.250  136.929    4.186    0.502    0.238
  318.500  134.482    4.390    0.501    0.246
  318.750  135.102    4.388    0.511    0.256
  319.000  135.718    4.384    0.521    0.262
  319.250  137.561    4.381    0.530    0.260
  319.500  140.629    4.377    0.540    0.259
  319.750  143.699    4.375    0.550    0.259
  320.000  145.542    4.371    0.557    0.259
  320.250  144.932    4.158    0.555    0.259
  320.500  141.877    4.157    0.548    0.257
  320.750  140.653    4.152    0.520    0.260
  321.000  137.594    4.149    0.516    0.265
  321.250  133.309    4.145    0.510    0.267
  321.500  130.251    4.144    0.499    0.266
  321.750  131.480    4.350    0.504    0.261
  322.000  135.163    4.555    0.515    0.262
  322.250  138.844    4.761    0.524    0.259
  322.500  141.912    5.384    0.529    0.252
  322.750  143.755    5.381    0.534    0.247
  323.000  142.534    5.378    0.538    0.252
  323.250  141.925    5.374    0.540    0.257
  323.500  140.705    5.372    0.548    0.252
  323.750  141.322    4.950    0.558    0.209
  324.000  143.778    4.947    0.536    0.175
  324.250  145.621    4.736    0.518    0.139
  324.500  148.075    4.732    0.529    0.232
  324.750  151.143    4.728    0.552    0.254
  325.000  153.600    4.726    0.563    0.243
  325.250  153.605    4.723    0.577    0.237
  325.500  154.224    4.719    0.569    0.237
  325.750  154.839    4.508    0.564    0.240
  326.000  155.457    4.504    0.563    0.247
  326.250  156.687    4.501    0.557    0.252
  326.500  157.918    4.288    0.560    0.254
  326.750  158.534    4.285    0.588    0.254
  327.000  159.153    4.281    0.591    0.250
  327.250  159.159    4.278    0.573    0.238
  327.500  158.548    4.276    0.560    0.243
  327.750  155.489    4.272    0.554    0.248
  328.000  151.818    4.060    0.555    0.259
  328.250  147.534    4.056    0.554    0.269
  328.500  144.474    3.844    0.545    0.270
  328.750  143.253    3.841    0.531    0.259
  329.000  146.934    3.838    0.548    0.256
  329.250  152.455    3.625    0.576    0.257
  329.500  150.008    3.623    0.535    0.261
  329.750  148.174    3.619    0.523    0.265
  330.000  144.502    3.825    0.535    0.264
  330.250  141.443    4.239    0.557    0.261
  330.500  141.449    4.446    0.559    0.257
  330.750  142.680    4.652    0.510    0.254
  331.000  143.908    4.648    0.515    0.243
  331.250  148.202    4.854    0.541    0.233
  331.500  151.883    5.060    0.558    0.236
  331.750  155.564    5.056    0.554    0.240
  332.000  158.019    5.053    0.554    0.236
  332.250  158.636    5.050    0.555    0.216
  332.500  158.643    4.838    0.559    0.207
  332.750  158.033    4.626    0.564    0.206
  333.000  155.589    4.204    0.568    0.213
  333.250  154.979    3.993    0.572    0.218
  333.500  152.536    3.781    0.574    0.227
  333.750  151.927    3.569    0.577    0.236
  334.000  150.705    3.565    0.584    0.250
  334.250  149.485    3.560    0.592    0.262
  334.500  148.264    3.767    0.601    0.270
  334.750  147.656    3.765    0.607    0.277
  335.000  147.660    3.761    0.603    0.284
  335.250  148.279    3.758    0.606    0.289
  335.500  148.283    3.755    0.616    0.290
  335.750  148.901    3.543    0.606    0.290
  336.000  149.518    3.331    0.598    0.290
  336.250  149.521    3.328    0.586    0.288
  336.500  149.527    3.116    0.576    0.286
  336.750  148.919    3.112    0.563    0.281
  337.000  146.473    3.108    0.557    0.271
  337.250  143.412    3.106    0.557    0.274
  337.500  138.516    3.102    0.554    0.275
  337.750  133.619    3.099    0.545    0.279
  338.000  129.334    3.305    0.534    0.283
  338.250  122.598    3.302    0.530    0.285
  338.500  118.927    3.299    0.524    0.280
  338.750  114.643    3.712    0.510    0.271
  339.000  112.809    3.710    0.498    0.257
  339.250  110.363    4.124    0.487    0.252
  339.500  107.916    4.539    0.456    0.256
  339.750  109.148    5.162    0.444    0.262
  340.000  110.376    5.368    0.438    0.265
  340.250  114.057    5.574    0.469    0.269
  340.500  121.415    5.989    0.477    0.270
  340.750  122.646    6.194    0.491    0.272
  341.000  123.876    6.400    0.488    0.274
  341.250  128.169    6.606    0.478    0.274
  341.500  136.140    6.603    0.487    0.270
  341.750  131.857    6.391    0.492    0.258
  342.000  128.184    5.761    0.479    0.252
  342.250  123.899    5.131    0.459    0.256
  342.500  126.968    4.710    0.462    0.253
  342.750  134.325    4.707    0.488    0.238
  343.000  141.069    5.329    0.496    0.274
  343.250  137.398    5.953    0.514    0.280
  343.500  124.535    6.159    0.529    0.285
  343.750  114.124    6.155    0.524    0.293
  344.000  109.228    5.943    0.520    0.299
  344.250  104.329    5.940    0.514    0.299
  344.500   99.432    5.729    0.507    0.286
  344.750   94.536    5.934    0.502    0.258
  345.000   92.089    5.931    0.464    0.219
  345.250   94.546    6.555    0.453    0.183
  345.500   97.000    6.969    0.440    0.176
  345.750  101.907    7.592    0.431    0.197
  346.000  104.975    8.007    0.435    0.247
  346.250  111.108    8.422    0.440    0.313
  346.500  123.979    8.835    0.466    0.314
  346.750  129.497    8.625    0.498    0.290
  347.000  136.242    7.577    0.545    0.275
  347.250  143.599    6.321    0.558    0.267
  347.500  149.120    5.273    0.526    0.257
  347.750  149.124    4.852    0.510    0.251
  348.000  148.515    4.012    0.522    0.250
  348.250  145.456    3.590    0.544    0.251
  348.500  139.947    3.380    0.549    0.252
  348.750  138.729    3.377    0.541    0.256
  349.000  138.731    3.373    0.526    0.258
  349.250  139.350    3.369    0.525    0.258
  349.500  136.291    3.576    0.526    0.260
  349.750  133.843    4.199    0.521    0.262
  350.000  119.758    4.405    0.437    0.255
  350.250  117.922    4.610    0.410    0.193
  350.500  111.187    4.816    0.389    0.226
  350.750  112.417    4.812    0.431    0.253
  351.000  126.515    4.600    0.464    0.265
  351.250  132.033    4.389    0.496    0.270
  351.500  140.616    4.176    0.520    0.262
  351.750  144.297    4.172    0.524    0.257
  352.000  140.626    4.169    0.517    0.256
  352.250  137.566    4.375    0.522    0.260
  352.500  133.894    4.582    0.520    0.263
  352.750  128.997    5.204    0.487    0.267
  353.000  124.713    5.410    0.440    0.262
  353.250  121.041    5.408    0.428    0.234
  353.500  119.820    5.613    0.478    0.236
  353.750  125.339    5.610    0.493    0.260
  354.000  130.248    5.397    0.496    0.263
  354.250  130.251    5.395    0.473    0.266
  354.500  128.417    5.182    0.468    0.258
  354.750  122.294    4.971    0.469    0.253
  355.000  119.848    4.967    0.472    0.253
  355.250  119.241    4.964    0.498    0.271
  355.500  116.182    4.960    0.468    0.285
  355.750  111.899    4.958    0.440    0.299
  356.000  111.290    5.372    0.428    0.310
  356.250  113.744    6.413    0.433    0.294
  356.500  121.102    7.038    0.493    0.280
  356.750  130.298    6.826    0.522    0.282
