~VERSION INFORMATION
 VERS.                 2.0:   CWLS LOG ASCII STANDARD -VERSION 2.0
 WRAP.                  NO:   ONE LINE PER DEPTH STEP
~WELL INFORMATION BLOCK
#MNEM.UNIT           DATA                    DESCRIPTION OF MNEMONIC
#---------    -------------------            -------------------------------
# Generated from Intellog Unique Number	CC_88_90/WELL/1183
WELL.         10-26-089-14W4                 : Well_name    - WELL
LOC .         AA/10-26-089-14W4/0            : Location     - LOCATION
UWI .         AA/10-26-089-14W400            : Uwi          - UNIQUE WELL ID
ENTR.         DW                             : Entered      - ENTERED BY
SRVC.         SCHLUMBERGER                   : Scn          - SERVICE COMPANY
STRT.M        70                             : top_depth    - START DEPTH
STOP.M        219.75                         : bot_depth    - STOP DEPTH
STEP.M        0.25                           : increment    - STEP LENGTH
 NULL. -999.2500:NULL Value
~CURVE INFORMATION BLOCK
#MNEM UNIT       ERCB CURVE CODE    CURVE DESCRIPTION
#-----------   ------------------   ----------------------------------
DEPT.M        00 001 00 00         : DEPTH        - DEPTH
GR  .API      00 310 00 00         : GR           - GAMMA RAY
DPHI.V/V      00 890 00 00         : PHID         - DENSITY POROSITY (SANDSTONE)
NPHI.V/V      00 330 00 00         : PHIN         - NEUTRON POROSITY (SANDSTONE)
ILD .OHMM     00 120 00 00         : RESD         - DEEP RESISTIVITY (DIL)
~PARAMETER INFORMATION
#MNEM.UNIT           DATA             DESCRIPTION OF MNEMONIC
#---------         -----------     ------------------------------
GL  .M        500.2                : gl           - GROUND LEVEL ELEVATION
EREF.M        503.2                : kb           - ELEVATION OF DEPTH REFERENCE
DATM.M        503.2                : datum        - DATUM ELEVATION
TDD .M        227                  : tdd          - TOTAL DEPTH DRILLER
RUN .         ONE                  : Run          - RUN NUMBER
ENG .         BILL                 : Engineer     - RECORDING ENGINEER
WIT .         JIM                  : Witness      - WITNESSED BY
MUD .         GEL                  : Mud_type     - MUD TYPE
MATR.         SANDSTONE            : Logunit      - NEUTRON MATRIX
TMAX.C        25                   : BHT          - MAXIMUM RECORDED TEMPERATURE
BHTD.M        227                  : BHTDEP       - MAXIMUM RECORDED TEMPERATURE
MATR.         1                    : LOGUNIT      - NEUTRON MATRIX
RMT .C        25                   : MDTP         - TEMPERATURE OF MUD
NEUT.         1                    : NEUTRON      - NEUTRON TYPE
RESI.         0                    : RESIST       - RESISTIVITY TYPE
RMC .OHMM     0.25                 : RMC          - RESISTIVITY OF MUD CAKE
RMF .OHMM     0.25                 : RMF          - RESISTIVITY OF MUD FILTRATE
SUFT.C        15                   : SUFT         - SURFACE TEMPERATURE
~A  DEPTH       GR     PHID     PHIN     RESD
   70.000   64.510    0.397    0.473   30.405
   70.250   59.875    0.422    0.495   26.391
   70.500   56.081    0.467    0.598   22.668
   70.750   57.378    0.320    0.533   18.997
   71.000   61.880    0.216    0.424   16.437
   71.250   66.753    0.316    0.435   16.491
   71.500   73.007    0.342    0.441   18.543
   71.750   77.993    0.328    0.462   20.075
   72.000   78.708    0.339    0.480   21.939
   72.250   76.174    0.349    0.499   23.917
   72.500   76.090    0.348    0.510   21.185
   72.750   79.771    0.338    0.508   13.102
   73.000   83.359    0.316    0.513    7.038
   73.250   88.583    0.329    0.539    6.105
   73.500   91.658    0.336    0.602    6.095
   73.750   91.480    0.331    0.555    6.153
   74.000   88.606    0.325    0.478    6.563
   74.250   83.216    0.322    0.489    6.987
   74.500   78.899    0.321    0.499    7.163
   74.750   82.759    0.320    0.518    6.528
   75.000   86.788    0.311    0.512    6.011
   75.250   90.405    0.297    0.496    5.388
   75.500   93.214    0.295    0.504    4.844
   75.750   99.538    0.304    0.534    4.681
   76.000  112.067    0.299    0.560    4.453
   76.250  112.713    0.291    0.583    4.234
   76.500  109.323    0.287    0.595    4.140
   76.750  102.120    0.283    0.618    4.107
   77.000   98.343    0.296    0.579    4.168
   77.250  102.229    0.311    0.498    4.303
   77.500  102.681    0.287    0.509    4.363
   77.750   97.028    0.271    0.512    4.424
   78.000   93.128    0.267    0.510    4.561
   78.250   93.088    0.295    0.535    4.669
   78.500   94.485    0.312    0.532    4.725
   78.750   93.223    0.295    0.515    4.816
   79.000   88.353    0.299    0.577    4.976
   79.250   85.852    0.302    0.605    5.258
   79.500   81.310    0.234    0.614    6.045
   79.750   76.071    0.179    0.650    7.375
   80.000   71.786    0.194    0.572   11.514
   80.250   66.704    0.254    0.415   18.405
   80.500   61.687    0.324    0.422   25.399
   80.750   62.339    0.349    0.440   33.787
   81.000   65.149    0.349    0.470   37.301
   81.250   66.344    0.336    0.457   35.865
   81.500   65.341    0.323    0.441   33.698
   81.750   63.818    0.326    0.449   33.058
   82.000   62.787    0.340    0.426   33.716
   82.250   60.764    0.339    0.437   36.311
   82.500   58.533    0.342    0.431   40.546
   82.750   56.965    0.350    0.422   44.630
   83.000   56.504    0.361    0.424   47.539
   83.250   57.422    0.369    0.435   49.606
   83.500   59.567    0.369    0.460   51.111
   83.750   62.109    0.375    0.469   51.867
   84.000   64.474    0.379    0.464   53.393
   84.250   65.229    0.369    0.483   54.795
   84.500   63.361    0.375    0.469   55.105
   84.750   61.070    0.382    0.431   55.160
   85.000   61.270    0.356    0.457   55.075
   85.250   61.770    0.371    0.476   51.982
   85.500   63.187    0.343    0.502   47.018
   85.750   71.851    0.315    0.482   44.451
   86.000   79.644    0.309    0.472   40.941
   86.250   79.515    0.302    0.495   35.484
   86.500   75.954    0.308    0.464   33.589
   86.750   65.803    0.316    0.462   31.416
   87.000   67.478    0.322    0.474   30.796
   87.250   70.299    0.328    0.479   29.398
   87.500   66.709    0.336    0.477   28.092
   87.750   61.957    0.343    0.464   28.258
   88.000   58.537    0.350    0.449   28.279
   88.250   58.311    0.351    0.466   30.169
   88.500   59.381    0.345    0.477   30.973
   88.750   59.930    0.333    0.472   31.458
   89.000   60.876    0.340    0.479   31.439
   89.250   62.290    0.358    0.499   30.227
   89.500   62.093    0.357    0.499   29.332
   89.750   61.380    0.354    0.478   28.579
   90.000   62.657    0.337    0.466   25.982
   90.250   63.514    0.330    0.473   23.176
   90.500   62.977    0.337    0.481   21.491
   90.750   61.581    0.343    0.478   20.756
   91.000   60.109    0.346    0.469   20.818
   91.250   62.058    0.335    0.455   21.138
   91.500   63.642    0.347    0.446   21.502
   91.750   63.446    0.354    0.451   21.738
   92.000   61.490    0.349    0.457   22.402
   92.250   59.001    0.349    0.458   23.489
   92.500   58.733    0.348    0.466   24.201
   92.750   60.857    0.353    0.464   24.998
   93.000   61.308    0.343    0.451   25.477
   93.250   61.140    0.333    0.437   25.760
   93.500   60.884    0.341    0.433   25.185
   93.750   59.517    0.355    0.442   24.008
   94.000   57.977    0.354    0.456   23.271
   94.250   57.871    0.356    0.469   21.505
   94.500   58.346    0.358    0.489   20.235
   94.750   58.805    0.360    0.470   19.748
   95.000   59.431    0.362    0.438   19.513
   95.250   60.651    0.355    0.437   19.119
   95.500   62.156    0.339    0.449   18.508
   95.750   62.680    0.341    0.468   18.200
   96.000   63.120    0.343    0.478   17.942
   96.250   63.619    0.341    0.471   17.603
   96.500   64.179    0.341    0.464   17.475
   96.750   64.514    0.345    0.468   17.959
   97.000   63.874    0.355    0.475   18.837
   97.250   62.738    0.376    0.498   19.377
   97.500   62.796    0.391    0.529   20.674
   97.750   63.979    0.404    0.529   21.145
   98.000   64.240    0.391    0.507   20.291
   98.250   62.830    0.361    0.484   19.420
   98.500   61.275    0.362    0.461   18.816
   98.750   59.785    0.359    0.465   17.635
   99.000   57.723    0.351    0.482   17.075
   99.250   58.510    0.348    0.492   17.277
   99.500   60.426    0.350    0.497   17.421
   99.750   60.543    0.353    0.503   17.479
  100.000   60.516    0.352    0.504   17.751
  100.250   59.999    0.350    0.504   17.193
  100.500   59.383    0.349    0.496   16.980
  100.750   59.107    0.354    0.471   17.341
  101.000   59.399    0.360    0.453   18.069
  101.250   60.826    0.356    0.465   18.922
  101.500   63.455    0.351    0.497   19.489
  101.750   65.193    0.353    0.521   19.795
  102.000   64.473    0.354    0.493   20.136
  102.250   61.248    0.350    0.481   20.253
  102.500   59.593    0.348    0.487   20.233
  102.750   62.259    0.349    0.472   20.188
  103.000   65.788    0.349    0.464   19.837
  103.250   66.022    0.349    0.485   19.464
  103.500   64.463    0.350    0.482   19.716
  103.750   63.399    0.351    0.468   19.752
  104.000   63.258    0.352    0.464   19.191
  104.250   64.125    0.352    0.462   18.647
  104.500   65.040    0.350    0.451   18.366
  104.750   63.200    0.339    0.452   17.803
  105.000   64.969    0.332    0.477   17.208
  105.250   64.625    0.329    0.503   16.788
  105.500   62.871    0.338    0.517   16.707
  105.750   64.933    0.349    0.517   16.617
  106.000   68.599    0.349    0.512   16.060
  106.250   71.767    0.368    0.546   15.772
  106.500   73.378    0.356    0.577   15.749
  106.750   70.464    0.345    0.527   15.732
  107.000   67.110    0.348    0.466   15.811
  107.250   67.430    0.343    0.474   16.114
  107.500   68.453    0.340    0.499   16.344
  107.750   69.453    0.342    0.508   16.117
  108.000   70.504    0.328    0.499   15.645
  108.250   71.185    0.333    0.482   15.116
  108.500   70.115    0.344    0.470   14.735
  108.750   68.046    0.336    0.465   14.531
  109.000   67.701    0.334    0.467   14.294
  109.250   68.631    0.335    0.482   14.050
  109.500   70.160    0.332    0.490   14.002
  109.750   71.154    0.340    0.469   14.027
  110.000   68.172    0.341    0.464   13.997
  110.250   63.289    0.328    0.484   14.039
  110.500   64.486    0.326    0.467   14.277
  110.750   70.740    0.319    0.457   14.508
  111.000   73.439    0.336    0.505   14.704
  111.250   66.355    0.157    0.329   15.118
  111.500   58.717   -0.017    0.145   16.286
  111.750   57.374    0.058    0.197   18.933
  112.000   56.321    0.173    0.236   22.479
  112.250   57.179    0.221    0.294   23.874
  112.500   59.700    0.258    0.342   22.488
  112.750   66.675    0.291    0.398   20.512
  113.000   74.014    0.306    0.447   18.261
  113.250   76.940    0.308    0.462   15.430
