~VERSION INFORMATION
 VERS.                 2.0:   CWLS LOG ASCII STANDARD -VERSION 2.0
 WRAP.                  NO:   ONE LINE PER DEPTH STEP
~WELL INFORMATION BLOCK
#MNEM.UNIT           DATA                    DESCRIPTION OF MNEMONIC
#---------    -------------------            -------------------------------
# Generated from Intellog Unique Number	CN_94_101/WELL/2690
WELL.         16-30-094-15W4                 : Well_name    - WELL
LOC .         AA/16-30-094-15W4/0            : Location     - LOCATION
UWI .         AA/16-30-094-15W400            : Uwi          - UNIQUE WELL ID
ENTR.         JOETTE                         : Entered      - ENTERED BY
SRVC.         SCHLUMBERGER                   : Scn          - SERVICE COMPANY
DATE.         06/19/92                       : Date         - LOG DATE
STRT.F        100                            : top_depth    - START DEPTH
STOP.F        870.177                        : bot_depth    - STOP DEPTH
STEP.F        0.82                           : increment    - STEP LENGTH
 NULL. -999.2500:NULL Value
~CURVE INFORMATION BLOCK
#MNEM UNIT       ERCB CURVE CODE    CURVE DESCRIPTION
#-----------   ------------------   ----------------------------------
DEPT.F        00 001 00 00         : DEPTH        - DEPTH
CALI.IN       00 280 01 00         : CAL          - CALIPER
GR  .API      00 310 00 00         : GR           - GAMMA RAY
DPHI.V/V      00 890 00 00         : PHID         - DENSITY POROSITY (SANDSTONE)
ILD .OHMM     00 120 00 00         : RESD         - DEEP RESISTIVITY (DIL)
~PARAMETER INFORMATION
#MNEM.UNIT           DATA             DESCRIPTION OF MNEMONIC
#---------         -----------     ------------------------------
GL  .M        520.294              : gl           - GROUND LEVEL ELEVATION
EREF.M        523.342              : kb           - ELEVATION OF DEPTH REFERENCE
DATM.M        523.342              : datum        - DATUM ELEVATION
TDD .M        269.748              : tdd          - TOTAL DEPTH DRILLER
RUN .         ONE                  : Run          - RUN NUMBER
ENG .         BILL                 : Engineer     - RECORDING ENGINEER
WIT .         JIM                  : Witness      - WITNESSED BY
MUD .         GEL                  : Mud_type     - MUD TYPE
MATR.         SANDSTONE            : Logunit      - NEUTRON MATRIX
TMAX.F        68                   : BHT          - MAXIMUM RECORDED TEMPERATURE
BHTD.F        885                  : BHTDEP       - MAXIMUM RECORDED TEMPERATURE
RMT .F        68                   : MDTP         - TEMPERATURE OF MUD
MUDD.LB/G     9.5                  : MWT          - MUD DENSITY
NEUT.         1                    : NEUTRON      - NEUTRON TYPE
RESI.         0                    : RESIST       - RESISTIVITY TYPE
RM  .OHMM     0.84                 : RM           - RESISTIVITY OF MUD
RMC .OHMM     0.84                 : RMC          - RESISTIVITY OF MUD CAKE
RMF .OHMM     0.84                 : RMF          - RESISTIVITY OF MUD FILTRATE
SUFT.F        39.2                 : SUFT         - SURFACE TEMPERATURE
~A  DEPTH      CAL       GR     PHID     RESD
# ...
  528.150    9.183   67.959    0.147    5.305
  528.970    9.148   76.961    0.214    4.487
  529.790    9.150   85.567    0.257    3.394
  530.610    9.154   88.721    0.254    3.398
  531.430    9.158   91.876    0.264    3.531
  532.251    9.121   92.295    0.241    3.602
  533.071    9.124   91.927    0.249    3.814
  533.891    9.089   88.058    0.269    3.677
  534.711    9.091   86.137    0.208    3.416
  535.531    9.095   84.217    0.189    3.419
  536.352    9.097   83.467    0.168    4.529
  537.172    9.101   70.242    0.196    5.074
  537.992    9.064   79.634    0.209    4.456
  538.812    9.067   82.391    0.208    4.897
  539.633    9.069   81.251    0.237    6.020
  540.453    9.073   82.457    0.256    6.868
  541.273    9.037   81.699    0.257    8.292
  542.093    9.000   78.219    0.258    9.113
  542.913    8.966   75.137    0.264    9.292
  543.734    8.969   74.776    0.247    9.655
  544.554    8.971   72.466    0.237   10.225
  545.374    8.974   71.326    0.247   10.434
  546.194    8.976   74.473    0.247   10.638
  547.014    8.980   79.180    0.239   10.847
  547.835    9.062   78.040    0.232   10.864
  548.655    9.064   75.347    0.233   10.671
  549.475    9.184   75.376    0.231    9.912
  550.295    9.305   78.134    0.227    9.205
  551.115    9.346   81.281    0.238    8.397
  551.936    9.388   84.826    0.255    8.405
  552.756    9.469   84.082    0.262    8.570
  553.576    9.628   82.942    0.263    8.579
  554.396    9.709   82.588    0.257    8.429
  555.217    9.478   82.213    0.249    8.128
  556.037    9.364   80.690    0.260    8.136
  556.857    9.172   77.983    0.278    8.618
  557.677    9.058   74.894    0.249    8.953
  558.497    9.062   70.245    0.224    9.481
  559.318    9.064   65.986    0.213    8.020
  560.138    9.068   67.581    0.230    6.915
  560.958    9.032   68.772    0.246    7.321
  561.778    9.034   66.852    0.246    7.469
  562.598    8.998   66.491    0.251    7.761
  563.419    8.963   71.205    0.250    8.369
  564.239    8.967   74.743    0.227    9.731
  565.059    8.968   77.890    0.212    9.210
  565.879    8.933   74.411    0.189    8.555
  566.699    8.936   67.813    0.185    7.947
  567.520    8.938   64.731    0.211    7.663
  568.340    8.941   67.878    0.261    7.390
  569.160    8.905   70.636    0.272    7.262
  569.980    8.910   71.445    0.285    6.873
  570.801    8.911   73.812    0.272    7.140
  571.621    8.954   71.892    0.260    7.702
  572.441    9.035   70.369    0.243    8.312
  573.261    9.037   72.737    0.244    8.803
  574.081    9.079   72.376    0.265    8.807
  574.902    9.084   70.846    0.261    8.653
  575.722    9.125   73.994    0.256    8.346
  576.542    9.128   75.589    0.253    7.609
  577.362    9.130   70.543    0.263    6.938
  578.182    9.133   67.064    0.269    6.445
  579.003    9.136   66.313    0.250    6.332
  579.823    9.140   81.162    0.278    6.581
  580.643    9.142   78.073    0.272    6.466
  581.463    9.069   81.235    0.248    7.375
  582.283    9.072   83.986    0.220    9.592
  583.104    9.034   86.750    0.208    9.080
  583.924    9.037   73.128    0.170    7.973
  584.744    9.002   68.869    0.141    6.498
  585.564    9.004   72.017    0.296    4.313
  586.385    9.008   75.554    0.287    3.581
  587.205    9.012   75.583    0.281    5.719
  588.025    9.014   72.111    0.269    6.169
  588.845    9.016   70.184    0.261    6.175
  589.665    8.981   66.712    0.261    4.849
  590.486    8.984   65.571    0.265    2.342
  591.306    8.986   68.719    0.277    2.096
  592.126    8.989   73.425    0.303    2.060
  592.946    8.953   82.038    0.323    2.532
  593.766    8.917   86.355    0.310    3.615
  594.587    8.920   84.435    0.286    4.444
  595.407    8.884   78.616    0.280    7.099
  596.227    8.848   74.747    0.249    8.407
  597.047    8.851   71.657    0.193    9.416
  597.867    8.815   68.178    0.176    8.583
  598.688    8.857   65.088    0.159    6.739
  599.508    9.018   69.016    0.194    5.919
  600.328    9.058   81.916    0.207    6.506
  601.148    9.178   85.843    0.235    8.150
  601.969    9.298   82.754    0.245    9.473
  602.789    9.224   78.892    0.238   10.610
  603.609    9.071   75.405    0.204   10.232
  604.429    8.957   69.204    0.199    9.156
  605.249    8.922   71.962    0.237    8.995
  606.070    8.962   74.330    0.262    9.174
  606.890    8.965   79.037    0.253    9.186
  607.710    9.008   84.530    0.248    9.545
  608.530    9.011   82.220    0.238   10.493
  609.350    9.013   77.572    0.247   10.904
  610.171    9.057   74.482    0.253   10.514
  610.991    9.058   76.070    0.248   10.139
  611.811    9.061   75.717    0.249    9.779
  612.631    9.064   77.695    0.255    9.784
  613.451    9.068   80.055    0.264    9.799
  614.272    9.032   78.922    0.255    9.806
  615.092    9.035   77.782    0.242    9.819
  615.912    9.000   78.590    0.244    9.826
  616.732    9.002   76.670    0.241    9.839
  617.552    8.965   76.317    0.235    9.851
  618.373    8.968   75.169    0.235   10.042
  619.193    8.972   72.469    0.239   10.055
  620.013    8.976   72.895    0.242   10.257
  620.833    8.977   73.321    0.240   10.459
  621.654    9.020   73.740    0.232   10.672
  622.474    9.024   75.321    0.224   10.881
  623.294    9.025   72.621    0.217   11.095
  624.114    9.030   71.871    0.230   11.319
  624.934    9.032   75.408    0.247   10.917
  625.755    9.035   75.444    0.254   10.723
  626.575    9.038   73.914    0.250   10.151
  627.395    9.041   73.553    0.251   10.159
  628.215    9.043   74.751    0.257    9.981
  629.035    9.007   74.391    0.267    9.994
  629.856    9.011   74.037    0.279   10.198
  630.676    9.014   74.456    0.264   10.016
  631.496    9.018   74.485    0.263    9.661
  632.316    9.020   73.734    0.295    9.487
  633.136    9.023   70.645    0.305    9.676
  633.957    8.987   65.216    0.254   10.437
  634.777    8.991   61.340    0.215   11.690
  635.597    8.994   62.935    0.183   12.147
  636.417    8.996   62.192    0.241   12.623
  637.238    8.960   61.831    0.295   11.728
  638.058    8.963   63.802    0.306   10.298
  638.878    8.965   63.448    0.298    9.749
  639.698    8.968   64.647    0.273    9.759
  640.518    8.972   66.632    0.258    9.771
  641.339    8.975   66.661    0.190   10.151
  642.159    8.978   63.564    0.164   11.800
  642.979    8.981   57.746    0.086   21.482
  643.799    9.023   49.199    0.055   33.670
  644.619    9.025   44.542    0.021   53.782
  645.440    9.028   43.799    0.027   51.862
  646.260    9.071   52.419    0.034   48.176
  647.080    9.113   53.213    0.046   44.752
  647.900    9.195   56.368    0.152   37.864
  648.720    9.236   60.295    0.186   23.318
  649.541    9.277   69.297    0.210   14.095
  650.361    9.438   72.444    0.233    6.318
  651.181    9.596   76.372    0.232    6.689
  652.001    9.833   80.306    0.232    6.698
  652.822    9.681   81.902    0.224    5.881
  653.642    9.644   80.371    0.210    5.165
  654.462    9.608   79.231    0.211    5.572
  655.282    9.612   78.870    0.215    6.723
  656.102    9.615   78.892    0.218    8.265
  656.923    9.579   78.141    0.226    8.124
  657.743    9.542   77.390    0.232    8.133
  658.563    9.507   77.044    0.237    8.292
  659.383    9.548   78.250    0.236    8.459
  660.203    9.317   77.109    0.210    8.625
  661.024    9.671   75.954    0.202   10.410
  661.844   10.142   72.482    0.197   10.421
  662.664   10.262   74.453    0.166    8.496
  663.484    9.641   79.167    0.154    8.039
  664.304    9.449   84.264    0.254    8.671
  665.125    9.647   83.903    0.251    8.844
  665.945    9.691   81.203    0.252    8.528
  666.765    9.538   78.511    0.246    7.083
  667.585    9.423   76.973    0.235    6.702
  668.406    9.347   78.171    0.244    6.588
  669.226    9.311   83.275    0.250    6.846
  670.046    9.315   85.650    0.253    5.178
