~VERSION INFORMATION
 VERS.                 2.0:   CWLS LOG ASCII STANDARD -VERSION 2.0
 WRAP.                  NO:   ONE LINE PER DEPTH STEP
~WELL INFORMATION BLOCK
#MNEM.UNIT           DATA                    DESCRIPTION OF MNEMONIC
#---------    -------------------            -------------------------------
# Generated from Intellog Unique Number	CN_94_101/WELL/3318
WELL.         10-35-095-08W4                 : Well_name    - WELL
LOC .         AA/10-35-095-08W4/0            : Location     - LOCATION
UWI .         AA/10-35-095-08W400            : Uwi          - UNIQUE WELL ID
ENTR.         JOETTE                         : Entered      - ENTERED BY
SRVC.         SCHLUMBERGER                   : Scn          - SERVICE COMPANY
DATE.         07/22/92                       : Date         - LOG DATE
STRT.M        10                             : top_depth    - START DEPTH
STOP.M        136                            : bot_depth    - STOP DEPTH
STEP.M        0.25                           : increment    - STEP LENGTH
 NULL. -999.2500:NULL Value
~CURVE INFORMATION BLOCK
#MNEM UNIT       ERCB CURVE CODE    CURVE DESCRIPTION
#-----------   ------------------   ----------------------------------
DEPT.M        00 001 00 00         : DEPTH        - DEPTH
GR  .API      00 310 00 00         : GR           - GAMMA RAY
NPHI.V/V      00 330 00 00         : PHIN         - NEUTRON POROSITY (SANDSTONE)
RHOB.KG/M3    00 350 00 00         : DENS         - BULK DENSITY
ILD .OHMM     00 120 00 00         : RESD         - DEEP RESISTIVITY (DIL)
~PARAMETER INFORMATION
#MNEM.UNIT           DATA             DESCRIPTION OF MNEMONIC
#---------         -----------     ------------------------------
GL  .M        334.32               : gl           - GROUND LEVEL ELEVATION
EREF.M        334.32               : kb           - ELEVATION OF DEPTH REFERENCE
DATM.M        334.32               : datum        - DATUM ELEVATION
TDD .M        140.21               : tdd          - TOTAL DEPTH DRILLER
RUN .         ONE                  : Run          - RUN NUMBER
ENG .         BILL                 : Engineer     - RECORDING ENGINEER
WIT .         JIM                  : Witness      - WITNESSED BY
MUD .         GEL                  : Mud_type     - MUD TYPE
MATR.         SANDSTONE            : Logunit      - NEUTRON MATRIX
TMAX.C        4.5                  : BHT          - MAXIMUM RECORDED TEMPERATURE
BHTD.M        140.21               : BHTDEP       - MAXIMUM RECORDED TEMPERATURE
RMT .C        7.5                  : MDTP         - TEMPERATURE OF MUD
MUDD.KG/M     1000                 : MWT          - MUD DENSITY
NEUT.         1                    : NEUTRON      - NEUTRON TYPE
RESI.         0                    : RESIST       - RESISTIVITY TYPE
RM  .OHMM     28.2                 : RM           - RESISTIVITY OF MUD
RMC .OHMM     28.2                 : RMC          - RESISTIVITY OF MUD CAKE
RMF .OHMM     28.2                 : RMF          - RESISTIVITY OF MUD FILTRATE
SUFT.C        4                    : SUFT         - SURFACE TEMPERATURE
~A  DEPTH       GR     PHIN     DENS     RESD
   10.000   65.232    0.650 2233.320    0.646
   10.250   64.697    0.602 2216.890    0.648
   10.500   63.016    0.570 2235.850    0.661
   10.750   59.520    0.387 2379.820    0.650
   11.000   56.635    0.388 2419.590    0.638
   11.250   51.955    0.558 2319.840    0.593
   11.500   55.030    0.505 2263.800    0.560
   11.750   52.700    0.503 2255.690    0.530
   12.000   53.979    0.541 2270.540    0.573
   12.250   52.852    0.448 2229.080    5.937
   12.500   77.245    0.437 2162.630   43.604
   12.750   72.603    0.440 2108.730   45.382
   13.000   77.397    0.490 2150.580   43.751
   13.250   51.973    0.438 2209.150   52.044
   13.500   39.022    0.359 2215.620  141.187
   13.750   42.689    0.342 2161.710  251.158
   14.000   36.213    0.455 2124.470  133.758
   14.250   35.697    0.431 2130.880  141.965
   14.500   45.248    0.490 2143.590  238.346
   14.750   52.449    0.457 2148.090   62.512
   15.000   50.157    0.451 2141.950  159.987
   15.250   41.924    0.417 2135.990  331.842
   15.500   33.729    0.413 2138.230  213.925
   15.750   36.155    0.402 2184.420  259.499
   16.000   41.560    0.434 2188.700  143.594
   16.250   48.742    0.440 2199.380  203.012
   16.500   56.554    0.476 2189.140  174.480
   16.750   56.631    0.483 2137.320   91.121
   17.000   52.543    0.466 2125.000   46.725
   17.250   52.619    0.490 2100.240   41.690
   17.500   60.393    0.453 2190.030   25.387
   17.750   65.799    0.356 2217.310   70.172
   18.000   71.223    0.553 2217.540   77.351
   18.250   77.813    0.469 2269.860   42.784
   18.500   98.634    0.432 2268.000   40.499
   18.750  115.309    0.423 2257.810   36.833
   19.000  116.570    0.445 2274.740   23.755
   19.250  120.199    0.472 2270.750   17.856
   19.500  111.985    0.489 2246.040   13.422
   19.750  104.955    0.501 2254.540   12.694
   20.000  118.651    0.498 2271.470   12.238
   20.250  119.319    0.509 2265.390   11.798
   20.500  127.705    0.527 2249.010   11.154
   20.750  119.472    0.544 2240.910   10.161
   21.000  115.995    0.515 2232.750    9.788
   21.250  117.256    0.516 2214.180    9.440
   21.500  113.779    0.573 2214.460    9.273
   21.750  117.408    0.560 2218.840    9.289
   22.000  108.010    0.572 2214.900    9.304
   22.250  113.415    0.587 2217.210    9.320
   22.500  115.268    0.556 2227.840    9.336
   22.750  122.469    0.529 2226.030    9.178
   23.000  126.098    0.528 2215.850    9.194
   23.250  107.799    0.538 2224.400    9.031
   23.500  123.882    0.628 2230.860    8.710
   23.750  128.103    0.600 2231.090    8.725
   24.000  121.074    0.516 2222.980    8.736
   24.250  124.111    0.567 2223.200    8.758
   24.500  129.516    0.520 2213.020    8.776
   24.750  129.592    0.506 2206.940    8.784
   25.000  133.833    0.561 2207.160    8.965
   25.250  115.514    0.568 2199.060    9.162
   25.500  117.978    0.512 2193.030    9.173
   25.750  115.074    0.560 2191.170    9.362
   26.000  118.723    0.595 2214.300    9.752
   26.250  119.983    0.488 2268.640   10.146
   26.500  128.349    0.496 2264.700   10.764
   26.750  116.583    0.540 2227.450   11.203
   27.000  103.613    0.528 2200.610   10.591
   27.250  127.986    0.560 2209.160   10.215
   27.500  116.219    0.561 2219.850   10.232
   27.750  122.809    0.563 2213.830   10.245
   28.000  119.332    0.584 2211.970   10.267
   28.250  116.467    0.600 2222.540   10.280
   28.500  114.748    0.599 2237.390   10.102
   28.750  120.745    0.574 2233.390   10.119
   29.000  116.676    0.542 2214.880    9.944
   29.250  125.635    0.565 2192.200    9.587
   29.500  130.448    0.595 2171.550    9.071
   29.750  132.912    0.593 2163.510    8.910
   30.000  130.009    0.599 2213.690    8.593
   30.250  123.571    0.580 2226.400    8.608
   30.500  118.318    0.570 2262.070    8.459
   30.750  110.085    0.539 2310.170    7.845
   31.000  104.240    0.510 2391.630    8.323
   31.250  117.954    0.529 2239.780   11.777
   31.500  134.038    0.486 2252.550   15.714
   31.750  127.581    0.473 2236.120   12.752
   32.000   91.517    0.446 2161.340   38.789
   32.250   54.231    0.351 2153.180   82.011
   32.500   29.418    0.365 2193.070  222.484
   32.750   28.921    0.359 2191.210  346.141
   33.000   26.017    0.368 2183.100  444.702
   33.250   32.015    0.366 2172.920  822.306
   33.500   28.538    0.386 2166.950  960.424
   33.750   24.469    0.404 2156.710  841.394
   34.000   28.691    0.418 2144.390  751.363
   34.250   39.444    0.393 2161.260  670.682
   34.500   41.889    0.373 2192.710  598.665
   34.750   40.189    0.362 2199.180  514.525
   35.000   33.160    0.353 2201.480  394.226
   35.250   27.906    0.353 2195.460 1089.690
   35.500   24.430    0.358 2176.940 1976.760
   35.750   26.855    0.389 2173.060 2058.250
   36.000   30.485    0.421 2148.250 1669.540
   36.250   28.784    0.410 2148.520 1355.380
   36.500   26.511    0.381 2165.400 1466.340
   36.750   33.693    0.394 2163.480 1524.850
   37.000   39.099    0.399 2167.870 1849.700
   37.250   38.010    0.370 2163.980 1716.250
   37.500   38.678    0.389 2153.800 2003.670
   37.750   36.978    0.449 2145.640 2251.360
   38.000   37.035    0.411 2168.760 2434.640
   38.250   34.742    0.394 2164.870 2533.940
   38.500   37.187    0.407 2158.850 2638.410
   38.750   43.204    0.395 2148.660 2853.200
   39.000   40.300    0.392 2150.970 3026.970
   39.250   35.047    0.427 2169.870 3032.090
   39.500   32.755    0.417 2186.750 3095.930
   39.750   41.121    0.387 2176.560 3480.100
   40.000   51.283    0.401 2178.920 3837.780
   40.250   50.175    0.403 2170.760 3990.940
   40.500   44.903    0.409 2166.820 4315.830
   40.750   36.689    0.414 2164.960 4667.180
   41.000   39.726    0.417 2188.080 5448.800
   41.250   49.314    0.382 2192.470 5565.860
   41.500   48.206    0.391 2169.790 3453.300
   41.750   47.079    0.429 2145.090  437.029
   42.000   44.768    0.380 2130.680  334.849
   42.250   38.330    0.358 2137.150  825.131
   42.500   36.630    0.368 2160.330 2816.550
   42.750   37.891    0.395 2150.080  860.239
   43.000   33.822    0.420 2146.200 1652.770
   43.250   32.714    0.448 2156.770 2123.380
   43.500   29.848    0.402 2154.910 2297.210
   43.750   25.798    0.389 2128.130 2051.400
   44.000   24.652    0.389 2124.130 2176.340
   44.250   25.913    0.424 2153.500 2266.070
   44.500   40.793    0.458 2174.540 2184.640
   44.750   52.731    0.418 2183.140 2407.130
   45.000   46.293    0.399 2189.610 2704.690
   45.250   31.547    0.355 2187.750 2869.420
   45.500   27.478    0.351 2196.300 3104.330
   45.750   40.601    0.360 2188.200 2880.350
   46.000   34.144    0.368 2182.170 2997.830
   46.250   27.707    0.367 2190.720 2888.890
   46.500   35.500    0.374 2182.620  833.087
   46.750   37.926    0.417 2166.190  638.576
   47.000   39.224    0.409 2162.190  774.288
   47.250   39.281    0.399 2175.010 1404.600
   47.500   40.523    0.390 2160.550 2548.030
   47.750   33.493    0.426 2112.890 2918.340
   48.000   38.307    0.415 2117.280 1677.190
   48.250   38.975    0.417 2127.970 2765.960
   48.500   33.741    0.431 2144.790 2991.130
   48.750   30.856    0.414 2149.170 2996.190
   49.000   30.933    0.414 2134.820 3117.080
   49.250   27.437    0.395 2133.020 3245.600
   49.500   35.803    0.388 2143.590 3313.920
   49.750   45.392    0.395 2160.530 3447.630
   50.000   41.304    0.435 2150.340 3520.210
   50.250   37.216    0.426 2158.890 2856.600
   50.500   37.884    0.436 2150.780 1706.500
   50.750   52.783    0.453 2140.540 1306.960
   51.000   54.063    0.399 2128.330 1995.660
   51.250   48.199    0.458 2140.990 2988.230
   51.500   47.091    0.466 2168.330  622.353
   51.750   57.271    0.446 2139.350  409.133
   52.000   49.612    0.411 2116.670 3061.480
   52.250   35.457    0.379 2125.220 4674.720
   52.500   22.506    0.380 2137.990 3512.340
   52.750   27.319    0.397 2142.380 2353.630
   53.000   22.658    0.396 2163.470 1405.440
   53.250   23.327    0.379 2163.690 2316.820
