~VERSION INFORMATION
 VERS.                 2.0:   CWLS LOG ASCII STANDARD -VERSION 2.0
 WRAP.                  NO:   ONE LINE PER DEPTH STEP
~WELL INFORMATION BLOCK
#MNEM.UNIT           DATA                    DESCRIPTION OF MNEMONIC
#---------    -------------------            -------------------------------
# Generated from Intellog Unique Number	CS_77_79/WELL/944
LOC .         AA/10-11-077-08W4/0            : Location     - LOCATION
UWI .         AA/10-11-077-08W4/0            : Uwi          - UNIQUE WELL ID
ENTR.         SP                             : Entered      - ENTERED BY
SRVC.         SCHLUMBERGER                   : Scn          - SERVICE COMPANY
STRT.M        140                            : top_depth    - START DEPTH
STOP.M        385                            : bot_depth    - STOP DEPTH
STEP.M        0.25                           : increment    - STEP LENGTH
 NULL. -999.2500:NULL Value
~CURVE INFORMATION BLOCK
#MNEM UNIT       ERCB CURVE CODE    CURVE DESCRIPTION
#-----------   ------------------   ----------------------------------
DEPT.M        00 001 00 00         : DEPTH        - DEPTH
ILD .OHMM     00 120 00 00         : RESD         - DEEP RESISTIVITY (DIL)
DPHI.V/V      00 890 00 00         : PHID         - DENSITY POROSITY (LIMESTONE)
NPHI.V/V      00 330 00 00         : PHIN         - NEUTRON POROSITY (LIMESTONE)
GR  .API      00 310 00 00         : GR           - GAMMA RAY
~PARAMETER INFORMATION
#MNEM.UNIT           DATA             DESCRIPTION OF MNEMONIC
#---------         -----------     ------------------------------
GL  .M        566.83               : gl           - GROUND LEVEL ELEVATION
EREF.M        570.4                : kb           - ELEVATION OF DEPTH REFERENCE
DATM.M        566.83               : datum        - DATUM ELEVATION
TDD .M        391                  : tdd          - TOTAL DEPTH DRILLER
RUN .         ONE                  : Run          - RUN NUMBER
ENG .         BILL                 : Engineer     - RECORDING ENGINEER
WIT .         JIM                  : Witness      - WITNESSED BY
MUD .         GEL                  : Mud_type     - MUD TYPE
MATR.         LIMESTONE            : Logunit      - NEUTRON MATRIX
TMAX.C        16                   : BHT          - MAXIMUM RECORDED TEMPERATURE
BHTD.M        391                  : BHTDEP       - MAXIMUM RECORDED TEMPERATURE
MATR.         1                    : LOGUNIT      - NEUTRON MATRIX
RMT .C        25                   : MDTP         - TEMPERATURE OF MUD
NEUT.         1                    : NEUTRON      - NEUTRON TYPE
RESI.         0                    : RESIST       - RESISTIVITY TYPE
RMC .OHMM     0.25                 : RMC          - RESISTIVITY OF MUD CAKE
RMF .OHMM     0.25                 : RMF          - RESISTIVITY OF MUD FILTRATE
SUFT.C        15                   : SUFT         - SURFACE TEMPERATURE
~A  DEPTH     RESD     PHID     PHIN       GR
# ...
  270.500    7.980    0.295    0.334   58.578
  270.750    7.982    0.295    0.352   58.573
  271.000    7.404    0.294    0.357   58.571
  271.250    7.546    0.291    0.355   60.418
  271.500    7.406    0.289    0.345   61.033
  271.750    7.407    0.286    0.344   57.325
  272.000    7.408    0.285    0.343   54.236
  272.250    7.410    0.284    0.346   55.465
  272.500    7.695    0.283    0.349   54.227
  272.750    7.552    0.283    0.346   53.606
  273.000    7.006    0.283    0.344   53.603
  273.250    6.749    0.285    0.345   54.834
  273.500    6.749    0.291    0.346   57.917
  273.750    6.750    0.294    0.348   61.000
  274.000    6.880    0.296    0.346   64.081
  274.250    6.881    0.299    0.346   65.313
  274.500    6.881    0.299    0.350   64.692
  274.750    7.014    0.299    0.354   62.837
  275.000    7.015    0.297    0.354   63.449
  275.250    7.149    0.295    0.348   64.064
  275.500    7.286    0.294    0.341   65.295
  275.750    7.426    0.294    0.339   64.674
  276.000    7.568    0.295    0.329   63.434
  276.250    7.860    0.295    0.321   62.815
  276.500    8.010    0.295    0.310   63.427
  276.750    8.802    0.295    0.282   62.807
  277.000    9.672    0.290    0.245   59.100
  277.250   11.036    0.071    0.220   56.010
  277.500   11.461    0.087    0.192   50.451
  277.750   10.834    0.131    0.220   49.213
  278.000    9.862    0.185    0.264   59.702
  278.250    8.810    0.239    0.315   63.403
  278.500    8.020    0.275    0.340   66.486
  278.750    7.581    0.294    0.358   68.951
  279.000    7.441    0.294    0.350   66.478
  279.250    7.303    0.293    0.343   61.536
  279.500    7.168    0.291    0.353   60.296
  279.750    7.036    0.289    0.353   62.764
  280.000    7.037    0.288    0.355   68.933
  280.250    7.038    0.287    0.366   63.991
  280.500    7.039    0.285    0.361   62.134
  280.750    7.040    0.284    0.355   59.662
  281.000    6.910    0.282    0.359   60.892
  281.250    6.782    0.280    0.360   62.742
  281.500    6.783    0.285    0.367   57.798
  281.750    6.784    0.293    0.377   55.943
  282.000    6.785    0.296    0.376   57.792
  282.250    6.786    0.296    0.365   63.961
  282.500    6.787    0.293    0.356   62.723
  282.750    6.789    0.290    0.349   62.101
  283.000    6.539    0.289    0.360   62.715
  283.250    6.539    0.289    0.360   58.391
  283.500    6.419    0.288    0.354   58.387
  283.750    6.420    0.289    0.354   60.235
  284.000    6.420    0.290    0.361   63.317
  284.250    6.544    0.293    0.364   66.401
  284.500    6.545    0.295    0.367   70.101
  284.750    6.546    0.300    0.371   68.863
  285.000    6.672    0.305    0.372   63.921
  285.250    6.672    0.311    0.361   62.683
  285.500    6.549    0.312    0.354   61.445
  285.750    6.550    0.314    0.342   60.823
  286.000    6.429    0.311    0.342   58.351
  286.250    6.430    0.309    0.359   55.877
  286.500    6.311    0.306    0.368   54.640
  286.750    6.312    0.304    0.372   54.636
  287.000    6.196    0.301    0.379   52.780
  287.250    6.197    0.300    0.379   58.332
  287.500    6.198    0.301    0.365   61.415
  287.750    6.199    0.304    0.381   63.264
  288.000    6.199    0.309    0.395   64.495
  288.250    6.200    0.314    0.398   65.725
  288.500    6.201    0.310    0.391   60.166
  288.750    6.203    0.305    0.368   58.310
  289.000    6.203    0.300    0.379   61.392
  289.250    6.204    0.299    0.376   62.005
  289.500    6.205    0.298    0.369   61.386
  289.750    6.324    0.297    0.362   63.852
  290.000    6.325    0.297    0.363   66.317
  290.250    6.326    0.293    0.366   65.079
  290.500    6.327    0.302    0.381   61.371
  290.750    6.210    0.305    0.392   61.368
  291.000    6.095    0.299    0.397   65.067
  291.250    5.982    0.294    0.400   61.359
  291.500    5.983    0.289    0.389   63.825
  291.750    5.872    0.287    0.387   67.525
  292.000    5.873    0.287    0.382   69.991
  292.250    5.875    0.285    0.385   71.221
  292.500    5.987    0.283    0.374   73.687
  292.750    5.876    0.275    0.364   77.387
  293.000    5.877    0.267    0.363   80.468
  293.250    5.768    0.253    0.360   82.317
  293.500    5.769    0.238    0.362   83.549
  293.750    5.880    0.233    0.363   80.459
  294.000    5.880    0.228    0.368   76.751
  294.250    6.223    0.204    0.375   71.809
  294.500    6.839    0.189    0.379   71.806
  294.750    7.102    0.195    0.389   71.802
  295.000    7.103    0.200    0.387   69.330
  295.250    6.842    0.203    0.383   73.646
  295.500    6.467    0.212    0.386   77.964
  295.750    5.564    0.221    0.380   79.812
  296.000    5.161    0.221    0.394   79.809
  296.250    4.611    0.305    0.400   75.484
  296.500    4.197    0.416    0.411   78.567
  296.750    4.120    0.457    0.454   65.600
  297.000    4.044    0.484    0.493   79.177
  297.250    4.121    0.427    0.430   85.346
  297.500    4.280    0.266    0.402   81.021
  297.750    4.529    0.259    0.390   85.956
  298.000    4.977    0.274    0.384   89.039
  298.250    5.168    0.295    0.381   90.887
  298.500    5.574    0.314    0.381   91.500
  298.750    5.681    0.334    0.380   87.792
  299.000    5.899    0.332    0.364   89.024
  299.250    6.012    0.232    0.358   95.191
  299.500    6.128    0.224    0.361   98.275
  299.750    6.128    0.225    0.363  101.359
  300.000    6.246    0.225    0.358   97.034
  300.250    6.247    0.253    0.357   95.178
  300.500    6.131    0.337    0.366   87.150
  300.750    5.906    0.404    0.401   84.060
  301.000    5.376    0.429    0.429   85.908
  301.250    4.803    0.346    0.450   90.225
  301.500    4.055    0.311    0.438   85.284
  301.750    3.489    0.351    0.460   82.811
  302.000    3.058    0.396    0.488   70.462
  302.250    2.784    0.460    0.518   69.223
  302.500    2.583    0.432    0.493   75.393
  302.750    2.441    0.402    0.481   81.561
  303.000    2.351    0.405    0.491   80.941
  303.250    2.352    0.410    0.497   75.382
  303.500    2.308    0.416    0.504   76.612
  303.750    2.309    0.416    0.453   79.693
  304.000    2.353    0.357    0.438   80.925
  304.250    2.398    0.351    0.427   80.922
  304.500    2.444    0.371    0.442   82.152
  304.750    2.491    0.391    0.455   84.002
  305.000    2.538    0.395    0.477   83.998
  305.250    2.636    0.399    0.459   81.525
  305.500    2.843    0.383    0.444   85.224
  305.750    3.008    0.339    0.416   88.308
  306.000    3.498    0.205    0.394   92.008
  306.250    3.772    0.208    0.394   92.004
  306.500    4.304    0.209    0.393   90.147
  306.750    4.819    0.191    0.373   89.527
  307.000    5.296    0.158    0.358   84.585
  307.250    5.819    0.145    0.351   82.113
  307.500    5.931    0.161    0.362   88.281
  307.750    5.931    0.234    0.376   94.450
  308.000    5.607    0.263    0.388   93.213
  308.250    5.104    0.272    0.403   89.506
  308.500    4.916    0.243    0.388   91.971
  308.750    4.475    0.245    0.377   87.028
  309.000    4.151    0.257    0.384   85.791
  309.250    3.999    0.263    0.408   87.021
  309.500    3.852    0.258    0.427   88.252
  309.750    3.780    0.255    0.421   87.014
  310.000    3.781    0.255    0.411   89.480
  310.250    3.781    0.252    0.422   91.328
  310.500    3.712    0.250    0.420   88.855
  310.750    3.712    0.245    0.427   92.555
  311.000    3.713    0.250    0.437   97.490
  311.250    3.644    0.250    0.442   93.165
  311.500    3.644    0.247    0.448   94.395
  311.750    3.645    0.237    0.426   96.861
  312.000    3.715    0.219    0.424  100.562
  312.250    3.786    0.165    0.411   95.002
  312.500    3.787    0.174    0.400   97.467
  312.750    3.933    0.198    0.402  100.550
  313.000    3.933    0.215    0.409  102.398
  313.250    4.009    0.208    0.406  100.543
  313.500    4.323    0.202    0.406   94.366
  313.750    4.405    0.192    0.376   90.042
