~VERSION INFORMATION
 VERS.                 2.0:   CWLS LOG ASCII STANDARD -VERSION 2.0
 WRAP.                  NO:   ONE LINE PER DEPTH STEP
~WELL INFORMATION BLOCK
#MNEM.UNIT           DATA                    DESCRIPTION OF MNEMONIC
#---------    -------------------            -------------------------------
# Generated from Intellog Unique Number	CW_82_90/WELL/3443
WELL.         CDN SUP MINK OV                : Well_name    - WELL
LOC .         AA/10-31-088-19W4/0            : Location     - LOCATION
UWI .         AA/10-31-088-19W400            : Uwi          - UNIQUE WELL ID
ENTR.         MAX                            : Entered      - ENTERED BY
SRVC.         SCHLUMBERGER                   : Scn          - SERVICE COMPANY
STRT.M        76.2                           : top_depth    - START DEPTH
STOP.M        269.45                         : bot_depth    - STOP DEPTH
STEP.M        0.25                           : increment    - STEP LENGTH
 NULL. -999.2500:NULL Value
~CURVE INFORMATION BLOCK
#MNEM UNIT       ERCB CURVE CODE    CURVE DESCRIPTION
#-----------   ------------------   ----------------------------------
DEPT.M        00 001 00 00         : DEPTH        - DEPTH
ILD .OHMM     00 120 00 00         : RESD         - DEEP RESISTIVITY (DIL)
NPHI.V/V      00 330 00 00         : PHIN         - NEUTRON POROSITY (SANDSTONE)
DPHI.V/V      00 890 00 00         : PHID         - DENSITY POROSITY (SANDSTONE)
CALI.MM       00 280 01 00         : CAL          - CALIPER
GR  .API      00 310 00 00         : GR           - GAMMA RAY
~PARAMETER INFORMATION
#MNEM.UNIT           DATA             DESCRIPTION OF MNEMONIC
#---------         -----------     ------------------------------
GL  .M        514.198              : gl           - GROUND LEVEL ELEVATION
EREF.M        518.465              : kb           - ELEVATION OF DEPTH REFERENCE
DATM.M        514.198              : datum        - DATUM ELEVATION
TDD .M        271.272              : tdd          - TOTAL DEPTH DRILLER
RUN .         ONE                  : Run          - RUN NUMBER
ENG .         BILL                 : Engineer     - RECORDING ENGINEER
WIT .         JIM                  : Witness      - WITNESSED BY
MUD .         GEL                  : Mud_type     - MUD TYPE
MATR.         SANDSTONE            : Logunit      - NEUTRON MATRIX
TMAX.C        23.8889              : BHT          - MAXIMUM RECORDED TEMPERATURE
BHTD.M        271.272              : BHTDEP       - MAXIMUM RECORDED TEMPERATURE
MATR.         1                    : LOGUNIT      - NEUTRON MATRIX
RMT .C        17.7778              : MDTP         - TEMPERATURE OF MUD
NEUT.         1                    : NEUTRON      - NEUTRON TYPE
RESI.         0                    : RESIST       - RESISTIVITY TYPE
RMC .OHMM     4.51                 : RMC          - RESISTIVITY OF MUD CAKE
RMF .OHMM     4.51                 : RMF          - RESISTIVITY OF MUD FILTRATE
SUFT.C        -15                  : SUFT         - SURFACE TEMPERATURE
~A  DEPTH     RESD     PHIN     PHID      CAL       GR
# ...
  112.700   23.677    0.485    0.360  212.493   59.723
  112.950   23.265    0.460    0.352  212.017   60.630
  113.200   23.072    0.457    0.337  211.532   60.646
  113.450   22.877    0.474    0.327  212.056   59.467
  113.700   22.688    0.484    0.324  212.582   60.073
  113.950   22.701    0.490    0.332  213.109   60.981
  114.200   22.513    0.492    0.344  213.131   60.995
  114.450   22.320    0.485    0.336  213.153   60.410
  114.700   21.540    0.463    0.329  213.175   61.615
  114.950   18.987    0.466    0.347  213.200   63.119
  115.200   14.743    0.474    0.355  213.220   61.641
  115.450    9.295    0.480    0.322  212.738   67.911
  115.700    7.217    0.486    0.273  211.751   75.967
  115.950    5.707    0.493    0.222  211.272   86.109
  116.200    5.264    0.501    0.194  211.801   92.079
  116.450    5.126    0.512    0.226  211.319   99.839
  116.700    5.223    0.528    0.245  210.836  107.597
  116.950    5.321    0.546    0.263  207.325  112.972
  117.200    5.521    0.561    0.264  201.801  117.156
  117.450    5.626    0.550    0.223  201.316  119.552
  117.700    5.732    0.540    0.213  201.339  119.565
  117.950    5.736    0.537    0.216  201.868  119.878
  118.200    5.740    0.543    0.204  202.395  119.295
  118.450    5.692    0.536    0.195  201.912  116.923
  118.700    5.594    0.544    0.187  202.442  113.961
  118.950    5.597    0.509    0.177  204.476  112.779
  119.200    5.550    0.500    0.163  208.029  112.198
  119.450    5.405    0.500    0.173  212.089  116.382
  119.700    5.360    0.497    0.198  212.619  118.184
  119.950    5.314    0.508    0.208  212.638  118.794
  120.200    5.270    0.525    0.216  213.165  119.400
  120.450    5.179    0.537    0.224  214.199  117.627
  120.700    5.044    0.542    0.226  214.728  116.747
  120.950    4.956    0.547    0.226  214.747  120.037
  121.200    4.914    0.551    0.223  214.262  120.346
  121.450    4.917    0.559    0.224  214.285  118.870
  121.700    4.921    0.567    0.238  214.310  119.482
  121.950    4.923    0.565    0.217  214.329  121.281
  122.200    5.062    0.563    0.218  213.847  119.508
  122.450    5.253    0.561    0.216  213.872  116.838
  122.700    5.400    0.559    0.219  213.894  111.491
  122.950    5.454    0.559    0.228  214.418  107.632
  123.200    5.408    0.563    0.236  214.947  107.051
  123.450    5.266    0.565    0.239  214.972  108.850
  123.700    5.083    0.567    0.241  213.988  111.544
  123.950    4.860    0.561    0.241  212.494  116.023
  124.200    4.690    0.546    0.241  213.027  119.015
  124.450    4.567    0.516    0.241  213.550  119.626
  124.700    4.489    0.521    0.242  213.567  120.831
  124.950    4.451    0.546    0.243  213.592  121.438
  125.200    4.453    0.553    0.245  213.113  120.855
  125.450    4.457    0.562    0.246  213.132  116.403
  125.700    4.459    0.573    0.249  213.151  115.519
  125.950    4.422    0.580    0.260  210.654  117.919
  126.200    4.425    0.592    0.251  208.656  119.421
  126.450    4.428    0.598    0.243  205.652  119.433
  126.700    4.430    0.602    0.238  203.152  118.850
  126.950    4.433    0.596    0.247  202.672  115.289
  127.200    4.600    0.562    0.256  202.695  109.942
  127.450    4.816    0.569    0.264  202.212  107.275
  127.700    5.042    0.591    0.275  201.228  104.306
  127.950    5.676    0.598    0.276  198.729   96.872
  128.200    6.162    0.551    0.271  199.252   90.036
  128.450    6.222    0.530    0.263  199.779   89.451
  128.700    6.115    0.497    0.265  199.804   90.064
  128.950    5.690    0.498    0.264  199.823   90.075
  129.200    5.297    0.514    0.257  199.846   90.384
  129.450    5.204    0.538    0.260  199.871   91.291
  129.700    5.208    0.543    0.263  200.403   94.283
  129.950    5.259    0.514    0.267  200.419   94.892
  130.200    5.607    0.523    0.291  200.442   93.417
  130.450    5.977    0.537    0.276  200.461   90.748
  130.700    6.372    0.533    0.269  200.486   85.399
  130.950    6.612    0.517    0.265  202.529   86.306
  131.200    6.737    0.505    0.262  205.078   86.320
  131.450    7.054    0.498    0.260  206.608   84.248
  131.700    7.253    0.496    0.266  207.637   82.176
  131.950    7.257    0.518    0.274  208.670   81.296
  132.200    7.262    0.537    0.261  208.690   82.203
  132.450    7.267    0.522    0.246  207.199   84.304
  132.700    7.206    0.508    0.231  207.221   86.697
  132.950    7.081    0.501    0.213  207.246   93.561
  133.200    6.711    0.518    0.195  205.755  100.426
  133.450    5.969    0.517    0.150  205.275  109.078
  133.700    5.029    0.502    0.174  203.784  116.839
  133.950    4.433    0.551    0.194  203.297  117.148
  134.200    4.089    0.572    0.203  202.817  119.844
  134.450    3.874    0.577    0.184  202.842  119.558
  134.700    3.705    0.586    0.211  202.861  118.975
  134.950    3.543    0.603    0.238  203.898  118.988
  135.200    3.389    0.595    0.258  204.422  118.703
  135.450    3.241    0.573    0.270  204.441  117.528
  135.700    3.185    0.586    0.287  204.973  116.944
  135.950    3.130    0.600    0.302  204.488  116.659
  136.200    3.103    0.606    0.283  204.006  114.587
  136.450    3.250    0.600    0.269  203.020  109.534
  136.700    3.464    0.581    0.258  203.042  105.677
  136.950    3.760    0.572    0.250  203.061  103.007
  137.200    4.083    0.564    0.255  203.588   99.446
  137.450    3.904    0.520    0.289  204.120   99.162
  137.700    3.601    0.533    0.292  204.137  101.557
  137.950    3.321    0.550    0.286  204.669  106.040
  138.200    3.234    0.560    0.298  205.700  106.948
  138.450    3.179    0.584    0.296  205.719  103.981
  138.700    3.209    0.599    0.273  206.246  102.806
  138.950    3.330    0.603    0.260  207.277  102.817
  139.200    3.518    0.572    0.251  207.806  102.534
  139.450    3.785    0.546    0.239  207.828  101.650
  139.700    4.147    0.531    0.215  207.851   99.876
  139.950    4.584    0.524    0.214  207.368   98.996
  140.200    5.207    0.506    0.248  206.883   99.902
  140.450    5.601    0.509    0.250  206.404   99.025
  140.700    6.136    0.519    0.242  205.415   97.249
  140.950    6.722    0.505    0.227  204.428   95.475
  141.200    7.433    0.466    0.205  203.946   93.701
  141.450    8.142    0.440    0.230  203.973   92.820
  141.700    8.839    0.465    0.237  204.500   90.449
  141.950    9.772    0.483    0.225  204.519   87.781
  142.200   10.139    0.501    0.209  204.542   86.904
  142.450    9.783    0.504    0.196  205.573   86.915
  142.700    8.781    0.494    0.207  207.108   89.611
  142.950    7.671    0.497    0.234  205.620   92.005
  143.200    6.824    0.502    0.245  205.138   92.316
  143.450    6.408    0.502    0.251  204.653   92.032
  143.700    6.413    0.505    0.236  204.170   88.768
  143.950    6.776    0.509    0.224  203.186   87.593
  144.200    7.093    0.504    0.249  202.704   89.092
  144.450    7.841    0.508    0.273  202.222   89.701
  144.700    8.668    0.529    0.263  201.740   86.139
  144.950    9.669    0.537    0.283  201.762   81.686
  145.200   10.787    0.502    0.282  202.291   78.421
  145.450   11.501    0.486    0.271  202.815   73.668
  145.700   12.374    0.477    0.256  202.837   69.216
  145.950   13.073    0.472    0.265  202.860   68.928
  146.200   13.564    0.462    0.251  202.885   72.515
  146.450   13.695    0.450    0.213  203.918   72.530
  146.700   13.829    0.434    0.174  204.442   68.970
  146.950   14.220    0.411    0.206  204.966   68.384
  147.200   14.489    0.443    0.243  204.991   68.697
  147.450   14.764    0.458    0.257  205.010   69.607
  147.700   14.906    0.447    0.252  205.038   70.510
  147.950   14.916    0.446    0.242  205.058   72.013
  148.200   14.139    0.449    0.231  204.573   74.411
  148.450   13.397    0.454    0.220  205.099   77.401
  148.700   12.357    0.469    0.232  206.136   81.882
  148.950   11.192    0.482    0.234  206.158   87.257
