~VERSION INFORMATION
 VERS.                 2.0:   CWLS LOG ASCII STANDARD -VERSION 2.0
 WRAP.                  NO:   ONE LINE PER DEPTH STEP
~WELL INFORMATION BLOCK
#MNEM.UNIT           DATA                    DESCRIPTION OF MNEMONIC
#---------    -------------------            -------------------------------
# Generated from Intellog Unique Number	CN_94_101/WELL/3224
WELL.         12-32-096-07W4                 : Well_name    - WELL
LOC .         AA/12-32-096-07W4/0            : Location     - LOCATION
UWI .         AA/12-32-096-07W400            : Uwi          - UNIQUE WELL ID
ENTR.         JOETTE                         : Entered      - ENTERED BY
SRVC.         SCHLUMBERGER                   : Scn          - SERVICE COMPANY
DATE.         07/20/92                       : Date         - LOG DATE
STRT.F        10                             : top_depth    - START DEPTH
STOP.F        320.039                        : bot_depth    - STOP DEPTH
STEP.F        0.8202                         : increment    - STEP LENGTH
 NULL. -999.2500:NULL Value
~CURVE INFORMATION BLOCK
#MNEM UNIT       ERCB CURVE CODE    CURVE DESCRIPTION
#-----------   ------------------   ----------------------------------
DEPT.F        00 001 00 00         : DEPTH        - DEPTH
GR  .API      00 310 00 00         : GR           - GAMMA RAY
ILD .OHMM     00 120 00 00         : RESD         - DEEP RESISTIVITY (DIL)
DPHI.V/V      00 890 00 00         : PHID         - DENSITY POROSITY (SANDSTONE)
~PARAMETER INFORMATION
#MNEM.UNIT           DATA             DESCRIPTION OF MNEMONIC
#---------         -----------     ------------------------------
GL  .M        332.171              : gl           - GROUND LEVEL ELEVATION
EREF.M        332.171              : kb           - ELEVATION OF DEPTH REFERENCE
DATM.M        332.171              : datum        - DATUM ELEVATION
TDD .M        102.718              : tdd          - TOTAL DEPTH DRILLER
RUN .         ONE                  : Run          - RUN NUMBER
ENG .         BILL                 : Engineer     - RECORDING ENGINEER
WIT .         JIM                  : Witness      - WITNESSED BY
MUD .         GEL                  : Mud_type     - MUD TYPE
MATR.         SANDSTONE            : Logunit      - NEUTRON MATRIX
TMAX.F        73.4                 : BHT          - MAXIMUM RECORDED TEMPERATURE
BHTD.F        337                  : BHTDEP       - MAXIMUM RECORDED TEMPERATURE
RMT .F        57.92                : MDTP         - TEMPERATURE OF MUD
MUDD.LB/G     1.1                  : MWT          - MUD DENSITY
NEUT.         1                    : NEUTRON      - NEUTRON TYPE
RESI.         0                    : RESIST       - RESISTIVITY TYPE
RM  .OHMM     4.51                 : RM           - RESISTIVITY OF MUD
RMC .OHMM     5.23                 : RMC          - RESISTIVITY OF MUD CAKE
RMF .OHMM     5.23                 : RMF          - RESISTIVITY OF MUD FILTRATE
SUFT.F        39.2                 : SUFT         - SURFACE TEMPERATURE
~A  DEPTH       GR     RESD     PHID
# ...
  187.986   35.877  356.821    0.363
  188.806   37.140  180.612    0.362
  189.626   37.594  158.990    0.358
  190.446   35.632  162.329    0.357
  191.266   31.311  192.234    0.362
  192.087   28.979  468.022    0.373
  192.907   27.045 1650.410    0.390
  193.727   24.315 1425.420    0.397
  194.547   21.983  748.211    0.402
  195.367   24.028  463.746    0.392
  196.188   26.087  416.076    0.372
  197.008   25.333  873.887    0.362
  197.828   21.409 1442.060    0.356
  198.648   18.680 2211.490    0.348
  199.469   17.555 2176.080    0.346
  200.289   16.431  850.060    0.350
  201.109   15.663 1482.640    0.356
  201.929   15.718 1788.500    0.346
  202.749   17.365 1518.180    0.340
  203.570   17.846 1439.710    0.346
  204.390   16.708 1939.050    0.376
  205.210   16.764 2711.420    0.378
  206.030   17.999 1810.430    0.367
  206.850   21.237 1004.440    0.371
  207.671   27.673  776.979    0.353
  208.491   43.657  838.483    0.325
  209.311   56.074  134.925    0.310
  210.131   61.302   82.098    0.297
  210.951   65.364   47.262    0.270
  211.772   62.621   84.017    0.267
  212.592   60.275   94.133    0.280
  213.412   56.749  101.584    0.294
  214.232   79.909   62.963    0.304
  215.052   85.549   27.973    0.315
  215.873   92.382   44.513    0.314
  216.693   96.046   39.937    0.320
  217.513   94.483   35.197    0.315
  218.333   92.151   39.389    0.313
  219.154   90.615   45.792    0.317
  219.974   92.261   49.416    0.317
  220.794   93.922   46.862    0.309
  221.614   91.975   45.294    0.292
  222.434   88.449   50.689    0.291
  223.255   82.138   63.447    0.278
  224.075   72.247   72.453    0.255
  224.895   70.299   73.932    0.244
  225.715   67.185   72.790    0.240
  226.535   66.033   71.583    0.241
  227.356   62.096   66.679    0.240
  228.176   60.162   64.374    0.244
  228.996   59.834   64.523    0.236
  229.816   56.294   65.955    0.235
  230.636   49.984   67.263    0.244
  231.457   47.254   69.955    0.245
  232.277   45.320   66.339    0.240
  233.097   42.604   77.078    0.236
  233.917   41.040  101.972    0.238
  234.738   38.709  114.184    0.272
  235.558   33.592   98.790    0.290
  236.378   29.668  123.581    0.310
  237.198   25.333  130.923    0.333
  238.018   19.818  126.543    0.344
  238.839   15.113  149.682    0.373
  239.659   14.771  225.347    0.381
  240.479   15.224  455.873    0.382
  241.299   15.663  288.153    0.387
  242.119   17.324  214.694    0.365
  242.940   18.573  185.749    0.361
  243.760   15.843  232.362    0.365
  244.580   13.909  655.395    0.371
  245.400   12.757  776.134    0.373
  246.220   13.636 1235.030    0.369
  247.041   14.899 1759.150    0.373
  247.861   15.750 1110.660    0.377
  248.681   16.574  875.664    0.380
  249.501   17.823  756.727    0.370
  250.322   38.994  832.331    0.354
  251.142   49.408 1121.020    0.343
  251.962   59.424  682.101    0.312
  252.782   62.690   28.994    0.289
  253.602   64.337   20.462    0.187
  254.423   73.544   36.375    0.168
  255.243   79.197   44.671    0.150
  256.063   77.235   47.325    0.161
  256.883   69.333   68.665    0.184
  257.703   67.811   75.482    0.194
  258.524   67.057   92.804    0.187
  259.344   82.643   75.877    0.196
  260.164   92.660   56.599    0.215
  260.984   99.493   68.236    0.226
  261.804  101.154   62.363    0.225
  262.625   96.421   69.831    0.217
  263.445   90.508   84.188    0.216
  264.265   88.958   92.599    0.219
  265.085   91.017   81.560    0.214
  265.906   89.495   74.540    0.223
  266.726   89.962   68.085    0.223
  267.546   88.398   60.004    0.209
  268.366   85.270   55.861    0.205
  269.186   86.135   51.974    0.205
  270.007   87.768   46.659    0.206
  270.827   86.232   41.838    0.206
  271.647   82.707   34.227    0.206
  272.467   79.181   36.936    0.203
  273.287   76.040   42.916    0.200
  274.108   67.356   43.843    0.192
  274.928   64.215   40.069    0.191
  275.748   53.911   40.911    0.187
  276.568   50.784   48.419    0.230
  277.388   49.659   75.638    0.295
  278.209   50.908   89.520    0.306
  279.029   51.760   98.464    0.307
  279.849   51.829  118.708    0.303
  280.669   51.459  110.576    0.292
  281.490   50.334   90.408    0.238
  282.310   54.382   81.162    0.233
  283.130   56.016   87.536    0.258
  283.950   58.472   89.374    0.266
  284.770   60.531   84.754    0.267
  285.591   58.199  100.310    0.269
  286.411   55.839  116.684    0.284
  287.231   52.328  104.629    0.316
  288.051   53.563   87.140    0.306
  288.871   59.600   94.092    0.300
  289.692   65.638  109.387    0.302
  290.512   70.070   98.086    0.303
  291.332   74.928   38.316    0.299
  292.152   81.733   33.112    0.299
  292.972   81.418   30.262    0.299
  293.793   79.059   30.933    0.299
  294.613   82.325   35.283    0.298
  295.433   81.571   36.004    0.291
  296.253   76.838   31.712    0.264
  297.073   72.119   32.981    0.249
  297.894   66.206   67.964    0.245
  298.714   55.107   98.611    0.251
  299.534   49.180  114.574    0.257
  300.354   42.472  146.082    0.280
  301.175   38.946  186.255    0.332
  301.995   39.002  224.547    0.393
  302.815   40.663  313.807    0.389
  303.635   39.127  266.378    0.376
  304.455   36.383  171.513    0.380
  305.276   32.858  178.379    0.396
  306.096   28.948  151.330    0.391
  306.916   27.028  143.508    0.378
  307.736   26.274  141.210    0.367
  308.556   25.136  144.176    0.347
  309.377   24.793  147.204    0.339
  310.197   26.028  137.121    0.332
  311.017   31.654  142.693    0.324
  311.837   83.105  148.233    0.321
  312.657   88.745  166.082    0.310
  313.478   91.187  151.699    0.286
  314.298   92.848   79.628    0.280
  315.118   90.502   43.395    0.210
  315.938   86.579   38.934    0.157
  316.759   86.250   39.752    0.101
  317.579   85.496   42.114    0.096
  318.399   78.376   38.489    0.119
  319.219   69.678   88.606    0.127
  320.039   65.769  140.995    0.151
