~VERSION INFORMATION
 VERS.                 2.0:   CWLS LOG ASCII STANDARD -VERSION 2.0
 WRAP.                  NO:   ONE LINE PER DEPTH STEP
~WELL INFORMATION BLOCK
#MNEM.UNIT           DATA                    DESCRIPTION OF MNEMONIC
#---------    -------------------            -------------------------------
# Generated from Intellog Unique Number	CX_WELLS/WELL/1172
WELL.         10-11-089-14W4                 : Well_name    - WELL
LOC .         AA/10-11-089-14W4/0            : Location     - LOCATION
UWI .         AA/10-11-089-14W400            : Uwi          - UNIQUE WELL ID
ENTR.         DW                             : Entered      - ENTERED BY
SRVC.         SCHLUMBERGER                   : Scn          - SERVICE COMPANY
STRT.M        70                             : top_depth    - START DEPTH
STOP.M        225                            : bot_depth    - STOP DEPTH
STEP.M        0.25                           : increment    - STEP LENGTH
 NULL. -999.2500:NULL Value
~CURVE INFORMATION BLOCK
#MNEM UNIT       ERCB CURVE CODE    CURVE DESCRIPTION
#-----------   ------------------   ----------------------------------
DEPT.M        00 001 00 00         : DEPTH        - DEPTH
GR  .API      00 310 00 00         : GR           - GAMMA RAY
NPHI.V/V      00 330 00 00         : PHIN         - NEUTRON POROSITY (SANDSTONE)
DPHI.V/V      00 890 00 00         : PHID         - DENSITY POROSITY (SANDSTONE)
ILD .OHMM     00 120 00 00         : RESD         - DEEP RESISTIVITY (DIL)
~PARAMETER INFORMATION
#MNEM.UNIT           DATA             DESCRIPTION OF MNEMONIC
#---------         -----------     ------------------------------
GL  .M        501.1                : gl           - GROUND LEVEL ELEVATION
EREF.M        504.1                : kb           - ELEVATION OF DEPTH REFERENCE
DATM.M        504.1                : datum        - DATUM ELEVATION
TDD .M        228                  : tdd          - TOTAL DEPTH DRILLER
RUN .         ONE                  : Run          - RUN NUMBER
ENG .         BILL                 : Engineer     - RECORDING ENGINEER
WIT .         JIM                  : Witness      - WITNESSED BY
MUD .         GEL                  : Mud_type     - MUD TYPE
MATR.         SANDSTONE            : Logunit      - NEUTRON MATRIX
TMAX.C        25                   : BHT          - MAXIMUM RECORDED TEMPERATURE
BHTD.M        230                  : BHTDEP       - MAXIMUM RECORDED TEMPERATURE
MATR.         1                    : LOGUNIT      - NEUTRON MATRIX
RMT .C        25                   : MDTP         - TEMPERATURE OF MUD
NEUT.         1                    : NEUTRON      - NEUTRON TYPE
RESI.         0                    : RESIST       - RESISTIVITY TYPE
RMC .OHMM     0.25                 : RMC          - RESISTIVITY OF MUD CAKE
RMF .OHMM     0.25                 : RMF          - RESISTIVITY OF MUD FILTRATE
SUFT.C        15                   : SUFT         - SURFACE TEMPERATURE
~A  DEPTH       GR     PHIN     PHID     RESD
# ...
  200.500   72.258    0.396    0.306   85.221
  200.750   72.306    0.394    0.306   82.206
  201.000   72.951    0.392    0.306   77.835
  201.250   73.609    0.392    0.306   76.468
  201.500   74.243    0.392    0.306   69.758
  201.750   74.912    0.392    0.304   61.313
  202.000   74.936    0.392    0.304   51.922
  202.250   74.398    0.393    0.304   39.326
  202.500   73.849    0.391    0.303   29.237
  202.750   75.689    0.388    0.298   25.697
  203.000   80.519    0.381    0.288   23.017
  203.250   87.141    0.366    0.281   21.392
  203.500   97.958    0.366    0.271   20.255
  203.750  106.373    0.372    0.258   19.178
  204.000  114.788    0.378    0.248   18.494
  204.250  114.848    0.382    0.248   18.174
  204.500  109.505    0.383    0.255   17.541
  204.750  107.163    0.381    0.264   17.557
  205.000  104.832    0.380    0.273   17.583
  205.250  102.489    0.380    0.274   17.604
  205.500  103.733    0.383    0.272   17.625
  205.750  106.171    0.385    0.266   17.315
  206.000  109.817    0.385    0.258   17.026
  206.250  112.255    0.386    0.253   16.727
  206.500  114.096    0.389    0.251   16.438
  206.750  114.730    0.391    0.248   16.154
  207.000  116.583    0.394    0.246   15.587
  207.250  115.447    0.395    0.247   15.313
  207.500  113.690    0.394    0.251   14.767
  207.750  110.762    0.391    0.256   14.512
  208.000  108.407    0.386    0.264   13.753
  208.250  103.674    0.381    0.271   13.507
  208.500   99.538    0.381    0.280   13.033
  208.750   97.196    0.387    0.286   13.045
  209.000   99.634    0.398    0.291   12.827
  209.250  104.475    0.412    0.298   12.834
  209.500  107.512    0.425    0.299   13.095
  209.750  111.157    0.431    0.299   13.106
  210.000  112.998    0.430    0.295   13.627
  210.250  112.449    0.419    0.263   13.891
  210.500  111.289    0.405    0.242   14.177
  210.750  109.544    0.392    0.218   14.460
  211.000  109.592    0.385    0.225   14.477
  211.250  110.835    0.381    0.240   14.490
  211.500  113.286    0.393    0.259   14.507
  211.750  116.322    0.408    0.266   14.257
  212.000  119.358    0.402    0.250   14.274
  212.250  121.797    0.387    0.224   14.027
  212.500  122.442    0.379    0.223   14.044
  212.750  122.490    0.378    0.232   14.060
  213.000  122.538    0.380    0.238   14.081
  213.250  122.000    0.382    0.235   14.098
  213.500  119.060    0.382    0.217   14.379
  213.750  115.522    0.382    0.204   15.227
  214.000  111.972    0.380    0.201   15.818
  214.250  106.056    0.378    0.207   16.746
  214.500  102.506    0.375    0.215   18.405
  214.750   96.577    0.366    0.208   19.851
  215.000   89.453    0.351    0.070   21.021
  215.250   82.927    0.269    0.020   21.837
  215.500   79.999    0.236    0.026   23.124
  215.750   80.046    0.225    0.029   23.579
  216.000   80.094    0.225    0.031   24.517
  216.250   81.923    0.224    0.031   24.531
  216.500   83.166    0.223    0.026   24.560
  216.750   81.421    0.221    0.016   24.589
  217.000   79.091    0.212    0.016   24.618
  217.250   77.955    0.205    0.010   24.647
  217.500   77.979    0.196    0.006   24.698
  217.750   78.027    0.194    0.007   24.264
  218.000   78.673    0.194    0.009   24.286
  218.250   79.940    0.195    0.010   23.873
  218.500   80.598    0.197    0.008   23.461
  218.750   80.622    0.198    0.005   23.482
  219.000   80.681    0.202    0.003   23.509
  219.250   80.718    0.203    0.003   23.103
  219.500   80.765    0.206    0.008   23.137
  219.750   81.423    0.209    0.013   22.744
  220.000   82.057    0.212    0.019   22.758
  220.250   83.921    0.215    0.021   22.371
  220.500   83.969    0.216    0.024   21.985
  220.750   83.420    0.219    0.023   22.011
  221.000   82.882    0.225    0.023   21.631
  221.250   82.906    0.227    0.024   21.257
  221.500   82.954    0.230    0.023   20.896
  221.750   83.002    0.233    0.024   20.541
  222.000   81.854    0.238    0.028   20.180
  222.250   78.926    0.249    0.032   19.472
  222.500   77.181    0.258    0.037   19.130
  222.750   76.034    0.265    0.037   18.794
  223.000   78.460    0.271    0.037   18.129
  223.250   92.864    0.276    0.037   17.498
  223.500   95.314    0.283    0.034   17.508
  223.750   95.362    0.288    0.029   17.211
  224.000   95.410    0.292    0.030   16.301
  224.250   96.056    0.295    0.035   15.724
  224.500   96.115    0.299    0.041   15.452
  224.750   96.151    0.309    0.048   15.185
  225.000   95.602    0.313    0.052   14.919
