~VERSION INFORMATION
 VERS.                 2.0:   CWLS LOG ASCII STANDARD -VERSION 2.0
 WRAP.                  NO:   ONE LINE PER DEPTH STEP
~WELL INFORMATION BLOCK
#MNEM.UNIT           DATA                    DESCRIPTION OF MNEMONIC
#---------    -------------------            -------------------------------
# Generated from Intellog Unique Number	CC_88_90/WELL/3155
WELL.         ESSO RESOURCES                 : Well_name    - WELL
LOC .         AA/12-14-089-10W4/0            : Location     - LOCATION
UWI .         AA/12-14-089-10W400            : Uwi          - UNIQUE WELL ID
ENTR.         JOETTE                         : Entered      - ENTERED BY
SRVC.         SCHLUMBERGER                   : Scn          - SERVICE COMPANY
DATE.         03/04/92                       : Date         - LOG DATE
STRT.M        30.000                         : top_depth    - START DEPTH
STOP.M        131.000                        : bot_depth    - STOP DEPTH
STEP.M        0.25                           : increment    - STEP LENGTH
 NULL. -999.2500:NULL Value
~CURVE INFORMATION BLOCK
#MNEM UNIT       ERCB CURVE CODE    CURVE DESCRIPTION
#-----------   ------------------   ----------------------------------
DEPT.M        00 001 00 00         : DEPTH        - DEPTH
GR  .API      00 310 00 00         : GR           - GAMMA RAY
CALI.MM       00 280 01 00         : CAL          - CALIPER
NPHI.V/V      00 330 00 00         : PHIN         - NEUTRON POROSITY (SANDSTONE)
DPHI.V/V      00 890 00 00         : PHID         - DENSITY POROSITY (SANDSTONE)
ILD .OHMM     00 120 00 00         : RESD         - DEEP RESISTIVITY (DIL)
~PARAMETER INFORMATION
#MNEM.UNIT           DATA             DESCRIPTION OF MNEMONIC
#---------         -----------     ------------------------------
GL  .M        367.97               : gl           - GROUND LEVEL ELEVATION
EREF.M        367.97               : kb           - ELEVATION OF DEPTH REFERENCE
DATM.M        367.97               : datum        - DATUM ELEVATION
TDD .M        189.7                : tdd          - TOTAL DEPTH DRILLER
RUN .         ONE                  : Run          - RUN NUMBER
ENG .         BILL                 : Engineer     - RECORDING ENGINEER
WIT .         JIM                  : Witness      - WITNESSED BY
MUD .         GEL                  : Mud_type     - MUD TYPE
MATR.         SANDSTONE            : Logunit      - NEUTRON MATRIX
TMAX.C        20                   : BHT          - MAXIMUM RECORDED TEMPERATURE
BHTD.M        189.7                : BHTDEP       - MAXIMUM RECORDED TEMPERATURE
RMT .C        11                   : MDTP         - TEMPERATURE OF MUD
MUDD.KG/M     1                    : MWT          - MUD DENSITY
NEUT.         1                    : NEUTRON      - NEUTRON TYPE
RESI.         0                    : RESIST       - RESISTIVITY TYPE
RM  .OHMM     30.7                 : RM           - RESISTIVITY OF MUD
RMC .OHMM     30.7                 : RMC          - RESISTIVITY OF MUD CAKE
RMF .OHMM     30.7                 : RMF          - RESISTIVITY OF MUD FILTRATE
SUFT.C        4                    : SUFT         - SURFACE TEMPERATURE
~A  DEPTH       GR      CAL     PHIN     PHID     RESD
# ...
  103.000   25.505  188.089    0.438    0.232  296.564
  103.250   21.820  187.162    0.440    0.242  503.590
  103.500   31.042  188.371    0.472    0.228  103.154
  103.750   48.867  189.485    0.405    0.234  225.771
  104.000   44.568  190.647    0.413    0.227  375.354
  104.250   42.728  194.965    0.448    0.221  267.789
  104.500   45.190  196.079    0.443    0.236  256.887
  104.750   47.651  197.241    0.411    0.257   49.385
  105.000   71.622  197.405    0.427    0.256  105.826
  105.250   87.604  195.410    0.440    0.260  199.746
  105.500   92.523  192.395    0.469    0.265   73.974
  105.750   94.370  189.332    0.414    0.260  183.847
  106.000   77.780  184.275    0.427    0.245  402.384
  106.250   71.638  182.234    0.447    0.252  172.767
  106.500   86.391  179.241    0.416    0.260   95.629
  106.750   96.841  182.468    0.396    0.248  264.175
  107.000   96.230  201.382    0.407    0.262  326.639
  107.250   95.618  209.853    0.469    0.263   86.223
  107.500   82.716  206.885    0.502    0.269   37.819
  107.750   72.272  202.778    0.420    0.289  140.478
  108.000   64.285  198.695    0.441    0.310   35.546
  108.250   64.903  192.546    0.470    0.260   39.540
  108.500   82.728  184.286    0.497    0.263   59.151
  108.750   82.117  176.049    0.421    0.296  239.072
  109.000   75.360  165.771    0.435    0.307  126.871
  109.250   75.363  162.685    0.392    0.297   45.994
  109.500   77.210  162.826    0.402    0.271   49.043
  109.750   71.068  176.495    0.446    0.280   83.279
  110.000   69.227  194.364    0.427    0.277  358.703
  110.250   66.772  202.859    0.455    0.265  596.358
  110.500   63.702  203.000    0.480    0.266  416.557
  110.750   46.498  202.026    0.455    0.258  284.876
  111.000   45.886  199.010    0.460    0.248  664.348
  111.250   55.722  191.818    0.422    0.249  473.967
  111.500   73.548  182.513    0.430    0.209  409.120
  111.750   83.999  172.188    0.374    0.144  384.250
  112.000   79.700  166.016    0.359    0.160  179.546
  112.250   66.797  161.956    0.387    0.195   65.090
  112.500   48.978  157.897    0.344    0.207  183.655
  112.750   71.105  159.082    0.377    0.224  361.626
  113.000   95.691  164.397    0.396    0.243  476.422
  113.250  123.964  171.800    0.429    0.265  792.216
  113.500  115.978  206.425    0.419    0.252  354.908
  113.750  115.981  201.321    0.419    0.237  184.334
  114.000  124.588  196.194    0.432    0.239   51.856
  114.250  120.904  187.957    0.432    0.244  228.087
  114.500   92.637  183.850    0.387    0.261  829.501
  114.750   76.047  177.702    0.399    0.274  983.154
  115.000   47.780  173.665    0.373    0.274  152.946
  115.250   63.762  174.827    0.381    0.254   27.595
  115.500  106.785  174.897    0.393    0.236  233.867
  115.750  104.330  176.059    0.408    0.239   16.635
  116.000  106.176  177.244    0.414    0.228   10.021
  116.250   93.888  177.361    0.380    0.202   21.473
  116.500   61.934  175.413    0.368    0.210   19.332
  116.750   44.115  174.416    0.396    0.217   15.993
  117.000   65.014  172.468    0.404    0.229   12.417
  117.250   74.235  171.564    0.403    0.246   34.297
  117.500   83.457  171.635    0.390    0.263   29.599
  117.750  113.573  170.708    0.398    0.281   19.404
  118.000   96.984  170.801    0.387    0.272   16.052
  118.250   55.196  168.830    0.392    0.248   69.141
  118.500   39.221  164.770    0.408    0.239   19.862
  118.750   52.744  159.643    0.368    0.275   14.170
  119.000   66.882  157.695    0.380    0.306    9.898
  119.250   77.948  160.945    0.390    0.278   17.537
  119.500   87.169  166.284    0.376    0.279   13.052
  119.750   83.485  169.510    0.374    0.272   11.505
  120.000   75.499  173.781    0.333    0.233   62.525
  120.250   73.044  180.164    0.382    0.189   37.663
  120.500   77.349  184.482    0.456    0.047   63.967
  120.750   74.894  180.398    0.381   -0.012   28.052
  121.000   76.126  173.182    0.147   -0.019   19.594
  121.250   67.525  169.146    0.151    0.008    9.757
  121.500   63.841  169.240    0.291    0.064   31.918
  121.750   65.688  177.711    0.373    0.138  294.384
  122.000   59.545  185.162    0.457    0.160   96.029
  122.250   54.632  193.610    0.630    0.163   43.940
  122.500   60.781  205.214    0.636    0.202   13.450
  122.750   63.242  212.664    0.597    0.202   13.747
  123.000   58.944  214.870    0.587    0.182  321.617
  123.250   62.020  215.985    0.568    0.166  160.124
  123.500   70.627  217.170    0.449    0.164   68.763
  123.750   73.703  217.287    0.452    0.161   64.584
  124.000   74.935  217.404    0.438    0.157   25.485
  124.250   74.324  217.521    0.436    0.134    7.639
  124.500   71.869  217.639    0.513    0.168    8.680
  124.750   63.883  217.756    0.500    0.201    7.815
  125.000   63.885  217.850    0.468    0.186    7.821
  125.250   66.347  216.899    0.479    0.182    8.339
  125.500   67.579  217.040    0.500    0.155    7.046
  125.750   76.187  216.089    0.441    0.191    9.282
  126.000   71.887  214.141    0.445    0.241   16.793
  126.250   69.432  212.147    0.570    0.341   26.763
  126.500   66.362  207.066    0.684    0.432   39.199
  126.750   66.980  205.048    0.662    0.431   56.202
  127.000   68.213  200.965    0.618    0.368   63.853
  127.250   65.757  200.085    0.592    0.322   75.681
  127.500   67.605  200.132    0.572    0.251   56.326
  127.750   76.212  201.316    0.579    0.237   21.761
  128.000   74.371  202.478    0.614    0.280   11.066
  128.250   70.072  202.619    0.584    0.303    8.963
  128.500   72.534  201.668    0.607    0.292   14.592
  128.750   71.308  200.694    0.635    0.262   18.042
  129.000   67.623  197.726    0.605    0.236   23.272
  129.250   65.168  196.752    0.600    0.212    8.803
  129.500   74.390  194.804    0.581    0.193   30.683
  129.750   71.935  193.854    0.615    0.144   14.959
  130.000   59.032  191.882    0.534    0.193   10.900
  130.250   39.369  189.934    0.583    0.266   23.358
  130.500   20.320  188.984    0.613    0.278   47.990
  130.750   21.553  188.033    0.619    0.260   26.007
  131.000   25.243  188.127    0.598    0.334   18.163
