~VERSION INFORMATION
 VERS.                 2.0:   CWLS LOG ASCII STANDARD -VERSION 2.0
 WRAP.                  NO:   ONE LINE PER DEPTH STEP
~WELL INFORMATION BLOCK
#MNEM.UNIT           DATA                    DESCRIPTION OF MNEMONIC
#---------    -------------------            -------------------------------
# Generated from Intellog Unique Number	CW_79_81/WELL/2487
WELL.         13-06-081-21W4                 : Well_name    - WELL
LOC .         AA/13-06-081-21W4/0            : Location     - LOCATION
UWI .         AA/13-06-081-21W4/0            : Uwi          - UNIQUE WELL ID
ENTR.         MAX                            : Entered      - ENTERED BY
SRVC.         SCHLUMBERGER                   : Scn          - SERVICE COMPANY
STRT.M        185                            : top_depth    - START DEPTH
STOP.M        434.75                         : bot_depth    - STOP DEPTH
STEP.M        0.25                           : increment    - STEP LENGTH
 NULL. -999.2500:NULL Value
~CURVE INFORMATION BLOCK
#MNEM UNIT       ERCB CURVE CODE    CURVE DESCRIPTION
#-----------   ------------------   ----------------------------------
DEPT.M        00 001 00 00         : DEPTH        - DEPTH
ILD .OHMM     00 120 00 00         : RESD         - DEEP RESISTIVITY (DIL)
NPHI.V/V      00 330 00 00         : PHIN         - NEUTRON POROSITY (SANDSTONE)
DPHI.V/V      00 890 00 00         : PHID         - DENSITY POROSITY (SANDSTONE)
GR  .API      00 310 00 00         : GR           - GAMMA RAY
CALI.MM       00 280 01 00         : CAL          - CALIPER
~PARAMETER INFORMATION
#MNEM.UNIT           DATA             DESCRIPTION OF MNEMONIC
#---------         -----------     ------------------------------
GL  .M        604.15               : gl           - GROUND LEVEL ELEVATION
EREF.M        608.75               : kb           - ELEVATION OF DEPTH REFERENCE
DATM.M        604.15               : datum        - DATUM ELEVATION
TDD .M        442                  : tdd          - TOTAL DEPTH DRILLER
RUN .         ONE                  : Run          - RUN NUMBER
ENG .         BILL                 : Engineer     - RECORDING ENGINEER
WIT .         JIM                  : Witness      - WITNESSED BY
MUD .         GEL                  : Mud_type     - MUD TYPE
MATR.         SANDSTONE            : Logunit      - NEUTRON MATRIX
TMAX.C        28.9                 : BHT          - MAXIMUM RECORDED TEMPERATURE
BHTD.M        442                  : BHTDEP       - MAXIMUM RECORDED TEMPERATURE
MATR.         1                    : LOGUNIT      - NEUTRON MATRIX
RMT .C        23.9                 : MDTP         - TEMPERATURE OF MUD
NEUT.         1                    : NEUTRON      - NEUTRON TYPE
RESI.         0                    : RESIST       - RESISTIVITY TYPE
RMC .OHMM     5.54                 : RMC          - RESISTIVITY OF MUD CAKE
RMF .OHMM     3.27                 : RMF          - RESISTIVITY OF MUD FILTRATE
SUFT.C        -20                  : SUFT         - SURFACE TEMPERATURE
~A  DEPTH     RESD     PHIN     PHID       GR      CAL
# ...
  258.000   30.432    0.440    0.345   56.168  160.743
  258.250   36.930    0.445    0.344   56.342  161.176
  258.500   43.468    0.446    0.362   57.304  161.519
  258.750   45.231    0.450    0.367   57.289  161.908
  259.000   48.469    0.452    0.373   57.269  163.463
  259.250   52.187    0.452    0.379   57.129  165.808
  259.500   55.544    0.453    0.381   56.752  168.256
  259.750   57.876    0.463    0.374   56.012  170.049
  260.000   56.265    0.476    0.373   55.988  171.247
  260.250   54.013    0.469    0.383   58.587  171.219
  260.500   51.858    0.473    0.386   60.292  171.185
  260.750   49.966    0.471    0.385   62.294  170.950
  261.000   48.552    0.460    0.383   63.760  170.616
  261.250   47.818    0.453    0.381   61.289  170.578
  261.500   47.467    0.456    0.380   58.542  170.545
  261.750   46.818    0.461    0.379   59.472  170.509
  262.000   45.708    0.460    0.379   60.222  169.285
  262.250   44.023    0.455    0.380   60.321  167.663
  262.500   40.117    0.446    0.383   59.767  166.140
  262.750   31.469    0.443    0.387   59.224  164.667
  263.000   26.320    0.467    0.392   60.196  163.388
  263.250   23.760    0.466    0.388   64.930  162.960
  263.500   22.262    0.472    0.367   67.884  162.527
  263.750   22.255    0.476    0.360   67.506  162.094
  264.000   23.480    0.478    0.373   65.403  161.761
  264.250   24.562    0.478    0.387   67.024  161.719
  264.500   23.549    0.460    0.383   70.473  161.686
  264.750   20.396    0.457    0.376   72.352  161.258
  265.000   16.651    0.450    0.375   71.559  161.122
  265.250   14.975    0.437    0.373   68.566  160.890
  265.500   14.820    0.423    0.368   64.324  160.562
  265.750   14.793    0.431    0.368   60.353  160.518
  266.000   14.685    0.454    0.380   60.828  160.488
  266.250   14.582    0.456    0.386   62.949  160.453
  266.500   14.479    0.473    0.385   66.138  160.418
  266.750   14.426    0.479    0.378   69.328  160.579
  267.000   14.396    0.467    0.369   71.926  160.840
  267.250   14.213    0.443    0.361   73.455  160.886
  267.500   13.817    0.440    0.351   71.692  161.254
  267.750   13.628    0.453    0.355   70.490  161.616
  268.000   13.784    0.457    0.362   68.924  161.979
  268.250   13.826    0.455    0.367   67.713  162.344
  268.500   13.637    0.454    0.369   66.682  162.708
  268.750   13.448    0.458    0.372   64.061  163.143
  269.000   13.444    0.453    0.372   60.567  163.516
  269.250   13.260    0.459    0.379   60.790  162.691
  269.500   13.145    0.452    0.383   62.256  162.461
  269.750   12.965    0.442    0.383   63.422  162.428
  270.000   12.659    0.440    0.382   63.874  162.195
  270.250   12.167    0.460    0.387   64.129  161.282
  270.500   11.828    0.460    0.391   63.120  160.836
  270.750   11.666    0.464    0.390   61.672  160.794
  271.000   11.507    0.477    0.390   60.046  160.465
  271.250   11.388    0.482    0.390   60.026  160.037
  271.500   11.308    0.476    0.390   61.909  159.605
  271.750   11.227    0.462    0.391   64.549  159.249
  272.000   11.224    0.450    0.392   64.774  159.629
  272.250   11.220    0.466    0.387   65.704  159.990
  272.500   11.216    0.468    0.383   65.921  160.649
  272.750   11.212    0.472    0.383   66.377  161.604
  273.000   11.208    0.480    0.384   67.308  162.659
  273.250   11.203    0.480    0.382   68.581  163.408
  273.500   11.199    0.472    0.379   70.295  163.368
  273.750   11.195    0.461    0.374   70.988  163.340
  274.000   11.248    0.457    0.368   68.290  163.306
  274.250   11.282    0.466    0.362   66.960  163.073
  274.500   11.278    0.478    0.360   68.188  162.741
  274.750   11.274    0.461    0.365   69.742  162.702
  275.000   11.269    0.436    0.369   70.460  162.665
  275.250   11.190    0.421    0.365   73.768  162.634
  275.500   11.055    0.424    0.364   74.583  162.897
  275.750   10.867    0.442    0.365   74.682  163.058
  276.000   10.646    0.463    0.368   74.421  163.020
  276.250   10.356    0.468    0.368   71.988  162.977
  276.500    9.997    0.470    0.360   68.250  162.941
  276.750    9.795    0.466    0.352   67.991  163.302
  277.000    9.547    0.464    0.349   68.446  163.668
  277.250    9.323    0.465    0.350   69.494  163.835
  277.500    9.211    0.467    0.353   70.899  163.799
  277.750    9.358    0.463    0.364   72.651  163.757
  278.000    9.487    0.468    0.386   74.366  163.720
  278.250    9.357    0.476    0.388   75.296  163.288
  278.500    9.135    0.477    0.383   72.839  163.157
  278.750    9.011    0.479    0.375   70.915  163.123
  279.000    9.008    0.489    0.368   69.882  163.089
  279.250    9.030    0.505    0.374   66.381  162.966
  279.500    9.154    0.482    0.377   65.618  162.509
  279.750    9.151    0.464    0.371   68.688  162.081
  280.000    9.193    0.452    0.368   68.725  161.353
  280.250    9.283    0.458    0.369   65.849  160.923
  280.500    9.437    0.477    0.372   61.965  160.792
  280.750    9.730    0.492    0.376   60.653  160.357
  281.000    9.933    0.499    0.377   60.136  160.320
  281.250   10.405    0.487    0.373   60.830  160.285
  281.500   10.955    0.471    0.369   61.700  160.247
  281.750   11.741    0.460    0.365   62.155  160.612
  282.000   12.852    0.463    0.358   61.602  161.476
  282.250   14.758    0.464    0.333   58.148  162.869
  282.500   18.140    0.398    0.298   51.685  164.068
  282.750   20.692    0.228    0.143   50.713  164.829
  283.000   23.744    0.203    0.102   52.953  165.290
  283.250   26.247    0.208    0.096   54.003  165.256
  283.500   26.763    0.195    0.088   52.495  164.628
  283.750   24.049    0.175    0.086   50.339  163.394
  284.000   21.231    0.166    0.119   51.556  163.361
  284.250   16.669    0.332    0.231   54.864  163.322
  284.500   14.559    0.408    0.276   54.428  163.289
  284.750   13.071    0.447    0.310   53.695  163.257
  285.000   11.895    0.476    0.353   55.635  163.225
  285.250   11.166    0.492    0.384   62.992  163.103
  285.500   11.005    0.497    0.378   64.211  162.654
  285.750   10.784    0.516    0.382   63.712  162.615
  286.000   10.673    0.501    0.374   65.000  162.282
  286.250   10.633    0.482    0.366   66.526  162.050
  286.500   10.647    0.469    0.360   67.159  162.018
  286.750   10.729    0.453    0.358   66.033  161.979
  287.000   10.801    0.435    0.361   65.268  161.943
  287.250   11.016    0.421    0.364   65.249  161.904
  287.500   11.236    0.433    0.366   65.408  161.870
  287.750   11.498    0.441    0.368   64.080  161.837
  288.000   11.827    0.434    0.369   61.086  161.802
  288.250   12.378    0.428    0.369   57.878  161.760
  288.500   13.183    0.437    0.366   58.602  161.727
  288.750   14.844    0.450    0.341   57.869  161.688
  289.000   17.765    0.281    0.312   53.388  161.652
  289.250   22.246    0.150    0.195   48.611  161.618
  289.500   28.320    0.130    0.042   45.143  161.586
  289.750   35.377    0.140    0.037   42.541  161.544
  290.000   40.167    0.141    0.037   41.528  161.511
  290.250   32.672    0.131    0.026   41.980  161.476
  290.500   25.466    0.124    0.035   43.329  161.443
  290.750   20.187    0.176    0.085   49.495  161.211
  291.000   16.938    0.294    0.191   58.392  160.780
  291.250   14.925    0.434    0.356   61.686  160.176
  291.500   12.482    0.437    0.356   60.423  159.313
  291.750   11.113    0.436    0.350   62.546  158.882
  292.000   10.543    0.430    0.348   63.240  158.455
  292.250   10.296    0.428    0.348   63.219  158.225
  292.500   10.190    0.429    0.349   63.672  158.189
  292.750   10.228    0.429    0.353   66.013  158.227
  293.000   10.442    0.458    0.353   64.753  158.606
  293.250   10.865    0.462    0.354   65.211  158.971
  293.500   11.587    0.454    0.349   65.845  159.033
  293.750   12.471    0.443    0.311   65.586  159.394
  294.000   13.591    0.416    0.239   62.950  160.252
  294.250   15.654    0.325    0.141   55.879  161.479
