~VERSION INFORMATION
 VERS.                 2.0:   CWLS LOG ASCII STANDARD -VERSION 2.0
 WRAP.                  NO:   ONE LINE PER DEPTH STEP
~WELL INFORMATION BLOCK
#MNEM.UNIT           DATA                    DESCRIPTION OF MNEMONIC
#---------    -------------------            -------------------------------
# Generated from Intellog Unique Number	CN_94_101/WELL/5001
WELL.         10-06-098-07W4                 : Well_name    - WELL
LOC .         AA/10-06-098-07W4/0            : Location     - LOCATION
UWI .         AA/10-06-098-07W400            : Uwi          - UNIQUE WELL ID
ENTR.         TIM                            : Entered      - ENTERED BY
SRVC.         SCHLUMBERGER                   : Scn          - SERVICE COMPANY
DATE.         08/11/92                       : Date         - LOG DATE
STRT.M        0                              : top_depth    - START DEPTH
STOP.M        85                             : bot_depth    - STOP DEPTH
STEP.M        0.25                           : increment    - STEP LENGTH
 NULL. -999.2500:NULL Value
~CURVE INFORMATION BLOCK
#MNEM UNIT       ERCB CURVE CODE    CURVE DESCRIPTION
#-----------   ------------------   ----------------------------------
DEPT.M        00 001 00 00         : DEPTH        - DEPTH
GR  .API      00 310 00 00         : GR           - GAMMA RAY
ILD .OHMM     00 120 00 00         : RESD         - DEEP RESISTIVITY (DIL)
NPHI.V/V      00 330 00 00         : PHIN         - NEUTRON POROSITY (SANDSTONE)
DPHI.V/V      00 890 00 00         : PHID         - DENSITY POROSITY (SANDSTONE)
~PARAMETER INFORMATION
#MNEM.UNIT           DATA             DESCRIPTION OF MNEMONIC
#---------         -----------     ------------------------------
GL  .M        292.7                : gl           - GROUND LEVEL ELEVATION
EREF.M        292.7                : kb           - ELEVATION OF DEPTH REFERENCE
DATM.M        292.7                : datum        - DATUM ELEVATION
TDD .M        89.6                 : tdd          - TOTAL DEPTH DRILLER
RUN .         ONE                  : Run          - RUN NUMBER
ENG .         BILL                 : Engineer     - RECORDING ENGINEER
WIT .         JIM                  : Witness      - WITNESSED BY
MUD .         GEL                  : Mud_type     - MUD TYPE
MATR.         SANDSTONE            : Logunit      - NEUTRON MATRIX
TMAX.C        10                   : BHT          - MAXIMUM RECORDED TEMPERATURE
BHTD.M        89.6                 : BHTDEP       - MAXIMUM RECORDED TEMPERATURE
RMT .C        10                   : MDTP         - TEMPERATURE OF MUD
MUDD.KG/M     1090                 : MWT          - MUD DENSITY
NEUT.         1                    : NEUTRON      - NEUTRON TYPE
RESI.         0                    : RESIST       - RESISTIVITY TYPE
RM  .OHMM     13.1                 : RM           - RESISTIVITY OF MUD
RMC .OHMM     13.1                 : RMC          - RESISTIVITY OF MUD CAKE
RMF .OHMM     13.1                 : RMF          - RESISTIVITY OF MUD FILTRATE
SUFT.C        4                    : SUFT         - SURFACE TEMPERATURE
~A  DEPTH       GR     RESD     PHIN     PHID
    0.000   24.294    0.000    0.563    0.011
    0.250   23.772    0.000    0.566    0.010
    0.500   23.193    0.000    0.577    0.009
    0.750   23.250    0.000    0.578    0.008
    1.000   23.335    0.000    0.588    0.007
    1.250   23.999    0.000    0.593    0.006
    1.500   24.648    0.000    0.597    0.006
    1.750   24.733    0.000    0.601    0.006
    2.000   24.776    0.000    0.602    0.006
    2.250   24.818    0.000    0.595    0.004
    2.500   24.889    0.000    0.561    0.003
    2.750   25.553    0.000    0.428    0.005
    3.000   26.202    0.000    0.408    0.009
    3.250   26.259    0.000    0.414    0.013
    3.500   25.737    0.000    0.427    0.019
    3.750   25.765    0.000    0.447    0.021
    4.000   25.822    0.000    0.455    0.025
    4.250   27.714    0.000    0.438    0.026
    4.500   28.363    0.000    0.433    0.021
    4.750   29.027    0.000    0.433    0.015
    5.000   29.098    0.000    0.431    0.019
    5.250   28.533    0.000    0.428    0.104
    5.500   27.404    0.000    0.426    0.209
    5.750   27.433    9.234    0.426    0.298
    6.000   26.882    9.234    0.428    0.310
    6.250   26.346    9.702    0.432    0.338
    6.500   26.403   10.194    0.434    0.394
    6.750   26.445   10.710    0.434    0.426
    7.000   26.516   11.823    0.430    0.433
    7.250   26.573   12.422    0.427    0.420
    7.500   26.023   13.713    0.425    0.398
    7.750   26.700   13.713    0.423    0.402
    8.000   26.729   13.713    0.426    0.417
    8.250   28.635   13.713    0.433    0.438
    8.500   29.919   13.713    0.446    0.459
    8.750   29.948   13.713    0.458    0.476
    9.000   31.233   14.409    0.479    0.474
    9.250   32.503   14.409    0.509    0.439
    9.500   33.167   14.409    0.536    0.416
    9.750   29.567   11.253    0.565    0.363
   10.000   24.768   10.194    0.586    0.300
   10.250   18.755   10.194    0.422    0.253
   10.500   13.942   11.253    0.444    0.389
   10.750   13.998   11.253    0.469    0.401
   11.000   17.711   13.052    0.506    0.413
   11.250   17.782   13.713    0.522    0.412
   11.500   16.018   13.713    0.510    0.352
   11.750   15.453   13.713    0.419    0.331
   12.000   16.117   14.409    0.421    0.354
   12.250   17.387   15.906    0.439    0.389
   12.500   15.623   16.712    0.468    0.411
   12.750   13.252   16.712    0.487    0.420
   13.000   14.523   16.712    0.501    0.430
   13.250   21.256   17.559    0.498    0.433
   13.500   24.969   16.712    0.482    0.442
   13.750   24.433   16.712    0.470    0.456
   14.000   23.247   16.712    0.472    0.461
   14.250   20.269   15.139    0.447    0.458
   14.500   16.091   10.194    0.439    0.415
   14.750   14.312    8.364    0.413    0.265
   15.000   14.369    8.364    0.414    0.207
   15.250   16.261    8.364    0.421    0.234
   15.500   17.531    8.364    0.425    0.256
   15.750   21.216    8.364    0.428    0.280
   16.000   27.343    8.364    0.433    0.288
   16.250   37.125    8.364    0.431    0.293
   16.500   45.073    8.364    0.421    0.297
   16.750   45.129    7.961    0.420    0.297
   17.000   46.400    7.961    0.416    0.295
   17.250   46.457    8.364    0.415    0.298
   17.500   53.205    8.788    0.413    0.301
   17.750   53.261    9.234    0.414    0.300
   18.000   50.297    9.702    0.414    0.300
   18.250   46.091   10.194    0.416    0.301
   18.500   41.884   10.710    0.415    0.304
   18.750   41.941   10.710    0.414    0.306
   19.000   50.510   10.194    0.412    0.308
   19.250   46.924    9.702    0.412    0.311
   19.500   45.160    9.234    0.412    0.314
   19.750   43.410    7.211    0.411    0.317
   20.000   42.846    7.211    0.415    0.315
   20.250   41.688    7.211    0.426    0.290
   20.500   38.738    7.961    0.445    0.219
   20.750   37.553    8.788    0.503    0.167
   21.000   37.609    9.702    0.565    0.136
   21.250   42.536   11.253    0.606    0.120
   21.500   41.379   11.253    0.613    0.122
   21.750   39.629   11.253    0.610    0.127
   22.000   38.443   11.823    0.615    0.131
   22.250   38.500   13.713    0.621    0.136
   22.500   44.033   14.409    0.619    0.137
   22.750   47.125   15.906    0.613    0.117
   23.000   47.167   16.712    0.606    0.120
   23.250   49.045   18.449    0.608    0.124
   23.500   53.351   26.078    0.606    0.119
   23.750   53.422   31.780    0.596    0.116
   24.000   53.478   35.083    0.593    0.118
   24.250   49.272   52.103    0.594    0.116
   24.500   26.856   70.096    0.597    0.111
   24.750   19.628  126.866    0.592    0.109
   25.000   15.436  207.997    0.581    0.111
   25.250   13.672  253.478    0.571    0.112
   25.500   14.336  291.947    0.570    0.112
   25.750   16.834  276.312    0.570    0.107
   26.000   17.484  261.331    0.572    0.099
   26.250   16.341  247.161    0.573    0.101
   26.500   14.576  220.931    0.565    0.109
   26.750   12.812  194.631    0.557    0.118
   27.000   11.048  157.514    0.545    0.196
   27.250   12.304  162.280    0.604    0.224
   27.500   18.474  167.248    0.766    0.284
   27.750   16.681  160.499    0.870    0.248
   28.000   13.688  149.656    0.810    0.248
   28.250   10.724  149.867    0.779    0.262
   28.500    8.960  165.820    0.791    0.280
   28.750    7.803  152.492    0.829    0.294
   29.000    9.088  140.186    0.869    0.315
   29.250   10.330  138.452    0.890    0.312
   29.500   10.415  150.978    0.904    0.284
   29.750   10.443  162.315    0.887    0.288
   30.000   12.335  174.503    0.839    0.292
   30.250   12.420  187.607    0.854    0.295
   30.500   11.248  182.675    0.863    0.294
   30.750   10.698  172.831    0.875    0.264
   31.000    8.934  191.095    0.873    0.269
   31.250    8.398  199.903    0.824    0.275
   31.500    7.833  197.223    0.847    0.286
   31.750    7.876  194.716    0.866    0.294
   32.000    7.932  206.386    0.877    0.287
   32.250    7.989  206.676    0.854    0.266
   32.500    8.653  209.927    0.826    0.266
   32.750   11.137  222.509    0.825    0.265
   33.000   14.229  232.519    0.825    0.263
   33.250   17.321  242.980    0.820    0.255
   33.500   22.233  236.509    0.802    0.244
   33.750   24.732  227.044    0.790    0.246
   34.000   20.526  240.736    0.796    0.246
   34.250   15.741  247.932    0.801    0.243
   34.500   13.355  248.281    0.768    0.238
   34.750   13.426  245.212    0.773    0.224
   35.000   14.697  245.557    0.778    0.224
   35.250   17.167  249.419    0.763    0.226
   35.500   14.810  264.460    0.760    0.228
   35.750   12.439  276.164    0.755    0.225
   36.000   11.888  292.818    0.750    0.223
   36.250   11.338  337.970    0.750    0.222
   36.500   10.167  418.787    0.758    0.219
   36.750    9.024  573.361    0.749    0.214
   37.000    9.094  999.313    0.738    0.213
   37.250    8.516  973.384    0.738    0.213
   37.500    8.572  907.628    0.736    0.213
   37.750    8.036  834.381    0.731    0.212
   38.000    7.486  767.585    0.726    0.211
   38.250    8.757  779.385    0.714    0.212
   38.500   10.648 1479.200    0.716    0.216
   38.750   11.905 1885.710    0.719    0.226
   39.000   14.389 1971.930    0.719    0.242
   39.250   16.267 1974.710    0.707    0.269
   39.500   13.910 1894.350    0.676    0.289
   39.750   11.539 1367.980    0.645    0.312
   40.000    9.774  722.814    0.616    0.317
   40.250    9.845  249.352    0.660    0.321
   40.500    9.874  279.841    0.687    0.320
   40.750   13.572  603.516    0.675    0.317
   41.000   26.983 1565.990    0.622    0.298
   41.250   47.084 1940.450    0.638    0.293
   41.500   72.056 2027.750    0.655    0.295
   41.750   71.506 2698.470    0.633    0.301
   42.000   74.583 2278.900    0.613    0.308
   42.250   66.142 1599.590    0.640    0.314
   42.500   47.975 1031.080    0.704    0.315
   42.750   34.071  921.657    0.743    0.318
   43.000   38.376  569.515    0.759    0.316
   43.250   91.269  367.104    0.733    0.307
