~VERSION INFORMATION
 VERS.                 2.0:   CWLS LOG ASCII STANDARD -VERSION 2.0
 WRAP.                  NO:   ONE LINE PER DEPTH STEP
~WELL INFORMATION BLOCK
#MNEM.UNIT           DATA                    DESCRIPTION OF MNEMONIC
#---------    -------------------            -------------------------------
# Generated from Intellog Unique Number	CN_94_101/WELL/5058
WELL.         16-17-101-13W4                 : Well_name    - WELL
LOC .         AA/16-17-101-13W4/0            : Location     - LOCATION
UWI .         AA/16-17-101-13W400            : Uwi          - UNIQUE WELL ID
ENTR.         TIM                            : Entered      - ENTERED BY
SRVC.         SCHLUMBERGER                   : Scn          - SERVICE COMPANY
DATE.         08/13/92                       : Date         - LOG DATE
STRT.M        320.04                         : top_depth    - START DEPTH
STOP.M        542.54                         : bot_depth    - STOP DEPTH
STEP.M        0.25                           : increment    - STEP LENGTH
NULL. -999.2500:NULL Value
~CURVE INFORMATION BLOCK
#MNEM UNIT       ERCB CURVE CODE    CURVE DESCRIPTION
#-----------   ------------------   ----------------------------------
DEPT.M        00 001 00 00         : DEPTH        - DEPTH
NPHI.V/V      00 330 00 00         : PHIN         - NEUTRON POROSITY (SANDSTONE)
ILD .OHMM     00 120 00 00         : RESD         - DEEP RESISTIVITY (DIL)
GR  .API      00 310 00 00         : GR           - GAMMA RAY
~PARAMETER INFORMATION
#MNEM.UNIT           DATA             DESCRIPTION OF MNEMONIC
#---------         -----------     ------------------------------
GL  .M        755.752              : gl           - GROUND LEVEL ELEVATION
EREF.M        759.104              : kb           - ELEVATION OF DEPTH REFERENCE
DATM.M        759.104              : datum        - DATUM ELEVATION
TDD .M        543.763              : tdd          - TOTAL DEPTH DRILLER
RUN .         ONE                  : Run          - RUN NUMBER
ENG .         BILL                 : Engineer     - RECORDING ENGINEER
WIT .         JIM                  : Witness      - WITNESSED BY
MUD .         GEL                  : Mud_type     - MUD TYPE
MATR.         SANDSTONE            : Logunit      - NEUTRON MATRIX
TMAX.C        20.5556              : BHT          - MAXIMUM RECORDED TEMPERATURE
BHTD.M        543.763              : BHTDEP       - MAXIMUM RECORDED TEMPERATURE
RMT .C        10                   : MDTP         - TEMPERATURE OF MUD
MUDD.KG/M     1090                 : MWT          - MUD DENSITY
NEUT.         1                    : NEUTRON      - NEUTRON TYPE
RESI.         0                    : RESIST       - RESISTIVITY TYPE
RM  .OHMM     9.8                  : RM           - RESISTIVITY OF MUD
RMC .OHMM     8.7                  : RMC          - RESISTIVITY OF MUD CAKE
RMF .OHMM     9.2                  : RMF          - RESISTIVITY OF MUD FILTRATE
SUFT.C        4                    : SUFT         - SURFACE TEMPERATURE
~A  DEPTH     PHIN     RESD       GR
# ...
  374.290    0.519    2.184  104.844
  374.540    0.522    2.227  105.673
  374.790    0.527    2.228  106.502
  375.040    0.527    2.145  105.254
  375.290    0.522    2.105  104.422
  375.540    0.520    1.988  104.421
  375.790    0.531    1.951  106.496
  376.040    0.536    1.990  109.401
  376.290    0.532    1.990  108.154
  376.540    0.530    2.029  107.738
  376.790    0.527    2.070  109.396
  377.040    0.526    2.070  108.564
  377.290    0.526    2.111  107.318
  377.540    0.526    2.112  104.824
  377.790    0.527    2.113  103.577
  378.040    0.532    2.113  102.329
  378.290    0.538    2.114  101.912
  378.540    0.540    2.155  101.911
  378.790    0.538    2.240  101.494
  379.040    0.533    2.285  100.662
  379.290    0.527    2.374  100.245
  379.540    0.519    2.375   99.413
  379.790    0.520    2.469   98.996
  380.040    0.528    2.423   98.995
  380.290    0.539    2.377   98.578
  380.540    0.531    2.203   98.162
  380.790    0.503    2.162   96.914
  381.040    0.496    2.082   97.743
  381.290    0.484    2.082   99.818
  381.540    0.471    2.123  101.063
  381.790    0.462    2.124  105.629
  382.040    0.459    2.207  112.272
  382.290    0.485    2.251  113.102
  382.540    0.496    2.252  113.100
  382.790    0.506    2.296  112.683
  383.040    0.515    2.297  111.021
  383.290    0.525    2.298  108.942
  383.540    0.539    2.255  106.449
  383.790    0.549    2.213  104.371
  384.040    0.550    2.130  103.539
  384.290    0.550    2.051  103.123
  384.540    0.550    1.937  103.121
  384.790    0.550    1.865  102.704
  385.040    0.551    1.663  102.287
  385.290    0.553    1.571  102.286
  385.540    0.553    1.484  101.038
  385.790    0.551    1.456  100.206
  386.040    0.551    1.457   99.789
  386.290    0.551    1.514   99.788
  386.540    0.551    1.635   99.786
  386.790    0.551    1.766   99.370
  387.040    0.551    1.907   97.707
  387.290    0.553    2.267   96.044
  387.540    0.553    2.495   93.967
  387.790    0.551    2.800   91.889
  388.040    0.545    3.023   90.226
  388.290    0.535    3.328   86.902
  388.540    0.508    3.734   84.409
  388.790    0.455    4.191   79.839
  389.040    0.428    4.886   77.761
  389.290    0.418    5.176   78.174
  389.540    0.408    5.178   81.496
  389.790    0.394    5.082   83.986
  390.040    0.404    4.987   84.815
  390.290    0.419    4.448   84.398
  390.540    0.436    4.121   84.397
  390.790    0.460    3.537   84.810
  391.040    0.475    2.866   86.055
  391.290    0.484    2.460   88.130
  391.540    0.480    2.369   91.035
  391.790    0.486    2.370   91.865
  392.040    0.512    2.463   91.032
  392.290    0.542    2.609   90.201
  392.540    0.536    2.873   88.122
  392.790    0.529    3.043   85.214
  393.040    0.519    3.287   82.721
  393.290    0.509    3.416   85.211
  393.540    0.496    3.418   88.117
  393.790    0.483    3.418   91.022
  394.040    0.478    3.354   89.774
  394.290    0.507    3.292   88.112
  394.540    0.525    3.357   85.619
  394.790    0.536    3.556   80.634
  395.040    0.535    3.915   76.894
  395.290    0.527    4.148   75.231
  395.540    0.498    4.655   73.569
  395.790    0.485    4.838   71.906
  396.040    0.433    5.325   71.490
  396.290    0.410    5.751   72.318
  396.540    0.376    5.537   73.147
  396.790    0.355    5.034   73.146
  397.040    0.347    4.754   73.975
  397.290    0.325    4.322   74.389
  397.540    0.307    3.929   75.634
  397.790    0.343    3.710   76.463
  398.040    0.384    3.246   78.537
  398.290    0.396    2.840   80.613
  398.540    0.412    2.485   83.103
  398.790    0.460    2.092   88.501
  399.040    0.514    1.866   91.821
  399.290    0.554    2.015   93.481
  399.540    0.562    2.218   95.971
  399.790    0.559    2.306   95.554
  400.040    0.554    2.396   95.552
  400.290    0.550    2.444   95.136
  400.540    0.544    2.308   94.719
  400.790    0.541    2.180   94.303
  401.040    0.543    2.099   95.131
  401.290    0.546    2.060   96.791
  401.540    0.552    2.060   98.451
  401.790    0.555    2.061   98.865
  402.040    0.552    2.184   95.126
  402.290    0.546    2.227   88.895
  402.540    0.541    2.314   81.418
  402.790    0.515    2.360   88.476
  403.040    0.456    2.500   97.196
  403.290    0.432    2.549   97.194
  403.540    0.530    2.550   95.947
  403.790    0.540    2.551   93.869
  404.040    0.537    2.601   92.206
  404.290    0.533    2.810   90.959
  404.540    0.529    2.920   89.296
  404.790    0.527    3.214   88.880
  405.040    0.524    3.471   87.217
  405.290    0.521    3.608   85.970
  405.540    0.517    3.474   86.798
  405.790    0.506    3.281   86.797
  406.040    0.487    2.983   86.795
  406.290    0.456    2.711   86.794
  406.540    0.437    2.661   86.793
  406.790    0.433    2.766   87.206
  407.040    0.460    3.103   87.205
  407.290    0.501    3.288   86.373
  407.540    0.532    3.620   85.956
  407.790    0.556    3.690   85.955
  408.040    0.546    3.692   85.123
  408.290    0.528    3.623   83.875
  408.540    0.495    3.422   83.873
  408.790    0.473    3.232   84.287
  409.040    0.436    2.939   84.701
  409.290    0.417    2.883   85.115
  409.540    0.417    2.776   85.113
  409.790    0.418    2.724   85.527
  410.040    0.426    2.674   85.525
  410.290    0.453    2.675   85.939
  410.540    0.491    2.625   86.353
  410.790    0.508    2.625   86.767
  411.040    0.503    2.577   87.180
  411.290    0.502    2.578   87.179
  411.540    0.501    2.628   88.009
  411.790    0.522    2.732   89.253
  412.040    0.538    2.785   88.421
  412.290    0.542    2.951   86.758
  412.540    0.541    3.009   84.680
  412.790    0.547    3.128   80.941
  413.040    0.550    3.251   78.863
  413.290    0.542    3.315   83.015
  413.540    0.519    3.380   86.335
  413.790    0.502    3.447   88.411
  414.040    0.497    3.383   89.239
  414.290    0.510    3.319   89.653
  414.540    0.514    3.018   90.898
  414.790    0.463    2.905   91.727
  415.040    0.454    2.641   92.140
  415.290    0.453    2.355   92.555
  415.540    0.481    2.224   92.968
  415.790    0.505    2.142   93.382
  416.040    0.538    2.102   93.796
  416.290    0.552    2.143   94.625
  416.540    0.551    2.186   95.039
  416.790    0.547    2.186   95.868
  417.040    0.544    2.272   96.697
  417.290    0.548    2.317   97.942
  417.540    0.553    2.318   97.109
  417.790    0.558    2.363   94.616
  418.040    0.559    2.364   92.538
  418.290    0.554    2.410   95.859
  418.540    0.548    2.505   96.273
  418.790    0.549    2.706   97.517
  419.040    0.549    3.216  100.838
  419.290    0.548    3.678  100.006
  419.540    0.538    3.972   98.758
  419.790    0.529    4.373  101.248
  420.040    0.498    4.633  102.493
  420.290    0.466    4.815  101.661
  420.540    0.446    5.101   98.337
  420.790    0.445    5.104   95.844
  421.040    0.447    4.914   95.427
  421.290    0.443    4.822   94.180
  421.540    0.447    4.643   92.102
  421.790    0.452    4.644   92.931
  422.040    0.448    4.557   93.345
  422.290    0.445    4.558   92.927
  422.540    0.449    4.561   92.511
  422.790    0.458    4.562   92.094
  423.040    0.464    4.477   91.262
  423.290    0.477    4.394   91.261
  423.540    0.477    4.312   90.844
  423.790    0.431    4.232   90.427
  424.040    0.407    4.233   90.010
  424.290    0.392    4.234   88.763
  424.540    0.418    4.486   87.931
  424.790    0.423    4.663   88.760
  425.040    0.430    5.036   90.420
  425.290    0.424    5.037   92.909
  425.540    0.398    5.236   94.569
  425.790    0.375    5.238   94.983
  426.040    0.365    5.239   94.151
  426.290    0.352    5.044   93.735
  426.540    0.342    4.950   93.318
  426.790    0.365    4.587   92.485
  427.040    0.373    4.416   92.068
  427.290    0.392    4.252   92.483
  427.540    0.413    4.253   93.727
  427.790    0.431    4.174   94.556
  428.040    0.458    4.176   94.139
  428.290    0.478    4.177   92.891
