~VERSION INFORMATION
 VERS.                 2.0:   CWLS LOG ASCII STANDARD -VERSION 2.0
 WRAP.                  NO:   ONE LINE PER DEPTH STEP
~WELL INFORMATION BLOCK
#MNEM.UNIT           DATA                    DESCRIPTION OF MNEMONIC
#---------    -------------------            -------------------------------
# Generated from Intellog Unique Number	CC_80_83/WELL/2335
NULL.         -999.25                        : NULL_VALUE
WELL.         PEX PCEJ CHARD OV              : Well_name    - WELL
LOC .         10-05-081-07W4                 : Location     - LOCATION          
UWI .         AA/10-05-081-07W4/0            : Uwi          - UNIQUE WELL ID    
ENTR.         DW                             : Entered      - ENTERED BY        
SRVC.         SCHLUMBERGER                   : Scn          - SERVICE COMPANY   
DATE.         21 JAN 80                      : Date         - LOG DATE
STRT.M        200                            : top_depth    - START DEPTH       
STOP.M        434.893                        : bot_depth    - STOP DEPTH        
STEP.M        0.3                            : increment    - STEP LENGTH       
~CURVE INFORMATION BLOCK
#MNEM UNIT       ERCB CURVE CODE    CURVE DESCRIPTION
#-----------   ------------------   ----------------------------------
DEPT.M        00 001 00 00         : DEPTH        - DEPTH                       
DPHI.V/V      00 890 00 00         : PHID         - DENSITY POROSITY (LIMESTONE)
NPHI.V/V      00 330 00 00         : PHIN         - NEUTRON POROSITY (LIMESTONE)
GR  .API      00 310 00 00         : GR           - GAMMA RAY                   
ILD .OHMM     00 120 00 00         : RESD         - DEEP RESISTIVITY (DIL)      
~PARAMETER INFORMATION       
#MNEM.UNIT           DATA             DESCRIPTION OF MNEMONIC
#---------         -----------     ------------------------------
GL  .M        604.88               : gl           - GROUND LEVEL ELEVATION      
EREF.M        608.48               : kb           - ELEVATION OF DEPTH REFERENCE
DATM.M        608.48               : datum        - DATUM ELEVATION             
TDD .M        436                  : tdd          - TOTAL DEPTH DRILLER         
RUN .         ONE                  : Run          - RUN NUMBER                  
ENG .         BILL                 : Engineer     - RECORDING ENGINEER          
WIT .         JIM                  : Witness      - WITNESSED BY                
MUD .         GEL                  : Mud_type     - MUD TYPE                    
MATR.         LIMESTONE            : Logunit      - NEUTRON MATRIX              
TMAX.C        19                   : BHT          - MAXIMUM RECORDED TEMPERATURE
BHTD.M        436                  : BHTDEP       - MAXIMUM RECORDED TEMPERATURE
MATR.         1                    : LOGUNIT      - NEUTRON MATRIX              
RMT .C        25                   : MDTP         - TEMPERATURE OF MUD          
NEUT.         1                    : NEUTRON      - NEUTRON TYPE                
RESI.         0                    : RESIST       - RESISTIVITY TYPE            
RMC .OHMM     0.25                 : RMC          - RESISTIVITY OF MUD CAKE     
RMF .OHMM     0.25                 : RMF          - RESISTIVITY OF MUD FILTRATE 
SUFT.C        15                   : SUFT         - SURFACE TEMPERATURE         
~A  DEPTH     PHID     PHIN       GR     RESD
# ...
  304.399    0.227    0.520  122.349    4.509
  304.699    0.233    0.495  113.725    5.135
  304.999    0.239    0.489  116.822    5.429
  305.299    0.257    0.479  117.448    6.300
  305.599    0.314    0.486  109.439    6.914
  305.899    0.268    0.471  100.197    8.023
  306.199    0.224    0.453  102.059    9.310
  306.499    0.235    0.434  106.389   10.217
  306.798    0.242    0.430  101.464   10.802
  307.098    0.242    0.419   81.738   11.003
  307.398    0.242    0.410   79.897   11.000
  307.698    0.241    0.411   89.778   10.999
  307.998    0.241    0.416  102.128   10.795
  308.298    0.242    0.416   94.120   10.594
  308.598    0.242    0.416   94.130   10.591
  308.898    0.243    0.412   91.675   10.789
  309.198    0.242    0.412   93.535   10.787
  309.498    0.243    0.400   86.764   11.405
  309.798    0.239    0.380   86.772   11.836
  310.098    0.232    0.370   86.784   12.513
  310.398    0.228    0.362   81.243   12.985
  310.698    0.231    0.372   82.490   12.984
  310.998    0.234    0.382   86.818   12.507
  311.298    0.237    0.377   83.128   12.275
  311.598    0.235    0.361   81.287   12.503
  311.898    0.238    0.342   82.533   13.468
  312.198    0.237    0.317   83.778   15.628
  312.498    0.231    0.276   88.107   16.523
  312.798    0.213    0.189   77.632   16.215
  313.098    0.150    0.131   65.306   14.499
  313.398    0.015    0.117   49.896   12.034
  313.698    0.051    0.145   57.310   10.367
  313.998    0.177    0.295   77.678    8.931
  314.298    0.233    0.362   85.092    8.136
  314.598    0.238    0.388   91.269    7.837
  314.898    0.238    0.379   87.579    7.410
  315.198    0.237    0.412   89.444    7.548
  315.498    0.237    0.422   93.154    7.689
  315.798    0.237    0.417   90.699    8.437
  316.098    0.237    0.417   93.176    8.756
  316.398    0.236    0.401  103.060    8.919
  316.698    0.236    0.392  103.686    9.085
  316.998    0.239    0.418  100.614    9.083
  317.298    0.238    0.405   98.159    9.082
  317.598    0.234    0.406   98.168    8.749
  317.898    0.236    0.415   96.946    8.586
  318.198    0.242    0.432   96.340    8.425
  318.498    0.244    0.446  100.052    8.424
  318.798    0.251    0.415  100.681    8.423
  319.098    0.256    0.408   90.821    8.267
  319.398    0.257    0.448   84.048    8.420
  319.698    0.257    0.457   82.826    8.738
  319.998    0.261    0.442   89.621    8.901
  320.298    0.256    0.419   95.802    9.067
  320.598    0.248    0.399   92.729    9.066
  320.898    0.246    0.399   89.040    8.733
  321.198    0.254    0.416   84.734    8.105
  321.498    0.246    0.415   88.445    6.727
  321.798    0.243    0.432   93.391    5.583
  322.098    0.239    0.409   98.339    3.993
  322.398    0.238    0.435  103.901    3.919
  322.698    0.268    0.459  118.717    4.463
  322.998    0.269    0.504  116.878    5.376
  323.298    0.263    0.520  108.871    6.720
  323.598    0.258    0.527  110.731    8.401
  323.898    0.255    0.472  113.208   10.502
  324.198    0.265    0.457  113.836   11.313
  324.498    0.267    0.455  101.510   11.523
  324.798    0.263    0.422   93.503   11.309
  325.098    0.259    0.426   89.814   10.302
  325.398    0.251    0.448   87.356    9.211
  325.698    0.242    0.450   96.003    8.237
  325.998    0.231    0.462  104.651    7.503
  326.298    0.224    0.461  107.131    7.364
  326.598    0.229    0.472  112.076    7.785
  326.898    0.237    0.483  121.340    7.784
  327.198    0.237    0.456  121.351    7.639
  327.498    0.231    0.450  113.345    6.581
  327.798    0.235    0.458  109.655    4.706
  328.098    0.245    0.475  109.664    3.906
  328.398    0.263    0.491  110.294    3.066
  328.698    0.289    0.512  111.538    2.593
  328.998    0.311    0.548  120.802    2.318
  329.298    0.298    0.557  121.431    2.318
  329.598    0.277    0.556  123.909    2.405
  329.898    0.297    0.568  119.603    2.640
  330.198    0.303    0.579  114.678    3.006
  330.498    0.289    0.562  107.286    3.554
  330.798    0.272    0.551  102.364    4.361
  331.098    0.269    0.537   99.907    5.156
  331.397    0.266    0.518  107.323    6.210
  331.697    0.258    0.473  117.204    7.763
  331.997    0.238    0.422  114.129    8.679
  332.297    0.225    0.414  111.674    9.349
  332.597    0.221    0.406  111.069    9.702
  332.897    0.217    0.423  108.610   10.258
  333.197    0.216    0.416   90.733   11.049
  333.497    0.224    0.401   93.829   10.643
  333.797    0.249    0.383  103.710   10.641
  334.097    0.238    0.360   90.767   10.251
  334.397    0.217    0.383   83.378    9.513
  334.697    0.242    0.408   93.259    9.336
  334.997    0.248    0.419  103.754    9.871
  335.297    0.205    0.428  113.637   10.632
  335.597    0.198    0.400  117.348   11.034
  335.897    0.198    0.400  114.276   11.450
  336.197    0.195    0.406  119.221   11.030
  336.497    0.154    0.384  110.596    9.863
  336.797    0.195    0.398  111.843    8.819
  337.097    0.215    0.416  115.555    8.034
  337.397    0.220    0.438  116.182    7.183
  337.697    0.221    0.457  108.792    6.920
  337.997    0.220    0.433  103.868    6.666
  338.297    0.220    0.420  104.495    6.542
  338.597    0.217    0.419  111.294    6.789
  338.897    0.222    0.418  109.453    7.590
  339.197    0.240    0.414  115.633    8.973
  339.497    0.213    0.411  111.326   11.010
  339.797    0.199    0.381  105.170   12.776
  340.097    0.208    0.353  105.180   13.015
  340.397    0.238    0.375  103.344   12.536
  340.697    0.261    0.362  103.354   11.210
  340.997    0.267    0.361  102.747    9.657
  341.297    0.258    0.366   95.971    8.166
  341.597    0.242    0.402  100.918    7.035
  341.897    0.240    0.425  105.249    6.290
  342.197    0.240    0.439  107.111    6.059
  342.497    0.239    0.455  112.673    5.836
  342.797    0.239    0.462  114.535    5.836
  343.097    0.240    0.457  113.316    5.835
  343.397    0.243    0.459  112.706    5.726
  343.697    0.250    0.463  114.571    5.725
  343.997    0.249    0.472  114.580    6.167
  344.297    0.262    0.490  110.888    7.156
  344.597    0.256    0.466   97.945    8.619
  344.897    0.258    0.405   89.938    9.636
  345.197    0.246    0.406   96.736    9.816
  345.497    0.243    0.393  101.681    9.455
  345.797    0.242    0.393   89.970    8.455
  346.097    0.240    0.417   96.769    6.160
  346.397    0.246    0.433   94.315    4.572
  346.697    0.261    0.464   91.238    4.243
  346.997    0.272    0.490  100.504    4.404
  347.297    0.270    0.480  104.834    5.931
  347.597    0.258    0.455  101.758    8.137
  347.897    0.243    0.424   96.221    9.269
  348.197    0.258    0.400   93.146    9.618
  348.497    0.263    0.390   89.455    9.439
  348.797    0.265    0.390   84.534    9.795
  349.097    0.269    0.411   85.161    9.978
  349.397    0.272    0.417   88.873   10.164
  349.697    0.271    0.427   90.118   10.162
  349.997    0.269    0.445   85.193   10.161
  350.297    0.259    0.448   75.335    9.787
  350.597    0.230    0.424   75.345    9.429
  350.897    0.197    0.419   84.610    8.750
  351.197    0.238    0.415   88.323    8.588
  351.497    0.251    0.417   87.102    9.079
  351.797    0.255    0.402   97.599    9.422
  352.097    0.234    0.396   96.377    9.247
  352.397    0.148    0.451   94.536    8.423
  352.697    0.133    0.438  106.270    7.532
  352.997    0.154    0.402  107.512    7.122
  353.297    0.194    0.440  109.377    6.609
  353.597    0.214    0.420  109.389    6.608
  353.897    0.215    0.427  110.014    6.857
  354.197    0.216    0.449  113.109    7.250
  354.497    0.218    0.463  111.889    8.258
  354.797    0.209    0.452  109.431    8.732
  355.097    0.200    0.432  107.595    9.405
  355.397    0.209    0.410  108.222    9.060
  355.697    0.206    0.398  113.165    8.101
  355.996    0.213    0.393  116.262    7.110
  356.296    0.222    0.394  113.806    6.012
