~VERSION INFORMATION
 VERS.                 2.0:   CWLS LOG ASCII STANDARD -VERSION 2.0
 WRAP.                  NO:   ONE LINE PER DEPTH STEP
~WELL INFORMATION BLOCK
#MNEM.UNIT           DATA                    DESCRIPTION OF MNEMONIC
#---------    -------------------            -------------------------------
# Generated from Intellog Unique Number	CC_88_90/WELL/2308
WELL.         11-29-090-15W4                 : Well_name    - WELL
LOC .         AA/11-29-090-15W4/0            : Location     - LOCATION
UWI .         AA/11-29-090-15W400            : Uwi          - UNIQUE WELL ID
ENTR.         DW                             : Entered      - ENTERED BY
SRVC.         SCHLUMBERGER                   : Scn          - SERVICE COMPANY
STRT.M        75                             : top_depth    - START DEPTH
STOP.M        199.75                         : bot_depth    - STOP DEPTH
STEP.M        0.25                           : increment    - STEP LENGTH
 NULL. -999.2500:NULL Value
~CURVE INFORMATION BLOCK
#MNEM UNIT       ERCB CURVE CODE    CURVE DESCRIPTION
#-----------   ------------------   ----------------------------------
DEPT.M        00 001 00 00         : DEPTH        - DEPTH
GR  .API      00 310 00 00         : GR           - GAMMA RAY
DPHI.V/V      00 890 00 00         : PHID         - DENSITY POROSITY (SANDSTONE)
NPHI.V/V      00 330 00 00         : PHIN         - NEUTRON POROSITY (SANDSTONE)
ILD .OHMM     00 120 00 00         : RESD         - DEEP RESISTIVITY (DIL)
~PARAMETER INFORMATION
#MNEM.UNIT           DATA             DESCRIPTION OF MNEMONIC
#---------         -----------     ------------------------------
GL  .M        470                  : gl           - GROUND LEVEL ELEVATION
EREF.M        473.35               : kb           - ELEVATION OF DEPTH REFERENCE
DATM.M        473.35               : datum        - DATUM ELEVATION
TDD .M        210                  : tdd          - TOTAL DEPTH DRILLER
RUN .         ONE                  : Run          - RUN NUMBER
ENG .         BILL                 : Engineer     - RECORDING ENGINEER
WIT .         JIM                  : Witness      - WITNESSED BY
MUD .         GEL                  : Mud_type     - MUD TYPE
MATR.         SANDSTONE            : Logunit      - NEUTRON MATRIX
TMAX.C        25                   : BHT          - MAXIMUM RECORDED TEMPERATURE
BHTD.M        210                  : BHTDEP       - MAXIMUM RECORDED TEMPERATURE
MATR.         1                    : LOGUNIT      - NEUTRON MATRIX
RMT .C        25                   : MDTP         - TEMPERATURE OF MUD
NEUT.         1                    : NEUTRON      - NEUTRON TYPE
RESI.         0                    : RESIST       - RESISTIVITY TYPE
RMC .OHMM     0.25                 : RMC          - RESISTIVITY OF MUD CAKE
RMF .OHMM     0.25                 : RMF          - RESISTIVITY OF MUD FILTRATE
SUFT.C        15                   : SUFT         - SURFACE TEMPERATURE
~A  DEPTH       GR     PHID     PHIN     RESD
   75.000   84.202    0.388    0.520   12.096
   75.250   79.133    0.380    0.549   11.946
   75.500   81.925    0.411    0.606   11.541
   75.750   85.370    0.390    0.561   11.411
   76.000   87.429    0.364    0.511   11.408
   76.250   88.537    0.390    0.549   11.158
   76.500   87.859    0.421    0.564   10.812
   76.750   87.529    0.453    0.553   10.509
   77.000   91.191    0.396    0.555    9.880
   77.250   98.841    0.343    0.562    9.522
   77.500  100.273    0.321    0.544    9.414
   77.750   94.287    0.291    0.516    9.309
   78.000   93.363    0.271    0.514    9.305
   78.250   95.496    0.233    0.526    8.661
   78.500   96.538    0.218    0.512    7.567
   78.750  101.636    0.220    0.491    6.074
   79.000  113.365    0.262    0.502    4.982
   79.250  124.368    0.317    0.538    4.668
   79.500  126.524    0.309    0.563    4.545
   79.750  122.792    0.300    0.584    4.964
   80.000  116.002    0.297    0.603    5.671
   80.250  108.514    0.289    0.590    6.685
   80.500  100.319    0.276    0.551    7.578
   80.750   92.703    0.278    0.540    7.888
   81.000   90.846    0.305    0.559    7.576
   81.250   97.168    0.312    0.537    6.493
   81.500  104.701    0.281    0.507    5.623
   81.750  108.697    0.276    0.537    5.119
   82.000  110.597    0.301    0.594    4.822
   82.250  105.790    0.315    0.607    5.326
   82.500   89.595    0.324    0.576    6.645
   82.750   78.712    0.323    0.537    7.959
   83.000   73.065    0.234    0.512   14.700
   83.250   70.610    0.119    0.395   19.234
   83.500   69.396    0.118    0.313   19.633
   83.750   68.652    0.215    0.367   19.890
   84.000   69.277    0.227    0.395   19.890
   84.250   69.822    0.109    0.370   20.803
   84.500   69.794    0.080    0.367   21.987
   84.750   67.637    0.078    0.332   22.360
   85.000   64.494    0.111    0.306   21.189
   85.250   69.970    0.195    0.356   17.995
   85.500   88.295    0.230    0.430   13.650
   85.750  100.011    0.294    0.491   11.022
   86.000  102.969    0.324    0.497    9.604
   86.250  100.100    0.307    0.489    8.661
   86.500   89.833    0.312    0.496    8.330
   86.750   77.169    0.345    0.500    8.581
   87.000   74.135    0.350    0.506    8.850
   87.250   78.927    0.363    0.553    9.020
   87.500   85.631    0.343    0.564    8.858
   87.750   92.011    0.304    0.555    8.341
   88.000   96.371    0.283    0.532    7.590
   88.250   99.452    0.278    0.524    6.985
   88.500  103.607    0.264    0.567    6.801
   88.750  105.099    0.256    0.548    6.655
   89.000  102.295    0.246    0.517    6.999
   89.250  100.699    0.261    0.522    7.428
   89.500  101.427    0.287    0.537    7.766
   89.750  101.765    0.291    0.521    7.889
   90.000  102.350    0.294    0.505    7.483
   90.250  104.851    0.309    0.553    7.127
   90.500  106.887    0.287    0.563    6.926
   90.750  104.628    0.273    0.530    7.131
   91.000   99.925    0.314    0.500    7.806
   91.250   96.060    0.348    0.484    9.277
   91.500   92.489    0.316    0.479   11.348
   91.750   89.667    0.315    0.487   11.991
   92.000   89.248    0.349    0.516   12.062
   92.250   87.353    0.288    0.517   11.761
   92.500   94.761    0.220    0.489   10.473
   92.750  108.852    0.212    0.505    8.253
   93.000  111.509    0.155    0.569    6.210
   93.250  120.703    0.160    0.561    5.235
   93.500  132.508    0.242    0.572    4.925
   93.750  139.246    0.274    0.549    4.758
   94.000  140.369    0.258    0.526    4.661
   94.250  136.661    0.257    0.552    4.693
   94.500  129.924    0.251    0.566    4.682
   94.750  128.387    0.247    0.586    4.464
   95.000  125.538    0.216    0.584    4.359
   95.250  126.641    0.237    0.561    4.300
   95.500  130.351    0.257    0.544    4.261
   95.750  129.232    0.225    0.550    4.255
   96.000  124.978    0.211    0.579    4.265
   96.250  124.443    0.158    0.607    4.545
   96.500  127.284    0.187    0.599    4.760
   96.750  119.528    0.257    0.608    5.143
   97.000  106.248    0.292    0.598    5.639
   97.250   96.343    0.310    0.532    6.477
   97.500   85.617    0.335    0.484    7.961
   97.750   80.763    0.300    0.471    9.003
   98.000   77.325    0.322    0.465   10.741
   98.250   79.005    0.318    0.479   12.873
   98.500   86.403    0.328    0.503   14.055
   98.750   94.422    0.364    0.509   13.979
   99.000  100.329    0.305    0.487   13.525
   99.250  103.763    0.287    0.447   13.086
   99.500  102.789    0.272    0.453   12.946
   99.750   94.332    0.321    0.506   13.463
  100.000   86.673    0.279    0.519   16.587
  100.250   85.353    0.136    0.453   20.651
  100.500   83.095    0.163    0.390   21.303
  100.750   82.520    0.218    0.378   21.071
  101.000   98.808    0.249    0.414   19.745
  101.250  110.689    0.253    0.438   17.970
  101.500  112.909    0.235    0.433   15.566
  101.750  112.319    0.223    0.424   13.262
  102.000  105.805    0.237    0.422   12.807
  102.250  105.298    0.249    0.428   12.570
  102.500  108.090    0.244    0.443   12.859
  102.750  108.455    0.245    0.454   13.298
  103.000   97.832    0.264    0.457   13.814
  103.250   82.931    0.291    0.452   14.469
  103.500   78.734    0.318    0.450   15.197
  103.750   73.627    0.344    0.494   16.536
  104.000   76.129    0.361    0.519   16.768
  104.250   87.172    0.295    0.482   16.806
  104.500   92.481    0.244    0.433   16.315
  104.750   87.498    0.278    0.424   14.993
  105.000   83.622    0.286    0.444   14.375
  105.250   81.231    0.285    0.482   14.102
  105.500   82.862    0.311    0.471   14.404
  105.750   88.677    0.303    0.440   15.084
  106.000   92.001    0.267    0.437   15.785
  106.250   88.796    0.270    0.448   16.628
  106.500   83.591    0.296    0.433   17.715
  106.750   80.191    0.289    0.417   18.324
  107.000   80.002    0.323    0.424   18.647
  107.250   81.325    0.367    0.449   18.873
  107.500   81.584    0.410    0.481   18.464
  107.750   81.147    0.402    0.496   17.597
  108.000   82.949    0.297    0.466   17.075
  108.250   87.052    0.264    0.433   16.238
  108.500   90.793    0.224    0.433   16.137
  108.750   96.843    0.227    0.451   15.854
  109.000  100.677    0.255    0.462   14.734
  109.250   95.208    0.262    0.472   12.956
  109.500   83.535    0.263    0.491   11.072
  109.750   75.159    0.185    0.496   10.621
  110.000   73.453    0.142    0.419   11.151
  110.250   73.928    0.174    0.361   13.163
  110.500   76.477    0.222    0.380   16.981
  110.750   81.268    0.231    0.407   20.918
  111.000   83.506    0.222    0.390   23.149
  111.250   83.788    0.246    0.395   23.977
  111.500   87.500    0.241    0.419   20.114
  111.750   95.142    0.266    0.439   17.538
  112.000  101.372    0.278    0.451   17.174
  112.250  106.363    0.261    0.469   15.445
  112.500  113.593    0.286    0.490   13.403
  112.750  114.926    0.262    0.490   12.723
  113.000  114.342    0.246    0.483   12.367
  113.250  111.227    0.240    0.474   11.993
  113.500  105.869    0.222    0.460   12.107
  113.750  101.033    0.190    0.431   12.087
  114.000   99.428    0.181    0.410   11.319
  114.250  102.551    0.219    0.455   12.105
  114.500   97.597    0.108    0.451   14.107
  114.750   88.771    0.061    0.362   16.335
  115.000   81.066    0.128    0.312   17.246
  115.250   81.198    0.177    0.348   15.720
  115.500   95.712    0.215    0.372   12.220
  115.750  109.184    0.242    0.419    8.285
  116.000  115.821    0.275    0.507    5.687
  116.250  118.806    0.301    0.586    4.276
  116.500  118.118    0.300    0.622    3.439
  116.750  116.893    0.281    0.631    3.038
  117.000  120.880    0.265    0.636    3.082
  117.250  121.129    0.237    0.643    3.605
  117.500  114.050    0.228    0.686    4.902
  117.750  106.279    0.176    0.556    6.905
  118.000  109.149    0.155    0.426    8.679
  118.250  118.349    0.213    0.474    9.786
