~VERSION INFORMATION
 VERS.                 2.0:   CWLS LOG ASCII STANDARD -VERSION 2.0
 WRAP.                  NO:   ONE LINE PER DEPTH STEP
~WELL INFORMATION BLOCK
#MNEM.UNIT           DATA                    DESCRIPTION OF MNEMONIC
#---------    -------------------            -------------------------------
# Generated from Intellog Unique Number	CN_91_93/WELL/3925
WELL.         12-07-092-08W4                 : Well_name    - WELL
LOC .         AA/12-07-092-08W4/0            : Location     - LOCATION
UWI .         AA/12-07-092-08W400            : Uwi          - UNIQUE WELL ID
ENTR.         JOETTE                         : Entered      - ENTERED BY
SRVC.         SCHLUMBERGER                   : Scn          - SERVICE COMPANY
STRT.F        50                             : top_depth    - START DEPTH
STOP.F        456.004                        : bot_depth    - STOP DEPTH
STEP.F        0.8202                         : increment    - STEP LENGTH
 NULL. -999.2500:NULL Value
~CURVE INFORMATION BLOCK
#MNEM UNIT       ERCB CURVE CODE    CURVE DESCRIPTION
#-----------   ------------------   ----------------------------------
DEPT.F        00 001 00 00         : DEPTH        - DEPTH
GR  .API      00 310 00 00         : GR           - GAMMA RAY
NPHI.V/V      00 330 00 00         : PHIN         - NEUTRON POROSITY (SANDSTONE)
ILD .OHMM     00 120 00 00         : RESD         - DEEP RESISTIVITY (DIL)
~PARAMETER INFORMATION
#MNEM.UNIT           DATA             DESCRIPTION OF MNEMONIC
#---------         -----------     ------------------------------
GL  .M        394.106              : gl           - GROUND LEVEL ELEVATION
EREF.M        395.326              : kb           - ELEVATION OF DEPTH REFERENCE
DATM.M        395.326              : datum        - DATUM ELEVATION
TDD .M        140.818              : tdd          - TOTAL DEPTH DRILLER
RUN .         ONE                  : Run          - RUN NUMBER
ENG .         BILL                 : Engineer     - RECORDING ENGINEER
WIT .         JIM                  : Witness      - WITNESSED BY
MUD .         GEL                  : Mud_type     - MUD TYPE
MATR.         SANDSTONE            : Logunit      - NEUTRON MATRIX
TMAX.F        44                   : BHT          - MAXIMUM RECORDED TEMPERATURE
BHTD.F        462                  : BHTDEP       - MAXIMUM RECORDED TEMPERATURE
RMT .F        44                   : MDTP         - TEMPERATURE OF MUD
MUDD.LB/G     9.5                  : MWT          - MUD DENSITY
NEUT.         1                    : NEUTRON      - NEUTRON TYPE
RESI.         0                    : RESIST       - RESISTIVITY TYPE
RM  .OHMM     2.48                 : RM           - RESISTIVITY OF MUD
RMC .OHMM     2.48                 : RMC          - RESISTIVITY OF MUD CAKE
RMF .OHMM     2.48                 : RMF          - RESISTIVITY OF MUD FILTRATE
SUFT.F        39.2                 : SUFT         - SURFACE TEMPERATURE
~A  DEPTH       GR     PHIN     RESD
   50.000   84.657    0.542   24.732
   50.820   84.637    0.541   21.735
   51.640   83.402    0.545   18.074
   52.461   83.382    0.552   13.710
   53.281   85.383    0.556   11.194
   54.101   86.578    0.550    8.651
   54.921   87.773    0.558    6.209
   55.742   89.368    0.551    6.202
   56.562   88.543    0.509    6.195
   57.382   84.068    0.485    6.661
   58.202   79.183    0.462    7.030
   59.022   74.708    0.478    6.646
   59.843   71.043    0.490    6.400
   60.663   77.099    0.502    6.750
   61.483   76.269    0.486    7.257
   62.303   71.794    0.472    7.801
   63.123   66.504    0.465    7.650
   63.944   63.244    0.451    7.365
   64.764   60.389    0.439    7.633
   65.584   59.964    0.437    8.203
   66.404   64.805    0.434    8.045
   67.224   69.235    0.440    7.068
   68.045   73.270    0.444    6.325
   68.865   77.705    0.446    5.555
   69.685   76.871    0.449    5.158
   70.505   74.416    0.450    4.877
   71.326   78.451    0.455    4.870
   72.146   80.456    0.462    4.954
   72.966   78.406    0.462    5.132
   73.786   75.961    0.458    5.416
   74.606   71.886    0.454    5.510
   75.427   69.026    0.453    5.504
   76.247   67.792    0.460    5.499
   77.067   66.967    0.482    5.698
   77.887   67.347    0.471    5.903
   78.707   67.732    0.469    6.005
   79.528   64.872    0.458    5.890
   80.348   62.827    0.439    5.368
   81.168   64.017    0.434    4.891
   81.988   65.223    0.439    4.541
   82.808   68.443    0.444    3.916
   83.629   71.663    0.468    3.703
   84.449   72.453    0.521    3.631
   85.269   72.028    0.553    3.694
   86.089   71.599    0.561    3.759
   86.909   71.579    0.546    4.426
   87.730   73.989    0.499    5.121
   88.550   75.584    0.461    5.502
   89.370   74.349    0.461    5.600
   90.190   74.739    0.466    5.697
   91.010   78.770    0.466    5.904
   91.831   78.745    0.461    6.227
   92.651   79.130    0.454    6.571
   93.471   80.325    0.441    7.194
   94.291   81.520    0.417    7.735
   95.112   81.501    0.398    8.625
   95.932   81.076    0.416    9.102
   96.752   80.651    0.433    8.605
   97.572   78.201    0.434    7.843
   98.392   76.146    0.421    6.891
   99.213   76.941    0.421    6.509
  100.033   77.731    0.428    6.506
  100.853   75.686    0.430    6.617
  101.673   72.832    0.426    6.856
  102.493   73.207    0.428    6.977
  103.314   75.212    0.428    7.098
  104.134   74.387    0.423    7.090
  104.954   71.127    0.426    7.345
  105.774   69.082    0.414    7.892
  106.594   67.442    0.410    8.182
  107.415   61.747    0.396    9.121
  108.235   57.678    0.378   10.358
  109.055   56.848    0.366   11.546
  109.875   57.638    0.358   12.185
  110.696   59.228    0.349   12.629
  111.516   59.623    0.354   13.321
  112.336   58.783    0.364   13.560
  113.156   57.548    0.375   12.587
  113.976   58.334    0.364   11.684
  114.797   60.749    0.345   10.643
  115.617   62.759    0.356    9.524
  116.437   62.734    0.371    8.522
  117.257   63.519    0.388    7.911
  118.077   63.914    0.400    7.479
  118.898   64.295    0.382    7.337
  119.718   64.275    0.384    7.460
  120.538   63.445    0.389    7.590
  121.358   60.995    0.389    7.581
  122.178   60.160    0.395    7.575
  122.999   62.980    0.413    7.292
  123.819   65.791    0.447    7.022
  124.639   68.201    0.465    7.144
  125.459   66.961    0.449    7.541
  126.280   64.516    0.414    8.717
  127.100   60.041    0.383   10.272
  127.920   51.106    0.340   12.789
  128.740   45.816    0.292   15.061
  129.560   47.826    0.218   13.973
  130.381   53.477    0.169   13.463
  131.201   60.342    0.179   12.263
  132.021   62.747    0.229   11.815
  132.841   63.132    0.394   11.170
  133.661   62.303    0.421   10.558
  134.482   60.258    0.414   10.166
  135.302   59.828    0.399    9.263
  136.122   62.243    0.397    8.601
  136.942   64.653    0.406    7.984
  137.762   67.873    0.432    7.411
  138.583   70.689    0.455    6.751
  139.403   71.479    0.480    6.153
  140.223   71.459    0.478    5.711
  141.043   71.434    0.467    5.705
  141.864   71.414    0.470    5.804
  142.684   68.959    0.470    6.014
  143.504   66.919    0.459    6.230
  144.324   64.874    0.452    6.574
  145.144   66.060    0.442    6.690
  145.965   65.645    0.442    7.061
  146.785   64.810    0.446    7.183
  147.605   63.980    0.447    7.043
  148.425   65.575    0.432    6.909
  149.245   65.561    0.394    6.528
  150.066   64.731    0.382    6.176
  150.886   67.951    0.369    5.040
  151.706   75.626    0.404    4.594
  152.526   81.681    0.460    4.186
  153.346   80.852    0.504    3.886
  154.167   77.187    0.548    3.607
  154.987   78.777    0.559    3.348
  155.807   80.382    0.527    3.165
  156.627   81.577    0.542    2.993
  157.448   82.772    0.576    2.677
  158.268   81.943    0.564    2.531
  159.088   80.708    0.548    2.721
  159.908   81.093    0.542    3.034
  160.728   81.073    0.523    3.383
  161.549   77.808    0.482    4.059
  162.369   74.138    0.465    4.781
  163.189   74.123    0.441    5.530
  164.009   78.154    0.428    5.836
  164.829   82.589    0.433    6.047
  165.650   84.189    0.437    6.150
  166.470   80.119    0.429    6.257
  167.290   83.334    0.409    6.368
  168.110   86.955    0.386    6.476
  168.930   86.125    0.377    6.835
  169.751   83.680    0.378    7.346
  170.571   81.230    0.383    7.897
  171.391   75.945    0.390    8.647
  172.211   69.035    0.397   10.181
  173.031   62.130    0.400   11.352
  173.852   57.655    0.355   10.931
  174.672   51.150    0.241    9.965
  175.492   56.800    0.205    8.594
  176.312   68.931    0.233    7.690
  177.133   70.526    0.258    7.139
  177.953   70.916    0.359    6.627
  178.773   68.461    0.403    6.381
  179.593   66.421    0.398    6.374
  180.413   64.376    0.396    6.601
  181.234   61.111    0.367    6.719
  182.054   62.307    0.328    6.836
  182.874   67.552    0.297    6.704
  183.694   66.717    0.339    6.573
  184.514   67.107    0.372    6.329
  185.335   74.783    0.392    6.095
  186.155   78.813    0.415    5.865
  186.975   82.843    0.432    5.755
  187.795   80.798    0.435    5.749
  188.615   77.533    0.411    5.743
  189.436   77.109    0.406    5.839
  190.256   77.494    0.413    5.728
  191.076   79.089    0.433    5.413
  191.896   80.284    0.434    5.311
  192.717   79.859    0.433    5.114
  193.537   79.024    0.451    4.835
  194.357   77.790    0.456    4.655
  195.177   77.365    0.463    4.649
  195.997   76.535    0.473    4.644
  196.818   77.330    0.469    4.812
  197.638   81.765    0.461    5.077
  198.458   82.960    0.444    5.259
  199.278   80.915    0.431    5.354
  200.098   77.246    0.415    5.447
  200.919   71.960    0.402    5.441
  201.739   71.936    0.456    4.864
  202.559   73.541    0.486    4.687
  203.379   75.141    0.511    4.270
  204.199   75.121    0.509    4.112
  205.020   76.721    0.457    4.108
  205.840   78.312    0.432    4.257
  206.660   78.292    0.414    4.411
  207.480   79.492    0.417    4.826
  208.301   82.307    0.433    5.284
  209.121   85.117    0.430    5.784
  209.941   85.908    0.416    5.886
  210.761   85.488    0.403    6.442
  211.581   81.418    0.380    6.801
  212.402   71.268    0.363    7.445
  213.222   64.363    0.346    8.453
  214.042   67.988    0.326    8.139
  214.862   73.638    0.350    7.416
  215.682   69.973    0.362    7.015
  216.503   71.163    0.414    5.622
  217.323   71.949    0.421    4.425
  218.143   69.904    0.425    3.420
  218.963   67.459    0.489    2.691
  219.783   65.009    0.530    2.364
  220.604   61.749    0.506    2.277
  221.424   63.739    0.545    2.316
  222.244   65.350    0.543    2.489
  223.064   67.760    0.512    2.775
  223.885   68.955    0.474    3.038
  224.705   66.905    0.466    3.450
  225.525   64.860    0.457    3.847
  226.345   64.435    0.447    4.211
  227.165   63.195    0.440    4.443
