~VERSION INFORMATION
 VERS.                 2.0:   CWLS LOG ASCII STANDARD -VERSION 2.0
 WRAP.                  NO:   ONE LINE PER DEPTH STEP
~WELL INFORMATION BLOCK
#MNEM.UNIT           DATA                    DESCRIPTION OF MNEMONIC
#---------    -------------------            -------------------------------
# Generated from Intellog Unique Number	CN_91_93/WELL/2967
WELL.         10-08-092-15W4                 : Well_name    - WELL
LOC .         AA/10-08-092-15W4/0            : Location     - LOCATION
UWI .         AA/10-08-092-15W400            : Uwi          - UNIQUE WELL ID
ENTR.         JOETTE                         : Entered      - ENTERED BY
SRVC.         SCHLUMBERGER                   : Scn          - SERVICE COMPANY
DATE.         04/07/92                       : Date         - LOG DATE
STRT.F        250                            : top_depth    - START DEPTH
STOP.F        629.757                        : bot_depth    - STOP DEPTH
STEP.F        0.82                           : increment    - STEP LENGTH
 NULL. -999.2500:NULL Value
~CURVE INFORMATION BLOCK
#MNEM UNIT       ERCB CURVE CODE    CURVE DESCRIPTION
#-----------   ------------------   ----------------------------------
DEPT.F        00 001 00 00         : DEPTH        - DEPTH
CALI.IN       00 280 01 00         : CAL          - CALIPER
GR  .API      00 310 00 00         : GR           - GAMMA RAY
NPHI.V/V      00 330 00 00         : PHIN         - NEUTRON POROSITY (SANDSTONE)
DPHI.V/V      00 890 00 00         : PHID         - DENSITY POROSITY (SANDSTONE)
ILD .OHMM     00 120 00 00         : RESD         - DEEP RESISTIVITY (DIL)
~PARAMETER INFORMATION
#MNEM.UNIT           DATA             DESCRIPTION OF MNEMONIC
#---------         -----------     ------------------------------
GL  .M        466.283              : gl           - GROUND LEVEL ELEVATION
EREF.M        468.569              : kb           - ELEVATION OF DEPTH REFERENCE
DATM.M        468.569              : datum        - DATUM ELEVATION
TDD .M        201.168              : tdd          - TOTAL DEPTH DRILLER
RUN .         ONE                  : Run          - RUN NUMBER
ENG .         BILL                 : Engineer     - RECORDING ENGINEER
WIT .         JIM                  : Witness      - WITNESSED BY
MUD .         GEL                  : Mud_type     - MUD TYPE
MATR.         SANDSTONE            : Logunit      - NEUTRON MATRIX
TMAX.F        65                   : BHT          - MAXIMUM RECORDED TEMPERATURE
BHTD.F        660                  : BHTDEP       - MAXIMUM RECORDED TEMPERATURE
RMT .F        59                   : MDTP         - TEMPERATURE OF MUD
MUDD.LB/G     1.15                 : MWT          - MUD DENSITY
NEUT.         1                    : NEUTRON      - NEUTRON TYPE
RESI.         0                    : RESIST       - RESISTIVITY TYPE
RM  .OHMM     0.59                 : RM           - RESISTIVITY OF MUD
RMC .OHMM     0.59                 : RMC          - RESISTIVITY OF MUD CAKE
RMF .OHMM     0.59                 : RMF          - RESISTIVITY OF MUD FILTRATE
SUFT.F        39.2                 : SUFT         - SURFACE TEMPERATURE
~A  DEPTH      CAL       GR     PHIN     PHID     RESD
# ...
  489.501    6.508   67.529    0.447    0.274    9.459
  490.322    6.491   69.054    0.461    0.251   10.023
  491.142    6.533   72.071    0.469    0.217    8.655
  491.962    6.515   70.915    0.467    0.234    8.051
  492.782    6.538   69.174    0.460    0.238    7.921
  493.602    6.521   71.889    0.459    0.239    7.937
  494.423    6.583   70.738    0.438    0.226    7.807
  495.243    6.526   68.392    0.467    0.224    7.821
  496.063    6.508   66.651    0.473    0.252    8.287
  496.883    6.531   66.392    0.460    0.277    8.948
  497.703    6.534   68.215    0.452    0.284    9.572
  498.524    6.575   66.469    0.471    0.270    9.682
  499.344    6.538   67.404    0.482    0.270    9.261
  500.164    6.522   68.330    0.475    0.271    9.365
  500.984    6.524   63.312    0.478    0.253   10.397
  501.804    6.487   61.576    0.459    0.232   13.772
  502.625    6.411   63.389    0.442    0.216   20.405
  503.445    6.433   69.970    0.455    0.174   26.529
  504.265    6.515   78.340    0.470    0.167   38.217
  505.085    6.656   93.253    0.497    0.184   24.507
  505.906    6.817  102.510    0.534    0.204   16.302
  506.726    6.720  112.070    0.559    0.213    9.612
  507.546    6.584  118.655    0.539    0.231    7.491
  508.366    6.488  118.991    0.548    0.206    5.077
  509.186    6.431  116.948    0.535    0.213    3.572
  510.007    6.433  112.520    0.521    0.203    2.865
  510.827    6.496  105.719    0.518    0.185    2.843
  511.647    6.498   97.128    0.503    0.180    2.986
  512.467    6.441   86.758    0.486    0.161    3.192
  513.287    6.424   79.956    0.485    0.263    3.853
  514.108    6.406   77.318    0.481    0.314    5.816
  514.928    6.409   78.550    0.493    0.306    8.777
  515.748    6.412   75.912    0.495    0.275   10.206
  516.568    6.414   72.080    0.501    0.279   14.979
  517.388    6.437   67.355    0.512    0.298   16.019
  518.209    6.459   61.446    0.506    0.305   16.358
  519.029    6.461   58.515    0.507    0.334   17.185
  519.849    6.464   58.558    0.523    0.342   18.365
  520.669    6.486   59.776    0.527    0.309   20.385
  521.490    6.489   63.983    0.471    0.279   20.624
  522.310    6.472   70.861    0.453    0.231   17.315
  523.130    6.494   76.555    0.457    0.233   11.414
  523.950    6.458   72.727    0.449    0.229   10.042
  524.770    6.381   63.839    0.441    0.258    9.428
  525.591    6.324   54.653    0.438    0.270    8.935
  526.411    6.306   49.933    0.429    0.279    8.627
  527.231    6.309   49.084    0.438    0.289    8.487
  528.051    6.332   48.820    0.433    0.283    8.580
  528.871    6.354   47.074    0.428    0.268    9.091
  529.692    6.396   45.338    0.436    0.281   10.194
  530.512    6.458   44.772    0.449    0.274   10.896
  531.332    6.520   46.604    0.444    0.278   10.896
  532.152    6.503   46.345    0.441    0.276   13.568
  532.972    6.446   41.615    0.421    0.264   15.186
  533.793    6.488   32.732    0.420    0.271   22.286
  534.613    6.511   32.473    0.421    0.277   56.644
  535.433    6.494   35.783    0.419    0.247   90.410
  536.253    6.496   35.826    0.411    0.250   91.444
  537.073    6.479   40.330    0.414    0.255   89.135
  537.894    6.442   43.049    0.407    0.260   82.894
  538.714    6.444   44.867    0.412    0.265   55.157
  539.534    6.447   48.469    0.419    0.261   45.033
  540.354    6.449   48.215    0.413    0.260   41.130
  541.175    6.452   49.448    0.415    0.255   52.475
  541.995    6.454   47.404    0.414    0.259   57.204
  542.815    6.437   47.145    0.410    0.267   59.479
  543.635    6.420   48.666    0.420    0.267   56.909
  544.455    6.383   50.196    0.419    0.277   53.433
  545.276    6.386   47.558    0.438    0.258   51.589
  546.096    6.388   46.109    0.433    0.265   48.865
  546.916    6.391   44.656    0.436    0.269   47.190
  547.736    6.413   42.612    0.427    0.275   51.416
  548.556    6.416   40.569    0.446    0.275   57.072
  549.377    6.378   42.396    0.432    0.273   59.388
  550.197    6.362   45.413    0.429    0.265   52.219
  551.017    6.384   47.231    0.434    0.262   34.106
  551.837    6.406   47.864    0.433    0.273   26.342
  552.657    6.409   49.687    0.415    0.274   26.152
  553.478    6.411   51.807    0.416    0.274   26.954
  554.298    6.394   54.527    0.420    0.263   23.481
  555.118    6.238   62.000    0.415    0.248   19.898
  555.938    6.023   68.878    0.411    0.206   18.514
  556.759    5.727   72.188    0.418    0.211   19.256
  557.579    5.730   61.223    0.420    0.242   20.986
  558.399    5.792   52.344    0.412    0.270   22.871
  559.219    5.815   50.589    0.426    0.238   24.913
  560.039    6.035   46.468    0.427    0.241   30.640
  560.860    6.256   45.619    0.426    0.273   40.962
  561.680    6.318   47.734    0.425    0.264   39.939
  562.500    6.341   49.557    0.424    0.259   36.789
  563.320    6.343   50.790    0.422    0.263   32.667
  564.140    6.346   54.392    0.414    0.270   30.958
  564.961    6.348   52.646    0.413    0.271   32.499
  565.781    6.371   50.900    0.429    0.276   35.749
  566.601    6.413   50.343    0.447    0.282   38.951
  567.421    6.416   50.089    0.458    0.282   41.261
  568.241    6.438   48.339    0.442    0.277   41.261
  569.062    6.440   46.890    0.426    0.279   43.024
  569.882    6.443   47.523    0.417    0.282   45.575
  570.702    6.465   48.463    0.417    0.273   46.962
  571.522    6.468   49.983    0.424    0.267   47.499
  572.343    6.451   49.432    0.441    0.271   41.400
  573.163    6.394   48.276    0.452    0.273   51.873
  573.983    6.297   47.422    0.448    0.283   63.207
  574.803    6.379   45.383    0.446    0.284   69.511
  575.623    6.461   43.633    0.444    0.284   82.348
  576.444    6.444   40.697    0.438    0.284   82.540
  577.264    6.447   41.627    0.429    0.280   88.251
  578.084    6.469   44.347    0.414    0.289   99.798
  578.904    6.452   45.570    0.402    0.287  104.792
  579.724    6.454   48.285    0.402    0.287   62.931
  580.545    6.457   53.384    0.398    0.262   34.445
  581.365    6.360   59.667    0.388    0.249   24.004
  582.185    6.204   77.554    0.406    0.247   18.544
  583.005    6.108   93.364    0.431    0.234   19.462
  583.825    6.269   90.721    0.425    0.266   23.056
  584.646    6.410   81.540    0.419    0.283   34.812
  585.466    6.571   77.113    0.433    0.285   49.237
  586.286    6.515   86.375    0.445    0.294   54.120
  587.106    6.398   93.253    0.443    0.267   58.966
  587.927    6.262   95.378    0.446    0.263   49.981
  588.747    6.126   83.219    0.452    0.253   41.983
  589.567    6.068   77.606    0.443    0.259   42.463
  590.387    6.091   72.886    0.436    0.253   45.402
  591.207    6.173   69.356    0.443    0.267   57.419
  592.028    6.255   74.748    0.449    0.277   63.145
  592.848    6.357   76.868    0.427    0.260   76.942
  593.668    6.380   80.182    0.421    0.245   77.122
  594.488    6.323   86.466    0.409    0.238   60.090
  595.308    6.305   87.396    0.436    0.245   29.137
  596.129    6.387   86.840    0.431    0.257   29.213
  596.949    6.489  103.239    0.409    0.260   30.651
  597.769    6.392  108.635    0.396    0.231   29.877
  598.589    6.236  108.372    0.395    0.214   28.307
  599.409    6.040  105.733    0.394    0.220   27.337
  600.230    6.321  109.350    0.392    0.208   27.386
  601.050    6.442  109.393    0.392    0.185   26.695
  601.870    6.524  109.719    0.393    0.183   24.142
  602.690    6.546  110.957    0.389    0.181   21.037
  603.510    6.549  107.714    0.383    0.193   19.209
  604.331    6.571  107.753    0.373    0.180   19.798
  605.151    6.574  112.847    0.378    0.182   20.978
  605.971    6.596  114.674    0.396    0.193   20.066
  606.791    6.619  103.109    0.434    0.217   18.666
  607.612    6.622   94.519    0.444    0.239   19.234
  608.432    6.624   88.916    0.450    0.265   22.366
