~VERSION INFORMATION
 VERS.                 2.0:   CWLS LOG ASCII STANDARD -VERSION 2.0
 WRAP.                  NO:   ONE LINE PER DEPTH STEP
~WELL INFORMATION BLOCK
#MNEM.UNIT           DATA                    DESCRIPTION OF MNEMONIC
#---------    -------------------            -------------------------------
# Generated from Intellog Unique Number	CN_94_101/WELL/5055
WELL.         16-06-099-07W4                 : Well_name    - WELL
LOC .         AA/16-06-099-07W4/0            : Location     - LOCATION
UWI .         AA/16-06-099-07W400            : Uwi          - UNIQUE WELL ID
ENTR.         TIM                            : Entered      - ENTERED BY
SRVC.         SCHLUMBERGER                   : Scn          - SERVICE COMPANY
DATE.         08/13/92                       : Date         - LOG DATE
STRT.M        4.767                          : top_depth    - START DEPTH
STOP.M        48.767                         : bot_depth    - STOP DEPTH
STEP.M        0.25                           : increment    - STEP LENGTH
 NULL. -999.2500:NULL Value
~CURVE INFORMATION BLOCK
#MNEM UNIT       ERCB CURVE CODE    CURVE DESCRIPTION
#-----------   ------------------   ----------------------------------
DEPT.M        00 001 00 00         : DEPTH        - DEPTH
GR  .API      00 310 00 00         : GR           - GAMMA RAY
ILD .OHMM     00 120 00 00         : RESD         - DEEP RESISTIVITY (DIL)
NPHI.V/V      00 330 00 00         : PHIN         - NEUTRON POROSITY (SANDSTONE)
~PARAMETER INFORMATION
#MNEM.UNIT           DATA             DESCRIPTION OF MNEMONIC
#---------         -----------     ------------------------------
GL  .M        295.443              : gl           - GROUND LEVEL ELEVATION
EREF.M        295.443              : kb           - ELEVATION OF DEPTH REFERENCE
DATM.M        295.443              : datum        - DATUM ELEVATION
TDD .M        50.5968              : tdd          - TOTAL DEPTH DRILLER
RUN .         ONE                  : Run          - RUN NUMBER
ENG .         BILL                 : Engineer     - RECORDING ENGINEER
WIT .         JIM                  : Witness      - WITNESSED BY
MUD .         GEL                  : Mud_type     - MUD TYPE
MATR.         SANDSTONE            : Logunit      - NEUTRON MATRIX
TMAX.C        9.44444              : BHT          - MAXIMUM RECORDED TEMPERATURE
BHTD.M        50.9016              : BHTDEP       - MAXIMUM RECORDED TEMPERATURE
RMT .C        10                   : MDTP         - TEMPERATURE OF MUD
MUDD.KG/M     1090                 : MWT          - MUD DENSITY
NEUT.         1                    : NEUTRON      - NEUTRON TYPE
RESI.         0                    : RESIST       - RESISTIVITY TYPE
RM  .OHMM     13.1                 : RM           - RESISTIVITY OF MUD
RMC .OHMM     13.1                 : RMC          - RESISTIVITY OF MUD CAKE
RMF .OHMM     13.1                 : RMF          - RESISTIVITY OF MUD FILTRATE
SUFT.C        4                    : SUFT         - SURFACE TEMPERATURE
~A  DEPTH       GR     RESD     PHIN
    4.767   60.361 1100.700    0.481
    5.017   62.480 1149.210    0.481
    5.267   58.938 1388.000    0.484
    5.517   55.027 1367.250    0.481
    5.767   51.101 1484.840    0.460
    6.017   52.467 1463.730    0.422
    6.267   55.332 2360.820    0.396
    6.517   57.060 2564.980    0.371
    6.767   56.537 2596.000    0.359
    7.017   55.253 2575.070    0.354
    7.267   53.985 2017.400    0.344
    7.517   57.587 1996.480    0.342
    7.767   59.707 2010.180    0.347
    8.017   58.054 1452.340    0.348
    8.267   55.649 1171.700    0.360
    8.517   53.236 1133.640    0.382
    8.767   48.572 1164.470    0.399
    9.017   51.053  953.272    0.419
    9.267   56.922 1001.420    0.456
    9.517   52.634  911.601    0.432
    9.767   55.122  717.172    0.377
   10.017   54.223  765.864    0.339
   10.267   46.171 1021.960    0.318
   10.517   46.002 1070.300    0.333
   10.767   46.239 1135.940    0.337
   11.017   48.351 1184.270    0.344
   11.267   47.075 1301.860    0.374
   11.517   46.175 1350.190    0.401
   11.767   44.515 1329.440    0.410
   12.017   43.616 1239.080    0.409
   12.267   43.462 1252.780    0.358
   12.517   43.699 1404.820    0.340
   12.767   45.434 2250.140    0.341
   13.017   41.132 2765.950    0.345
   13.267   45.126 2762.520    0.328
   13.517   46.868 2706.970    0.315
   13.767   46.345 2685.860    0.321
   14.017   43.556 2509.110    0.363
   14.267   48.288 2280.410    0.422
   14.517   46.267  478.287    0.463
   14.767   46.489  250.361    0.488
   15.017   46.335  246.800    0.501
   15.267   42.431  267.584    0.505
   15.517   38.896  288.368    0.506
   15.767   43.629  303.942    0.511
   16.017   44.611  303.860    0.516
   16.267   38.825  335.079    0.515
   16.517   34.907  333.257    0.509
   16.767   32.118  310.564    0.509
   17.017   33.484  306.999    0.512
   17.267   34.843  305.173    0.517
   17.517   36.947  296.394    0.528
   17.767   39.059  282.385    0.526
   18.017   46.817  249.261    0.527
   18.267   56.841  252.661    0.537
   18.517   61.950  186.480    0.531
   18.767   54.658  129.007    0.515
   19.017   51.862   62.829    0.511
   19.267   52.837   88.839    0.512
   19.517   49.686   99.183    0.509
   19.767   47.657   92.148    0.509
   20.017   42.226   90.326    0.513
   20.267   38.684   90.235    0.512
   20.517   37.791   88.413    0.508
   20.767   37.652   86.587    0.503
   21.017   39.764   77.804    0.502
   21.267   46.009   75.990    0.499
   21.517   47.368   79.378    0.499
   21.767   44.586   84.508    0.501
   22.017   44.432   94.869    0.501
   22.267   43.156   99.996    0.503
   22.517   41.503   80.778    0.499
   22.767   38.707   75.481    0.491
   23.017   43.077   77.138    0.490
   23.267   47.448   78.794    0.493
   23.517   48.061   83.921    0.490
   23.767   44.143   87.313    0.484
   24.017   40.977   92.456    0.483
   24.267   38.572  101.065    0.501
   24.517   42.928  107.939    0.521
   24.767   48.434  111.335    0.549
   25.017   62.592   51.186    0.549
   25.267   72.247   14.293    0.546
   25.517   81.511   25.361    0.554
   25.767   87.756   27.623    0.550
   26.017   92.879   29.703    0.546
   26.267   99.516   34.483    0.542
   26.517  104.617   41.774    0.545
   26.767  104.854   43.139    0.547
   27.017  102.456   42.708    0.550
   27.267   90.632   42.810    0.552
   27.517   89.733   42.200    0.552
   27.767   98.244   41.407    0.553
   28.017   96.584   42.237    0.554
   28.267   94.186   41.447    0.552
   28.517   95.146   40.837    0.549
   28.767   92.003   38.780    0.552
   29.017   97.126   37.815    0.551
   29.267   95.835   38.821    0.554
   29.517   96.434   38.390    0.565
   29.767   94.405   37.956    0.565
   30.017   94.649   38.244    0.563
   30.267   91.107   36.553    0.556
   30.517   98.113   34.507    0.551
   30.767  102.860   35.869    0.550
   31.017   98.948   35.614    0.550
   31.267   98.418   35.364    0.548
   31.517   99.769   36.017    0.543
   31.767  104.524   35.584    0.550
   32.017  102.495   35.329    0.553
   32.267  104.592   35.261    0.554
   32.517  103.700   35.542    0.552
   32.767  103.922   35.471    0.541
   33.017  106.403   35.579    0.534
   33.267  104.750   33.892    0.540
   33.517  101.599   33.462    0.544
   33.767  102.958   33.566    0.555
   34.017  100.915   32.777    0.562
   34.267  104.163   32.163    0.559
   34.517  106.260   32.096    0.542
   34.767  104.600   31.845    0.539
   35.017   98.445   31.766    0.545
   35.267  107.702   31.878    0.547
   35.517  107.932   31.627    0.548
   35.767  101.009   31.728    0.546
   36.017   97.098   31.481    0.546
   36.267   99.188   31.051    0.543
   36.517  100.931   30.972    0.541
   36.767  100.784   30.542    0.555
   37.017   96.873   29.756    0.552
   37.267  101.612   29.322    0.531
   37.517  105.990   29.251    0.524
   37.767  106.965   29.000    0.539
   38.017  100.795   28.918    0.532
   38.267   92.367   29.569    0.526
   38.517   90.331   35.785    0.529
   38.767   85.660   52.056    0.535
   39.017   75.349   53.425    0.534
   39.267   76.332   53.530    0.541
   39.517   79.189   52.198    0.540
   39.767   84.298   49.437    0.535
   40.017   89.052   46.130    0.530
   40.267   83.266   42.816    0.534
   40.517   83.865   40.598    0.536
   40.767   87.106   39.087    0.533
   41.017   93.713   32.009    0.530
   41.267   92.820   41.278    0.530
   41.517   92.674   36.715    0.548
   41.767   95.538   34.848    0.549
   42.017   92.004   28.668    0.548
   42.267   86.971   30.389    0.547
   42.517   88.322   29.416    0.544
   42.767   93.054   29.349    0.527
   43.017   93.660   36.280    0.527
   43.267   95.026   36.388    0.525
   43.517   96.393   41.164    0.522
   43.767   91.714   44.139    0.522
   44.017   86.290   42.814    0.537
   44.267   95.561   42.021    0.548
   44.517   96.167   38.721    0.550
   44.767   96.773   33.791    0.547
   45.017  100.007   31.386    0.517
   45.267   91.572   27.006    0.482
   45.517   74.102   35.377    0.465
   45.767   66.803   50.036    0.449
   46.017   56.109   53.369    0.420
   46.267   37.510   55.639    0.410
   46.517   38.854   58.081    0.445
   46.767   43.977   56.031    0.470
   47.017   52.495   55.960    0.489
   47.267   62.520   54.269    0.493
   47.517   74.042   41.446    0.493
   47.767   86.317   26.821    0.488
   48.017   86.555   29.981    0.501
   48.267   78.495   34.754    0.505
   48.517   76.843   32.532    0.498
   48.767   81.213   28.690    0.491
