~VERSION INFORMATION
 VERS.                 2.0:   CWLS LOG ASCII STANDARD -VERSION 2.0
 WRAP.                  NO:   ONE LINE PER DEPTH STEP
~WELL INFORMATION BLOCK
#MNEM.UNIT           DATA                    DESCRIPTION OF MNEMONIC
#---------    -------------------            -------------------------------
# Generated from Intellog Unique Number	CN_94_101/WELL/4474
WELL.         11-27-096-14W4                 : Well_name    - WELL
LOC .         AA/11-27-096-14W4/0            : Location     - LOCATION
UWI .         AA/11-27-096-14W400            : Uwi          - UNIQUE WELL ID
ENTR.         JOETTE                         : Entered      - ENTERED BY
SRVC.         SCHLUMBERGER                   : Scn          - SERVICE COMPANY
DATE.         07/08/92                       : Date         - LOG DATE
STRT.M        75                             : top_depth    - START DEPTH
STOP.M        350                            : bot_depth    - STOP DEPTH
STEP.M        0.25                           : increment    - STEP LENGTH
 NULL. -999.2500:NULL Value
~CURVE INFORMATION BLOCK
#MNEM UNIT       ERCB CURVE CODE    CURVE DESCRIPTION
#-----------   ------------------   ----------------------------------
DEPT.M        00 001 00 00         : DEPTH        - DEPTH
GR  .API      00 310 00 00         : GR           - GAMMA RAY
ILD .OHMM     00 120 00 00         : RESD         - DEEP RESISTIVITY (DIL)
NPHI.V/V      00 330 00 00         : PHIN         - NEUTRON POROSITY (SANDSTONE)
DPHI.V/V      00 890 00 00         : PHID         - DENSITY POROSITY (SANDSTONE)
~PARAMETER INFORMATION
#MNEM.UNIT           DATA             DESCRIPTION OF MNEMONIC
#---------         -----------     ------------------------------
GL  .M        598                  : gl           - GROUND LEVEL ELEVATION
EREF.M        601                  : kb           - ELEVATION OF DEPTH REFERENCE
DATM.M        601                  : datum        - DATUM ELEVATION
TDD .M        354                  : tdd          - TOTAL DEPTH DRILLER
RUN .         ONE                  : Run          - RUN NUMBER
ENG .         BILL                 : Engineer     - RECORDING ENGINEER
WIT .         JIM                  : Witness      - WITNESSED BY
MUD .         GEL                  : Mud_type     - MUD TYPE
MATR.         SANDSTONE            : Logunit      - NEUTRON MATRIX
TMAX.C        25                   : BHT          - MAXIMUM RECORDED TEMPERATURE
BHTD.M        354                  : BHTDEP       - MAXIMUM RECORDED TEMPERATURE
RMT .C        14                   : MDTP         - TEMPERATURE OF MUD
MUDD.KG/M     1155                 : MWT          - MUD DENSITY
NEUT.         1                    : NEUTRON      - NEUTRON TYPE
RESI.         0                    : RESIST       - RESISTIVITY TYPE
RM  .OHMM     0.2                  : RM           - RESISTIVITY OF MUD
RMC .OHMM     0.2                  : RMC          - RESISTIVITY OF MUD CAKE
RMF .OHMM     0.2                  : RMF          - RESISTIVITY OF MUD FILTRATE
SUFT.C        4                    : SUFT         - SURFACE TEMPERATURE
~A  DEPTH       GR     RESD     PHIN     PHID
# ...
  162.000   47.398   21.004    0.350    0.329
  162.250   48.008   20.998    0.350    0.332
  162.500   48.620   20.990    0.349    0.333
  162.750   49.846   20.980    0.345    0.332
  163.000   50.459   20.976    0.345    0.329
  163.250   51.070   20.967    0.345    0.329
  163.500   50.450   20.571    0.345    0.329
  163.750   50.448   20.561    0.345    0.329
  164.000   50.444   20.555    0.345    0.328
  164.250   51.055   20.545    0.347    0.327
  164.500   51.053   20.927    0.344    0.324
  164.750   51.664   21.313    0.337    0.324
  165.000   51.659   21.307    0.337    0.324
  165.250   51.657   21.701    0.342    0.324
  165.500   51.654   21.690    0.344    0.324
  165.750   50.420   21.680    0.348    0.327
  166.000   49.802   21.675    0.350    0.329
  166.250   49.800   21.663    0.352    0.334
  166.500   50.410   21.657    0.353    0.338
  166.750   51.023   21.249    0.357    0.338
  167.000   51.633   20.848    0.354    0.335
  167.250   52.245   20.454    0.352    0.328
  167.500   52.242   19.696    0.353    0.323
  167.750   52.852   19.690    0.357    0.323
  168.000   52.850   19.316    0.359    0.327
  168.250   53.460   18.951    0.359    0.339
  168.500   54.072   18.595    0.360    0.343
  168.750   54.684   18.243    0.363    0.341
  169.000   55.909   17.567    0.365    0.339
  169.250   56.521   16.916    0.365    0.337
  169.500   57.132   16.289    0.365    0.336
  169.750   56.513   15.393    0.368    0.334
  170.000   55.897   14.277    0.370    0.334
  170.250   54.663   13.750    0.372    0.336
  170.500   54.660   12.755    0.374    0.337
  170.750   55.886   12.055    0.374    0.337
  171.000   57.112   11.392    0.374    0.337
  171.250   58.953   10.969    0.373    0.336
  171.500   60.179   10.761    0.364    0.333
  171.750   62.019   10.364    0.348    0.329
  172.000   62.632    9.978    0.343    0.327
  172.250   66.315    9.610    0.349    0.312
  172.500   70.000    9.082    0.377    0.312
  172.750   74.915    8.912    0.395    0.316
  173.000   78.599    8.581    0.405    0.322
  173.250   77.366    8.419    0.398    0.328
  173.500   79.820    8.416    0.399    0.330
  173.750   82.891    8.257    0.394    0.327
  174.000   85.347    7.803    0.393    0.323
  174.250   89.031    6.844    0.409    0.313
  174.500   93.329    6.348    0.421    0.295
  174.750   94.557    5.779    0.428    0.284
  175.000   95.783    5.462    0.429    0.287
  175.250   93.321    4.790    0.426    0.291
  175.500   90.244    4.699    0.421    0.294
  175.750   85.937    4.698    0.419    0.299
  176.000   83.477    5.156    0.415    0.301
  176.250   79.785    5.766    0.407    0.309
  176.500   75.478    6.820    0.390    0.315
  176.750   74.247    7.627    0.382    0.317
  177.000   72.397    8.854    0.374    0.323
  177.250   71.166    9.718    0.376    0.322
  177.500   70.549   11.494    0.377    0.316
  177.750   70.544   13.342    0.376    0.309
  178.000   71.156   17.006    0.376    0.306
  178.250   73.611   18.663    0.373    0.312
  178.500   74.838   17.312    0.372    0.314
  178.750   77.907   16.363    0.378    0.314
  179.000   82.207   14.085    0.387    0.302
  179.250   85.276   12.585    0.402    0.294
  179.500   87.733   10.833    0.417    0.290
  179.750   88.343    9.501    0.419    0.285
  180.000   88.953    8.332    0.399    0.289
  180.250   88.336    7.729    0.388    0.293
  180.500   88.334    7.871    0.379    0.299
  180.750   86.486    8.480    0.379    0.303
  181.000   84.638    9.134    0.382    0.301
  181.250   83.406    9.841    0.384    0.299
  181.500   82.787   10.599    0.384    0.299
  181.750   82.170   10.796    0.384    0.308
  182.000   80.323   11.414    0.383    0.317
  182.250   77.246   11.626    0.382    0.329
  182.500   73.553   11.840    0.382    0.332
  182.750   72.322   12.059    0.382    0.329
  183.000   71.703   12.514    0.382    0.320
  183.250   72.316   12.985    0.382    0.309
  183.500   72.928   13.475    0.378    0.304
  183.750   74.768   14.246    0.376    0.318
  184.000   73.535   15.636    0.370    0.322
  184.250   68.614   17.815    0.370    0.326
  184.500   64.923   19.924    0.368    0.327
  184.750   61.846   22.278    0.365    0.336
  185.000   59.383   23.117    0.362    0.340
  185.250   58.767   23.986    0.361    0.337
  185.500   58.148   24.434    0.367    0.340
  185.750   59.374   25.831    0.376    0.352
  186.000   60.600   27.310    0.385    0.356
  186.250   61.211   27.817    0.391    0.356
  186.500   61.208   28.866    0.397    0.356
  186.750   61.205   29.396    0.396    0.355
  187.000   60.586   29.388    0.387    0.355
  187.250   60.583   29.371    0.378    0.354
  187.500   61.194   29.365    0.373    0.347
  187.750   61.806   29.354    0.370    0.339
  188.000   62.419   29.345    0.366    0.320
  188.250   65.487   29.328    0.364    0.271
  188.500   66.713   29.876    0.352    0.222
  188.750   66.711   29.861    0.315    0.146
  189.000   63.633   30.410    0.140    0.045
  189.250   60.556   30.978    0.154    0.024
  189.500   59.324   32.142    0.184    0.047
  189.750   58.091   33.986    0.205    0.113
  190.000   58.088   40.956    0.237    0.137
  190.250   58.085   61.759    0.290    0.164
  190.500   58.695   56.227    0.341    0.215
  190.750   59.307   50.247    0.357    0.331
  191.000   60.532   41.664    0.374    0.362
  191.250   61.144   35.199    0.384    0.370
  191.500   61.757   30.298    0.384    0.369
  191.750   62.367   23.750    0.384    0.367
  192.000   61.751   23.301    0.385    0.363
  192.250   60.517   22.866    0.387    0.360
  192.500   59.900   22.433    0.390    0.364
  192.750   58.666   21.600    0.390    0.366
  193.000   58.664   20.414    0.387    0.363
  193.250   59.890   18.934    0.386    0.359
  193.500   62.960   18.236    0.386    0.348
  193.750   64.799   16.915    0.387    0.322
  194.000   65.411   16.285    0.389    0.284
  194.250   62.950   15.980    0.387    0.181
  194.500   60.487   15.678    0.385    0.172
  194.750   58.639   15.669    0.375    0.205
  195.000   58.022   15.666    0.366    0.239
  195.250   58.018   15.954    0.370    0.262
  195.500   58.630   16.250    0.371    0.327
  195.750   59.241   16.861    0.373    0.349
  196.000   59.853   17.497    0.371    0.359
  196.250   61.693   18.156    0.369    0.353
  196.500   64.148   18.495    0.368    0.343
  196.750   65.375   19.553    0.366    0.334
  197.000   71.517   19.916    0.373    0.325
  197.250   76.432   19.906    0.378    0.323
  197.500   80.117   17.460    0.386    0.317
  197.750   84.416   14.209    0.396    0.302
  198.000   90.558   10.532    0.405    0.299
  198.250   93.014    8.733    0.405    0.303
  198.500   92.396    7.241    0.397    0.321
  198.750   89.934    6.470    0.394    0.328
  199.000   89.930    5.674    0.404    0.317
  199.250   93.615    5.264    0.435    0.295
  199.500   96.685    5.068    0.443    0.283
  199.750  100.985    5.067    0.452    0.281
  200.000  104.669    4.971    0.451    0.281
  200.250  104.666    4.877    0.451    0.280
  200.500  104.662    4.785    0.450    0.272
  200.750  107.730    4.607    0.446    0.262
  201.000  108.959    4.520    0.444    0.257
  201.250  110.185    4.434    0.444    0.256
  201.500  111.411    4.351    0.442    0.257
  201.750  112.022    4.268    0.436    0.255
  202.000  112.632    4.188    0.432    0.249
  202.250  112.629    4.109    0.435    0.245
  202.500  112.012    4.108    0.439    0.248
  202.750  110.778    4.030    0.441    0.246
  203.000  110.161    3.954    0.435    0.244
  203.250  108.313    3.952    0.426    0.233
  203.500  107.080    3.877    0.424    0.220
  203.750  107.078    3.876    0.431    0.212
  204.000  108.304    3.803    0.442    0.241
  204.250  110.760    3.801    0.449    0.245
  204.500  110.142    3.729    0.457    0.241
  204.750  111.982    3.728    0.460    0.230
  205.000  113.822    3.726    0.461    0.214
  205.250  115.048    3.725    0.459    0.204
