~VERSION INFORMATION
 VERS.                 2.0:   CWLS LOG ASCII STANDARD -VERSION 2.0
 WRAP.                  NO:   ONE LINE PER DEPTH STEP
~WELL INFORMATION BLOCK
#MNEM.UNIT           DATA                    DESCRIPTION OF MNEMONIC
#---------    -------------------            -------------------------------
# Generated from Intellog Unique Number	CN_94_101/WELL/5039
WELL.         14-07-097-09W4                 : Well_name    - WELL
LOC .         AA/14-07-097-09W4/0            : Location     - LOCATION
UWI .         AA/14-07-097-09W400            : Uwi          - UNIQUE WELL ID
ENTR.         JOETTE                         : Entered      - ENTERED BY
SRVC.         SCHLUMBERGER                   : Scn          - SERVICE COMPANY
DATE.         08/11/92                       : Date         - LOG DATE
STRT.M        62.5                           : top_depth    - START DEPTH
STOP.M        175                            : bot_depth    - STOP DEPTH
STEP.M        0.25                           : increment    - STEP LENGTH
 NULL. -999.2500:NULL Value
~CURVE INFORMATION BLOCK
#MNEM UNIT       ERCB CURVE CODE    CURVE DESCRIPTION
#-----------   ------------------   ----------------------------------
DEPT.M        00 001 00 00         : DEPTH        - DEPTH
DPHI.V/V      00 890 00 00         : PHID         - DENSITY POROSITY (SANDSTONE)
NPHI.V/V      00 330 00 00         : PHIN         - NEUTRON POROSITY (SANDSTONE)
ILD .OHMM     00 120 00 00         : RESD         - DEEP RESISTIVITY (DIL)
GR  .API      00 310 00 00         : GR           - GAMMA RAY
~PARAMETER INFORMATION
#MNEM.UNIT           DATA             DESCRIPTION OF MNEMONIC
#---------         -----------     ------------------------------
GL  .M        330.5                : gl           - GROUND LEVEL ELEVATION
EREF.M        330.5                : kb           - ELEVATION OF DEPTH REFERENCE
DATM.M        330.5                : datum        - DATUM ELEVATION
TDD .M        177                  : tdd          - TOTAL DEPTH DRILLER
RUN .         ONE                  : Run          - RUN NUMBER
ENG .         BILL                 : Engineer     - RECORDING ENGINEER
WIT .         JIM                  : Witness      - WITNESSED BY
MUD .         GEL                  : Mud_type     - MUD TYPE
MATR.         SANDSTONE            : Logunit      - NEUTRON MATRIX
TMAX.C        0                    : BHT          - MAXIMUM RECORDED TEMPERATURE
BHTD.M        177                  : BHTDEP       - MAXIMUM RECORDED TEMPERATURE
RMT .C        0                    : MDTP         - TEMPERATURE OF MUD
MUDD.KG/M     0                    : MWT          - MUD DENSITY
NEUT.         1                    : NEUTRON      - NEUTRON TYPE
RESI.         0                    : RESIST       - RESISTIVITY TYPE
RM  .OHMM     0                    : RM           - RESISTIVITY OF MUD
RMC .OHMM     0                    : RMC          - RESISTIVITY OF MUD CAKE
RMF .OHMM     0                    : RMF          - RESISTIVITY OF MUD FILTRATE
SUFT.C        4                    : SUFT         - SURFACE TEMPERATURE
~A  DEPTH     PHID     PHIN     RESD       GR
   62.500    0.100    0.553    3.215   83.837
   62.750    0.116    0.552    6.138   92.412
   63.000    0.226    0.537   54.510   66.107
   63.250    0.267    0.523   45.894   92.428
   63.500    0.260    0.527   37.010   92.437
   63.750    0.260    0.526   33.481  102.236
   64.000    0.253    0.520   33.493  108.364
   64.250    0.249    0.520   32.556  115.715
   64.500    0.246    0.527   27.805  107.157
   64.750    0.251    0.532   26.262  116.956
   65.000    0.252    0.528   26.652  115.741
   65.250    0.256    0.534   26.281  117.585
   65.500    0.252    0.531   28.655  119.429
   65.750    0.256    0.525   28.666  112.094
   66.000    0.249    0.526   31.255  110.267
   66.250    0.231    0.516   44.137  118.230
   66.500    0.245    0.505   45.438  130.477
   66.750    0.264    0.518   42.303  134.768
   67.000    0.253    0.517   39.958  123.152
   67.250    0.253    0.525   42.335  116.428
   67.500    0.254    0.525   44.212  122.555
   67.750    0.246    0.525   46.845  109.101
   68.000    0.272    0.516   60.685  108.498
   68.250    0.301    0.522   69.084   73.625
   68.500    0.278    0.520   47.568   90.156
   68.750    0.251    0.512   41.218  115.866
   69.000    0.266    0.523   47.600  117.097
   69.250    0.264    0.524   54.971  114.658
   69.500    0.277    0.522   58.247  105.487
   69.750    0.277    0.521   58.264  114.062
   70.000    0.282    0.528   48.355   98.773
   70.250    0.291    0.517   59.146  107.348
   70.500    0.315    0.517   87.200   77.985
   70.750    0.312    0.530   88.492   93.902
   71.000    0.320    0.531  113.007   99.419
   71.250    0.334    0.515  166.608   84.740
   71.500    0.339    0.521  157.364   85.360
   71.750    0.306    0.515   91.196   95.771
   72.000    0.279    0.512   56.786  139.839
   72.250    0.281    0.505   61.038  134.340
   72.500    0.256    0.517   49.933  106.811
   72.750    0.270    0.515   55.233   91.521
   73.000    0.312    0.514   52.925   92.142
   73.250    0.319    0.514   49.270   80.523
   73.500    0.324    0.515   43.935   76.248
   73.750    0.312    0.521   35.943   59.733
   74.000    0.316    0.524   28.985   70.145
   74.250    0.294    0.522   21.444   67.705
   74.500    0.257    0.521   14.555   92.191
   74.750    0.246    0.520   13.358  126.468
   75.000    0.250    0.519   13.362  115.461
   75.250    0.247    0.524   11.916  115.470
   75.500    0.245    0.526   11.255  126.493
   75.750    0.252    0.527   11.259  122.830
   76.000    0.252    0.530   11.262  120.391
   76.250    0.241    0.530   11.266  106.936
   76.500    0.241    0.529   11.269  108.780
   76.750    0.246    0.527   11.601  113.072
   77.000    0.233    0.523   11.606  122.871
   77.250    0.222    0.515   11.609  106.970
   77.500    0.218    0.499   11.952  100.858
   77.750    0.239    0.498    9.919   89.240
   78.000    0.246    0.511    9.642  102.711
   78.250    0.245    0.516    9.645  105.167
   78.500    0.242    0.519   10.517  118.638
   78.750    0.247    0.525   11.802  117.422
   79.000    0.251    0.524   12.150  119.878
   79.250    0.265    0.520   12.153  116.215
   79.500    0.285    0.525   12.513  107.656
   79.750    0.275    0.520   12.881   81.963
   80.000    0.257    0.516   12.341  115.628
   80.250    0.255    0.519   14.253  107.681
   80.500    0.269    0.513   18.465  111.973
   80.750    0.285    0.524   19.565   76.488
   81.000    0.261    0.514   16.710  105.871
   81.250    0.255    0.512   14.901   91.193
   81.500    0.265    0.515   17.209   91.812
   81.750    0.266    0.508   23.276   78.358
   82.000    0.262    0.514   22.953   83.263
   82.250    0.258    0.513   26.891   80.210
   82.500    0.250    0.518   22.316   96.129
   82.750    0.235    0.519   18.522  103.481
   83.000    0.240    0.514   15.594  102.877
   83.250    0.257    0.510   13.708   97.990
   83.500    0.272    0.510   13.134  103.506
   83.750    0.274    0.515   13.522   93.112
   84.000    0.262    0.515   14.121  116.374
   84.250    0.262    0.517   14.963  104.144
   84.500    0.270    0.524   15.403  105.375
   84.750    0.277    0.522   15.631   75.398
   85.000    0.285    0.507   16.092   91.929
   85.250    0.292    0.504   17.050   82.146
   85.500    0.297    0.513   16.104   66.244
   85.750    0.294    0.506   14.779   72.983
   86.000    0.300    0.499   14.364   98.081
   86.250    0.284    0.506   14.370   80.343
   86.500    0.263    0.512   14.582  106.055
   86.750    0.264    0.507   15.229  120.137
   87.000    0.266    0.515   17.588   99.339
   87.250    0.261    0.515   24.133  104.243
   87.500    0.264    0.524   25.938   95.072
   87.750    0.272    0.514   27.091   95.692
   88.000    0.281    0.517   22.483   99.984
   88.250    0.278    0.512   24.166   93.261
   88.500    0.275    0.518   22.178  101.836
   88.750    0.277    0.502   20.354  102.456
   89.000    0.277    0.491   21.257  101.242
   89.250    0.269    0.491   17.897   81.056
   89.500    0.262    0.513   16.424   88.407
   89.750    0.253    0.509   15.514   81.072
   90.000    0.254    0.514   15.078   96.380
   90.250    0.255    0.508   13.838   87.208
   90.500    0.242    0.509   14.661  106.798
   90.750    0.210    0.526   21.615  107.419
   91.000    0.229    0.522   21.622  123.337
   91.250    0.242    0.526   21.321  129.465
   91.500    0.266    0.529   26.457  107.444
   91.750    0.268    0.524   30.118  109.288
   92.000    0.263    0.516   29.699  104.401
   92.250    0.305    0.503   35.298   89.723
   92.500    0.328    0.511  123.224   67.089
   92.750    0.332    0.503   81.264   43.844
   93.000    0.337    0.500   49.880   48.136
   93.250    0.336    0.502   26.903   38.965
   93.500    0.324    0.501   25.777   62.228
   93.750    0.299    0.501   22.659   65.295
   94.000    0.260    0.493   18.272  112.422
   94.250    0.236    0.512   12.402  130.178
   94.500    0.235    0.522   30.230  125.903
   94.750    0.241    0.527   52.199  100.821
   95.000    0.263    0.515   56.919   75.740
   95.250    0.283    0.505   65.733   79.420
   95.500    0.295    0.493   79.256   58.622
   95.750    0.300    0.485  118.540   54.348
   96.000    0.298    0.470  115.221   54.355
   96.250    0.299    0.474   57.838   51.303
   96.500    0.309    0.477   39.257   43.356
   96.750    0.304    0.490   30.761   67.230
   97.000    0.308    0.505   42.210   60.507
   97.250    0.339    0.520   36.051   51.336
   97.500    0.324    0.505   27.058   69.704
   97.750    0.294    0.508   27.459   92.966
   98.000    0.287    0.520   22.789   73.392
   98.250    0.285    0.510   22.151   90.534
   98.500    0.278    0.513   30.834  104.005
   98.750    0.304    0.522   38.263   77.700
   99.000    0.328    0.515   44.188   23.859
   99.250    0.326    0.502   49.587   30.597
   99.500    0.327    0.494   48.896   26.322
   99.750    0.338    0.501   51.064   33.062
  100.000    0.343    0.505   53.333   34.906
  100.250    0.322    0.496   46.880   44.707
  100.500    0.312    0.492   59.868   51.445
  100.750    0.322    0.483   77.559   33.095
  101.000    0.323    0.488   99.050   32.492
  101.250    0.312    0.473   88.323   42.903
  101.500    0.305    0.471   81.056   42.299
  101.750    0.289    0.460   82.256   36.800
  102.000    0.294    0.458   59.988   44.763
  102.250    0.287    0.450   38.442   41.712
  102.500    0.293    0.449   19.860   38.660
  102.750    0.315    0.463   15.121   36.221
  103.000    0.314    0.488    9.972   42.963
  103.250    0.279    0.494   11.353   42.970
  103.500    0.224    0.479   15.803   69.291
  103.750    0.274    0.516    8.772  107.852
  104.000    0.301    0.552    7.492  128.666
  104.250    0.345    0.558   11.046  132.346
  104.500    0.399    0.566   11.372   76.056
  104.750    0.624    0.569   13.134   54.646
  105.000    0.607    0.566   15.835   57.102
  105.250    0.264    0.548   18.026  100.559
  105.500    0.253    0.521   10.907  110.970
  105.750    0.262    0.520    9.451  114.650
