~VERSION INFORMATION
 VERS.                 2.0:   CWLS LOG ASCII STANDARD -VERSION 2.0
 WRAP.                  NO:   ONE LINE PER DEPTH STEP
~WELL INFORMATION BLOCK
#MNEM.UNIT           DATA                    DESCRIPTION OF MNEMONIC
#---------    -------------------            -------------------------------
# Generated from Intellog Unique Number	CC_84_87/WELL/2342
NULL.         -999.25                        : NULL_VALUE
WELL.         PCI PCEJ HANGST OV             : Well_name    - WELL              
LOC .         13-14-084-12W4                 : Location     - LOCATION          
UWI .         AA/13-14-084-12W400            : Uwi          - UNIQUE WELL ID    
ENTR.         DW                             : Entered      - ENTERED BY        
SRVC.         SCHLUMBERGER                   : Scn          - SERVICE COMPANY   
DATE.         29 JAN 84                      : Date         - LOG DATE
STRT.M        105                            : top_depth    - START DEPTH       
STOP.M        309.899                        : bot_depth    - STOP DEPTH        
STEP.M        0.3                            : increment    - STEP LENGTH       
~CURVE INFORMATION BLOCK
#MNEM UNIT       ERCB CURVE CODE    CURVE DESCRIPTION
#-----------   ------------------   ----------------------------------
DEPT.M        00 001 00 00         : DEPTH        - DEPTH                       
DPHI.V/V      00 890 00 00         : PHID         - DENSITY POROSITY (LIMESTONE)
NPHI.V/V      00 330 00 00         : PHIN         - NEUTRON POROSITY (LIMESTONE)
GR  .API      00 310 00 00         : GR           - GAMMA RAY                   
ILD .OHMM     00 120 00 00         : RESD         - DEEP RESISTIVITY (DIL)      
~PARAMETER INFORMATION       
#MNEM.UNIT           DATA             DESCRIPTION OF MNEMONIC
#---------         -----------     ------------------------------
GL  .M        562.4                : gl           - GROUND LEVEL ELEVATION      
EREF.M        565.6                : kb           - ELEVATION OF DEPTH REFERENCE
DATM.M        565.6                : datum        - DATUM ELEVATION             
TDD .M        328                  : tdd          - TOTAL DEPTH DRILLER         
RUN .         ONE                  : Run          - RUN NUMBER                  
ENG .         BILL                 : Engineer     - RECORDING ENGINEER          
WIT .         JIM                  : Witness      - WITNESSED BY                
MUD .         GEL                  : Mud_type     - MUD TYPE                    
MATR.         LIMESTONE            : Logunit      - NEUTRON MATRIX              
TMAX.C        18.2                 : BHT          - MAXIMUM RECORDED TEMPERATURE
BHTD.M        328                  : BHTDEP       - MAXIMUM RECORDED TEMPERATURE
MATR.         1                    : LOGUNIT      - NEUTRON MATRIX              
RMT .C        25                   : MDTP         - TEMPERATURE OF MUD          
NEUT.         1                    : NEUTRON      - NEUTRON TYPE                
RESI.         0                    : RESIST       - RESISTIVITY TYPE            
RMC .OHMM     0.25                 : RMC          - RESISTIVITY OF MUD CAKE     
RMF .OHMM     0.25                 : RMF          - RESISTIVITY OF MUD FILTRATE 
SUFT.C        4                    : SUFT         - SURFACE TEMPERATURE         
~A  DEPTH     PHID     PHIN       GR     RESD
# ...
  157.201    0.260    0.395   89.163   12.099
  157.501    0.284    0.418   95.216   12.770
  157.801    0.286    0.425   94.003   12.748
  158.101    0.299    0.434   90.368   12.971
  158.401    0.298    0.421   92.789   12.952
  158.701    0.273    0.414   94.604   10.722
  159.001    0.263    0.462   91.574   10.506
  159.301    0.308    0.473   86.123   11.515
  159.601    0.329    0.464   75.221   13.863
  159.901    0.338    0.449   63.109   16.377
  160.201    0.298    0.425   63.713   17.292
  160.501    0.299    0.447   67.950   16.313
  160.801    0.320    0.442   70.370   15.988
  161.101    0.325    0.468   70.974   17.847
  161.401    0.324    0.460   69.761   18.860
  161.701    0.321    0.438   69.153   19.906
  162.001    0.335    0.451   70.363   19.512
  162.301    0.325    0.467   67.939   18.417
  162.601    0.318    0.414   57.038   17.702
  162.901    0.320    0.397   54.613   17.681
  163.201    0.301    0.402   55.217   17.645
  163.501    0.299    0.387   55.821   17.949
  163.801    0.320    0.384   61.269   17.593
  164.101    0.332    0.436   69.139   16.599
  164.401    0.303    0.458   67.320   15.383
  164.701    0.291    0.417   63.080   13.985
  165.001    0.275    0.396   64.289   12.957
  165.301    0.271    0.386   68.526   11.343
  165.601    0.275    0.381   78.818   10.512
  165.901    0.249    0.414   87.294    8.705
  166.201    0.286    0.462   93.347    7.074
  166.501    0.302    0.485   93.345    6.552
  166.801    0.230    0.512   96.371    6.542
  167.101    0.232    0.518   99.397    6.906
  167.401    0.259    0.492   96.973    7.159
  167.701    0.240    0.458   95.760    7.280
  168.001    0.202    0.447   98.786    6.868
  168.301    0.224    0.486   98.179    6.861
  168.601    0.234    0.437   96.360    7.244
  168.901    0.217    0.436   96.358    7.650
  169.201    0.192    0.418   96.962    7.925
  169.501    0.217    0.415  101.804    7.767
  169.801    0.203    0.419  105.435    7.611
  170.101    0.196    0.417  102.406    7.184
  170.401    0.197    0.451  109.065    6.778
  170.701    0.179    0.469  109.063    6.640
  171.001    0.168    0.486  113.905    6.754
  171.301    0.178    0.458  113.904    6.874
  171.601    0.217    0.454  104.819    6.861
  171.901    0.198    0.436   99.973    6.852
  172.201    0.207    0.445  104.210    6.588
  172.501    0.192    0.475  108.447    6.332
  172.801    0.174    0.486  110.261    6.207
  173.101    0.173    0.509  107.232    6.082
  173.401    0.165    0.514  111.469    5.740
  173.701    0.179    0.526  116.917    5.518
  174.001    0.201    0.531  116.310    5.308
  174.301    0.204    0.509  109.042    5.106
  174.601    0.200    0.474  102.379    5.097
  174.901    0.269    0.491   98.139    5.184
  175.201    0.308    0.519   90.871    5.273
  175.501    0.314    0.503   93.896    5.262
  175.801    0.261    0.485  103.583    5.257
  176.101    0.287    0.501   99.948    4.868
  176.401    0.308    0.525   94.496    4.426
  176.701    0.318    0.537   93.284    4.338
  177.001    0.317    0.479   92.071    4.580
  177.301    0.290    0.479   88.436    5.212
  177.601    0.319    0.501   82.379    5.820
  177.901    0.318    0.495   88.432    6.381
  178.201    0.291    0.486   92.064    6.865
  178.501    0.269    0.446   76.318    8.738
  178.801    0.261    0.417   56.940   11.127
  179.101    0.273    0.412   57.543   11.745
  179.401    0.301    0.481   64.808   11.511
  179.701    0.326    0.513   75.100   11.280
  180.001    0.327    0.448   67.832   11.259
  180.301    0.324    0.440   65.408   12.576
  180.601    0.333    0.430   67.222   13.274
  180.901    0.311    0.422   69.643   13.255
  181.201    0.311    0.423   70.246   12.748
  181.501    0.319    0.412   64.190   12.961
  181.801    0.314    0.414   59.343   13.437
  182.101    0.329    0.450   62.975   13.409
  182.401    0.336    0.464   68.422   13.141
  182.701    0.325    0.435   67.815   12.643
  183.001    0.319    0.412   68.419   11.071
  183.301    0.306    0.446   76.289   10.257
  183.601    0.272    0.522   70.837   11.452
  183.901    0.042    0.329   60.542   13.533
  184.201    0.117    0.284   53.879   16.595
  184.501    0.174    0.352   61.144   16.256
  184.801    0.331    0.423   67.803   14.779
  185.101    0.320    0.427   69.011   13.189
  185.401    0.296    0.431   68.405   12.218
  185.701    0.290    0.439   70.219   11.746
  186.001    0.300    0.446   64.767   12.174
  186.301    0.314    0.444   65.371   12.388
  186.601    0.318    0.433   70.214   12.598
  186.901    0.312    0.456   73.845   12.343
  187.201    0.307    0.434   71.421   12.323
  187.501    0.300    0.427   66.575   12.534
  187.801    0.286    0.428   62.940   12.516
  188.101    0.258    0.446   62.333   12.730
  188.401    0.218    0.463   63.542   12.707
  188.701    0.258    0.452   65.357   12.686
  189.001    0.274    0.444   65.960   12.661
  189.301    0.283    0.429   65.959   11.957
  189.601    0.284    0.388   69.590   10.088
  189.901    0.323    0.419   80.488    6.674
  190.201    0.511    0.517   75.642    6.536
  190.501    0.557    0.556   73.823    6.528
  190.801    0.490    0.464   81.693    7.155
  191.101    0.289    0.482   85.325    7.844
  191.401    0.302    0.455   70.790    8.926
  191.701    0.278    0.412   65.339    9.602
  192.001    0.267    0.410   71.392    9.768
  192.301    0.260    0.406   81.684    9.391
  192.601    0.263    0.449   79.260    9.031
  192.901    0.293    0.445   70.781    8.688
  193.201    0.260    0.443   76.229    7.894
  193.501    0.273    0.464   78.044    7.595
  193.801    0.303    0.462   79.859    7.167
  194.101    0.338    0.550   71.379    7.292
  194.401    0.446    0.543   75.616    7.278
  194.701    0.344    0.477   82.275    6.496
  195.001    0.277    0.505   81.062    5.481
  195.301    0.263    0.501   82.272    4.291
  195.601    0.366    0.505   86.508    3.297
  195.901    0.414    0.549   88.929    3.054
  196.201    0.452    0.572   89.532    3.106
  196.501    0.477    0.565   83.475    3.279
  196.801    0.483    0.566   80.446    3.464
  197.101    0.458    0.497   83.471    3.869
  197.401    0.402    0.486   82.259    4.162
  197.701    0.417    0.522   79.229    3.856
  198.001    0.483    0.543   83.466    3.441
  198.301    0.594    0.567   84.675    3.370
  198.601    0.550    0.600   84.673    3.494
  198.901    0.362    0.533   84.066    3.827
  199.201    0.317    0.486   79.220    4.044
  199.501    0.265    0.454   78.008    6.816
  199.801    0.188    0.394   74.978    8.203
  200.101    0.191    0.394   70.737    8.038
  200.401    0.247    0.407   78.608    7.038
  200.701    0.262    0.443   93.744    6.049
  201.001    0.271    0.458   91.925    5.709
  201.301    0.302    0.458   84.052    5.698
  201.601    0.323    0.460   81.628    5.692
  201.901    0.277    0.454   76.782    6.356
  202.201    0.271    0.410   71.936    7.509
  202.501    0.289    0.413   73.145    8.706
  202.801    0.300    0.435   73.749    9.540
  203.101    0.305    0.456   70.114    9.890
  203.401    0.317    0.434   61.029    9.867
  203.701    0.308    0.427   61.633    9.852
  204.001    0.283    0.435   62.842    9.840
  204.301    0.295    0.406   64.051   10.199
  204.601    0.296    0.423   64.050   10.769
  204.901    0.269    0.395   57.993   11.371
  205.201    0.211    0.155   51.330   12.464
  205.501    0.000    0.128   44.062   15.286
  205.801    0.098    0.194   44.060   13.894
  206.101    0.193    0.226   50.719   12.636
  206.401    0.245    0.401   62.222   12.375
  206.701    0.317    0.412   68.275   12.825
  207.001    0.320    0.367   62.219   14.066
  207.301    0.305    0.305   56.162   19.660
  207.601    0.268    0.267   59.187   30.176
  207.901    0.154    0.191   60.397   34.983
  208.201    0.000    0.160   53.129   42.102
  208.501    0.002    0.155   51.310   47.032
  208.801    0.000    0.149   50.703   49.645
  209.101    0.000    0.149   50.095   46.861
