~VERSION INFORMATION
 VERS.                 2.0:   CWLS LOG ASCII STANDARD -VERSION 2.0
 WRAP.                  NO:   ONE LINE PER DEPTH STEP
~WELL INFORMATION BLOCK
#MNEM.UNIT           DATA                    DESCRIPTION OF MNEMONIC
#---------    -------------------            -------------------------------
# Generated from Intellog Unique Number	CN_94_101/WELL/2676
WELL.         14-23-094-14W4                 : Well_name    - WELL
LOC .         AA/14-23-094-14W4/0            : Location     - LOCATION
UWI .         AA/14-23-094-14W400            : Uwi          - UNIQUE WELL ID
ENTR.         JOETTE                         : Entered      - ENTERED BY
SRVC.         SCHLUMBERGER                   : Scn          - SERVICE COMPANY
DATE.         06/19/92                       : Date         - LOG DATE
STRT.M        50                             : top_depth    - START DEPTH
STOP.M        150                            : bot_depth    - STOP DEPTH
STEP.M        0.25                           : increment    - STEP LENGTH
 NULL. -999.2500:NULL Value
~CURVE INFORMATION BLOCK
#MNEM UNIT       ERCB CURVE CODE    CURVE DESCRIPTION
#-----------   ------------------   ----------------------------------
DEPT.M        00 001 00 00         : DEPTH        - DEPTH
CALI.MM       00 280 01 00         : CAL          - CALIPER
GR  .API      00 310 00 00         : GR           - GAMMA RAY
NPHI.V/V      00 330 00 00         : PHIN         - NEUTRON POROSITY (SANDSTONE)
DPHI.V/V      00 890 00 00         : PHID         - DENSITY POROSITY (SANDSTONE)
ILD .OHMM     00 120 00 00         : RESD         - DEEP RESISTIVITY (DIL)
~PARAMETER INFORMATION
#MNEM.UNIT           DATA             DESCRIPTION OF MNEMONIC
#---------         -----------     ------------------------------
GL  .M        409.7                : gl           - GROUND LEVEL ELEVATION
EREF.M        411.4                : kb           - ELEVATION OF DEPTH REFERENCE
DATM.M        411.4                : datum        - DATUM ELEVATION
TDD .M        164                  : tdd          - TOTAL DEPTH DRILLER
RUN .         ONE                  : Run          - RUN NUMBER
ENG .         BILL                 : Engineer     - RECORDING ENGINEER
WIT .         JIM                  : Witness      - WITNESSED BY
MUD .         GEL                  : Mud_type     - MUD TYPE
MATR.         SANDSTONE            : Logunit      - NEUTRON MATRIX
TMAX.C        18                   : BHT          - MAXIMUM RECORDED TEMPERATURE
BHTD.M        164                  : BHTDEP       - MAXIMUM RECORDED TEMPERATURE
RMT .C        19                   : MDTP         - TEMPERATURE OF MUD
MUDD.KG/M     1060                 : MWT          - MUD DENSITY
NEUT.         1                    : NEUTRON      - NEUTRON TYPE
RESI.         0                    : RESIST       - RESISTIVITY TYPE
RM  .OHMM     3.74                 : RM           - RESISTIVITY OF MUD
RMC .OHMM     3.74                 : RMC          - RESISTIVITY OF MUD CAKE
RMF .OHMM     3.74                 : RMF          - RESISTIVITY OF MUD FILTRATE
SUFT.C        4                    : SUFT         - SURFACE TEMPERATURE
~A  DEPTH      CAL       GR     PHIN     PHID     RESD
   50.000  178.070   63.087    0.561    0.287   12.652
   50.250  177.435   62.065    0.532    0.291   12.494
   50.500  177.797   60.446    0.521    0.270   11.692
   50.750  177.941   59.424    0.518    0.254   11.128
   51.000  184.278   67.409    0.532    0.231   10.773
   51.250  197.585   69.972    0.528    0.240   10.284
   51.500  210.893   67.799    0.510    0.267    9.956
   51.750  210.258   68.570    0.499    0.286    9.638
   52.000  213.535   69.895    0.490    0.274    9.330
   52.250  210.764   69.471    0.492    0.284    8.572
   52.500  203.086   69.644    0.506    0.290    8.147
   52.750  194.340   68.666    0.520    0.300    7.463
   53.000  185.594   66.406    0.525    0.269    6.479
   53.250  176.992   68.969    0.512    0.184    5.315
   53.500  185.248   73.966    0.523    0.252    4.780
   53.750  193.504   77.170    0.520    0.252    5.788
   54.000  203.824   78.496    0.484    0.256    7.019
   54.250  208.169   78.669    0.460    0.251    7.449
   54.500  209.381   79.526    0.436    0.256    8.405
   54.750  211.662   79.102    0.449    0.258    8.745
   55.000  212.947   78.081    0.462    0.252    8.796
   55.250  215.300   76.418    0.474    0.250    7.636
   55.500  216.657   81.372    0.480    0.245    6.620
   55.750  217.942   82.740    0.481    0.244    5.430
   56.000  219.227   76.938    0.469    0.246    5.896
   56.250  220.512   72.288    0.466    0.246    6.135
   56.500  222.792   71.864    0.476    0.242    6.912
   56.750  224.077   72.635    0.477    0.239    7.483
   57.000  220.310   72.808    0.467    0.228    8.102
   57.250  215.692   75.415    0.473    0.223    8.161
   57.500  216.977   79.217    0.481    0.241    7.768
   57.750  218.334   81.781    0.494    0.284    7.383
   58.000  221.611   84.388    0.499    0.277    6.650
   58.250  226.807   85.115    0.510    0.271    6.320
   58.500  231.152   84.093    0.517    0.267    5.798
   58.750  225.466   83.713    0.523    0.271    5.629
   59.000  224.686   83.202    0.524    0.271    5.646
   59.250  226.044   79.790    0.514    0.274    5.793
   59.500  230.316   77.019    0.512    0.281    6.281
   59.750  230.605   75.998    0.504    0.293    6.554
   60.000  223.851   76.769    0.489    0.258    6.345
   60.250  223.144   79.332    0.491    0.262    5.602
   60.500  232.468   81.852    0.510    0.320    5.053
   60.750  223.722   85.654    0.527    0.301    5.170
   61.000  215.972   82.840    0.551    0.271    5.411
   61.250  218.252   81.221    0.537    0.278    5.427
   61.500  218.541   84.382    0.534    0.286    4.978
   61.750  212.927   89.976    0.529    0.288    3.460
   62.000  214.212   93.778    0.540    0.289    3.170
   62.250  217.489   92.713    0.561    0.321    2.698
   62.500  224.821   89.855    0.596    0.321    2.296
   62.750  222.050   84.695    0.627    0.306    2.068
   63.000  225.399   81.880    0.612    0.291    2.118
   63.250  228.603   80.772    0.597    0.290    2.431
   63.500  215.874   80.348    0.544    0.285    2.731
   63.750  223.279   83.639    0.516    0.276    3.124
   64.000  217.448   85.518    0.503    0.268    4.917
   64.250  204.863   92.308    0.483    0.264    5.219
   64.500  208.139   96.707    0.467    0.266    5.539
   64.750  212.412   98.673    0.473    0.235    5.675
   65.000  215.688   97.054    0.482    0.231    5.402
   65.250  211.922   95.435    0.516    0.244    6.077
   65.500  210.219   95.010    0.546    0.223    6.701
   65.750  212.500   95.781    0.531    0.190    8.431
   66.000  216.844   94.803    0.497    0.170   10.008
   66.250  219.125   90.110    0.412    0.141   11.451
   66.500  214.363   83.667    0.328    0.074   12.665
   66.750  197.650   78.506    0.280    0.175   12.279
   67.000  188.052   77.995    0.356    0.228   11.248
   67.250  192.325   83.590    0.420    0.248   10.131
   67.500  196.525   86.197    0.466    0.238    9.294
   67.750  196.814   81.590    0.461    0.228    9.165
   68.000  200.235   82.915    0.484    0.213    9.592
   68.250  198.388   84.881    0.429    0.138    9.995
   68.500  189.786   82.664    0.361    0.087   10.822
   68.750  185.096   76.862    0.301    0.104   11.293
   69.000  184.244   72.810    0.313    0.137   11.359
   69.250  185.602   72.429    0.352    0.181   10.812
   69.500  193.930   75.547    0.378    0.200   10.276
   69.750  200.194   81.739    0.405    0.200    9.441
   70.000  205.535   84.986    0.430    0.204    8.822
   70.250  205.823   83.965    0.447    0.211    8.686
   70.500  206.112   83.454    0.437    0.218    8.775
   70.750  207.470   83.714    0.422    0.218    8.801
   71.000  208.682   83.246    0.410    0.222    9.017
   71.250  211.107   81.627    0.422    0.230    9.238
   71.500  213.316   80.606    0.433    0.230    9.306
   71.750  216.593   80.736    0.437    0.233    9.346
   72.000  212.826   80.952    0.448    0.236    9.415
   72.250  208.135   81.680    0.459    0.224    9.456
   72.500  210.416   81.853    0.479    0.231    9.511
   72.750  205.870   81.429    0.473    0.237    9.581
   73.000  203.951   78.658    0.464    0.244    9.461
   73.250  198.409   77.637    0.475    0.238    9.516
   73.500  197.558   78.962    0.473    0.233    9.572
   73.750  196.923   82.166    0.460    0.243    9.628
   74.000  197.212   82.340    0.458    0.244    9.684
   74.250  196.433   81.318    0.471    0.237    9.741
   74.500  195.798   79.655    0.480    0.222    9.812
   74.750  193.172   76.841    0.465    0.191    9.841
   75.000  191.325   75.265    0.440    0.159    9.913
   75.250  187.630   76.036    0.408    0.200    9.985
   75.500  185.928   77.405    0.422    0.234    9.832
   75.750  185.293   80.566    0.452    0.254    9.187
   76.000  185.437   83.727    0.447    0.238    8.757
   76.250  185.726   83.303    0.434    0.237    8.985
   76.500  188.079   81.086    0.424    0.246    9.179
   76.750  188.296   78.315    0.419    0.246    9.579
   77.000  188.657   77.207    0.425    0.232   10.386
   77.250  186.955   73.198    0.428    0.230   11.278
   77.500  184.256   67.950    0.434    0.226   11.537
   77.750  181.557   66.972    0.427    0.209   12.040
   78.000  180.851   70.176    0.363    0.157   12.093
   78.250  180.144   73.337    0.323    0.186   12.164
   78.500  180.361   75.857    0.361    0.250   11.366
   78.750  180.650   75.433    0.396    0.273   10.834
   79.000  182.007   72.064    0.442    0.258   10.327
   79.250  183.219   71.640    0.443    0.241    9.983
   79.500  184.504   73.606    0.444    0.208    9.502
   79.750  188.921   73.780    0.438    0.113    8.866
   80.000  191.130   71.520    0.384    0.181    8.134
   80.250  193.410   75.278    0.348    0.203    8.500
   80.500  197.827   82.068    0.411    0.220    7.634
   80.750  201.032   87.065    0.458    0.235    6.627
   81.000  204.308   91.464    0.479    0.242    5.537
   81.250  210.645   88.052    0.494    0.243    5.174
   81.500  214.989   89.421    0.499    0.236    5.212
   81.750  219.262   88.356    0.494    0.223    5.235
   82.000  223.534   85.542    0.500    0.225    5.184
   82.250  226.811   84.520    0.494    0.227    5.207
   82.500  229.092   84.096    0.492    0.220    5.230
   82.750  231.517   84.867    0.501    0.221    5.268
   83.000  232.730   86.833    0.498    0.233    5.299
   83.250  233.942   90.037    0.483    0.241    5.429
   83.500  235.299   91.406    0.478    0.245    5.562
   83.750  235.588   89.145    0.471    0.238    5.690
   84.000  236.873   83.984    0.467    0.223    5.938
   84.250  237.162   83.560    0.461    0.222    6.206
   84.500  238.519   85.526    0.451    0.225    6.358
   84.750  238.808   86.297    0.457    0.214    6.405
   85.000  240.021   85.916    0.466    0.193    6.315
   85.250  240.310   85.449    0.458    0.183    6.246
   85.500  241.739   86.817    0.457    0.191    6.150
   85.750  241.956   89.381    0.466    0.223    6.073
   86.000  242.245   91.944    0.477    0.219    5.896
   86.250  242.534   92.759    0.485    0.213    5.716
