~VERSION INFORMATION
 VERS.                 2.0:   CWLS LOG ASCII STANDARD -VERSION 2.0
 WRAP.                  NO:   ONE LINE PER DEPTH STEP
~WELL INFORMATION BLOCK
#MNEM.UNIT           DATA                    DESCRIPTION OF MNEMONIC
#---------    -------------------            -------------------------------
# Generated from Intellog Unique Number	CN_91_93/WELL/3715
WELL.         10-12-093-07W4                 : Well_name    - WELL
LOC .         AA/10-12-093-07W4/0            : Location     - LOCATION
UWI .         AA/10-12-093-07W400            : Uwi          - UNIQUE WELL ID
ENTR.         JOETTE                         : Entered      - ENTERED BY
SRVC.         WESTERN ATLAS                  : Scn          - SERVICE COMPANY
DATE.         03/22/92                       : Date         - LOG DATE
STRT.F        50                             : top_depth    - START DEPTH
STOP.F        860.367                        : bot_depth    - STOP DEPTH
STEP.F        0.8202                         : increment    - STEP LENGTH
 NULL. -999.2500:NULL Value
~CURVE INFORMATION BLOCK
#MNEM UNIT       ERCB CURVE CODE    CURVE DESCRIPTION
#-----------   ------------------   ----------------------------------
DEPT.F        00 001 00 00         : DEPTH        - DEPTH
CALI.IN       00 280 01 00         : CAL          - CALIPER
GR  .API      00 310 00 00         : GR           - GAMMA RAY
NPHI.V/V      00 330 00 00         : PHIN         - NEUTRON POROSITY (SANDSTONE)
ILD .OHMM     00 120 00 00         : RESD         - DEEP RESISTIVITY (DIL)
~PARAMETER INFORMATION
#MNEM.UNIT           DATA             DESCRIPTION OF MNEMONIC
#---------         -----------     ------------------------------
GL  .M        520.111              : gl           - GROUND LEVEL ELEVATION
EREF.M        521.635              : kb           - ELEVATION OF DEPTH REFERENCE
DATM.M        521.635              : datum        - DATUM ELEVATION
TDD .M        267.31               : tdd          - TOTAL DEPTH DRILLER
RUN .         ONE                  : Run          - RUN NUMBER
ENG .         BILL                 : Engineer     - RECORDING ENGINEER
WIT .         JIM                  : Witness      - WITNESSED BY
MUD .         GEL                  : Mud_type     - MUD TYPE
MATR.         SANDSTONE            : Logunit      - NEUTRON MATRIX
TMAX.F        45                   : BHT          - MAXIMUM RECORDED TEMPERATURE
BHTD.F        877                  : BHTDEP       - MAXIMUM RECORDED TEMPERATURE
RMT .F        45                   : MDTP         - TEMPERATURE OF MUD
MUDD.LB/G     1.07                 : MWT          - MUD DENSITY
NEUT.         1                    : NEUTRON      - NEUTRON TYPE
RESI.         0                    : RESIST       - RESISTIVITY TYPE
RM  .OHMM     8.9                  : RM           - RESISTIVITY OF MUD
RMC .OHMM     8.9                  : RMC          - RESISTIVITY OF MUD CAKE
RMF .OHMM     8.9                  : RMF          - RESISTIVITY OF MUD FILTRATE
SUFT.F        39.2                 : SUFT         - SURFACE TEMPERATURE
~A  DEPTH      CAL       GR     PHIN     RESD
# ...
  192.717    9.705   71.189    0.438   14.069
  193.537    9.828   72.425    0.441   14.332
  194.357    9.829   73.048    0.435   14.335
  195.177    9.749   71.837    0.422   14.338
  195.997    9.668   71.242    0.411   13.825
  196.818    9.506   73.082    0.398   13.327
  197.638    9.629   76.145    0.393   11.723
  198.458    9.955   76.774    0.390   13.091
  199.278   10.038   75.570    0.386   13.836
  200.098   10.079   74.966    0.385   13.838
  200.919   10.080   74.368    0.383   13.589
  201.739   10.081   76.217    0.383   12.864
  202.559   10.082   79.274    0.383   12.631
  203.379   10.123   85.391    0.383   11.958
  204.199   10.327   85.404    0.385   11.742
  205.020   10.735   84.196    0.385   11.744
  205.840    6.750   86.039    0.384   11.747
  206.660    6.750   89.102    0.383   11.967
  207.480    6.751   81.796    0.380   12.417
  208.301    6.793   79.368    0.381   13.366
  209.121    6.794   78.160    0.385   14.388
  209.941    6.795   76.345    0.391   15.207
  210.761    6.796   75.742    0.399   15.491
  211.581    6.796   73.314    0.406   15.781
  212.402    6.798   69.058    0.405   12.898
  213.222    6.798   68.460    0.397   14.942
  214.042    6.758   73.354    0.388   15.504
  214.862    6.678   73.370    0.384   15.508
  215.682    6.638   70.328    0.384   15.231
  216.503    6.720   72.171    0.384   14.954
  217.323    6.721   78.288    0.384   14.418
  218.143    6.722   80.128    0.381   13.157
  218.963    6.723   77.090    0.376   12.919
  219.783    6.764   75.888    0.373   18.658
  220.604    6.765   77.731    0.370   19.360
  221.424    6.725   77.137    0.368   19.722
  222.244    6.726   77.143    0.373   20.092
  223.064    6.727   77.162    0.368   20.099
  223.885    6.728   76.558    0.367   20.101
  224.705    6.769   75.353    0.368   20.476
  225.525    6.770   74.752    0.370   22.042
  226.345    6.771   74.774    0.372   23.728
  227.165    6.731   73.564    0.370   23.734
  227.986    6.651   71.749    0.368   22.059
  228.806    6.652   70.535    0.367   20.879
  229.626    6.775   70.553    0.368   19.051
  230.446    6.938   71.173    0.369   18.033
  231.266    7.142   74.236    0.369   17.386
  232.087    7.265   77.299    0.369   12.044
  232.907    7.470   81.586    0.369   11.612
  233.727    7.470   85.259    0.369   11.403
  234.547    7.390   85.269    0.368   10.994
  235.367    7.675   82.234    0.367   10.797
  236.188    7.636   82.246    0.371   10.799
  237.008    7.514   81.038    0.377   10.801
  237.828    7.353   84.712    0.388   10.803
  238.648    7.272   84.721    0.394   10.610
  239.469    7.273   83.519    0.402   10.611
  240.289    7.355   84.139    0.407   10.420
  241.109    7.397   90.256    0.409   10.232
  241.929    7.398   89.658    0.407   10.234
  242.749    7.398   88.447    0.397   10.051
  243.570    7.359   86.629    0.388   10.052
  244.390    7.359   85.422    0.388   10.055
  245.210    7.320   85.437    0.387   10.056
  246.030    7.321   85.450    0.384   10.058
  246.850    7.362   86.073    0.382   10.061
  247.671    7.363   86.698    0.378   10.249
  248.491    7.364   86.708    0.377   10.635
  249.311    7.324   86.113    0.374   11.447
  250.131    7.325   84.295    0.371   13.263
  250.951    7.204   80.034    0.374   15.940
  251.772    7.083   73.945    0.379   19.157
  252.592    7.002   69.076    0.399   23.450
  253.412    7.206   59.937    0.437   27.168
  254.232    7.654   44.699    0.416   27.679
  255.052    9.730   46.539    0.383   26.683
  255.873    9.487   54.486    0.385   23.042
  256.693    8.959   62.430    0.390   20.642
  257.513    7.536   66.104    0.399   17.826
  258.333    7.537   70.997    0.399   15.394
  259.154    7.497   87.483    0.398   13.539
  259.974    7.294   98.481    0.397   11.692
  260.794    7.010  101.545    0.395   10.474
  261.614    6.930  104.608    0.391    9.383
  262.434    6.890  107.674    0.386    8.562
  263.255    6.851  106.466    0.386    8.407
  264.075    6.851  105.256    0.399    8.106
  264.895    6.851  104.661    0.412    8.107
  265.715    6.853  106.504    0.412    7.963
  266.535    7.098  107.737    0.412    7.963
  267.356    7.099  105.309    0.412    7.965
  268.176    7.059  101.660    0.412    7.967
  268.996    6.938  101.676    0.412    8.116
  269.816    6.898  104.736    0.412    8.117
  270.636    6.899  103.528    0.412    8.119
  271.457    6.940  104.154    0.414    7.973
  272.277    6.941  106.604    0.419    7.830
  273.097    7.064  104.789    0.422    7.550
  273.917    7.106  103.581    0.422    7.413
  274.738    7.106  103.594    0.416    7.552
  275.558    7.107  106.047    0.411    7.837
  276.378    7.027  104.229    0.404    7.983
  277.198    6.947   99.360    0.398    8.133
  278.018    6.906   93.885    0.399    7.986
  278.839    6.826   92.674    0.399    7.700
  279.659    6.786  100.008    0.394    7.561
  280.479    6.787  101.857    0.385    7.846
  281.299    6.788   98.816    0.371    9.090
  282.119    6.829   96.388    0.358   10.924
  282.940    6.871   91.519    0.345   17.293
  283.760    6.953   84.820    0.330   24.519
  284.580    7.076   56.156    0.314   28.932
  285.400    7.240   39.085    0.296   38.822
  286.220    7.607   35.440    0.294   48.406
  287.041    7.729   36.676    0.295   56.078
  287.861    7.731   38.512    0.297   53.086
  288.681    7.894   45.236    0.306   46.691
  289.501    7.935   48.916    0.329   43.391
  290.322    7.489   47.095    0.343   40.325
  291.142    6.961   51.989    0.340   45.867
  291.962    6.759   56.272    0.337   40.342
  292.782    6.759   55.674    0.346   31.202
  293.602    6.801   58.127    0.375   20.456
  294.423    6.802   64.851    0.411   17.993
  295.243    6.640   71.575    0.418   12.464
  296.063    6.559   77.695    0.413   11.799
  296.883    6.479   78.931    0.403   10.966
  297.703    6.439   80.161    0.395   10.572
  298.524    6.440   81.397    0.395   10.007
  299.344    6.400   80.793    0.396    9.827
  300.164    6.360   78.978    0.397    9.829
  300.984    6.321   77.767    0.397    9.653
  301.804    6.322   76.563    0.395    9.654
  302.625    6.322   75.358    0.387    9.656
  303.445    6.323   74.150    0.381   10.587
  304.265    6.324   72.332    0.376   15.013
  305.085    6.325   71.121    0.376   15.576
  305.906    6.326   67.479    0.381   17.394
  306.726    6.326   65.658    0.389   19.070
  307.546    6.327   63.227    0.393   20.528
  308.366    6.328   60.799    0.393   21.696
  309.186    6.329   60.205    0.389   22.103
  310.007    6.289   63.271    0.382   20.543
  310.827    6.290   65.111    0.380   18.744
  311.647    6.291   65.733    0.381   16.791
  312.467    6.292   66.362    0.389   14.236
  313.287    6.293   66.368    0.400   14.239
  314.108    6.294   68.211    0.398   15.328
  314.928    6.294   70.668    0.394   17.434
  315.748    6.295   68.236    0.389   19.114
  316.568    6.296   66.418    0.385   20.957
  317.388    6.338   71.318    0.384   20.581
  318.209    6.338   70.721    0.384   18.778
  319.029    6.380   71.950    0.384   15.920
  319.849    6.463   76.234    0.383   13.253
  320.669    6.504   82.348    0.381   12.316
  321.490    6.546   86.021    0.378   11.447
  322.310    6.546   86.034    0.377   11.036
  323.130    6.506   84.829    0.376   11.038
  323.950    6.507   83.014    0.372   11.245
  324.770    6.427   82.413    0.370   11.455
  325.591    6.387   79.992    0.369   12.107
  326.411    6.388   78.781    0.366   12.107
  327.231    6.348   76.966    0.365   13.036
  328.051    6.349   75.752    0.364   11.895
  328.871    6.350   73.324    0.363   11.467
  329.692    6.350   71.509    0.362   10.856
  330.512    6.351   75.189    0.360   11.059
  331.332    6.352   77.025    0.359   11.474
  332.152    6.353   77.651    0.359   12.352
  332.972    6.354   75.223    0.360   14.576
  333.793    6.355   72.795    0.363   15.980
  334.613    6.356   72.811    0.367   17.846
