~VERSION INFORMATION
 VERS.                 2.0:   CWLS LOG ASCII STANDARD -VERSION 2.0
 WRAP.                  NO:   ONE LINE PER DEPTH STEP
~WELL INFORMATION BLOCK
#MNEM.UNIT           DATA                    DESCRIPTION OF MNEMONIC
#---------    -------------------            -------------------------------
# Generated from Intellog Unique Number	CC_80_83/WELL/2335
NULL.         -999.25                        : NULL_VALUE
WELL.         PEX PCEJ CHARD OV              : Well_name    - WELL
LOC .         10-05-081-07W4                 : Location     - LOCATION          
UWI .         AA/10-05-081-07W4/0            : Uwi          - UNIQUE WELL ID    
ENTR.         DW                             : Entered      - ENTERED BY        
SRVC.         SCHLUMBERGER                   : Scn          - SERVICE COMPANY   
DATE.         21 JAN 80                      : Date         - LOG DATE
STRT.M        200                            : top_depth    - START DEPTH       
STOP.M        434.893                        : bot_depth    - STOP DEPTH        
STEP.M        0.3                            : increment    - STEP LENGTH       
~CURVE INFORMATION BLOCK
#MNEM UNIT       ERCB CURVE CODE    CURVE DESCRIPTION
#-----------   ------------------   ----------------------------------
DEPT.M        00 001 00 00         : DEPTH        - DEPTH                       
DPHI.V/V      00 890 00 00         : PHID         - DENSITY POROSITY (LIMESTONE)
NPHI.V/V      00 330 00 00         : PHIN         - NEUTRON POROSITY (LIMESTONE)
GR  .API      00 310 00 00         : GR           - GAMMA RAY                   
ILD .OHMM     00 120 00 00         : RESD         - DEEP RESISTIVITY (DIL)      
~PARAMETER INFORMATION       
#MNEM.UNIT           DATA             DESCRIPTION OF MNEMONIC
#---------         -----------     ------------------------------
GL  .M        604.88               : gl           - GROUND LEVEL ELEVATION      
EREF.M        608.48               : kb           - ELEVATION OF DEPTH REFERENCE
DATM.M        608.48               : datum        - DATUM ELEVATION             
TDD .M        436                  : tdd          - TOTAL DEPTH DRILLER         
RUN .         ONE                  : Run          - RUN NUMBER                  
ENG .         BILL                 : Engineer     - RECORDING ENGINEER          
WIT .         JIM                  : Witness      - WITNESSED BY                
MUD .         GEL                  : Mud_type     - MUD TYPE                    
MATR.         LIMESTONE            : Logunit      - NEUTRON MATRIX              
TMAX.C        19                   : BHT          - MAXIMUM RECORDED TEMPERATURE
BHTD.M        436                  : BHTDEP       - MAXIMUM RECORDED TEMPERATURE
MATR.         1                    : LOGUNIT      - NEUTRON MATRIX              
RMT .C        25                   : MDTP         - TEMPERATURE OF MUD          
NEUT.         1                    : NEUTRON      - NEUTRON TYPE                
RESI.         0                    : RESIST       - RESISTIVITY TYPE            
RMC .OHMM     0.25                 : RMC          - RESISTIVITY OF MUD CAKE     
RMF .OHMM     0.25                 : RMF          - RESISTIVITY OF MUD FILTRATE 
SUFT.C        15                   : SUFT         - SURFACE TEMPERATURE         
~A  DEPTH     PHID     PHIN       GR     RESD
# ...
  408.794    0.310    0.390   54.713   57.417
  409.094    0.292    0.377   43.648   48.568
  409.394    0.280    0.381   62.705   37.431
  409.694    0.275    0.383   65.779   34.114
  409.994    0.275    0.394   81.762   36.084
  410.294    0.275    0.390   81.762   47.728
  410.594    0.283    0.377   69.467   54.390
  410.894    0.287    0.367   46.721   50.503
  411.194    0.283    0.390   43.033   42.719
  411.494    0.272    0.374   45.492   37.510
  411.794    0.266    0.367   78.689   35.483
  412.094    0.266    0.377   80.533   38.956
  412.394    0.295    0.362   58.402   53.485
  412.694    0.301    0.375   48.566   58.723
  412.994    0.296    0.368   53.484   53.514
  413.294    0.284    0.351   58.402   38.284
  413.594    0.272    0.352   51.639   28.960
  413.894    0.255    0.351   70.697   22.320
  414.194    0.236    0.354   81.762   19.236
  414.494    0.229    0.379  100.820   19.242
  414.794    0.242    0.369  105.123   20.735
  415.094    0.269    0.368   86.066   27.428
  415.394    0.262    0.370  124.795   34.307
  415.694    0.275    0.369  116.803   36.290
  415.994    0.283    0.326   88.525   34.328
  416.294    0.285    0.344   82.992   28.503
  416.594    0.283    0.364   82.992   22.380
  416.894    0.272    0.359   78.689   20.397
  417.194    0.232    0.367   96.516   21.575
  417.494    0.229    0.395   94.672   28.537
  417.794    0.257    0.412   74.385   32.521
  418.094    0.292    0.371   73.156   32.529
  418.394    0.296    0.361   70.697   27.517
  418.694    0.290    0.349   63.934   18.966
  418.994    0.265    0.325   91.598   16.345
  419.294    0.225    0.336   98.361   14.896
  419.594    0.226    0.340   98.975   13.831
  419.894    0.218    0.332   97.746   13.085
  420.194    0.213    0.316   95.902   13.087
  420.494    0.212    0.316  110.656   12.614
  420.794    0.214    0.320  107.582   12.616
  421.094    0.218    0.322  107.582   13.099
  421.394    0.220    0.334  103.893   13.599
  421.694    0.218    0.344  102.049   13.605
  421.994    0.210    0.349  107.582   12.869
  422.294    0.208    0.338  109.426   12.174
  422.594    0.210    0.341  113.115   11.731
  422.894    0.213    0.336  103.893   11.098
  423.194    0.211    0.327  111.885   11.101
  423.494    0.209    0.329  116.189   11.313
  423.794    0.211    0.347  122.336   11.747
  424.094    0.217    0.359  121.107   11.969
  424.394    0.226    0.347  111.885   12.900
  424.694    0.232    0.340  100.205   13.902
  424.994    0.235    0.332   95.287   14.432
  425.294    0.243    0.332   89.754   15.553
  425.594    0.246    0.341   88.525   17.397
  425.894    0.250    0.355   89.754   20.200
  426.194    0.255    0.367   89.139   23.018
  426.494    0.263    0.372   82.377   27.228
  426.794    0.270    0.366   82.992   32.205
  427.094    0.280    0.365   78.074   36.703
  427.394    0.288    0.359   67.008   38.824
  427.694    0.293    0.362   62.705   37.414
  427.994    0.291    0.349   73.156   33.471
  428.294    0.285    0.343   75.615   33.477
  428.594    0.281    0.349   68.238   41.102
  428.894    0.280    0.355   63.934   47.722
  429.194    0.281    0.354   73.770   48.633
  429.493    0.287    0.349   57.172   45.155
  429.793    0.292    0.349   60.246   38.914
  430.093    0.289    0.361   72.541   34.168
  430.393    0.282    0.367   98.975   36.825
  430.693    0.281    0.372   81.147   36.833
  430.993    0.290    0.390   68.853   33.569
  431.293    0.294    0.356   57.787   26.852
  431.593    0.285    0.341   53.484   16.244
  431.893    0.264    0.330   57.172   11.406
  432.193    0.245    0.312   57.787    9.297
  432.493    0.000    0.294   57.172    8.793
  432.793    0.000    0.247   58.402    8.796
  433.093    0.000    0.217   54.098   10.213
  433.393    0.000    0.175   57.787   14.553
  433.693    0.000    0.152   59.631   22.762
  433.993    0.000    0.144   58.402   29.552
  434.293    0.000    0.146   54.098   31.846
  434.593    0.000    0.153   52.869   31.858
  434.893    0.002    0.161   53.484   30.136
