~VERSION INFORMATION
 VERS.                 2.0:   CWLS LOG ASCII STANDARD -VERSION 2.0
 WRAP.                  NO:   ONE LINE PER DEPTH STEP
~WELL INFORMATION BLOCK
#MNEM.UNIT           DATA                    DESCRIPTION OF MNEMONIC
#---------    -------------------            -------------------------------
# Generated from Intellog Unique Number	CN_94_101/WELL/3636
WELL.         10-27-096-13W4                 : Well_name    - WELL
LOC .         AA/10-27-096-13W4/0            : Location     - LOCATION
UWI .         AA/10-27-096-13W400            : Uwi          - UNIQUE WELL ID
ENTR.         J                              : Entered      - ENTERED BY
SRVC.         SCHLUMBERGER                   : Scn          - SERVICE COMPANY
DATE.         08/05/92                       : Date         - LOG DATE
STRT.F        100                            : top_depth    - START DEPTH
STOP.F        799.639                        : bot_depth    - STOP DEPTH
STEP.F        0.82                           : increment    - STEP LENGTH
 NULL. -999.2500:NULL Value
~CURVE INFORMATION BLOCK
#MNEM UNIT       ERCB CURVE CODE    CURVE DESCRIPTION
#-----------   ------------------   ----------------------------------
DEPT.F        00 001 00 00         : DEPTH        - DEPTH
ILD .OHMM     00 120 00 00         : RESD         - DEEP RESISTIVITY (DIL)
GR  .API      00 310 00 00         : GR           - GAMMA RAY
NPHI.V/V      00 330 00 00         : PHIN         - NEUTRON POROSITY (SANDSTONE)
~PARAMETER INFORMATION
#MNEM.UNIT           DATA             DESCRIPTION OF MNEMONIC
#---------         -----------     ------------------------------
GL  .M        430.012              : gl           - GROUND LEVEL ELEVATION
EREF.M        431.536              : kb           - ELEVATION OF DEPTH REFERENCE
DATM.M        431.536              : datum        - DATUM ELEVATION
TDD .M        248.107              : tdd          - TOTAL DEPTH DRILLER
RUN .         ONE                  : Run          - RUN NUMBER
ENG .         BILL                 : Engineer     - RECORDING ENGINEER
WIT .         JIM                  : Witness      - WITNESSED BY
MUD .         GEL                  : Mud_type     - MUD TYPE
MATR.         SANDSTONE            : Logunit      - NEUTRON MATRIX
TMAX.F        40                   : BHT          - MAXIMUM RECORDED TEMPERATURE
BHTD.F        814                  : BHTDEP       - MAXIMUM RECORDED TEMPERATURE
RMT .F        40                   : MDTP         - TEMPERATURE OF MUD
MUDD.LB/G     11.2                 : MWT          - MUD DENSITY
NEUT.         1                    : NEUTRON      - NEUTRON TYPE
RESI.         0                    : RESIST       - RESISTIVITY TYPE
RM  .OHMM     7.7                  : RM           - RESISTIVITY OF MUD
RMC .OHMM     7.7                  : RMC          - RESISTIVITY OF MUD CAKE
RMF .OHMM     7.7                  : RMF          - RESISTIVITY OF MUD FILTRATE
SUFT.F        39.2                 : SUFT         - SURFACE TEMPERATURE
~A  DEPTH     RESD       GR     PHIN
  100.000    9.282   70.133    0.537
  100.820    8.329   70.167    0.527
  101.640    8.820   71.838    0.510
  102.461    9.682   74.317    0.502
  103.281    9.698   77.611    0.518
  104.101    9.364   83.757    0.491
  104.921    9.383   82.576    0.477
  105.741    9.573   79.349    0.488
  106.562    9.589   82.235    0.519
  107.382   10.344   82.684    0.517
  108.202   11.355   79.449    0.508
  109.022   13.678   74.999    0.489
  109.843   14.747   70.141    0.473
  110.663   13.978   70.582    0.472
  111.483   11.648   73.876    0.476
  112.303    7.641   73.102    0.480
  113.123    6.140   74.366    0.554
  113.944    6.868   77.244    0.555
  114.764    7.137   79.723    0.543
  115.584    6.402   80.188    0.550
  116.404    5.957   77.760    0.564
  117.224    5.649   72.079    0.539
  118.045   11.599   59.070    0.517
  118.865   28.117   51.360    0.494
  119.685   40.712   45.280    0.457
  120.505   32.699   40.422    0.472
  121.325   30.429   41.678    0.479
  122.146   26.307   40.896    0.464
  122.966   21.130   40.522    0.440
  123.786   24.075   42.194    0.419
  124.606   31.795   44.664    0.420
  125.427   21.236   44.298    0.433
  126.247   17.695   43.108    0.442
  127.067   14.483   47.625    0.470
  127.887   18.092   48.074    0.452
  128.707   20.238   47.292    0.472
  129.528   15.667   53.439    0.489
  130.348   12.129   57.955    0.510
  131.168   10.107   61.249    0.462
  131.988    9.944   67.404    0.457
  132.808    9.596   75.197    0.464
  133.629    8.145   71.970    0.479
  134.449    6.306   68.327    0.476
  135.269    7.454   65.507    0.463
  136.089    8.654   61.864    0.445
  136.909    8.511   57.822    0.440
  137.730   15.654   52.149    0.452
  138.550   29.327   44.031    0.458
  139.370   27.302   41.627    0.453
  140.190   26.349   43.291    0.457
  141.010   31.173   45.769    0.459
  141.831   30.084   48.655    0.454
  142.651   21.243   51.542    0.454
  143.471   14.451   51.991    0.457
  144.291   11.823   51.608    0.457
  145.112   19.117   49.612    0.457
  145.932   22.599   47.607    0.462
  146.752   29.845   45.195    0.464
  147.572   32.777   44.821    0.467
  148.392   27.832   46.077    0.470
  149.213   24.953   47.341    0.474
  150.033   22.382   47.773    0.473
  150.853   19.709   46.584    0.481
  151.673   17.040   43.365    0.470
  152.493   20.525   42.175    0.479
  153.314   19.101   44.247    0.458
  154.134   15.341   47.133    0.478
  154.954   13.021   46.758    0.485
  155.774   14.300   43.140    0.475
  156.594   18.541   41.934    0.495
  157.415   19.999   40.337    0.490
  158.235   20.396   39.971    0.474
  159.055   16.686   40.819    0.480
  159.875   14.973   43.714    0.495
  160.696   18.704   45.369    0.494
  161.516   18.744   47.873    0.474
  162.336   19.471   48.713    0.483
  163.156   24.333   50.775    0.507
  163.976   22.644   53.254    0.447
  164.797   11.476   56.964    0.451
  165.617    8.253   56.589    0.443
  166.437    7.008   55.807    0.436
  167.257    7.286   60.731    0.448
  168.077    7.566   70.554    0.461
  168.898    8.015   84.453    0.485
  169.718    7.882   82.041    0.501
  170.538    8.343   77.591    0.499
  171.358    8.513   77.624    0.507
  172.178    8.682   81.325    0.507
  172.999    8.236   82.997    0.490
  173.819    8.559   85.068    0.496
  174.639    8.573   88.370    0.459
  175.459    8.743   86.357    0.481
  176.280    8.758   88.020    0.491
  177.100    7.855   86.848    0.472
  177.920    7.449   86.058    0.506
  178.740    8.035   88.536    0.498
  179.560    7.757   91.838    0.478
  180.381    7.490   90.640    0.496
  181.201    7.641   90.674    0.506
  182.021    8.089   91.131    0.491
  182.841    8.102   88.719    0.486
  183.661    7.680   86.298    0.514
  184.482    7.147   85.517    0.490
  185.302    7.852   88.003    0.497
  186.122    9.286   89.659    0.509
  186.942   10.383   88.877    0.480
  187.762   10.794   84.427    0.454
  188.583   10.045   81.615    0.481
  189.403    8.371   91.022    0.519
  190.223    6.978   91.463    0.528
  191.043    7.252   91.904    0.550
  191.864    7.673   95.206    0.532
  192.684    8.273   94.017    0.505
  193.504    8.287   91.197    0.512
  194.324    7.037   87.570    0.497
  195.144    6.796   86.381    0.487
  195.965    7.325   86.414    0.495
  196.785    7.206   84.401    0.502
  197.605    7.087   84.443    0.523
  198.425    7.098   87.329    0.505
  199.245    7.799   88.585    0.468
  200.066    8.105   86.181    0.463
  200.886    7.405   84.168    0.472
  201.706    7.420   81.357    0.489
  202.526    7.708   80.974    0.504
  203.346    8.014   82.638    0.473
  204.167    8.176   85.133    0.464
  204.987    8.190   84.351    0.452
  205.807    7.482   84.792    0.474
  206.627    7.092   86.455    0.477
  207.448    7.937   85.673    0.462
  208.268    8.874   82.846    0.453
  209.088   10.116   78.395    0.475
  209.908    8.586   77.206    0.514
  210.728    7.021   78.870    0.537
  211.549    5.050   84.209    0.536
  212.369    4.131   89.541    0.537
  213.189    4.978   91.213    0.541
  214.009    4.898   90.431    0.542
  214.829    4.813   90.871    0.541
  215.650    4.648   86.014    0.539
  216.470    4.831   81.165    0.515
  217.290    5.606   83.635    0.534
  218.110    6.876   88.160    0.510
  218.930    6.762   86.147    0.482
  219.751    6.065   81.705    0.510
  220.571    5.341   84.591    0.508
  221.391    5.454   90.339    0.527
  222.211    5.465   87.927    0.534
  223.031    5.571   86.321    0.524
  223.852    5.580   86.363    0.529
  224.672    5.590   85.573    0.550
  225.492    5.604   82.761    0.522
  226.312    5.613   84.017    0.503
  227.133    5.518   91.387    0.500
  227.953    5.428   96.319    0.479
  228.773    5.437   93.499    0.493
  229.593    6.195   87.003    0.516
  230.413    6.685   83.776    0.524
  231.234    6.569   86.670    0.509
  232.054    6.342   84.258    0.517
  232.874    5.794   80.632    0.504
  233.694    5.013   81.480    0.507
  234.514    4.840   83.135    0.516
  235.335    4.760   80.324    0.518
  236.155    5.625   77.920    0.504
  236.975    6.775   76.306    0.488
  237.795    6.915   73.903    0.485
  238.615    6.801   74.343    0.471
  239.436    7.604   76.007    0.459
  240.256    9.334   76.040    0.447
  241.076   10.246   78.926    0.432
  241.896   11.257   78.552    0.431
  242.717   10.101   75.333    0.447
  243.537    8.729   76.589    0.487
  244.357    7.550   77.030    0.506
  245.177    8.288   75.433    0.469
  245.997    9.801   73.021    0.461
  246.818   11.807   69.386    0.434
  247.638   13.201   63.713    0.442
  248.458   15.321   59.671    0.441
  249.278   14.269   60.112    0.388
  250.098   12.331   61.367    0.316
  250.919   11.475   57.733    0.282
  251.739   15.430   54.505    0.279
  252.559   28.381   51.278    0.354
  253.379   24.089   54.164    0.413
  254.199   13.639   57.882    0.438
  255.020    9.626   56.693    0.451
  255.840   11.596   54.680    0.447
  256.660   15.882   53.499    0.450
  257.480   13.991   55.154    0.466
  258.301   14.281   57.225    0.479
  259.121   15.397   58.098    0.456
  259.941   14.061   58.522    0.450
  260.761   11.294   63.039    0.449
  261.581    9.411   67.156    0.445
  262.402    7.988   70.857    0.442
  263.222    8.005   74.966    0.446
  264.042    8.167   76.222    0.465
  264.862    8.332   77.087    0.461
  265.682    8.666   73.044    0.454
  266.503    8.674   69.401    0.451
  267.323    9.021   69.850    0.452
  268.143    9.037   71.106    0.448
  268.963    9.569   71.140    0.446
  269.783    9.937   69.950    0.447
  270.604   12.186   67.937    0.456
  271.424   12.439   65.118    0.440
  272.244    9.991   63.521    0.446
  273.064    8.021   76.197    0.436
  273.885    6.096   79.906    0.460
  274.705    5.468   79.939    0.488
  275.525    4.727   80.388    0.517
  276.345    4.486   80.422    0.512
  277.165    4.576   80.047    0.527
