~VERSION INFORMATION
 VERS.                 2.0:   CWLS LOG ASCII STANDARD -VERSION 2.0
 WRAP.                  NO:   ONE LINE PER DEPTH STEP
~WELL INFORMATION BLOCK
#MNEM.UNIT           DATA                    DESCRIPTION OF MNEMONIC
#---------    -------------------            -------------------------------
# Generated from Intellog Unique Number	CW_79_81/WELL/924
WELL.         12-29-079-22W4                 : Well_name    - WELL
LOC .         AA/12-29-079-22W4/0            : Location     - LOCATION
UWI .         AA/12-29-079-22W4/0            : Uwi          - UNIQUE WELL ID
ENTR.         MAX                            : Entered      - ENTERED BY
SRVC.         SCHLUMBERGER                   : Scn          - SERVICE COMPANY
STRT.M        215                            : top_depth    - START DEPTH
STOP.M        450                            : bot_depth    - STOP DEPTH
STEP.M        0.25                           : increment    - STEP LENGTH
 NULL. -999.2500:NULL Value
~CURVE INFORMATION BLOCK
#MNEM UNIT       ERCB CURVE CODE    CURVE DESCRIPTION
#-----------   ------------------   ----------------------------------
DEPT.M        00 001 00 00         : DEPTH        - DEPTH
ILD .OHMM     00 120 00 00         : RESD         - DEEP RESISTIVITY (DIL)
NPHI.V/V      00 330 00 00         : PHIN         - NEUTRON POROSITY (SANDSTONE)
DPHI.V/V      00 890 00 00         : PHID         - DENSITY POROSITY (SANDSTONE)
CALI.MM       00 280 01 00         : CAL          - CALIPER
GR  .API      00 310 00 00         : GR           - GAMMA RAY
~PARAMETER INFORMATION
#MNEM.UNIT           DATA             DESCRIPTION OF MNEMONIC
#---------         -----------     ------------------------------
GL  .M        568.6                : gl           - GROUND LEVEL ELEVATION
EREF.M        573.2                : kb           - ELEVATION OF DEPTH REFERENCE
DATM.M        568.6                : datum        - DATUM ELEVATION
TDD .M        458                  : tdd          - TOTAL DEPTH DRILLER
RUN .         ONE                  : Run          - RUN NUMBER
ENG .         BILL                 : Engineer     - RECORDING ENGINEER
WIT .         JIM                  : Witness      - WITNESSED BY
MUD .         GEL                  : Mud_type     - MUD TYPE
MATR.         SANDSTONE            : Logunit      - NEUTRON MATRIX
TMAX.C        21                   : BHT          - MAXIMUM RECORDED TEMPERATURE
BHTD.M        458                  : BHTDEP       - MAXIMUM RECORDED TEMPERATURE
RMT .C        14.4                 : MDTP         - TEMPERATURE OF MUD
MUDD.KG/M     1070                 : MWT          - MUD DENSITY
NEUT.         1                    : NEUTRON      - NEUTRON TYPE
RESI.         0                    : RESIST       - RESISTIVITY TYPE
RM  .OHMM     0.89                 : RM           - RESISTIVITY OF MUD
RMC .OHMM     0                    : RMC          - RESISTIVITY OF MUD CAKE
RMF .OHMM     0.77                 : RMF          - RESISTIVITY OF MUD FILTRATE
SUFT.C        -20                  : SUFT         - SURFACE TEMPERATURE
~A  DEPTH     RESD     PHIN     PHID      CAL       GR
# ...
  288.000   21.779    0.476    0.347  264.106   42.084
  288.250   21.772    0.469    0.348  264.568   41.170
  288.500   21.965    0.457    0.349  265.030   40.259
  288.750   22.162    0.456    0.347  264.999   40.536
  289.000   22.358    0.460    0.346  264.965   40.513
  289.250   22.147    0.462    0.345  265.422   39.897
  289.500   21.740    0.460    0.339  265.392   39.873
  289.750   21.338    0.460    0.336  265.853   41.341
  290.000   21.137    0.482    0.337  266.306   42.811
  290.250   20.939    0.485    0.345  266.276   46.062
  290.500   20.931    0.470    0.343  266.733   49.614
  290.750   20.926    0.459    0.339  266.699   50.486
  291.000   20.920    0.455    0.335  266.664   51.058
  291.250   20.913    0.463    0.336  266.630   51.340
  291.500   20.907    0.472    0.336  266.595   51.614
  291.750   21.094    0.483    0.331  266.565   52.189
  292.000   21.281    0.509    0.325  266.522   53.061
  292.250   21.080    0.494    0.310  267.975   53.639
  292.500   20.692    0.479    0.306  269.434   53.910
  292.750   20.310    0.469    0.301  273.860   53.294
  293.000   20.490    0.487    0.291  275.814   51.785
  293.250   19.568    0.507    0.287  275.780   50.574
  293.500   17.526    0.510    0.297  274.748   50.851
  293.750   15.554    0.495    0.320  274.213   51.127
  294.000   14.059    0.489    0.324  274.188   49.916
  294.250   14.055    0.483    0.300  274.645   51.982
  294.500   15.684    0.476    0.243  276.099   52.851
  294.750   19.713    0.456    0.230  277.557   49.556
  295.000   20.071    0.437    0.287  282.479   45.070
  295.250   20.249    0.455    0.323  286.414   45.050
  295.500   20.617    0.488    0.331  289.352   44.431
  295.750   20.610    0.499    0.340  291.802   44.410
  296.000   20.046    0.502    0.344  294.740   42.306
  296.250   19.858    0.495    0.332  298.178   40.496
  296.500   20.404    0.480    0.339  301.121   40.473
  296.750   20.586    0.477    0.351  303.075   40.750
  297.000   20.023    0.536    0.362  307.005   40.437
  297.250   18.774    0.581    0.371  330.789   40.711
  297.500   18.941    0.593    0.388  365.980   42.176
  297.750   19.822    0.599    0.473  353.042   44.542
  298.000   23.582    0.592    0.515  336.639   50.773
  298.250   24.232    0.560    0.469  297.902   53.723
  298.500   22.720    0.527    0.331  277.025   52.217
  298.750   20.917    0.490    0.334  279.472   47.433
  299.000   18.061    0.496    0.324  291.344   47.115
  299.250   15.882    0.480    0.256  285.852   54.238
  299.500   14.356    0.436    0.193  279.368   60.469
  299.750   12.283    0.356    0.153  275.860   65.809
  300.000   10.801    0.384    0.151  273.341   72.635
  300.250   10.801    0.399    0.176  272.810   77.675
  300.500   10.598    0.414    0.192  272.776   74.076
  300.750   10.404    0.433    0.200  273.242   71.374
  301.000   10.690    0.452    0.194  273.703   69.573
  301.250   10.985    0.464    0.173  273.664   68.359
  301.500   11.391    0.457    0.175  273.630   68.335
  301.750   11.597    0.433    0.186  273.099   69.210
  302.000   11.597    0.446    0.201  270.579   70.383
  302.250   11.696    0.460    0.208  264.095   71.850
  302.500   11.910    0.456    0.204  261.584   73.318
  302.750   12.239    0.461    0.191  260.557   75.676
  303.000   12.692    0.470    0.188  260.497   77.739
  303.250   12.688    0.468    0.188  259.979   77.710
  303.500   12.918    0.455    0.185  260.449   77.397
  303.750   12.797    0.431    0.178  260.411   76.781
  304.000   12.561    0.391    0.172  259.880   75.275
  304.250   11.995    0.418    0.158  258.857   71.679
  304.500   11.560    0.428    0.136  258.823   72.256
  304.750   11.347    0.463    0.192  258.788   78.189
  305.000   11.138    0.472    0.201  258.253   81.736
  305.250   10.539    0.468    0.185  255.233   82.015
  305.500   10.439    0.459    0.199  253.719   80.506
  305.750   10.727    0.474    0.229  253.180   77.508
  306.000   10.922    0.496    0.246  253.145   75.106
  306.250   11.020    0.502    0.240  253.615   74.785
  306.500   11.016    0.499    0.226  254.569   77.146
  306.750   11.114    0.486    0.212  254.534   77.425
  307.000   11.213    0.469    0.199  254.500   76.214
  307.250   11.107    0.453    0.201  255.457   78.572
  307.500   10.607    0.469    0.209  256.415   78.254
  307.750   10.507    0.463    0.214  256.376   76.745
  308.000   10.504    0.470    0.218  256.346   74.938
  308.250   10.598    0.489    0.229  256.807   75.810
  308.500   11.091    0.486    0.229  257.765   77.575
  308.750   12.375    0.470    0.228  259.215   78.150
  309.000   13.936    0.463    0.242  259.184   76.043
  309.250   15.837    0.458    0.266  259.184   72.745
  309.500   15.832    0.452    0.267  259.111   70.048
  309.750   14.311    0.461    0.257  260.064   65.562
  310.000   12.022    0.479    0.249  260.034   62.562
  310.250   11.480    0.466    0.237  260.496   66.711
  310.500   11.797    0.458    0.238  261.445   71.751
  310.750   12.574    0.460    0.244  261.419   75.005
  311.000   13.159    0.447    0.248  261.384   73.198
  311.250   12.917    0.438    0.225  261.350   72.582
  311.500   11.255    0.462    0.216  261.807   74.044
  311.750    9.808    0.475    0.225  261.768   76.105
  312.000    9.029    0.474    0.228  261.742   77.578
  312.250    8.701    0.466    0.230  261.703   81.427
  312.500    8.541    0.470    0.227  261.664   85.868
  312.750    8.776    0.477    0.223  262.126   87.339
  313.000    9.355    0.485    0.218  262.592   83.150
  313.250   10.343    0.494    0.224  261.565   76.581
  313.500   12.305    0.498    0.245  261.030   71.797
  313.750   12.529    0.494    0.263  260.499   67.606
  314.000   12.640    0.481    0.278  259.969   59.248
  314.250   11.852    0.490    0.292  259.438   59.823
  314.500   11.317    0.505    0.285  259.895   65.758
  314.750   11.418    0.513    0.275  260.357   65.142
  315.000   11.733    0.521    0.266  260.318   62.735
  315.250   12.055    0.527    0.263  260.283   64.803
  315.500   12.164    0.476    0.272  260.258   67.161
  315.750   12.498    0.459    0.278  260.223   66.542
  316.000   12.726    0.475    0.278  260.184   66.227
  316.250   13.197    0.480    0.272  260.154   65.015
  316.500   13.437    0.468    0.274  260.115   62.610
  316.750   13.189    0.459    0.290  260.080   61.694
  317.000   12.031    0.458    0.293  259.545   63.762
  317.250   10.483    0.466    0.286  259.515   68.504
  317.500   10.772    0.478    0.269  259.977   71.758
  317.750   12.131    0.472    0.271  259.934   69.653
  318.000   12.016    0.441    0.266  259.903   66.058
  318.250   10.664    0.422    0.250  259.864   68.716
  318.500   10.468    0.459    0.241  259.804   74.352
  318.750   11.158    0.479    0.248  259.795   77.308
  319.000   12.112    0.484    0.269  259.260   73.715
  319.250   12.332    0.468    0.267  258.238   67.443
  319.500   12.443    0.469    0.261  258.203   60.278
  319.750   12.439    0.483    0.260  259.165   59.954
  320.000   12.899    0.478    0.278  259.627   58.442
  320.250   13.875    0.478    0.284  260.580   58.424
  320.500   15.063    0.474    0.279  261.042   61.681
  320.750   17.435    0.449    0.246  262.496   61.958
  321.000   21.516    0.410    0.198  264.446   59.258
  321.250   25.132    0.388    0.167  265.899   57.153
  321.500   24.445    0.396    0.147  266.361   55.939
  321.750   22.920    0.410    0.150  266.326   55.321
  322.000   21.294    0.408    0.152  266.292   54.407
  322.250   17.723    0.393    0.149  265.761   53.198
  322.500   17.238    0.358    0.143  265.222   51.984
  322.750   17.876    0.353    0.130  265.196   54.943
  323.000   19.586    0.381    0.108  266.145   60.277
  323.250   20.685    0.392    0.155  267.603   60.852
  323.500   18.192    0.400    0.164  269.057   62.022
  323.750   11.399    0.415    0.172  270.015   65.278
  324.000   10.986    0.415    0.190  269.980   69.422
  324.250   10.783    0.415    0.207  269.946   69.997
