~VERSION INFORMATION
 VERS.                 2.0:   CWLS LOG ASCII STANDARD -VERSION 2.0
 WRAP.                  NO:   ONE LINE PER DEPTH STEP
~WELL INFORMATION BLOCK
#MNEM.UNIT           DATA                    DESCRIPTION OF MNEMONIC
#---------    -------------------            -------------------------------
# Generated from Intellog Unique Number	CN_94_101/WELL/1068
WELL.         10-17-094-06W4                 : Well_name    - WELL
LOC .         AA/10-17-094-06W4/0            : Location     - LOCATION
UWI .         AA/10-17-094-06W400            : Uwi          - UNIQUE WELL ID
ENTR.         JOETTE                         : Entered      - ENTERED BY
SRVC.         SCHLUMBERGER                   : Scn          - SERVICE COMPANY
DATE.         04/10/92                       : Date         - LOG DATE
STRT.M        80                             : top_depth    - START DEPTH
STOP.M        285                            : bot_depth    - STOP DEPTH
STEP.M        0.25                           : increment    - STEP LENGTH
 NULL. -999.2500:NULL Value
~CURVE INFORMATION BLOCK
#MNEM UNIT       ERCB CURVE CODE    CURVE DESCRIPTION
#-----------   ------------------   ----------------------------------
DEPT.M        00 001 00 00         : DEPTH        - DEPTH
ILD .OHMM     00 120 00 00         : RESD         - DEEP RESISTIVITY (DIL)
DPHI.V/V      00 890 00 00         : PHID         - DENSITY POROSITY (SANDSTONE)
NPHI.V/V      00 330 00 00         : PHIN         - NEUTRON POROSITY (SANDSTONE)
GR  .API      00 310 00 00         : GR           - GAMMA RAY
CALI.MM       00 280 01 00         : CAL          - CALIPER
~PARAMETER INFORMATION
#MNEM.UNIT           DATA             DESCRIPTION OF MNEMONIC
#---------         -----------     ------------------------------
GL  .M        564.2                : gl           - GROUND LEVEL ELEVATION
EREF.M        566.9                : kb           - ELEVATION OF DEPTH REFERENCE
DATM.M        566.9                : datum        - DATUM ELEVATION
TDD .M        287                  : tdd          - TOTAL DEPTH DRILLER
RUN .         ONE                  : Run          - RUN NUMBER
ENG .         BILL                 : Engineer     - RECORDING ENGINEER
WIT .         JIM                  : Witness      - WITNESSED BY
MUD .         GEL                  : Mud_type     - MUD TYPE
MATR.         SANDSTONE            : Logunit      - NEUTRON MATRIX
TMAX.C        18                   : BHT          - MAXIMUM RECORDED TEMPERATURE
BHTD.M        287                  : BHTDEP       - MAXIMUM RECORDED TEMPERATURE
RMT .C        5                    : MDTP         - TEMPERATURE OF MUD
MUDD.KG/M     1                    : MWT          - MUD DENSITY
NEUT.         1                    : NEUTRON      - NEUTRON TYPE
RESI.         0                    : RESIST       - RESISTIVITY TYPE
RM  .OHMM     11.4                 : RM           - RESISTIVITY OF MUD
RMC .OHMM     11.4                 : RMC          - RESISTIVITY OF MUD CAKE
RMF .OHMM     11.4                 : RMF          - RESISTIVITY OF MUD FILTRATE
SUFT.C        4                    : SUFT         - SURFACE TEMPERATURE
~A  DEPTH     RESD     PHID     PHIN       GR      CAL
# ...
  153.000    8.882    0.243    0.521  104.711  184.378
  153.250    7.630    0.246    0.527  108.985  184.371
  153.500    7.343    0.238    0.518  108.368  184.359
  153.750    7.066    0.229    0.513  107.750  184.352
  154.000    7.063    0.222    0.507  106.522  185.357
  154.250    6.926    0.223    0.493  107.127  186.365
  154.500    7.189    0.209    0.478  109.569  187.379
  154.750    7.604    0.182    0.470  112.008  189.407
  155.000    7.892    0.214    0.472  115.059  192.455
  155.250    8.037    0.209    0.477  111.994  191.424
  155.500    8.033    0.191    0.484  111.377  190.396
  155.750    7.876    0.184    0.503  114.428  189.367
  156.000    7.724    0.173    0.511  113.811  189.358
  156.250    7.293    0.131    0.501  115.030  188.327
  156.500    7.019    0.178    0.507  120.525  187.304
  156.750    6.628    0.217    0.527  119.295  190.351
  157.000    6.379    0.210    0.533  118.681  192.380
  157.250    6.255    0.208    0.538  115.619  193.389
  157.500    6.251    0.212    0.550  112.555  193.378
  157.750    6.368    0.211    0.531  113.772  193.368
  158.000    6.127    0.206    0.514  113.768  192.342
  158.250    5.896    0.219    0.504  112.538  193.350
  158.500    5.783    0.220    0.509  112.531  194.359
  158.750    5.459    0.209    0.508  112.528  194.350
  159.000    5.458    0.215    0.509  112.523  196.376
  159.250    5.559    0.221    0.510  113.127  197.388
  159.500    5.879    0.224    0.504  113.121  203.487
  159.750    5.988    0.212    0.510  111.893  204.502
  160.000    5.984    0.204    0.519  111.276  204.490
  160.250    5.980    0.202    0.527  111.269  202.443
  160.500    5.976    0.216    0.537  110.039  201.417
  160.750    5.973    0.238    0.552  109.425  198.348
  161.000    5.969    0.249    0.554  108.197  196.303
  161.250    5.744    0.248    0.559  105.135  195.273
  161.500    5.321    0.242    0.576  103.295  194.244
  161.750    5.026    0.232    0.583  102.065  193.214
  162.000    4.745    0.238    0.604  102.672  193.209
  162.250    4.655    0.248    0.599  105.112  193.195
  162.500    4.565    0.246    0.585  105.718  193.190
  162.750    4.562    0.251    0.572  103.264  193.174
  163.000    4.559    0.256    0.562  102.650  194.186
  163.250    4.557    0.251    0.546  104.478  194.179
  163.500    4.553    0.249    0.540  104.473  194.165
  163.750    4.550    0.239    0.546  104.463  194.158
  164.000    4.549    0.238    0.548  103.849  194.148
  164.250    4.633    0.238    0.537  102.619  194.141
  164.500    4.717    0.248    0.522  100.166  194.127
  164.750    4.715    0.251    0.513   99.552  194.120
  165.000    4.802    0.252    0.506   97.101  193.094
  165.250    4.890    0.252    0.507   94.037  193.080
  165.500    5.172    0.246    0.511   96.477  192.057
  165.750    5.681    0.248    0.512   97.084  191.028
  166.000    6.009    0.250    0.517   96.467  188.977
  166.250    6.237    0.247    0.522   93.405  187.951
  166.500    6.002    0.237    0.513   89.118  185.906
  166.750    5.668    0.247    0.482   86.669  183.859
  167.000    5.772    0.255    0.455   84.218  179.769
  167.250    6.461    0.255    0.454   84.212  178.743
  167.500    7.232    0.242    0.472   86.652  177.712
  167.750    7.945    0.244    0.486   86.645  178.724
  168.000    8.246    0.252    0.481   86.638  182.790
  168.250    8.398    0.259    0.472   86.632  187.873
  168.500    8.393    0.254    0.469   88.461  187.864
  168.750    7.926    0.242    0.469   90.291  184.800
  169.000    7.343    0.239    0.492   92.731  179.696
  169.250    7.068    0.242    0.506   91.502  181.722
  169.500    6.549    0.253    0.510   87.214  181.713
  169.750    6.069    0.258    0.495   86.600  179.666
  170.000    5.952    0.251    0.486   88.426  182.713
  170.250    6.293    0.244    0.483   89.644  186.782
  170.500    6.914    0.256    0.502   90.251  188.810
  170.750    7.885    0.250    0.504   91.467  187.782
  171.000    8.030    0.244    0.499   91.461  186.749
  171.250    8.027    0.239    0.491   92.067  186.742
  171.500    7.580    0.253    0.496   92.673  186.728
  171.750    6.892    0.252    0.510   93.890  186.723
  172.000    6.386    0.264    0.532   93.884  185.695
  172.250    5.806    0.273    0.543   89.597  182.629
  172.500    5.484    0.264    0.522   88.982  181.598
  172.750    5.277    0.250    0.506   90.811  181.591
  173.000    5.797    0.239    0.523   92.028  189.733
  173.250    6.612    0.240    0.524   89.577  193.797
  173.500    7.543    0.243    0.522   87.124  190.729
  173.750    7.539    0.266    0.517   87.731  188.686
  174.000    6.984    0.262    0.513   89.558  187.656
  174.250    6.723    0.262    0.513   92.000  188.665
  174.500    5.668    0.276    0.519   95.659  190.694
  174.750    6.225    0.294    0.516   96.268  194.762
  175.000    6.340    0.288    0.512   97.485  199.845
  175.250    5.875    0.277    0.509   92.587  200.855
  175.500    5.242    0.266    0.498   94.417  196.772
  175.750    4.504    0.265    0.497   94.412  189.628
  176.000    4.675    0.257    0.504   88.292  183.503
  176.250    5.233    0.260    0.492   85.840  179.418
  176.500    6.199    0.265    0.474   85.223  176.349
  176.750    7.204    0.265    0.461   84.603  174.304
  177.000    7.622    0.272    0.473   85.210  174.297
  177.250    8.531    0.277    0.501   85.817  176.326
  177.500    9.196    0.276    0.502   88.867  178.354
  177.750    8.522    0.277    0.508   90.086  179.364
  178.000    7.185    0.286    0.555   94.968  180.373
  178.250    5.208    0.298    0.574   98.022  184.437
  178.500    4.309    0.295    0.579  101.685  186.464
  178.750    3.431    0.281    0.573  100.456  187.475
  179.000    3.062    0.267    0.564   96.782  188.487
  179.250    2.946    0.259    0.551   94.331  189.492
  179.500    3.176    0.251    0.534   95.549  189.485
  179.750    4.058    0.246    0.503   97.377  189.478
  180.000    4.629    0.242    0.487   98.593  187.426
  180.250    5.589    0.236    0.498   98.588  185.377
  180.500    6.254    0.245    0.514   96.747  184.353
  180.750    6.372    0.239    0.511   94.296  182.304
  181.000    6.612    0.225    0.471   91.845  180.254
  181.250    6.862    0.212    0.433   91.225  179.230
  181.500    6.990    0.206    0.405   92.445  177.183
  181.750    7.255    0.219    0.399   93.661  175.134
  182.000    7.673    0.232    0.422   91.821  174.108
  182.250    9.264    0.236    0.456   90.593  174.098
  182.500   10.975    0.240    0.443   90.589  175.108
  182.750   12.055    0.231    0.448   92.416  177.134
  183.000   11.169    0.243    0.477   94.244  180.181
  183.250    9.964    0.235    0.470   94.239  183.224
  183.500    9.063    0.234    0.469   94.233  184.238
  183.750    7.641    0.234    0.469   94.229  185.248
  184.000    6.565    0.219    0.455   93.611  185.239
  184.250    6.199    0.229    0.440   94.216  184.208
  184.500    6.434    0.226    0.438   94.212  183.177
  184.750    7.201    0.223    0.442   94.815  182.154
  185.000    7.911    0.223    0.451   95.419  180.107
  185.250    8.687    0.223    0.460   95.416  179.076
  185.500    8.684    0.224    0.465   95.411  178.050
  185.750    8.515    0.230    0.466   94.794  177.022
  186.000    7.889    0.237    0.464   91.731  173.953
  186.250    7.176    0.246    0.449   87.446  172.927
  186.500    7.448    0.261    0.435   84.384  171.899
  186.750    8.658    0.272    0.422   80.710  170.868
  187.000   11.707    0.262    0.426   77.648  170.861
  187.250   15.243    0.247    0.440   79.476  171.871
  187.500   16.744    0.234    0.442   86.196  177.975
  187.750    6.884    0.242    0.479   93.526  180.004
  188.000    6.625    0.242    0.464   93.521  178.975
  188.250    7.142    0.250    0.448   91.681  176.928
  188.500    8.147    0.268    0.421   88.618  173.857
  188.750    9.470    0.270    0.430   86.168  171.808
  189.000    9.829    0.252    0.443   87.995  173.836
  189.250   10.011    0.235    0.444   91.046  177.905
