~VERSION INFORMATION
 VERS.                 2.0:   CWLS LOG ASCII STANDARD -VERSION 2.0
 WRAP.                  NO:   ONE LINE PER DEPTH STEP
~WELL INFORMATION BLOCK
#MNEM.UNIT           DATA                    DESCRIPTION OF MNEMONIC
#---------    -------------------            -------------------------------
# Generated from Intellog Unique Number	CN_94_101/WELL/5041
WELL.         MOBIL OIL OF CANADA LTD.       : Well_name    - WELL
LOC .         AA/15-15-097-13W4/0            : Location     - LOCATION
UWI .         AA/15-15-097-13W400            : Uwi          - UNIQUE WELL ID
ENTR.         JOETTE                         : Entered      - ENTERED BY
SRVC.         SCHLUMBERGER                   : Scn          - SERVICE COMPANY
DATE.         08/17/92                       : Date         - LOG DATE
STRT.M        45.72                          : top_depth    - START DEPTH
STOP.M        283.47                         : bot_depth    - STOP DEPTH
STEP.M        0.25                           : increment    - STEP LENGTH
 NULL. -999.2500:NULL Value
~CURVE INFORMATION BLOCK
#MNEM UNIT       ERCB CURVE CODE    CURVE DESCRIPTION
#-----------   ------------------   ----------------------------------
DEPT.M        00 001 00 00         : DEPTH        - DEPTH
ILD .OHMM     00 120 00 00         : RESD         - DEEP RESISTIVITY (DIL)
GR  .API      00 310 00 00         : GR           - GAMMA RAY
NPHI.V/V      00 330 00 00         : PHIN         - NEUTRON POROSITY (SANDSTONE)
~PARAMETER INFORMATION
#MNEM.UNIT           DATA             DESCRIPTION OF MNEMONIC
#---------         -----------     ------------------------------
GL  .M        484.632              : gl           - GROUND LEVEL ELEVATION
EREF.M        484.632              : kb           - ELEVATION OF DEPTH REFERENCE
DATM.M        484.632              : datum        - DATUM ELEVATION
TDD .M        281.026              : tdd          - TOTAL DEPTH DRILLER
RUN .         ONE                  : Run          - RUN NUMBER
ENG .         BILL                 : Engineer     - RECORDING ENGINEER
WIT .         JIM                  : Witness      - WITNESSED BY
MUD .         GEL                  : Mud_type     - MUD TYPE
MATR.         SANDSTONE            : Logunit      - NEUTRON MATRIX
TMAX.C        12.2222              : BHT          - MAXIMUM RECORDED TEMPERATURE
BHTD.M        281.026              : BHTDEP       - MAXIMUM RECORDED TEMPERATURE
RMT .C        12.2222              : MDTP         - TEMPERATURE OF MUD
MUDD.KG/M     0                    : MWT          - MUD DENSITY
NEUT.         1                    : NEUTRON      - NEUTRON TYPE
RESI.         0                    : RESIST       - RESISTIVITY TYPE
RM  .OHMM     5.2                  : RM           - RESISTIVITY OF MUD
RMC .OHMM     5.2                  : RMC          - RESISTIVITY OF MUD CAKE
RMF .OHMM     5.2                  : RMF          - RESISTIVITY OF MUD FILTRATE
SUFT.C        4                    : SUFT         - SURFACE TEMPERATURE
~A  DEPTH     RESD       GR     PHIN
# ...
  154.220    7.660  107.235    0.519
  154.470    8.780  105.947    0.524
  154.720   11.351  104.659    0.519
  154.970   10.663  105.585    0.513
  155.220    9.598  107.397    0.525
  155.470    8.903  106.108    0.519
  155.720    9.304  100.391    0.507
  155.970    9.698   96.023    0.508
  156.220    9.729   99.153    0.512
  156.470    9.034  103.623    0.509
  156.720   10.524  108.092    0.509
  156.970   12.362  106.361    0.520
  157.220   14.578  101.982    0.517
  157.470   14.616   99.365    0.489
  157.720   14.284   98.520    0.467
  157.970   14.307   99.889    0.457
  158.220   17.967  104.358    0.444
  158.470   16.546  108.384    0.446
  158.720   18.044  104.449    0.453
  158.970   15.890  101.822    0.460
  159.220   12.292   98.772    0.462
  159.470   11.234   97.916    0.455
  159.720   10.902   95.742    0.456
  159.970   10.578   93.568    0.458
  160.220   10.616   93.638    0.463
  160.470   10.269   94.555    0.465
  160.720   10.300   93.266    0.467
  160.970    9.968   92.874    0.469
  161.220   10.369   92.461    0.470
  161.470   12.214   91.173    0.470
  161.720   23.495   88.989    0.469
  161.970   12.639   91.253    0.455
  162.220   14.847   92.190    0.411
  162.470   15.241   89.562    0.439
  162.720   13.820   88.274    0.468
  162.970   11.311   86.120    0.469
  163.220    9.898   85.698    0.475
  163.470   11.751   84.862    0.487
  163.720   11.782   85.788    0.489
  163.970   12.893   88.486    0.471
  164.220   14.384   83.654    0.463
  164.470   12.600   83.695    0.460
  164.720   12.623   83.292    0.469
  164.970   14.121   84.218    0.486
  165.220   12.337   93.127    0.488
  165.470   10.546   93.610    0.480
  165.720   11.303   92.775    0.479
  165.970   14.237   91.033    0.489
  166.220   15.356   91.516    0.500
  166.470   12.129   93.328    0.505
  166.720   11.063   91.607    0.498
  166.970   11.465   89.423    0.495
  167.220   11.496   86.363    0.478
  167.470   11.164   85.075    0.477
  167.720   12.283   85.125    0.475
  167.970   13.040   87.400    0.473
  168.220   11.619   88.749    0.482
  168.470   10.198   91.457    0.479
  168.720   10.229   95.040    0.465
  168.970   12.816   97.305    0.466
  169.220   12.847   90.692    0.481
  169.470   14.321   87.642    0.476
  169.720   13.263   90.340    0.469
  169.970   12.568   91.699    0.467
  170.220   15.865   90.864    0.469
  170.470   11.541   89.132    0.464
  170.720    7.581   87.401    0.457
  170.970    6.160   91.427    0.450
  171.220    6.924   91.921    0.448
  171.470    9.858   91.075    0.457
  171.720   11.341   92.434    0.482
  171.970   12.105   93.391    0.505
  172.220   11.402   91.196    0.522
  172.470    7.449   87.704    0.532
  172.720    7.117   87.734    0.522
  172.970    6.777   88.660    0.502
  173.220    6.808   90.472    0.497
  173.470    7.573   97.166    0.489
  173.720    8.329   97.679    0.493
  173.970   10.553   97.257    0.517
  174.220   11.665   95.978    0.546
  174.470   13.139   95.113    0.549
  174.720   15.363   92.496    0.512
  174.970   13.942   89.879    0.495
  175.220   12.166   88.157    0.488
  175.470   11.464   91.288    0.478
  175.720   10.043   97.549    0.456
  175.970   10.792   96.261    0.450
  176.220   12.645   97.187    0.461
  176.470   12.683   98.556    0.466
  176.720   12.714   98.596    0.470
  176.970   15.277   96.442    0.463
  177.220   14.945   94.691    0.458
  177.470   14.251   88.974    0.455
  177.720   15.370   85.471    0.459
  177.970   12.498   83.296    0.462
  178.220   11.811   97.963    0.467
  178.470   11.841  100.670    0.466
  178.720   11.880  100.701    0.461
  178.970   12.274   99.855    0.471
  179.220   14.111   98.567    0.483
  179.470   17.771   96.835    0.495
  179.720   17.084   94.671    0.494
  179.970   17.478   92.044    0.452
  180.220   16.427   92.528    0.452
  180.470   14.281   96.121    0.462
  180.720   12.853   97.933    0.474
  180.970   15.061   98.869    0.472
  181.220   50.669   97.581    0.448
  181.470   40.540   98.517    0.392
  181.720   16.242  100.329    0.359
  181.970   12.652   99.484    0.340
  182.220   17.037   95.085    0.364
  182.470   16.705   93.807    0.392
  182.720   14.566   93.837    0.447
  182.970   14.234   89.891    0.441
  183.220   14.265   79.735    0.450
  183.470   15.740   75.356    0.456
  183.720   15.416   87.365    0.464
  183.970   16.898   90.053    0.460
  184.220   19.469   91.442    0.457
  184.470   19.145   90.586    0.457
  184.720   18.442   91.070    0.461
  184.970   17.384   95.096    0.455
  185.220   16.326   99.142    0.455
  185.470   14.906  101.407    0.455
  185.720   12.767  101.427    0.454
  185.970   14.975  101.468    0.453
  186.220   17.183   99.747    0.457
  186.470   17.585   96.687    0.477
  186.720   16.882   93.617    0.485
  186.970   16.550   89.671    0.476
  187.220   16.944   88.403    0.471
  187.470   16.612   89.762    0.467
  187.720   16.643   90.245    0.468
  187.970   20.310   88.071    0.475
  188.220   26.147   84.145    0.479
  188.470   81.730   81.971    0.400
  188.720   62.520   81.549    0.372
  188.970   30.965   83.823    0.363
  189.220   16.117   84.730    0.314
  189.470   13.608   87.890    0.282
  189.720   13.994   87.488    0.330
  189.970   11.485   85.746    0.442
  190.220   10.435   80.472    0.458
  190.470   10.110   76.083    0.474
  190.720   10.149   71.242    0.481
  190.970   10.172   66.863    0.503
  191.220   10.211   68.232    0.507
  191.470   10.226   70.487    0.507
  191.720   10.257   72.742    0.506
  191.970   10.666   76.778    0.497
  192.220   10.689   84.791    0.473
  192.470   12.534   93.256    0.473
  192.720   16.202   98.168    0.473
  192.970   15.499  101.329    0.468
  193.220   10.813  101.359    0.458
  193.470    9.029  100.081    0.453
  193.720    8.334   98.340    0.459
  193.970    8.018   97.052    0.486
  194.220    7.670   97.535    0.503
  194.470    6.991   97.575    0.504
  194.720    6.643   96.287    0.484
  194.970    7.045   94.998    0.487
  195.220    9.260   95.039    0.498
  195.470   11.469  100.857    0.509
  195.720   13.669  102.226    0.511
  195.970   16.256  101.833    0.496
  196.220   14.101  100.968    0.478
  196.470   11.600   97.908    0.470
  196.720   11.260   99.297    0.463
  196.970   10.928  100.656    0.458
  197.220   10.604  101.149    0.453
  197.470   10.627   99.418    0.452
  197.720   11.036   97.234    0.456
  197.970   11.422   94.174    0.462
  198.220   13.267   91.557    0.470
  198.470   17.290   89.403    0.472
  198.720   30.029   89.433    0.453
  198.970   82.701   89.906    0.453
  199.220   12.310   91.718    0.443
  199.470   12.348   99.741    0.388
  199.720   12.371  102.006    0.384
  199.970   12.032  104.271    0.412
  200.220   11.352  104.301    0.435
  200.470   11.028  100.798    0.475
  200.720   10.688   98.624    0.467
  200.970   10.356   92.907    0.459
  201.220    9.298   86.293    0.460
  201.470   10.773   84.119    0.459
  201.720   13.715   99.228    0.459
  201.970   11.197  101.493    0.464
  202.220   10.881  100.205    0.474
  202.470   10.912   98.494    0.471
  202.720   10.943   97.185    0.459
  202.970    9.885   95.011    0.464
  203.220    9.553   93.280    0.476
  203.470   10.672   95.092    0.484
  203.720   12.147   97.347    0.491
  203.970   11.452   96.954    0.497
  204.220   13.305   93.451    0.504
  204.470   15.513   89.063    0.488
  204.720   13.730   91.317    0.466
  204.970   10.139  101.101    0.465
  205.220    8.356  102.923    0.459
  205.470    8.024  105.621    0.466
  205.720    9.143  109.215    0.501
  205.970   10.626  107.484    0.506
  206.220    9.931  103.971    0.501
  206.470    8.518   94.710    0.502
  206.720    7.823   85.007    0.505
  206.970    7.491   85.490    0.505
  207.220    7.514   93.945    0.503
  207.470    7.545   96.653    0.497
  207.720    7.591   99.351    0.489
  207.970    7.969   98.516    0.479
  208.220    8.371   95.013    0.466
