~VERSION INFORMATION
 VERS.                 2.0:   CWLS LOG ASCII STANDARD -VERSION 2.0
 WRAP.                  NO:   ONE LINE PER DEPTH STEP
~WELL INFORMATION BLOCK
#MNEM.UNIT           DATA                    DESCRIPTION OF MNEMONIC
#---------    -------------------            -------------------------------
# Generated from Intellog Unique Number	CS_77_79/WELL/949
WELL.         PEX PCEJ THORNBURY OV          : Well_name    - WELL
LOC .         AA/10-11-079-12W4/0            : Location     - LOCATION
UWI .         AA/10-11-079-12W4/0            : Uwi          - UNIQUE WELL ID
ENTR.         JHS                            : Entered      - ENTERED BY
SRVC.         SCHLUMBERGER                   : Scn          - SERVICE COMPANY
STRT.M        250                            : top_depth    - START DEPTH
STOP.M        465                            : bot_depth    - STOP DEPTH
STEP.M        0.25                           : increment    - STEP LENGTH
 NULL. -999.2500:NULL Value
~CURVE INFORMATION BLOCK
#MNEM UNIT       ERCB CURVE CODE    CURVE DESCRIPTION
#-----------   ------------------   ----------------------------------
DEPT.M        00 001 00 00         : DEPTH        - DEPTH
DPHI.V/V      00 890 00 00         : PHID         - DENSITY POROSITY (LIMESTONE)
NPHI.V/V      00 330 00 00         : PHIN         - NEUTRON POROSITY (LIMESTONE)
GR  .API      00 310 00 00         : GR           - GAMMA RAY
ILD .OHMM     00 120 00 00         : RESD         - DEEP RESISTIVITY (DIL)
RHOB.KG/M3    00 350 00 00         : DENS         - BULK DENSITY
~PARAMETER INFORMATION
#MNEM.UNIT           DATA             DESCRIPTION OF MNEMONIC
#---------         -----------     ------------------------------
GL  .M        640                  : gl           - GROUND LEVEL ELEVATION
EREF.M        643.5                : kb           - ELEVATION OF DEPTH REFERENCE
DATM.M        643.5                : datum        - DATUM ELEVATION
TDD .M        474                  : tdd          - TOTAL DEPTH DRILLER
RUN .         ONE                  : Run          - RUN NUMBER
ENG .         BILL                 : Engineer     - RECORDING ENGINEER
WIT .         JIM                  : Witness      - WITNESSED BY
MUD .         GEL                  : Mud_type     - MUD TYPE
MATR.         LIMESTONE            : Logunit      - NEUTRON MATRIX
TMAX.C        26                   : BHT          - MAXIMUM RECORDED TEMPERATURE
BHTD.M        474                  : BHTDEP       - MAXIMUM RECORDED TEMPERATURE
MATR.         1                    : LOGUNIT      - NEUTRON MATRIX
RMT .C        25                   : MDTP         - TEMPERATURE OF MUD
NEUT.         1                    : NEUTRON      - NEUTRON TYPE
RESI.         0                    : RESIST       - RESISTIVITY TYPE
RMC .OHMM     0.25                 : RMC          - RESISTIVITY OF MUD CAKE
RMF .OHMM     0.25                 : RMF          - RESISTIVITY OF MUD FILTRATE
SUFT.C        15                   : SUFT         - SURFACE TEMPERATURE
~A  DEPTH     PHID     PHIN       GR     RESD     DENS
  250.000    0.270    0.495   81.530    3.487    0.000
  250.250    0.262    0.503   85.285    3.487    0.000
  250.500    0.238    0.492   92.772    3.621    0.000
  250.750    0.228    0.494   94.657    3.760    0.000
  251.000    0.224    0.475  100.273    3.832    0.000
  251.250    0.223    0.496   92.824    3.831    0.000
  251.500    0.226    0.463   92.842    3.904    0.000
  251.750    0.228    0.461   87.258    4.055    0.000
  252.000    0.212    0.490   87.899    4.373    0.000
  252.250    0.208    0.488   92.896    4.456    0.000
  252.500    0.207    0.476   96.648    4.456    0.000
  252.750    0.192    0.487   93.554    4.455    0.000
  253.000    0.142    0.476   90.462    4.371    0.000
  253.250    0.027    0.450   71.808    4.289    0.000
  253.500    0.083    0.434   66.225    4.454    0.000
  253.750    0.144    0.460   71.221    4.804    0.000
  254.000    0.178    0.505   84.311    5.084    0.000
  254.250    0.163    0.471   87.438    5.181    0.000
  254.500    0.152    0.465   88.081    4.988    0.000
  254.750    0.134    0.448   98.057    4.712    0.000
  255.000    0.124    0.434  101.808    4.624    0.000
  255.250    0.136    0.426   93.112    4.368    0.000
  255.500    0.111    0.416   87.530    4.205    0.000
  255.750    0.179    0.434   93.150    4.049    0.000
  256.000    0.206    0.446   92.546    3.972    0.000
  256.250    0.211    0.450   91.940    3.972    0.000
  256.500    0.210    0.457   95.694    4.048    0.000
  256.750    0.207    0.468  100.690    4.204    0.000
  257.000    0.208    0.436   95.730    4.449    0.000
  257.250    0.211    0.426   96.371    4.890    0.000
  257.500    0.212    0.449  103.234    4.983    0.000
  257.750    0.208    0.471   97.028    5.078    0.000
  258.000    0.201    0.474   95.180    5.273    0.000
  258.250    0.192    0.455   90.841    6.019    0.000
  258.500    0.185    0.434   82.149    7.003    0.000
  258.750    0.177    0.416   77.183    8.147    0.000
  259.000    0.182    0.392   72.226   10.820    0.000
  259.250    0.215    0.346   66.642   14.925    0.000
  259.500    0.225    0.312   57.324   23.064    0.000
  259.750    0.249    0.275   52.985   38.442    0.000
  260.000    0.293    0.238   44.912   46.447    0.000
  260.250    0.298    0.217   27.504   43.880    0.000
  260.500    0.292    0.217   25.034   38.431    0.000
  260.750    0.278    0.295   25.673   33.029    0.000
  261.000    0.261    0.319   26.938   27.854    0.000
  261.250    0.244    0.340   26.956   26.314    0.000
  261.500    0.248    0.356   29.465   24.860    0.000
  261.750    0.266    0.378   30.724   24.858    0.000
  262.000    0.272    0.369   29.504   25.330    0.000
  262.250    0.273    0.355   30.763   26.807    0.000
  262.500    0.269    0.352   32.647   27.839    0.000
  262.750    0.262    0.359   35.777   27.836    0.000
  263.000    0.258    0.373   40.773   27.312    0.000
  263.250    0.258    0.382   43.282   25.802    0.000
  263.500    0.260    0.386   40.808   24.375    0.000
  263.750    0.268    0.377   39.581   23.918    0.000
  264.000    0.273    0.377   37.110   23.027    0.000
  264.250    0.278    0.382   37.133   22.593    0.000
  264.500    0.285    0.409   37.151   21.752    0.000
  264.750    0.282    0.414   36.547   19.416    0.000
  265.000    0.276    0.407   39.673   17.330    0.000
  265.250    0.275    0.397   44.669   14.072    0.000
  265.500    0.277    0.376   47.801   11.645    0.000
  265.750    0.285    0.357   52.795   10.794    0.000
  266.000    0.297    0.377   67.129   11.865    0.000
  266.250    0.319    0.451   79.593   14.610    0.000
  266.500    0.372    0.466   95.792   18.332    0.000
  266.750    0.370    0.451  113.861   21.328    0.000
  267.000    0.303    0.394   47.908   23.442    0.000
  267.250    0.271    0.377   44.193   24.344    0.000
  267.500    0.283    0.385   40.477   24.342    0.000
  267.750    0.287    0.382   44.232   23.883    0.000
  268.000    0.279    0.382   47.979   22.563    0.000
  268.250    0.272    0.382   40.529   21.316    0.000
  268.500    0.263    0.374   37.435   19.760    0.000
  268.750    0.261    0.382   43.059   18.668    0.000
  269.000    0.262    0.393   42.455   16.981    0.000
  269.250    0.260    0.401   44.961   15.742    0.000
  269.500    0.257    0.391   48.088   14.319    0.000
  269.750    0.260    0.407   48.731   13.025    0.000
  270.000    0.264    0.420   56.217   12.305    0.000
  270.250    0.261    0.402   60.590   11.847    0.000
  270.500    0.251    0.392   63.724   11.846    0.000
  270.750    0.242    0.387   67.474   12.071    0.000
  271.000    0.221    0.390   72.474   12.070    0.000
  271.250    0.188    0.417   71.872   11.843    0.000
  271.500    0.182    0.398   70.016   11.188    0.000
  271.750    0.227    0.405   73.145   10.371    0.000
  272.000    0.226    0.395   83.125    9.985    0.000
  272.250    0.209    0.386   90.609    9.984    0.000
  272.500    0.191    0.401   97.472   10.567    0.000
  272.750    0.181    0.425  101.225   12.062    0.000
  273.000    0.190    0.425   97.510   13.259    0.000
  273.250    0.210    0.435   99.395   15.425    0.000
  273.500    0.243    0.431   90.700   18.637    0.000
  273.750    0.269    0.415   96.940   20.876    0.000
  274.000    0.275    0.398  100.071   21.273    0.000
  274.250    0.270    0.392   83.285   20.872    0.000
  274.500    0.266    0.393   73.344   20.480    0.000
  274.750    0.271    0.398   76.480   19.717    0.000
  275.000    0.275    0.407   75.871   18.982    0.000
  275.250    0.273    0.427   74.026   18.625    0.000
  275.500    0.276    0.419   74.039   17.932    0.000
  275.750    0.270    0.414   77.798   17.594    0.000
  276.000    0.266    0.411   80.925   18.620    0.000
  276.250    0.255    0.392   84.676   18.618    0.000
  276.500    0.251    0.382   85.940   18.268    0.000
  276.750    0.249    0.377   77.865   17.588    0.000
  277.000    0.249    0.369   72.902   17.257    0.000
  277.250    0.255    0.358   46.782   16.614    0.000
  277.500    0.263    0.346   59.249   16.930    0.000
  277.750    0.273    0.363   74.824   16.929    0.000
  278.000    0.255    0.402   74.220   17.251    0.000
  278.250    0.246    0.370   46.854   17.249    0.000
  278.500    0.247    0.358   49.984   16.924    0.000
  278.750    0.251    0.376   63.073   15.395    0.000
  279.000    0.236    0.395   68.070   14.271    0.000
  279.250    0.209    0.381   71.820   12.500    0.000
  279.500    0.176    0.374   76.195   10.541    0.000
  279.750    0.183    0.394   79.949    9.958    0.000
  280.000    0.145    0.419   88.679    9.059    0.000
  280.250    0.099    0.439   96.789    8.558    0.000
  280.500    0.098    0.448   96.183    8.085    0.000
  280.750    0.095    0.429  101.183    7.495    0.000
  281.000    0.087    0.409   99.331    7.080    0.000
  281.250    0.143    0.427  100.595    6.947    0.000
  281.500    0.162    0.438  108.710    6.946    0.000
  281.750    0.160    0.428  111.213    6.688    0.000
  282.000    0.157    0.442  119.319    6.318    0.000
  282.250    0.146    0.444  114.982    6.199    0.000
  282.500    0.132    0.417  114.376    5.747    0.000
  282.750    0.123    0.437  117.507    5.533    0.000
  283.000    0.118    0.430  115.036    5.033    0.000
  283.250    0.132    0.423  110.076    4.665    0.000
  283.500    0.158    0.455  120.673    4.086    0.000
  283.750    0.167    0.463  114.467    3.860    0.000
  284.000    0.187    0.472  110.130    3.788    0.000
  284.250    0.190    0.462  117.618    4.085    0.000
  284.500    0.198    0.480  121.989    5.030    0.000
  284.750    0.201    0.478  125.119    6.078    0.000
  285.000    0.189    0.451  124.515    8.072    0.000
  285.250    0.182    0.432  115.199   12.954    0.000
  285.500    0.178    0.415  109.616   15.951    0.000
  285.750    0.192    0.404  101.544   17.204    0.000
  286.000    0.203    0.410  104.051   17.530    0.000
  286.250    0.199    0.397   95.978   17.201    0.000
