~VERSION INFORMATION
 VERS.                 2.0:   CWLS LOG ASCII STANDARD -VERSION 2.0
 WRAP.                  NO:   ONE LINE PER DEPTH STEP
~WELL INFORMATION BLOCK
#MNEM.UNIT           DATA                    DESCRIPTION OF MNEMONIC
#---------    -------------------            -------------------------------
# Generated from Intellog Unique Number	CN_91_93/WELL/3550
WELL.         10-24-093-08W4                 : Well_name    - WELL
LOC .         AA/10-24-093-08W4/0            : Location     - LOCATION
UWI .         AA/10-24-093-08W400            : Uwi          - UNIQUE WELL ID
ENTR.         JOETTE                         : Entered      - ENTERED BY
SRVC.         SCHLUMBERGER                   : Scn          - SERVICE COMPANY
DATE.         03/16/92                       : Date         - LOG DATE
STRT.M        5                              : top_depth    - START DEPTH
STOP.M        225                            : bot_depth    - STOP DEPTH
STEP.M        0.25                           : increment    - STEP LENGTH
 NULL. -999.2500:NULL Value
~CURVE INFORMATION BLOCK
#MNEM UNIT       ERCB CURVE CODE    CURVE DESCRIPTION
#-----------   ------------------   ----------------------------------
DEPT.M        00 001 00 00         : DEPTH        - DEPTH
GR  .API      00 310 00 00         : GR           - GAMMA RAY
CALI.MM       00 280 01 00         : CAL          - CALIPER
NPHI.V/V      00 330 00 00         : PHIN         - NEUTRON POROSITY (SANDSTONE)
DPHI.V/V      00 890 00 00         : PHID         - DENSITY POROSITY (SANDSTONE)
ILD .OHMM     00 120 00 00         : RESD         - DEEP RESISTIVITY (DIL)
~PARAMETER INFORMATION
#MNEM.UNIT           DATA             DESCRIPTION OF MNEMONIC
#---------         -----------     ------------------------------
GL  .M        486.6                : gl           - GROUND LEVEL ELEVATION
EREF.M        486.6                : kb           - ELEVATION OF DEPTH REFERENCE
DATM.M        486.6                : datum        - DATUM ELEVATION
TDD .M        226.7                : tdd          - TOTAL DEPTH DRILLER
RUN .         ONE                  : Run          - RUN NUMBER
ENG .         BILL                 : Engineer     - RECORDING ENGINEER
WIT .         JIM                  : Witness      - WITNESSED BY
MUD .         GEL                  : Mud_type     - MUD TYPE
MATR.         SANDSTONE            : Logunit      - NEUTRON MATRIX
TMAX.C        18                   : BHT          - MAXIMUM RECORDED TEMPERATURE
BHTD.M        226.7                : BHTDEP       - MAXIMUM RECORDED TEMPERATURE
RMT .C        16                   : MDTP         - TEMPERATURE OF MUD
MUDD.KG/M     1.01                 : MWT          - MUD DENSITY
NEUT.         1                    : NEUTRON      - NEUTRON TYPE
RESI.         0                    : RESIST       - RESISTIVITY TYPE
RM  .OHMM     4.5                  : RM           - RESISTIVITY OF MUD
RMC .OHMM     4.5                  : RMC          - RESISTIVITY OF MUD CAKE
RMF .OHMM     4.5                  : RMF          - RESISTIVITY OF MUD FILTRATE
SUFT.C        4                    : SUFT         - SURFACE TEMPERATURE
~A  DEPTH       GR      CAL     PHIN     PHID     RESD
# ...
  151.000   99.118  209.919    0.520    0.339    0.614
  151.250   98.431  206.666    0.541    0.367    0.510
  151.500  100.244  204.506    0.513    0.376    0.511
  151.750  101.432  203.361    0.505    0.371    0.539
  152.000  103.870  204.326    0.513    0.380    0.505
  152.250  103.184  207.348    0.523    0.374    0.550
  152.500  104.997  208.260    0.533    0.362    0.622
  152.750  104.310  207.116    0.537    0.365    0.562
  153.000  104.249  205.946    0.536    0.337    0.509
  153.250  104.187  205.843    0.536    0.306    0.484
  153.500  104.750  203.631    0.523    0.258    0.461
  153.750  107.188  201.497    0.499    0.266    0.454
  154.000  102.111  197.228    0.495    0.256    0.487
  154.250   95.800  192.959    0.492    0.251    0.541
  154.500   96.989  189.731    0.484    0.255    0.816
  154.750   98.161  187.519    0.478    0.240    0.922
  155.000  101.849  185.333    0.473    0.237    0.792
  155.250   95.553  183.122    0.457    0.186    0.615
  155.500   89.867  179.868    0.416    0.111    0.659
  155.750   80.416  178.775    0.374    0.080    0.757
  156.000   79.730  177.605    0.456    0.163    1.032
  156.250  101.556  176.461    0.488    0.303    2.118
  156.500   97.120  176.358    0.474    0.247    1.916
  156.750   92.028  175.188    0.460    0.245    1.319
  157.000   88.841  175.136    0.453    0.296    0.940
  157.250   85.670  175.008    0.444    0.289    0.741
  157.500   82.484  174.931    0.435    0.296    0.976
  157.750   82.422  174.802    0.378    0.296    1.121
  158.000   80.486  174.725    0.349    0.299    1.203
  158.250   76.018  174.596    0.341    0.314    1.557
  158.500   70.348  174.519    0.355    0.195    1.883
  158.750   60.912  175.406    0.373    0.168    2.054
  159.000   47.711  176.345    0.328    0.221    3.494
  159.250   42.025  177.258    0.313    0.251    5.458
  159.500   45.088  177.207    0.322    0.280    7.312
  159.750   61.275  177.104    0.347    0.305    9.145
  160.000   69.977  178.042    0.378    0.312   12.677
  160.250   79.915  177.914    0.367    0.309   15.065
  160.500   69.854  178.827    0.377    0.307   12.303
  160.750   64.777  178.750    0.371    0.309   12.763
  161.000   74.730  179.714    0.352    0.267   13.461
  161.250   79.668  181.694    0.356    0.257   12.380
  161.500   85.230  183.675    0.357    0.286   10.830
  161.750   83.903  185.629    0.351    0.303   10.137
  162.000   84.467  186.568    0.358    0.279    9.170
  162.250   86.920  184.356    0.370    0.296    9.347
  162.500   83.734  183.263    0.378    0.266    9.691
  162.750   80.547  181.051    0.377    0.262   10.221
  163.000   81.095  178.891    0.367    0.280    9.904
  163.250   81.658  177.695    0.361    0.283    9.752
  163.500   89.096  177.618    0.361    0.260    9.602
  163.750   87.175  177.464    0.360    0.268    9.459
  164.000   83.332  177.387    0.361    0.285    9.479
  164.250   80.162  177.284    0.354    0.299    9.504
  164.500   74.460  177.155    0.340    0.321   10.023
  164.750   74.383  177.104    0.336    0.313   10.571
  165.000   73.712  176.975    0.336    0.310   11.530
  165.250   71.150  176.898    0.338    0.314   13.477
  165.500   72.338  176.769    0.342    0.319   14.960
  165.750   70.386  176.641    0.345    0.320   17.182
  166.000   69.715  176.589    0.347    0.318   19.745
  166.250   72.153  176.461    0.349    0.319   21.917
  166.500   67.701  176.358    0.346    0.314   23.115
  166.750   61.406  176.229    0.337    0.308   23.992
  167.000   66.968  176.178    0.338    0.314   24.017
  167.250   71.906  177.091    0.345    0.329   23.260
  167.500   71.219  177.014    0.343    0.318   22.146
  167.750   71.783  176.911    0.346    0.321   21.828
  168.000   65.472  178.814    0.350    0.331   22.238
  168.250   66.035  178.737    0.345    0.319   23.466
  168.500   72.207  179.701    0.337    0.307   24.736
  168.750   72.770  180.614    0.345    0.307   27.472
  169.000   73.974  181.553    0.360    0.315   29.457
  169.250   70.162  183.533    0.351    0.327   29.049
  169.500   73.850  185.488    0.347    0.333   29.610
  169.750   70.039  185.436    0.348    0.322   31.229
  170.000   61.838  186.375    0.344    0.322   33.503
  170.250   56.777  187.288    0.352    0.326   35.335
  170.500   58.590  187.185    0.361    0.321   37.888
  170.750   64.152  188.149    0.363    0.316   39.959
  171.000   66.590  188.047    0.355    0.323   40.731
  171.250   65.279  188.985    0.349    0.329   45.259
  171.500   63.327  189.924    0.346    0.327   50.213
  171.750   67.655  190.837    0.340    0.323   55.737
  172.000   74.468  191.750    0.342    0.326   62.966
  172.250   77.515  191.698    0.344    0.327   67.516
  172.500   75.594  192.637    0.342    0.327   74.983
  172.750   69.908  192.508    0.350    0.322   80.443
  173.000   61.097  193.421    0.351    0.322   90.923
  173.250   49.771  193.344    0.335    0.323   92.583
  173.500   42.820  193.267    0.340    0.325   99.324
  173.750   37.758  193.113    0.341    0.325  104.754
  174.000   33.932  193.036    0.340    0.323  114.433
  174.250   34.510  192.907    0.340    0.323  114.671
  174.500   44.463  191.763    0.343    0.327  114.909
  174.750   48.776  191.660    0.347    0.334  117.128
  175.000   43.699  190.515    0.341    0.341  121.444
  175.250   38.013  190.413    0.342    0.341  123.725
  175.500   32.327  189.268    0.347    0.339  128.350
  175.750   31.640  188.124    0.354    0.326  133.078
  176.000   31.578  188.021    0.362    0.325  140.354
  176.250   29.627  186.876    0.365    0.329  135.930
  176.500   25.800  185.732    0.354    0.334  125.082
  176.750   22.613  185.655    0.349    0.334  115.039
  177.000   21.302  184.510    0.354    0.295  100.579
  177.250   23.130  183.340    0.355    0.288   83.509
  177.500   26.818  182.144    0.358    0.295   68.198
  177.750   34.256  182.067    0.366    0.301   51.144
  178.000   59.207  181.990    0.362    0.305   39.664
  178.250   70.409  180.794    0.352    0.253   29.745
  178.500   66.583  180.717    0.344    0.283   24.279
  178.750   66.521  180.640    0.349    0.303   20.169
  179.000   63.334  179.444    0.350    0.311   19.533
  179.250   52.024  179.393    0.348    0.334   22.446
  179.500   37.573  179.264    0.347    0.342   28.557
  179.750   32.497  178.120    0.354    0.347   38.896
  180.000   33.060  178.042    0.359    0.344   55.787
  180.250   32.373  176.898    0.352    0.347   69.811
  180.500   31.062  176.769    0.355    0.345   76.182
  180.750   29.750  175.625    0.362    0.344   87.498
  181.000   28.438  175.522    0.378    0.344   93.917
  181.250   30.892  175.419    0.369    0.346  100.703
  181.500   35.830  175.291    0.359    0.351   91.099
  181.750   38.877  175.188    0.355    0.348   81.018
  182.000   35.691  175.111    0.358    0.350   75.834
  182.250   34.379  175.008    0.354    0.351   80.063
  182.500   36.192  174.905    0.354    0.347   82.927
  182.750   33.631  174.776    0.372    0.341   81.694
  183.000   42.959  175.715    0.388    0.339   61.265
  183.250   55.395  175.638    0.375    0.335   40.754
  183.500   59.083  175.509    0.351    0.333   27.110
  183.750   52.147  175.432    0.349    0.340   19.649
  184.000   35.822  175.303    0.349    0.345   25.428
  184.250   26.996  175.201    0.350    0.337   45.520
  184.500   28.809  175.098    0.343    0.331   66.412
  184.750   26.872  175.021    0.348    0.332   96.891
  185.000   26.186  175.934    0.352    0.338  111.282
  185.250   26.124  175.831    0.357    0.337   97.294
  185.500   29.827  175.702    0.368    0.313   68.118
  185.750   46.014  175.625    0.380    0.303   47.715
  186.000   60.966  176.538    0.364    0.314   38.947
  186.250   45.265  176.461    0.350    0.329   33.493
  186.500   31.424  176.358    0.356    0.333   50.534
  186.750   35.128  176.229    0.355    0.330   83.072
  187.000   33.176  176.126    0.352    0.327  111.235
  187.250   31.255  176.049    0.351    0.324  141.592
