~VERSION INFORMATION
 VERS.                 2.0:   CWLS LOG ASCII STANDARD -VERSION 2.0
 WRAP.                  NO:   ONE LINE PER DEPTH STEP
~WELL INFORMATION BLOCK
#MNEM.UNIT           DATA                    DESCRIPTION OF MNEMONIC
#---------    -------------------            -------------------------------
# Generated from Intellog Unique Number	CC_80_83/WELL/2428
NULL.         -999.25                        : NULL_VALUE
WELL.         SHELL HOUSE CREEK OV           : Well_name    - WELL
LOC .         12-11-081-13W4                 : Location     - LOCATION          
UWI .         AA/12-11-081-13W400            : Uwi          - UNIQUE WELL ID    
ENTR.         JHS                            : Entered      - ENTERED BY        
SRVC.         SCHLUMBERGER                   : Scn          - SERVICE COMPANY   
DATE.         01 FEB 75                      : Date         - LOG DATE
STRT.M        335.28                         : top_depth    - START DEPTH       
STOP.M        515.118                        : bot_depth    - STOP DEPTH        
STEP.M        0.305                          : increment    - STEP LENGTH       
~CURVE INFORMATION BLOCK
#MNEM UNIT       ERCB CURVE CODE    CURVE DESCRIPTION
#-----------   ------------------   ----------------------------------
DEPT.M        00 001 00 00         : DEPTH        - DEPTH                       
DPHI.V/V      00 890 00 00         : PHID         - DENSITY POROSITY (LIMESTONE)
NPHI.V/V      00 330 00 00         : PHIN         - NEUTRON POROSITY (LIMESTONE)
GR  .API      00 310 00 00         : GR           - GAMMA RAY                   
ILD .OHMM     00 120 00 00         : RESD         - DEEP RESISTIVITY (DIL)      
~PARAMETER INFORMATION       
#MNEM.UNIT           DATA             DESCRIPTION OF MNEMONIC
#---------         -----------     ------------------------------
GL  .M        706.831              : gl           - GROUND LEVEL ELEVATION      
EREF.M        710.946              : kb           - ELEVATION OF DEPTH REFERENCE
DATM.M        710.946              : datum        - DATUM ELEVATION             
TDD .M        516.331              : tdd          - TOTAL DEPTH DRILLER         
RUN .         ONE                  : Run          - RUN NUMBER                  
ENG .         BILL                 : Engineer     - RECORDING ENGINEER          
WIT .         JIM                  : Witness      - WITNESSED BY                
MUD .         GEL                  : Mud_type     - MUD TYPE                    
MATR.         LIMESTONE            : Logunit      - NEUTRON MATRIX              
TMAX.C        23.3333              : BHT          - MAXIMUM RECORDED TEMPERATURE
BHTD.M        516.331              : BHTDEP       - MAXIMUM RECORDED TEMPERATURE
MATR.         1                    : LOGUNIT      - NEUTRON MATRIX              
RMT .C        25                   : MDTP         - TEMPERATURE OF MUD          
NEUT.         1                    : NEUTRON      - NEUTRON TYPE                
RESI.         0                    : RESIST       - RESISTIVITY TYPE            
RMC .OHMM     0.25                 : RMC          - RESISTIVITY OF MUD CAKE     
RMF .OHMM     0.25                 : RMF          - RESISTIVITY OF MUD FILTRATE 
SUFT.C        15                   : SUFT         - SURFACE TEMPERATURE         
~A  DEPTH     PHID     PHIN       GR     RESD
# ...
  388.317    0.253    0.531   91.619    3.297
  388.622    0.295    0.502  100.826    3.683
  388.926    0.274    0.495   99.234    4.856
  389.231    0.263    0.531   96.840    5.425
  389.536    0.283    0.538   92.847    5.134
  389.841    0.299    0.493   89.655    6.061
  390.146    0.300    0.468   89.662    6.771
  390.451    0.302    0.492   88.469    7.026
  390.755    0.296    0.490   90.475    6.899
  391.060    0.312    0.520   93.282    6.774
  391.365    0.307    0.527   93.290    6.180
  391.670    0.307    0.511   92.496    5.741
  391.975    0.327    0.495   87.703    5.743
  392.279    0.440    0.487   84.111    4.438
  392.584    0.463    0.591   86.918    1.703
  392.889    0.452    0.619   92.124    1.735
  393.194    0.380    0.603   97.331    1.366
  393.499    0.374    0.594  101.739    0.945
  393.803    0.372    0.563   97.745    0.730
  394.108    0.396    0.543   92.152    0.717
  394.413    0.409    0.548   92.560    0.946
  394.718    0.428    0.542   96.166    1.342
  395.023    0.404    0.572   93.374    1.836
  395.327    0.382    0.624   89.382    2.421
  395.632    0.360    0.612   89.787    3.251
  395.937    0.340    0.556   92.994    4.877
  396.242    0.274    0.498   96.202    5.448
  396.547    0.273    0.475   93.408    5.654
  396.852    0.279    0.454   90.615    5.867
  397.156    0.292    0.466   89.022    5.868
  397.461    0.278    0.491   87.029    5.762
  397.766    0.292    0.475   85.437    5.354
  398.071    0.327    0.494   87.043    4.883
  398.376    0.391    0.520   86.652    4.063
  398.680    0.407    0.550   85.458    3.638
  398.985    0.388    0.549   83.865    3.572
  399.290    0.459    0.560   83.071    3.707
  399.595    0.422    0.558   82.678    3.382
  399.900    0.399    0.570   85.885    3.201
  400.204    0.402    0.588   87.093    3.261
  400.509    0.411    0.549   85.499    3.384
  400.814    0.428    0.514   84.306    3.262
  401.119    0.400    0.510   83.114    2.975
  401.424    0.377    0.498   88.720    2.868
  401.728    0.370    0.564   88.328    3.088
  402.033    0.376    0.555   87.535    3.264
  402.338    0.321    0.540   91.941    3.450
  402.643    0.317    0.517   95.149    4.073
  402.948    0.269    0.492   96.355    4.550
  403.253    0.250    0.486  101.562    4.722
  403.557    0.257    0.475  105.971    4.723
  403.862    0.245    0.474  105.976    4.553
  404.167    0.244    0.494  105.184    4.230
  404.472    0.246    0.500  100.390    3.930
  404.777    0.271    0.512   98.398    4.004
  405.081    0.274    0.512   98.404    3.790
  405.386    0.326    0.491   99.613    3.271
  405.691    0.313    0.494   98.820    2.772
  405.996    0.337    0.534   97.625    2.392
  406.301    0.378    0.571   98.433    2.672
  406.605    0.351    0.563   98.039    3.864
  406.910    0.338    0.433   96.047    5.286
  407.215    0.289    0.421   93.255    5.796
  407.520    0.259    0.446   89.260    6.718
  407.825    0.231    0.453   79.267    5.004
  408.129    0.208    0.476   82.875    4.319
  408.434    0.283    0.483   89.282    5.099
  408.739    0.255    0.442   88.889    7.372
  409.044    0.200    0.382   88.496    6.849
  409.349    0.122    0.420   91.303    4.917
  409.654    0.261    0.468  100.509    5.393
  409.958    0.273    0.457  100.517    5.295
  410.263    0.279    0.465   94.924    4.487
  410.568    0.266    0.451   91.330    4.326
  410.873    0.272    0.499   91.737    4.657
  411.178    0.280    0.523   94.144    5.108
  411.482    0.285    0.491  100.152    5.016
  411.787    0.275    0.471   98.559    4.925
  412.092    0.283    0.455   94.966    4.926
  412.397    0.274    0.449   92.573    4.252
  412.702    0.264    0.483   93.380    3.286
  413.006    0.270    0.502   95.787    2.997
  413.311    0.285    0.520   97.793    2.943
  413.616    0.317    0.555  100.600    2.944
  413.921    0.303    0.552   97.407    2.944
  414.226    0.291    0.533   93.014    3.055
  414.530    0.322    0.516   93.823    3.413
  414.835    0.299    0.497   93.831    4.104
  415.140    0.270    0.497   93.835    4.845
  415.445    0.280    0.484   96.642    4.757
  415.750    0.280    0.474   97.450    3.676
  416.055    0.280    0.474  105.057    3.544
  416.359    0.256    0.490  111.064    4.033
  416.664    0.238    0.501  111.470    4.034
  416.969    0.232    0.513  101.477    3.546
  417.274    0.251    0.514   97.886    3.419
  417.579    0.268    0.491   98.693    3.548
  417.883    0.276    0.481  100.300    4.266
  418.188    0.264    0.480  100.706    5.322
  418.493    0.256    0.464  103.913    6.056
  418.798    0.234    0.463  109.919    6.520
  419.103    0.223    0.443  105.127    6.892
  419.407    0.196    0.420   99.934    7.842
  419.712    0.173    0.413  103.141    6.894
  420.017    0.169    0.429  121.547    6.174
  420.322    0.246    0.437  118.755    5.843
  420.627    0.240    0.456  110.362    5.044
  420.931    0.240    0.467  109.969    4.517
  421.236    0.254    0.476  110.376    4.435
  421.541    0.247    0.467  108.383    4.355
  421.846    0.236    0.475  103.591    4.198
  422.151    0.238    0.477   99.197    3.830
  422.456    0.232    0.482   92.803    4.200
  422.760    0.200    0.450   82.011    8.776
  423.065    0.151    0.314   74.818   18.005
  423.370    0.087    0.250   79.226    8.007
  423.675    0.106    0.332   86.032    4.694
  423.980    0.214    0.448   90.439    4.525
  424.284    0.287    0.459   88.846    4.696
  424.589    0.281    0.448   85.653    4.784
  424.894    0.285    0.436   87.260    4.698
  425.199    0.279    0.463   89.668    4.875
  425.504    0.274    0.471   89.274    5.249
  425.808    0.286    0.451   89.282    5.756
  426.113    0.280    0.434   92.889    5.757
  426.418    0.262    0.435   97.696    5.865
  426.723    0.246    0.455  101.702    6.315
  427.028    0.260    0.467   99.709    6.088
  427.332    0.266    0.456   98.116    5.352
  427.637    0.252    0.448  100.523    5.453
  427.942    0.248    0.470   93.730    5.454
  428.247    0.288    0.452   92.138    5.161
  428.552    0.280    0.434   95.346    4.538
  428.857    0.275    0.453   97.751    4.539
  429.161    0.270    0.467   94.559    4.710
  429.466    0.253    0.467   92.565    4.979
  429.771    0.261    0.455   89.773    4.979
  430.076    0.283    0.457   90.579    4.889
  430.381    0.283    0.471   91.387    4.801
  430.685    0.293    0.455   88.192    4.891
  430.990    0.295    0.462   86.600    4.803
  431.295    0.288    0.468   88.607    4.630
  431.600    0.294    0.464   83.814    4.631
  431.905    0.288    0.456   77.021    5.173
  432.209    0.271    0.456   70.628    8.827
  432.514    0.166    0.352   70.635    8.668
  432.819    0.134    0.367   87.042    4.808
  433.124    0.217    0.461   87.450    4.386
  433.429    0.241    0.468   86.656    4.387
  433.733    0.283    0.479   84.663    4.723
  434.038    0.284    0.474   76.671    4.992
  434.343    0.269    0.451   78.677    4.813
  434.648    0.265    0.441   87.085    4.310
  434.953    0.299    0.453   87.891    4.556
  435.258    0.289    0.449   86.698    4.556
  435.562    0.291    0.456   87.506    4.642
  435.867    0.295    0.451   86.312    4.643
  436.172    0.286    0.456   86.720    4.644
  436.477    0.282    0.464   87.127    4.645
  436.782    0.284    0.481   85.933    4.396
  437.086    0.309    0.522   92.340    3.460
  437.391    0.342    0.553   97.547    2.224
  437.696    0.342    0.568  100.754    2.266
  438.001    0.325    0.519  104.761    3.043
  438.306    0.281    0.453  103.568    4.087
  438.610    0.266    0.436   94.775    4.915
  438.915    0.277    0.427   93.182    4.321
  439.220    0.280    0.440   91.590    4.090
  439.525    0.249    0.453   91.997    4.323
  439.830    0.226    0.489   91.603    4.569
  440.134    0.213    0.465   96.011    4.487
  440.439    0.203    0.449   92.017    4.743
  440.744    0.173    0.438   87.625    7.246
  441.049    0.125    0.375   86.432    8.094
