~Version : LASO    vs 4.00
VERS.                2.00:   CWLS Log ASCII Standard -VERSION 2.0
WRAP.                  NO:
~Well Information Block
#MNEM.UNIT       Data                        Description of Mnemonic
#----.----      -------------------------- : -----------------------------
STRT.M            15.0000:
STOP.M           206.4000:
STEP.M             0.2000:
NULL.           -999.2500:
COMP.  MOBIL OIL OF CANADA     :COMPANY
WELL.  MOBIL CLARKE OV 13-4    :WELL
FLD.                           :FIELD
LOC.   13-04-090-07W4          :LOCATION
CTRY.  CANADA                  :COUNTRY
PROV.  ALBERTA                 :PROVINCE
SRVC.  SCHLUMBERGER            :SERVICE COMPANY
DATE.  06-MAR-81               :LOG DATE
UWI.   AA/13-04-090-07W400     :UNIQUE WELL ID
~Parameter Information Block
#MNEM.UNIT       Data                        Description of Mnemonic
#----.----      -------------------------- : -----------------------------
RUN .                   1                 : Run Number
GL  .M           458.6000                 : Ground Level Elevation
DREF.                  KB                 : Depth Reference
EREF.M           458.6000                 : Elevation of Depth Reference
TDL .M           206.5000                 : Total Depth Logger
TDD .M           207.0000                 : Total Depth Driller
CSGL.M             0.0000                 : Casing Bottom Logger
CSGD.M             8.0000                 : Casing Bottom Driller
CSGS.MM          219.0000                 : Casing Size
CSGW.KG/M          0.0000                 : Casing Weight
BS  .MM          159.0000                 : Bit Size
DFD .            999.0000                 : Mud Weight (Density)
~Curve Information Block
#MNEM.UNIT        API CODE    Curve Description
#---------    ------------    ------------------------------
DEPT.M                    :   DEPTH
CALI.MM       42 280  1  1:   2 DENSITY CALIPER
DPHI.V/V                  :   DPHI
GR  .GAPI     42 310  1  1:   3 GAMMA RAY
LLD .Ohmm                 :   LLD
NPHI.V/V      42 890  3  1:   4 NEUTRON POROSITY (SANDSTONE)
RHOB.K/M3     42 350  1  1:   5 BULK DENSITY
~A  Depth           CALI        DPHI          GR         LLD        NPHI        RHOB
# ...
167.0000        168.5500      0.3466     83.5350    360.8568      0.4420   2307.8999
167.2000        167.4750      0.3556     83.7300    154.0520      0.4414   2299.0000
167.4000        173.9250      0.3519     81.0300    147.0772      0.4268   2272.8999
167.6000        178.2250      0.3645     78.2250    142.1516      0.4078   2266.0000
167.8000        176.0750      0.3787     82.0350    139.6381      0.4122   2247.0000
168.0000        177.1500      0.3921     86.7300    141.4358      0.4144   2232.0000
168.2000        171.7750      0.4021     90.1350    146.1867      0.3976   2269.0000
168.4000        171.7750      0.4035     89.5350    150.5798      0.4008   2292.0000
168.6000        177.1500      0.3853     91.0350    157.9653      0.4198   2318.0000
168.8000        182.5250      0.3585     93.6450    166.5287      0.4350   2274.0000
169.0000        179.3000      0.3408     93.6450    176.7999      0.4232   2272.8999
169.2000        178.2250      0.3319     93.4350    187.3341      0.4276   2278.0000
169.4000        181.4500      0.3374     94.4400    194.1073      0.4328   2305.0000
169.6000        183.6000      0.3540     95.6400    208.3837      0.4270   2274.0000
169.8000        184.6750      0.3521     93.9450    227.0032      0.4162   2307.0000
170.0000        182.5250      0.3436     93.2400    279.3663      0.4246   2307.8999
170.2000        179.3000      0.3549     95.7450    360.0627      0.4486   2285.0000
170.4000        176.0750      0.3625     96.7350    444.5461      0.4488   2269.0000
170.6000        176.0750      0.3577     96.2400    478.4765      0.4408   2261.8999
170.8000        179.3000      0.3506     90.7350    487.7443      0.4334   2291.0000
171.0000        180.3750      0.3440     87.0300    491.2452      0.4486   2284.0000
171.2000        181.4500      0.3365     83.6400    491.7829      0.4670   2305.0000
171.4000        181.4500      0.3312     72.6300    491.8443      0.4726   2355.0000
171.6000        181.4500      0.3357     65.4300    493.8729      0.4570   2359.0000
171.8000        176.0750      0.3475     61.6200    493.8884      0.4540   2353.8999
172.0000        171.7750      0.3572     62.1300    493.8947      0.4398   2326.0000
172.2000        176.0750      0.3677     68.5200    497.3264      0.3980   2301.0000
172.4000        175.0000      0.3723     69.5250    577.1132      0.4002   2253.0000
172.6000        177.1500      0.3751     69.9300    642.6766      0.4016   2267.0000
172.8000        177.1500      0.3732     70.2300    743.0260      0.4288   2246.0000
173.0000        181.4500      0.3784     66.8250    848.1078      0.4280   2234.0000
173.2000        178.2250      0.3767     63.7200    896.7226      0.4366   2237.0000
173.4000        175.0000      0.3680     62.8200    923.4823      0.4522   2214.0000
173.6000        176.0750      0.3634     65.9250    893.5198      0.4436   2223.0000
173.8000        176.0750      0.3673     74.4300    832.7998      0.4376   2182.0000
174.0000        173.9250      0.3735     94.5450    747.4021      0.4070   2198.0000
174.2000        172.8500      0.3765     98.2350    638.4346      0.3866   2231.0000
174.4000        177.1500      0.3802     98.5350    570.3314      0.3854   2263.0000
174.6000        175.0000      0.3779     96.5400    192.1831      0.4416   2280.0000
174.8000        176.0750      0.3702     95.2350    199.6392      0.4568   2285.0000
175.0000        173.9250      0.3595     95.2350    253.0298      0.4502   2263.0000
175.2000        168.5500      0.3471     97.3350    282.5645      0.4470   2274.0000
175.4000        169.6250      0.3325     98.7450    331.4602      0.4352   2281.0000
175.6000        177.1500      0.3284     94.5450    380.3805      0.4330   2322.0000
175.8000        177.1500      0.3245     87.5400    480.6219      0.4472   2274.0000
176.0000        178.2250      0.3337     76.2300    489.5639      0.4688   2315.0000
176.2000        175.0000      0.3460     78.5250    489.8220      0.4840   2284.0000
176.4000        171.7750      0.3547     86.3400    489.8864      0.4902   2250.0000
176.6000        168.5500      0.3650     99.4350    489.9023      0.4232   2250.0000
176.8000        172.8500      0.3719     99.6450    489.9079      0.3942   2284.0000
177.0000        178.2250      0.3686     99.6450    489.9118      0.4000   2321.0000
177.2000        182.5250      0.3686     99.4350    838.6066      0.4420   2340.0000
177.4000        180.3750      0.3666     99.5400   1105.3226      0.4508   2340.0000
177.6000        182.5250      0.3682    101.5500   1367.2651      0.4514   2317.0000
177.8000        182.5250      0.3663    104.4450   1590.2499      0.4692   2283.0000
178.0000        180.3750      0.3628    106.2450   1774.2136      0.4758   2280.0000
178.2000        175.0000      0.3669    104.0400   1920.2892      0.4732   2270.0000
178.4000        173.9250      0.3636    101.7450   1983.8291      0.4704   2294.0000
178.6000        172.8500      0.3664     96.4350   1768.4383      0.4632   2310.0000
178.8000        173.9250      0.3631     94.4400   1572.6424      0.4466   2295.0000
179.0000        178.2250      0.3614     87.0300   1246.5168      0.4406   2312.0000
179.2000        173.9250      0.3586     66.6300    990.3771      0.4364   2320.0000
179.4000        171.7750      0.3628     58.0200    735.5096      0.4326   2295.0000
179.6000        177.1500      0.3622     48.9150    514.9078      0.4224   2244.0000
179.8000        173.9250      0.3495     37.3050    391.6608      0.3940   2233.0000
180.0000        169.6250      0.3427     37.3050    253.1829      0.3852   2209.0000
180.2000        168.5500      0.3423     37.9050    255.7219      0.3788   2161.0000
180.4000        173.9250      0.3370     36.7050    286.1956      0.3670   2162.0000
180.6000        173.9250      0.3373     35.0100    318.5815      0.3682   2176.8999
180.8000        167.4750      0.3479     33.8100    360.2094      0.3768   2169.0000
181.0000        171.7750      0.3356     34.6050    443.9478      0.3640   2144.0000
181.2000        178.2250      0.3241     33.8100    383.0398      0.3600   2164.0000
181.4000        178.2250      0.3149     32.8050    294.6805      0.3688   2178.0000
181.6000        178.2250      0.3082     32.6100    226.3367      0.3832   2172.0000
181.8000        178.2250      0.3198     34.7100    186.5630      0.3932   2174.0000
182.0000        178.2250      0.3348     37.9050    170.5906      0.3958   2178.0000
182.2000        178.2250      0.3473     39.3150    151.4189      0.3872   2204.0000
182.4000        173.9250      0.3571     39.6150    137.1651      0.3802   2204.0000
182.6000        175.0000      0.3711     38.1150    129.8224      0.3844   2200.0000
182.8000        175.0000      0.3585     37.2150    124.8521      0.3862   2196.0000
183.0000        177.1500      0.3436     41.4150    121.2793      0.3860   2155.0000
183.2000        176.0750      0.3340     42.0150    117.8794      0.3738   2180.0000
183.4000        176.0750      0.3166     44.2200    113.6765      0.3714   2202.0000
183.6000        173.9250      0.3038     53.3250    130.2327      0.3988   2195.0000
183.8000        173.9250      0.2921     59.8200    224.5314      0.4046   2187.8999
184.0000        172.8500      0.2826     67.2300    353.1377      0.3992   2201.0000
184.2000        170.7000      0.2706     78.1350    430.3257      0.3510   2189.0000
184.4000        169.6250      0.2662     83.7300    468.3576      0.3512   2211.0000
184.6000        169.6250      0.2743     89.1300    491.9507      0.3676   2278.0000
184.8000        173.9250      0.3018     91.5450    495.5096      0.3904   2268.0000
185.0000        177.1500      0.3222     91.7400    498.0236      0.4064   2329.0000
185.2000        173.9250      0.3347     92.0400    498.1614      0.4064   2342.0000
185.4000        177.1500      0.3502     92.5350    498.1998      0.4086   2324.0000
185.6000        173.9250      0.3612     92.1450    953.6063      0.4162   2315.0000
185.8000        175.0000      0.3731     90.5400   1031.5138      0.4064   2344.0000
