~VERSION INFORMATION
 VERS.                 2.0:   CWLS LOG ASCII STANDARD -VERSION 2.0
 WRAP.                  NO:   ONE LINE PER DEPTH STEP
~WELL INFORMATION BLOCK
#MNEM.UNIT           DATA                    DESCRIPTION OF MNEMONIC
#---------    -------------------            -------------------------------
# Generated from Intellog Unique Number	CN_91_93/WELL/1077
WELL.         10-11-091-16W4                 : Well_name    - WELL
LOC .         AA/10-11-091-16W4/0            : Location     - LOCATION
UWI .         AA/10-11-091-16W400            : Uwi          - UNIQUE WELL ID
ENTR.         JOETTE                         : Entered      - ENTERED BY
SRVC.         SCHLUMBERGER                   : Scn          - SERVICE COMPANY
STRT.F        213.255                        : top_depth    - START DEPTH
STOP.F        787.402                        : bot_depth    - STOP DEPTH
STEP.F        0.82                           : increment    - STEP LENGTH
 NULL. -999.2500:NULL Value
~CURVE INFORMATION BLOCK
#MNEM UNIT       ERCB CURVE CODE    CURVE DESCRIPTION
#-----------   ------------------   ----------------------------------
DEPT.F        00 001 00 00         : DEPTH        - DEPTH
GR  .API      00 310 00 00         : GR           - GAMMA RAY
DPHI.V/V      00 890 00 00         : PHID         - DENSITY POROSITY (SANDSTONE)
NPHI.V/V      00 330 00 00         : PHIN         - NEUTRON POROSITY (SANDSTONE)
CALI.IN       00 280 01 00         : CAL          - CALIPER
ILD .OHMM     00 120 00 00         : RESD         - DEEP RESISTIVITY (DIL)
~PARAMETER INFORMATION
#MNEM.UNIT           DATA             DESCRIPTION OF MNEMONIC
#---------         -----------     ------------------------------
GL  .M        490.58               : gl           - GROUND LEVEL ELEVATION
EREF.M        493.87               : kb           - ELEVATION OF DEPTH REFERENCE
DATM.M        493.87               : datum        - DATUM ELEVATION
TDD .M        246                  : tdd          - TOTAL DEPTH DRILLER
RUN .         ONE                  : Run          - RUN NUMBER
ENG .         BILL                 : Engineer     - RECORDING ENGINEER
WIT .         JIM                  : Witness      - WITNESSED BY
MUD .         GEL                  : Mud_type     - MUD TYPE
MATR.         SANDSTONE            : Logunit      - NEUTRON MATRIX
TMAX.F        140                  : BHT          - MAXIMUM RECORDED TEMPERATURE
BHTD.F        6797.9               : BHTDEP       - MAXIMUM RECORDED TEMPERATURE
RMT .F        77                   : MDTP         - TEMPERATURE OF MUD
MUDD.LB/G     9.66666              : MWT          - MUD DENSITY
NEUT.         1                    : NEUTRON      - NEUTRON TYPE
RESI.         0                    : RESIST       - RESISTIVITY TYPE
RM  .OHMM     8.75                 : RM           - RESISTIVITY OF MUD
RMC .OHMM     0.25                 : RMC          - RESISTIVITY OF MUD CAKE
RMF .OHMM     6.25                 : RMF          - RESISTIVITY OF MUD FILTRATE
SUFT.F        39.2                 : SUFT         - SURFACE TEMPERATURE
~A  DEPTH       GR     PHID     PHIN      CAL     RESD
# ...
  452.756   97.468    0.247    0.424   10.908   19.808
  453.576   99.032    0.251    0.426   10.911   18.981
  454.396   99.693    0.240    0.444   10.914   18.460
  455.217   98.542    0.256    0.438   10.917   17.957
  456.037   94.677    0.264    0.438   10.882   17.737
  456.857   89.908    0.246    0.448   10.824   18.027
  457.677   85.147    0.199    0.433   10.748   18.743
  458.497   81.596    0.215    0.430   10.514   18.928
  459.318   77.429    0.219    0.446   10.319   18.413
  460.138   75.088    0.198    0.451   10.223   20.456
  460.958   74.525    0.172    0.375   10.166   29.460
  461.778   78.189    0.078    0.326   10.169   26.615
  462.598   86.071    0.105    0.346   10.172   23.338
  463.419   92.743    0.143    0.500   10.172   17.269
  464.239   99.121    0.302    0.526   10.200   13.550
  465.059  103.994    0.309    0.547   10.201   10.324
  465.879  104.649    0.291    0.592   10.201    7.984
  466.699  105.610    0.251    0.552   10.229    7.429
  467.520   93.013    0.212    0.517   10.231    7.669
  468.340   90.658    0.122    0.482   10.214    8.907
  469.160   95.525    0.116    0.479   10.214   12.546
  469.980  102.511    0.131    0.451   10.201   16.785
  470.801  103.460    0.164    0.435   10.184   16.689
  471.621   99.614    0.188    0.460   10.189   16.485
  472.441   99.359    0.213    0.437   10.171   16.147
  473.261  101.511    0.230    0.440   10.153   15.591
  474.081   96.449    0.231    0.447   10.117   17.071
  474.902   92.898    0.223    0.448   10.117   20.746
  475.722   89.634    0.134    0.420   10.123   21.247
  476.542   92.695    0.179    0.399   10.126   21.452
  477.362   94.560    0.211    0.392   10.132   21.659
  478.182   92.212    0.222    0.388   10.153   21.691
  479.003   92.572    0.240    0.387   10.156   21.691
  479.823   93.220    0.246    0.401   10.158   21.621
  480.643   92.069    0.256    0.405   10.162   21.499
  481.463   87.301    0.273    0.418   10.165   21.225
  482.283   84.940    0.265    0.414   10.128   21.115
  483.104   83.194    0.265    0.416   10.092   21.308
  483.924   82.049    0.262    0.425   10.016   21.991
  484.744   79.983    0.279    0.414    9.940   23.394
  485.564   75.529    0.253    0.411    9.784   24.310
  486.385   74.371    0.240    0.425    9.608   25.849
  487.205   72.625    0.264    0.415    9.533   27.484
  488.025   70.866    0.269    0.413    9.516   26.350
  488.845   71.533    0.266    0.421    9.480   24.873
  489.665   70.677    0.272    0.431    9.383   26.636
  490.486   67.119    0.237    0.434    9.248   29.607
  491.306   66.269    0.186    0.407    9.191   30.555
  492.126   76.752    0.290    0.424    9.424   12.434
  492.946   74.948    0.293    0.430    9.404   11.344
  493.766   70.447    0.295    0.429    9.404   10.540
  494.587   71.642    0.312    0.423    9.422    9.704
  495.407   75.234    0.317    0.413    9.441    9.614
  496.227   75.829    0.289    0.398    9.440    9.881
  497.047   77.623    0.272    0.385    9.439   10.062
  497.867   78.516    0.272    0.393    9.438   10.437
  498.688   78.513    0.274    0.394    9.438   12.195
  499.508   77.909    0.233    0.361    9.456   16.500
  500.328   76.106    0.091    0.291    9.494   19.456
  501.148   73.703    0.120    0.306    9.590   17.750
  501.969   75.796    0.185    0.345    9.743   13.985
  502.789   79.989    0.221    0.385    9.838   12.642
  503.609   83.581    0.237    0.406   10.088   11.639
  504.429   84.477    0.261    0.413   10.299   11.117
  505.249   83.273    0.249    0.410   10.298   10.617
  506.070   83.267    0.258    0.407   10.297   10.422
  506.890   82.063    0.261    0.419   10.297   10.326
  507.710   80.560    0.278    0.426   10.450   10.325
  508.530   83.853    0.279    0.398   10.834   10.136
  509.350   86.846    0.245    0.398   11.199    9.681
  510.171   88.640    0.244    0.411   11.352    8.832
  510.991   88.036    0.256    0.398   11.352    8.131
  511.811   88.931    0.254    0.404   11.427    7.625
  512.631   88.926    0.236    0.416   11.485    8.055
  513.451   86.823    0.197    0.427   11.485    8.990
  514.272   84.420    0.171    0.431   11.522   10.127
  515.092   83.814    0.149    0.411   11.598   10.407
  515.912   87.708    0.127    0.398   11.617    9.940
  516.732   97.897    0.144    0.400   11.635    9.493
  517.552   96.992    0.198    0.402   11.634    9.580
  518.373   92.790    0.210    0.398   11.634   10.790
  519.193   91.586    0.190    0.404   11.652   10.988
  520.013   92.481    0.175    0.415   11.651    9.842
  520.833   93.676    0.212    0.423   11.631    8.735
  521.654   95.171    0.232    0.439   11.592    8.576
  522.474   98.463    0.238    0.455   11.553    8.576
  523.294   99.658    0.237    0.432   11.514    8.418
  524.114  102.052    0.231    0.459   11.455    8.340
  524.934  102.047    0.222    0.469   11.378    8.493
  525.755   97.246    0.186    0.461   11.281    9.307
  526.575   91.844    0.174    0.425   11.222    9.478
  527.395   90.640    0.127    0.406   11.144   10.104
  528.215   95.132    0.163    0.424   11.144    9.739
  529.035  101.423    0.222    0.450   11.085    9.133
  529.856  102.618    0.240    0.460   10.969    7.814
  530.676  103.513    0.221    0.461   10.853    7.261
  531.496  102.308    0.206    0.436   10.775    7.327
  532.316   99.306    0.209    0.440   10.775    8.177
  533.136   98.701    0.215    0.438   10.697    9.044
  533.957  100.195    0.180    0.412   10.561    9.210
  534.777  101.091    0.192    0.405   10.521    8.716
  535.597  101.086    0.206    0.425   10.463    8.098
  536.417  104.079    0.199    0.448   10.367    8.023
  537.238  100.477    0.164    0.465   10.289    8.873
  538.058   99.573    0.186    0.382   10.230    9.813
  538.878  103.765    0.210    0.374   10.172    9.723
  539.698  109.757    0.226    0.400   10.152    9.117
  540.518  110.651    0.245    0.422   10.132    9.116
  541.339  109.748    0.212    0.430   10.170    9.630
  542.159  108.244    0.218    0.411   10.265   10.267
  542.979  105.840    0.192    0.385   10.188   10.079
  543.799   99.839    0.165    0.372   10.072    9.715
  544.619  101.333    0.138    0.374    9.994    9.278
  545.440  104.027    0.143    0.389    9.955    8.861
  546.260  107.920    0.168    0.411    9.954    8.463
  547.080  110.314    0.201    0.423   10.011    8.233
  547.900  110.608    0.222    0.431   10.087    8.617
  548.720  110.004    0.219    0.415   10.106    8.938
  549.541  108.201    0.219    0.417   10.086    8.775
  550.361  105.198    0.174    0.417    9.931    8.228
  551.181  104.894    0.139    0.414    9.699    7.370
  552.001  109.686    0.185    0.448    9.583    6.135
  552.822  114.778    0.236    0.456    9.583    5.753
  553.642  117.171    0.236    0.448    9.447    6.362
  554.462  113.869    0.223    0.465    9.312    7.572
  555.282  104.270    0.190    0.452    9.272    7.231
  556.102  107.264    0.143    0.402    9.214    7.034
  556.923  114.454    0.129    0.399    9.214    6.718
  557.743  115.948    0.218    0.422    9.116    6.300
  558.563  111.747    0.229    0.433    9.058    6.072
  559.383  108.144    0.219    0.448    9.058    7.565
  560.203  105.740    0.216    0.457    9.018    7.094
  561.024  106.635    0.202    0.417    8.940    7.094
  561.844  110.528    0.177    0.425    8.920    6.530
  562.664  116.820    0.240    0.463    8.823    6.181
  563.484  118.614    0.231    0.486    8.707    5.849
  564.304  115.611    0.208    0.497    8.706    7.986
  565.125  110.510    0.198    0.429    8.782    8.672
  565.945  109.905    0.185    0.425    8.859    9.078
  566.765  113.798    0.151    0.447    8.916    8.358
  567.585  118.291    0.217    0.460    8.915    7.283
  568.406  118.885    0.216    0.432    8.876    6.892
  569.226  115.582    0.216    0.426    8.798    6.892
  570.046  112.879    0.220    0.429    8.682    9.410
  570.866  108.378    0.189    0.426    8.566   10.218
  571.686  100.278    0.096    0.380    8.526   10.598
