~VERSION INFORMATION
 VERS.                 2.0:   CWLS LOG ASCII STANDARD -VERSION 2.0
 WRAP.                  NO:   ONE LINE PER DEPTH STEP
~WELL INFORMATION BLOCK
#MNEM.UNIT           DATA                    DESCRIPTION OF MNEMONIC
#---------    -------------------            -------------------------------
# Generated from Intellog Unique Number	CC_84_87/WELL/2325
NULL.         -999.25                        : NULL_VALUE
WELL.         ARCO ACI MCMURAY               : Well_name    - WELL
LOC .         11-11-085-09W4                 : Location     - LOCATION          
UWI .         AA/11-11-085-09W400            : Uwi          - UNIQUE WELL ID    
ENTR.         DW                             : Entered      - ENTERED BY        
SRVC.         SCHLUMBERGER                   : Scn          - SERVICE COMPANY   
DATE.         01 JAN 76                      : Date         - LOG DATE
STRT.M        259.08                         : top_depth    - START DEPTH       
STOP.M        499.88                         : bot_depth    - STOP DEPTH        
STEP.M        0.305                          : increment    - STEP LENGTH       
~CURVE INFORMATION BLOCK
#MNEM UNIT       ERCB CURVE CODE    CURVE DESCRIPTION
#-----------   ------------------   ----------------------------------
DEPT.M        00 001 00 00         : DEPTH        - DEPTH                       
ILD .OHMM     00 120 00 00         : RESD         - DEEP RESISTIVITY (DIL)      
DPHI.V/V      00 890 00 00         : PHID         - DENSITY POROSITY (LIMESTONE)
NPHI.V/V      00 330 00 00         : PHIN         - NEUTRON POROSITY (LIMESTONE)
GR  .API      00 310 00 00         : GR           - GAMMA RAY                   
~PARAMETER INFORMATION       
#MNEM.UNIT           DATA             DESCRIPTION OF MNEMONIC
#---------         -----------     ------------------------------
GL  .M        735.482              : gl           - GROUND LEVEL ELEVATION      
EREF.M        738.226              : kb           - ELEVATION OF DEPTH REFERENCE
DATM.M        738.226              : datum        - DATUM ELEVATION             
TDD .M        502.615              : tdd          - TOTAL DEPTH DRILLER         
RUN .         ONE                  : Run          - RUN NUMBER                  
ENG .         BILL                 : Engineer     - RECORDING ENGINEER          
WIT .         JIM                  : Witness      - WITNESSED BY                
MUD .         GEL                  : Mud_type     - MUD TYPE                    
MATR.         LIMESTONE            : Logunit      - NEUTRON MATRIX              
TMAX.C        24.4444              : BHT          - MAXIMUM RECORDED TEMPERATURE
BHTD.M        502.31               : BHTDEP       - MAXIMUM RECORDED TEMPERATURE
MATR.         1                    : LOGUNIT      - NEUTRON MATRIX              
RMT .C        25                   : MDTP         - TEMPERATURE OF MUD          
NEUT.         1                    : NEUTRON      - NEUTRON TYPE                
RESI.         0                    : RESIST       - RESISTIVITY TYPE            
RMC .OHMM     0.25                 : RMC          - RESISTIVITY OF MUD CAKE     
RMF .OHMM     0.25                 : RMF          - RESISTIVITY OF MUD FILTRATE 
SUFT.C        15                   : SUFT         - SURFACE TEMPERATURE         
~A  DEPTH     RESD     PHID     PHIN       GR
# ...
  312.117   26.341    0.258    0.426   91.474
  312.422   27.860    0.248    0.426   95.097
  312.726   27.864    0.249    0.435   93.874
  313.031   26.361    0.303    0.475   76.891
  313.336   25.403    0.292    0.425   85.358
  313.641   24.032    0.281    0.411   88.376
  313.946   21.505    0.266    0.425   88.969
  314.251   19.240    0.258    0.430   85.322
  314.555   11.230    0.276    0.417   86.522
  314.860   11.025    0.272    0.390   91.960
  315.165   12.328    0.268    0.405   91.342
  315.470   16.598    0.271    0.424   94.966
  315.775   24.071    0.271    0.434  108.285
  316.079   29.535    0.224    0.427  118.573
  316.384   30.658    0.198    0.492  117.953
  316.689   30.665    0.279    0.489  105.216
  316.994   30.108    0.310    0.457   99.142
  317.299   28.483    0.304    0.417  108.219
  317.603   26.450    0.302    0.441  125.173
  317.908   24.563    0.307    0.448  132.433
  318.213   23.234    0.329    0.450  133.023
  318.518   21.980    0.316    0.448   89.380
  318.823   20.411    0.316    0.446   78.458
  319.127   20.039    0.312    0.443   84.501
  319.432   19.675    0.290    0.429   89.942
  319.737   18.271    0.273    0.425   92.961
  320.042   16.966    0.275    0.425   92.342
  320.347   14.629    0.278    0.421   96.571
  320.652   13.838    0.258    0.419   99.589
  320.956   13.336    0.275    0.427  102.000
  321.261   12.385    0.271    0.453  109.863
  321.566   12.159    0.260    0.464  116.517
  321.871   12.622    0.256    0.471  120.138
  322.176   14.378    0.254    0.464  117.097
  322.480   17.972    0.250    0.450   97.086
  322.785   18.656    0.246    0.448   91.617
  323.090   17.979    0.257    0.473   95.241
  323.395   13.360    0.297    0.489   90.985
  323.700   10.113    0.267    0.461   75.216
  324.004    7.800    0.251    0.442   75.805
  324.309    7.109    0.226    0.444   80.038
  324.614    7.803    0.196    0.455   87.902
  324.919    9.754    0.198    0.481  112.129
  325.224   10.705    0.237    0.509  116.964
  325.528   11.321    0.231    0.522  123.011
  325.833   11.323    0.231    0.517  120.574
  326.138    9.763    0.237    0.502  106.015
  326.443    8.416    0.219    0.487  113.273
  326.748    7.392    0.229    0.463  118.110
  327.053    7.125    0.229    0.468  122.338
  327.357    7.259    0.226    0.475  126.568
  327.662    7.968    0.213    0.474  134.430
  327.967    9.076    0.202    0.476  137.450
  328.272   10.338    0.214    0.491  140.466
  328.577   12.223    0.217    0.481  145.908
  328.881   12.926    0.191    0.504  143.469
  329.186   13.171    0.185    0.535  137.998
  329.491   12.231    0.225    0.521  134.956
  329.796   12.008    0.228    0.490  132.522
  330.101   12.236    0.232    0.467  122.207
  330.405   13.681    0.228    0.461  120.373
  330.710   15.299    0.220    0.460  120.968
  331.015   15.880    0.218    0.449  129.438
  331.320   16.181    0.224    0.479  118.518
  331.625   15.887    0.241    0.491  125.168
  331.929   16.189    0.242    0.497  128.794
  332.234   16.496    0.241    0.473  122.721
  332.539   16.809    0.262    0.474  109.980
  332.844   16.201    0.275    0.454  106.331
  333.149   15.043    0.275    0.445  112.375
  333.454   13.460    0.278    0.451  109.333
  333.758   12.972    0.281    0.462  106.287
  334.063   12.737    0.281    0.439  106.272
  334.368   12.978    0.266    0.442  106.871
  334.673   12.742    0.228    0.425  113.522
  334.978   11.191    0.212    0.433  108.057
  335.282    8.792    0.186    0.427  106.226
  335.587    8.959    0.192    0.422  111.665
  335.892   10.396    0.198    0.420  117.714
  336.197   13.740    0.181    0.420  121.335
  336.502   18.846    0.193    0.442  126.168
  336.806   24.449    0.222    0.475  131.609
  337.111   29.999    0.243    0.491  132.811
  337.416   32.925    0.250    0.498   99.466
  337.721   34.179    0.284    0.476   83.696
  338.026   34.827    0.254    0.436   82.472
  338.330   30.025    0.219    0.434   77.609
  338.635   27.367    0.278    0.459   70.324
  338.940   20.717    0.324    0.453   64.250
  339.245   16.893    0.326    0.423   59.992
  339.550   16.282    0.317    0.420   57.556
  339.855   17.869    0.312    0.429   59.968
  340.159   20.735    0.315    0.417   64.805
  340.464   26.899    0.314    0.419   73.880
  340.769   27.925    0.303    0.437   82.351
  341.074   19.625    0.280    0.456   85.367
  341.379   10.247    0.308    0.488   80.507
  341.683    6.811    0.332    0.453   64.132
  341.988    6.564    0.334    0.459   63.513
  342.293    7.477    0.330    0.459   67.133
  342.598   11.899    0.305    0.451   71.363
  342.903   14.331    0.263    0.439   87.108
  343.207   13.308    0.203    0.494  128.909
  343.512    8.212    0.202    0.519  133.744
  343.817    6.696    0.240    0.537  130.096
  344.122    6.823    0.291    0.541  117.356
  344.427    8.529    0.298    0.548   93.099
  344.731   12.369    0.274    0.485   96.118
  345.036   20.811    0.225    0.437  107.013
  345.341   26.997    0.214    0.457  118.514
  345.646   28.551    0.246    0.495  121.531
  345.951   27.520    0.281    0.520   99.095
  346.256   27.524    0.293    0.529   89.992
  346.560   28.571    0.301    0.488   85.128
  346.865   31.945    0.293    0.456   83.299
  347.170   40.678    0.308    0.448   82.072
  347.475   47.205    0.313    0.453   79.635
  347.780   48.101    0.312    0.444   75.380
  348.084   42.246    0.302    0.441   71.124
  348.389   33.815    0.283    0.448   68.082
  348.694   29.698    0.059    0.436   66.857
  348.999   27.070    0.082    0.227   58.965
  349.304   26.581    0.149    0.266   57.135
  349.608   27.082    0.271    0.322   60.149
  349.913   28.643    0.337    0.409   63.774
  350.218   30.291    0.329    0.454   65.577
  350.523   30.865    0.325    0.465   65.562
  350.828   30.305    0.323    0.459   64.944
  351.132   30.310    0.323    0.471   61.904
  351.437   30.319    0.328    0.463   61.889
  351.742   30.323    0.333    0.462   64.904
  352.047   29.774    0.333    0.466   64.892
  352.352   29.778    0.329    0.475   58.820
  352.657   29.236    0.324    0.479   62.439
  352.961   29.244    0.326    0.479   65.460
  353.266   28.712    0.327    0.468   58.779
  353.571   29.259    0.328    0.463   54.525
  353.876   29.811    0.324    0.460   53.300
  354.181   30.379    0.322    0.456   54.499
  354.485   28.210    0.317    0.454   57.515
  354.790   26.687    0.314    0.455   60.532
  355.095   27.193    0.310    0.459   61.123
  355.400   29.296    0.310    0.467   56.257
  355.705   35.285    0.320    0.459   55.645
  356.009   39.454    0.326    0.461   61.085
  356.314   40.955    0.327    0.462   65.918
  356.619   40.965    0.327    0.462   65.902
  356.924   38.039    0.315    0.456   65.285
  357.229   32.191    0.273    0.452   64.668
  357.533   27.753    0.098    0.438   57.987
  357.838   25.772    0.106    0.224   53.733
  358.143   24.379    0.210    0.339   56.143
  358.448   20.631    0.303    0.395   63.403
  358.753   18.807    0.323    0.432   62.780
  359.058   19.888    0.325    0.452   64.585
  359.362   23.954    0.325    0.450   69.422
  359.667   25.806    0.324    0.451   73.046
  359.972   24.870    0.310    0.471   76.060
  360.277   19.906    0.268    0.477   79.079
  360.582   15.351    0.119    0.460   81.489
  360.886   12.752    0.103    0.433   80.265
  361.191   10.019    0.177    0.283   69.950
  361.496    9.837    0.271    0.307   77.815
  361.801   11.415    0.305    0.377   85.074
  362.106   15.086    0.309    0.466   86.272
  362.410   16.868    0.299    0.494   88.681
  362.715   11.423    0.284    0.514   86.245
  363.020    8.332    0.271    0.512   83.810
  363.325    7.455    0.269    0.467   90.458
  363.630    7.739    0.287    0.494   88.024
  363.934    8.033    0.305    0.520   78.918
  364.239    9.323    0.315    0.489   77.088
  364.544   10.044    0.307    0.470   81.319
  364.849   10.821    0.289    0.457   91.608
