~VERSION INFORMATION
 VERS.                 2.0:   CWLS LOG ASCII STANDARD -VERSION 2.0
 WRAP.                  NO:   ONE LINE PER DEPTH STEP
~WELL INFORMATION BLOCK
#MNEM.UNIT           DATA                    DESCRIPTION OF MNEMONIC
#---------    -------------------            -------------------------------
# Generated from Intellog Unique Number	CN_91_93/WELL/3602
WELL.         AOSTRA AO-26                   : Well_name    - WELL
LOC .         AA/16-12-093-13W4/0            : Location     - LOCATION
UWI .         AA/16-12-093-13W400            : Uwi          - UNIQUE WELL ID
ENTR.         JHS                            : Entered      - ENTERED BY
SRVC.         SCHLUMBERGER                   : Scn          - SERVICE COMPANY
STRT.M        15                             : top_depth    - START DEPTH
STOP.M        164.75                         : bot_depth    - STOP DEPTH
STEP.M        0.25                           : increment    - STEP LENGTH
 NULL. -999.2500:NULL Value
~CURVE INFORMATION BLOCK
#MNEM UNIT       ERCB CURVE CODE    CURVE DESCRIPTION
#-----------   ------------------   ----------------------------------
DEPT.M        00 001 00 00         : DEPTH        - DEPTH
NPHI.V/V      00 330 00 00         : PHIN         - NEUTRON POROSITY (SANDSTONE)
DPHI.V/V      00 890 00 00         : PHID         - DENSITY POROSITY (SANDSTONE)
GR  .API      00 310 00 00         : GR           - GAMMA RAY
CALI.MM       00 280 01 00         : CAL          - CALIPER
ILD .OHMM     00 120 00 00         : RESD         - DEEP RESISTIVITY (DIL)
~PARAMETER INFORMATION
#MNEM.UNIT           DATA             DESCRIPTION OF MNEMONIC
#---------         -----------     ------------------------------
GL  .M        430.5                : gl           - GROUND LEVEL ELEVATION
EREF.M        430.5                : kb           - ELEVATION OF DEPTH REFERENCE
DATM.M        430.5                : datum        - DATUM ELEVATION
TDD .M        167                  : tdd          - TOTAL DEPTH DRILLER
RUN .         ONE                  : Run          - RUN NUMBER
ENG .         BILL                 : Engineer     - RECORDING ENGINEER
WIT .         JIM                  : Witness      - WITNESSED BY
MUD .         GEL                  : Mud_type     - MUD TYPE
MATR.         SANDSTONE            : Logunit      - NEUTRON MATRIX
TMAX.C        8.1                  : BHT          - MAXIMUM RECORDED TEMPERATURE
BHTD.M        167                  : BHTDEP       - MAXIMUM RECORDED TEMPERATURE
MATR.         1                    : LOGUNIT      - NEUTRON MATRIX
RMT .C        15                   : MDTP         - TEMPERATURE OF MUD
NEUT.         1                    : NEUTRON      - NEUTRON TYPE
RESI.         0                    : RESIST       - RESISTIVITY TYPE
RMC .OHMM     12.5                 : RMC          - RESISTIVITY OF MUD CAKE
RMF .OHMM     12.5                 : RMF          - RESISTIVITY OF MUD FILTRATE
SUFT.C        15                   : SUFT         - SURFACE TEMPERATURE
~A  DEPTH     PHIN     PHID       GR      CAL     RESD
# ...
   88.000    0.568    0.269  105.218  149.466   14.739
   88.250    0.563    0.284  105.826  146.468   17.159
   88.500    0.514    0.276  101.037  139.857   21.146
   88.750    0.517    0.285  105.242  134.451   24.617
   89.000    0.515    0.245   80.067  136.870   31.512
   89.250    0.385    0.204   84.872  137.482   47.855
   89.500    0.289    0.096   86.678  137.493   62.432
   89.750    0.324    0.116   86.087  138.107   66.098
   90.000    0.381    0.213   95.090  135.710   23.711
   90.250    0.479    0.256   89.702  141.139   18.882
   90.500    0.582    0.235   86.712  139.345   21.980
   90.750    0.411    0.195   65.734  138.156   42.725
   91.000    0.340    0.132   75.336  138.162   59.009
   91.250    0.272    0.101   84.937  132.155   54.699
   91.500    0.247    0.079   86.144  139.390   51.674
   91.750    0.384    0.172   91.550  141.208   24.644
   92.000    0.453    0.234   86.159  140.615   18.894
   92.250    0.503    0.180   90.364  137.617   22.846
   92.500    0.391    0.105   82.578  139.436   38.150
   92.750    0.343    0.188   86.782  142.459   52.688
   93.000    0.373    0.167   89.189  140.059   30.382
   93.250    0.404    0.162   87.997  137.663   32.783
   93.500    0.422    0.201   95.800  137.672   34.707
   93.750    0.487    0.258   92.210  137.683   16.553
   94.000    0.560    0.247   97.014  137.095   16.555
   94.250    0.625    0.242  106.016  140.114   17.862
   94.500    0.619    0.248  116.816  141.333   16.246
   94.750    0.681    0.261  119.822  140.739   14.225
   95.000    0.668    0.258  124.626  135.935   13.439
   95.250    0.668    0.253  111.444  134.740   13.440
   95.500    0.560    0.251  103.057  136.561   13.441
   95.750    0.512    0.255  115.658  135.365   13.963
   96.000    0.560    0.256  112.666  135.380   15.649
   96.250    0.656    0.263  113.274  136.596   16.886
   96.500    0.618    0.268  119.877  137.209   16.569
   96.750    0.623    0.256  107.893  137.217   14.509
   97.000    0.664    0.279  124.691  137.832   14.510
   97.250    0.586    0.197   99.515  138.443   18.224
   97.500    0.555    0.112   80.936  137.853   25.170
   97.750    0.535    0.212  107.327  137.862   23.778
   98.000    0.527    0.271  108.534  140.284   16.896
   98.250    0.538    0.279  105.544  137.283   15.079
   98.500    0.646    0.259  103.753  136.094   14.518
   98.750    0.696    0.244  125.945  138.510   14.519
   99.000    0.654    0.243  124.754  138.521   16.273
   99.250    0.606    0.249  103.177  138.531   20.439
   99.500    0.567    0.171   98.988  137.944   17.896
   99.750    0.528    0.131  107.390  136.150   14.524
  100.000    0.516    0.174  113.993  135.555   13.984
  100.250    0.533    0.218  131.988  135.567   13.986
  100.500    0.533    0.242  112.210  135.580   14.255
  100.750    0.524    0.257  127.207  134.988   14.257
  101.000    0.564    0.270  133.810  132.593   14.258
  101.250    0.614    0.265  119.428  133.806   13.991
  101.500    0.634    0.258  117.038  137.430   13.471
  101.750    0.601    0.266  118.845  136.837   12.487
  102.000    0.655    0.276  115.857  134.443   11.357
  102.250    0.665    0.271  115.263  134.454   11.144
  102.500    0.656    0.283  130.860  136.273   10.730
  102.750    0.679    0.312   85.899  135.681   11.146
  103.000    0.689    0.258  103.295  135.692   15.394
  103.250    0.521    0.129  115.894  135.704   19.706
  103.500    0.524    0.181  125.497  135.109   14.823
  103.750    0.535    0.246  127.901  134.519   12.736
  104.000    0.592    0.279  135.104  134.532   12.736
  104.250    0.646    0.269  126.118  134.542   12.738
  104.500    0.622    0.284  119.531  134.553   15.113
  104.750    0.587    0.272  111.144  134.566   16.620
  105.000    0.649    0.249  108.756  134.578   15.701
  105.250    0.599    0.245  124.353  133.383   15.117
  105.500    0.537    0.285  115.966  134.599   14.282
  105.750    0.525    0.311  114.775  134.610   14.557
  106.000    0.522    0.298  120.181  134.018   15.121
  106.250    0.559    0.282  115.390  134.031   16.316
  106.500    0.590    0.243  129.189  134.642   18.286
  106.750    0.527    0.230  118.404  135.260   20.495
  107.000    0.461    0.203  111.818  132.259   18.641
  107.250    0.442    0.267  122.617  131.667   17.610
  107.500    0.510    0.286  121.425  132.278   16.323
  107.750    0.569    0.275  111.840  132.290   15.717
  108.000    0.606    0.280  128.636  132.301   15.422
  108.250    0.574    0.294  117.254  131.712   16.021
  108.500    0.559    0.270  111.264  132.326   16.022
  108.750    0.552    0.231  122.064  133.539   16.331
  109.000    0.539    0.244  113.678  131.145   15.138
  109.250    0.583    0.253  125.078  128.748   13.509
  109.500    0.634    0.270  117.291  131.768   13.769
  109.750    0.575    0.301  114.301  137.195   16.030
  110.000    0.557    0.198  119.106  132.993   19.755
  110.250    0.589    0.159  122.711  136.618   15.145
  110.500    0.627    0.204  121.520  133.619   13.775
  110.750    0.635    0.235  111.335  132.427   12.769
  111.000    0.625    0.240  111.942  132.436   12.769
  111.250    0.653    0.232  116.151  131.244   12.770
  111.500    0.584    0.237  115.555  129.451   14.043
  111.750    0.563    0.258  114.364  128.861   14.588
  112.000    0.579    0.277  113.173  128.870   14.316
  112.250    0.586    0.246  117.378  131.891   13.783
  112.500    0.581    0.241  116.786  133.707   13.525
  112.750    0.584    0.238  114.395  135.524   13.272
  113.000    0.582    0.246  131.193  136.139   14.051
  113.250    0.587    0.253  117.409  133.141   15.748
  113.500    0.579    0.212  108.425  124.123   17.989
  113.750    0.559    0.194  113.829  122.928   16.994
  114.000    0.597    0.179  101.846  122.942   16.676
  114.250    0.613    0.218   95.256  122.951   16.997
  114.500    0.572    0.226  111.454  122.961   13.535
  114.750    0.512    0.285  119.856  123.574   11.629
  115.000    0.499    0.339  120.464  124.189   10.780
  115.250    0.567    0.344  121.071    0.000   12.081
  115.500    0.685    0.326  132.471    0.000   14.608
  115.750    0.565    0.264  115.091    0.000   15.763
  116.000    0.574    0.249  105.506    0.000   13.543
  116.250    0.611    0.311  113.308    0.000   12.086
  116.500    0.650    0.337  137.899    0.000   13.290
  116.750    0.542    0.332  111.525    0.000   20.964
  117.000    0.502    0.260  113.931    0.000   17.014
  117.250    0.544    0.097  112.140    0.000   12.090
  117.500    0.604    0.173  112.148    0.000   11.422
  117.750    0.562    0.276  121.749    0.000   11.423
  118.000    0.487    0.323  103.770    0.000   11.424
  118.250    0.443    0.328   99.581    0.000   10.999
  118.500    0.477    0.325  105.584    0.000   10.195
  118.750    0.615    0.323  103.793    0.000    9.273
  119.000    0.666    0.320   85.814    0.000    9.100
  119.250    0.653    0.317   67.835    0.000    8.929
  119.500    0.574    0.313   82.832    0.000    9.101
  119.750    0.508    0.304   88.835    0.000    9.454
  120.000    0.480    0.295   89.443    0.000    9.455
  120.250    0.606    0.271   67.869    0.000   13.774
  120.500    0.554    0.294   67.853    0.000   16.245
  120.750    0.547    0.289   55.591    0.000   17.492
  121.000    0.619    0.237   72.718    0.000   17.994
  121.250    0.622    0.154   76.984    0.000   18.680
  121.500    0.569    0.177   69.621    0.000   21.829
  121.750    0.583    0.281   72.055    0.000   11.761
  122.000    0.616    0.345   88.568    0.000    9.462
  122.250    0.593    0.338   84.878    0.000   10.280
  122.500    0.696    0.332  106.901    0.000   10.769
  122.750    0.585    0.343  100.761    0.000   10.206
  123.000    0.500    0.296   88.502    0.000   10.405
  123.250    0.551    0.298   87.261    0.000   11.303
  123.500    0.628    0.308   99.488    0.000   11.315
  123.750    0.683    0.303  119.062    0.000   11.022
  124.000    0.636    0.216  114.760    0.000   11.865
  124.250    0.597    0.234   82.910    0.000   14.515
