~VERSION INFORMATION
 VERS.                 2.0:   CWLS LOG ASCII STANDARD -VERSION 2.0
 WRAP.                  NO:   ONE LINE PER DEPTH STEP
~WELL INFORMATION BLOCK
#MNEM.UNIT           DATA                    DESCRIPTION OF MNEMONIC
#---------    -------------------            -------------------------------
# Generated from Intellog Unique Number	CC_84_87/WELL/2328
NULL.         -999.25                        : NULL_VALUE
WELL.         TEXACO HANG ST OV              : Well_name    - WELL              
LOC .         11-15-085-12W4                 : Location     - LOCATION          
UWI .         AA/11-15-085-12W400            : Uwi          - UNIQUE WELL ID    
ENTR.         RJA                            : Entered      - ENTERED BY        
SRVC.         SCHLUMBERGER                   : Scn          - SERVICE COMPANY   
DATE.         07 FEB 81                      : Date         - LOG DATE
STRT.M        40                             : top_depth    - START DEPTH       
STOP.M        255.102                        : bot_depth    - STOP DEPTH        
STEP.M        0.3                            : increment    - STEP LENGTH       
~CURVE INFORMATION BLOCK
#MNEM UNIT       ERCB CURVE CODE    CURVE DESCRIPTION
#-----------   ------------------   ----------------------------------
DEPT.M        00 001 00 00         : DEPTH        - DEPTH                       
DPHI.V/V      00 890 00 00         : PHID         - DENSITY POROSITY (LIMESTONE)
NPHI.V/V      00 330 00 00         : PHIN         - NEUTRON POROSITY (LIMESTONE)
GR  .API      00 310 00 00         : GR           - GAMMA RAY                   
ILD .OHMM     00 120 00 00         : RESD         - DEEP RESISTIVITY (DIL)      
~PARAMETER INFORMATION       
#MNEM.UNIT           DATA             DESCRIPTION OF MNEMONIC
#---------         -----------     ------------------------------
GL  .M        531                  : gl           - GROUND LEVEL ELEVATION      
EREF.M        534                  : kb           - ELEVATION OF DEPTH REFERENCE
DATM.M        534                  : datum        - DATUM ELEVATION             
TDD .M        255                  : tdd          - TOTAL DEPTH DRILLER         
RUN .         ONE                  : Run          - RUN NUMBER                  
ENG .         BILL                 : Engineer     - RECORDING ENGINEER          
WIT .         JIM                  : Witness      - WITNESSED BY                
MUD .         GEL                  : Mud_type     - MUD TYPE                    
MATR.         LIMESTONE            : Logunit      - NEUTRON MATRIX              
TMAX.C        15                   : BHT          - MAXIMUM RECORDED TEMPERATURE
BHTD.M        255                  : BHTDEP       - MAXIMUM RECORDED TEMPERATURE
MATR.         1                    : LOGUNIT      - NEUTRON MATRIX              
RMT .C        25                   : MDTP         - TEMPERATURE OF MUD          
NEUT.         1                    : NEUTRON      - NEUTRON TYPE                
RESI.         0                    : RESIST       - RESISTIVITY TYPE            
RMC .OHMM     0.25                 : RMC          - RESISTIVITY OF MUD CAKE     
RMF .OHMM     0.25                 : RMF          - RESISTIVITY OF MUD FILTRATE 
SUFT.C        15                   : SUFT         - SURFACE TEMPERATURE         
~A  DEPTH     PHID     PHIN       GR     RESD
# ...
  144.401    0.238    0.481   88.244    7.420
  144.701    0.235    0.450   81.077    8.970
  145.001    0.217    0.450   74.035   10.339
  145.301    0.222    0.482   70.083   10.729
  145.601    0.252    0.504   67.932   10.122
  145.901    0.217    0.511   76.430    8.814
  146.201    0.270    0.484   77.870    7.822
  146.501    0.290    0.432   79.066    7.321
  146.801    0.312    0.460   77.716    7.234
  147.101    0.240    0.457   82.006    7.171
  147.401    0.257    0.442   81.962    7.372
  147.701    0.226    0.454   72.253    7.725
  148.001    0.232    0.493   76.357    8.123
  148.301    0.295    0.486   76.434    8.627
  148.601    0.277    0.468   72.052    9.445
  148.901    0.272    0.460   69.035   10.945
  149.201    0.277    0.454   69.548   12.398
  149.501    0.247    0.436   70.306   12.629
  149.801    0.240    0.346   66.790   13.105
  150.101    0.302    0.384   67.957   15.755
  150.401    0.249    0.405   67.226   11.677
  150.701    0.181    0.476   69.998    9.341
  151.001    0.289    0.489   80.966    7.030
  151.301    0.298    0.525   86.806    6.211
  151.601    0.253    0.491   88.450    5.800
  151.901    0.313    0.455   85.591    5.745
  152.201    0.278    0.489   86.296    7.282
  152.501    0.219    0.495   91.196    8.782
  152.801    0.252    0.464   85.084   10.233
  153.101    0.293    0.455   76.594   11.544
  153.401    0.295    0.457   71.605   11.414
  153.701    0.308    0.458   68.182   10.142
  154.001    0.299    0.446   68.954    9.029
  154.301    0.294    0.454   73.617    8.399
  154.601    0.249    0.456   75.690    8.497
  154.901    0.247    0.468   77.958    8.746
  155.201    0.259    0.499   77.913    8.567
  155.501    0.255    0.459   78.686    8.153
  155.801    0.246    0.480   81.770    6.350
  156.101    0.250    0.490   87.109    5.462
  156.401    0.246    0.510   92.758    4.937
  156.701    0.270    0.521   99.033    4.663
  157.001    0.289    0.511   98.178    4.737
  157.301    0.272    0.535   98.820    5.113
  157.601    0.300    0.543   95.711    6.131
  157.901    0.231    0.486   93.728    6.311
  158.201    0.267    0.482   85.489    5.650
  158.501    0.313    0.529   82.691    4.269
  158.801    0.286    0.554   87.526    3.454
  159.101    0.283    0.576   88.486    2.994
  159.401    0.294    0.580   92.508    2.711
  159.701    0.316    0.589   96.281    2.743
  160.001    0.274    0.586   95.239    2.967
  160.301    0.287    0.565   94.943    3.347
  160.601    0.283    0.523   96.714    3.740
  160.901    0.282    0.539   94.041    4.139
  161.201    0.293    0.555   91.561    4.669
  161.501    0.274    0.506   92.329    5.451
  161.801    0.286    0.480   90.594    6.599
  162.101    0.262    0.496   90.866    7.838
  162.401    0.198    0.501   86.378    8.774
  162.701    0.239    0.444   83.143    8.303
  163.001    0.193    0.459   83.975    7.421
  163.301    0.162    0.473   78.676    6.657
  163.601    0.229    0.463   77.755    6.146
  163.901    0.264    0.511   83.094    5.962
  164.201    0.264    0.538   85.928    5.906
  164.501    0.308    0.541   88.960    6.196
  164.801    0.332    0.499   90.292    7.151
  165.101    0.297    0.461   88.929    8.192
  165.401    0.246    0.432   83.004    8.480
  165.701    0.262    0.438   74.322    8.009
  166.001    0.296    0.460   72.588    6.902
  166.301    0.276    0.447   81.993    6.017
  166.601    0.293    0.519   87.208    5.640
  166.901    0.277    0.563   87.162    6.031
  167.201    0.295    0.537   84.436    7.122
  167.501    0.307    0.450   82.388    8.508
  167.801    0.271    0.452   80.274    9.801
  168.101    0.254    0.451   83.984   10.724
  168.401    0.263    0.478   91.386   10.870
  168.701    0.278    0.415   87.528   11.296
  169.001    0.257    0.414   79.726   11.694
  169.301    0.286    0.430   81.996   12.082
  169.601    0.255    0.460   86.646   12.084
  169.901    0.269    0.457   82.285   11.880
  170.201    0.293    0.425   74.043   11.459
  170.501    0.300    0.444   69.494   11.053
  170.801    0.312    0.457   70.515   10.641
  171.101    0.307    0.464   69.660   10.303
  171.401    0.288    0.455   66.801    9.977
  171.701    0.295    0.448   66.566    9.828
  172.001    0.307    0.445   68.777    9.811
  172.301    0.318    0.456   70.113    9.852
  172.601    0.331    0.470   69.315    9.834
  172.901    0.308    0.477   68.831    9.816
  173.201    0.314    0.489   69.542    9.707
  173.501    0.303    0.480   67.997    9.435
  173.801    0.320    0.469   71.022    8.997
  174.101    0.312    0.468   72.102    8.913
  174.401    0.314    0.477   71.116    9.209
  174.701    0.296    0.498   69.761   10.251
  175.001    0.239    0.448   71.153   11.194
  175.301    0.095    0.340   69.111   11.218
  175.601    0.094    0.353   68.688   10.335
  175.901    0.126    0.455   72.901    8.541
  176.201    0.226    0.477   78.238    7.750
  176.501    0.240    0.455   82.577    7.475
  176.801    0.211    0.469   85.222    7.308
  177.101    0.246    0.482   85.867    7.338
  177.401    0.236    0.479   84.510    7.396
  177.701    0.219    0.471   82.782    7.299
  178.001    0.238    0.457   83.548    7.230
  178.301    0.236    0.440   82.751    6.948
  178.601    0.307    0.496   79.703    6.353
  178.901    0.245    0.529   80.226    5.776
  179.201    0.281    0.511   82.620    5.635
  179.501    0.294    0.512   82.705    5.242
  179.801    0.298    0.505   86.414    5.364
  180.101    0.317    0.484   90.814    6.121
  180.401    0.315    0.472   90.268    6.736
  180.701    0.265    0.481   91.537    6.880
  181.001    0.266    0.476   89.555    7.329
  181.301    0.263    0.453   84.691    7.703
  181.601    0.240    0.503   79.769    7.749
  181.901    0.249    0.468   77.850    7.333
  182.201    0.287    0.449   78.743    7.155
  182.501    0.300    0.487   79.325    7.239
  182.801    0.325    0.504   80.847    7.436
  183.101    0.293    0.467   82.680    7.937
  183.401    0.289    0.449   80.946    8.734
  183.701    0.258    0.453   79.650    8.921
  184.001    0.233    0.462   84.933    9.287
  184.301    0.266    0.457   84.703    9.289
  184.601    0.262    0.451   82.778    9.013
  184.901    0.267    0.444   80.859    8.963
  185.201    0.268    0.432   77.808    8.828
  185.501    0.253    0.434   73.883    8.532
  185.801    0.274    0.420   72.460    8.167
  186.101    0.244    0.438   76.110    7.773
  186.401    0.246    0.452   79.883    7.469
  186.701    0.240    0.461   82.029    7.177
  187.001    0.280    0.487   80.737    6.818
  187.301    0.260    0.472   82.443    6.640
  187.601    0.281    0.447   85.591    6.717
  187.901    0.226    0.460   83.481    7.170
  188.201    0.241    0.490   84.755    7.682
  188.501    0.272    0.456   83.272    7.742
  188.801    0.241    0.504   76.033    7.496
  189.101    0.211    0.543   74.672    6.750
  189.401    0.259    0.520   84.827    5.567
  189.701    0.254    0.535   91.793    4.505
  190.001    0.273    0.510   96.755    4.064
  190.301    0.252    0.508   97.713    4.272
  190.601    0.248    0.495   95.604    4.969
  190.901    0.240    0.467   90.428    6.085
  191.201    0.211    0.501   89.134    6.943
  191.501    0.212    0.518   96.167    7.160
  191.801    0.211    0.502  100.062    6.685
  192.101    0.204    0.492  102.770    5.986
  192.401    0.218    0.495  103.287    5.463
  192.701    0.215    0.514  100.993    5.391
  193.001    0.224    0.517  101.701    6.258
  193.301    0.207    0.435   98.968    7.321
  193.601    0.201    0.445   98.108    8.482
  193.901    0.226    0.458  101.759    9.460
  194.201    0.220    0.409  102.152   10.591
  194.501    0.225    0.421   97.354   11.004
  194.801    0.224    0.417   94.242   11.282
  195.101    0.230    0.432   92.382   11.156
  195.401    0.207    0.416   89.774   10.802
  195.701    0.215    0.402   90.862   10.300
  196.001    0.228    0.434   94.073    9.860
  196.301    0.191    0.426   96.411    9.016
