~VERSION INFORMATION
 VERS.                 2.0:   CWLS LOG ASCII STANDARD -VERSION 2.0
 WRAP.                  NO:   ONE LINE PER DEPTH STEP
~WELL INFORMATION BLOCK
#MNEM.UNIT           DATA                    DESCRIPTION OF MNEMONIC
#---------    -------------------            -------------------------------
# Generated from Intellog Unique Number	CN_94_101/WELL/5024
WELL.         TEXACO                         : Well_name    - WELL
LOC .         AA/11-29-100-12W4/0            : Location     - LOCATION
UWI .         AA/11-29-100-12W400            : Uwi          - UNIQUE WELL ID
ENTR.         TIM                            : Entered      - ENTERED BY
SRVC.         SCHLUMBERGER                   : Scn          - SERVICE COMPANY
DATE.         08/13/92                       : Date         - LOG DATE
STRT.M        325                            : top_depth    - START DEPTH
STOP.M        575                            : bot_depth    - STOP DEPTH
STEP.M        0.25                           : increment    - STEP LENGTH
 NULL. -999.2500:NULL Value
~CURVE INFORMATION BLOCK
#MNEM UNIT       ERCB CURVE CODE    CURVE DESCRIPTION
#-----------   ------------------   ----------------------------------
DEPT.M        00 001 00 00         : DEPTH        - DEPTH
GR  .API      00 310 00 00         : GR           - GAMMA RAY
ILD .OHMM     00 120 00 00         : RESD         - DEEP RESISTIVITY (DIL)
NPHI.V/V      00 330 00 00         : PHIN         - NEUTRON POROSITY (SANDSTONE)
DPHI.V/V      00 890 00 00         : PHID         - DENSITY POROSITY (SANDSTONE)
~PARAMETER INFORMATION
#MNEM.UNIT           DATA             DESCRIPTION OF MNEMONIC
#---------         -----------     ------------------------------
GL  .M        776.4                : gl           - GROUND LEVEL ELEVATION
EREF.M        779.8                : kb           - ELEVATION OF DEPTH REFERENCE
DATM.M        779.8                : datum        - DATUM ELEVATION
TDD .M        634                  : tdd          - TOTAL DEPTH DRILLER
RUN .         ONE                  : Run          - RUN NUMBER
ENG .         BILL                 : Engineer     - RECORDING ENGINEER
WIT .         JIM                  : Witness      - WITNESSED BY
MUD .         GEL                  : Mud_type     - MUD TYPE
MATR.         SANDSTONE            : Logunit      - NEUTRON MATRIX
TMAX.C        28                   : BHT          - MAXIMUM RECORDED TEMPERATURE
BHTD.M        57634                : BHTDEP       - MAXIMUM RECORDED TEMPERATURE
RMT .C        25                   : MDTP         - TEMPERATURE OF MUD
MUDD.KG/M     1090                 : MWT          - MUD DENSITY
NEUT.         1                    : NEUTRON      - NEUTRON TYPE
RESI.         0                    : RESIST       - RESISTIVITY TYPE
RM  .OHMM     4.6                  : RM           - RESISTIVITY OF MUD
RMC .OHMM     4.6                  : RMC          - RESISTIVITY OF MUD CAKE
RMF .OHMM     4.6                  : RMF          - RESISTIVITY OF MUD FILTRATE
SUFT.C        4                    : SUFT         - SURFACE TEMPERATURE
~A  DEPTH       GR     RESD     PHIN     PHID
  325.000  126.965    6.037    0.465    0.196
  325.250  128.190    5.797    0.469    0.228
  325.500  131.341    5.676    0.469    0.253
  325.750  133.204    5.667    0.466    0.260
  326.000  135.692    5.993    0.466    0.257
  326.250  133.715    6.226    0.470    0.251
  326.500  132.401    6.457    0.472    0.242
  326.750  131.087    6.449    0.469    0.240
  327.000  127.822    6.438    0.464    0.240
  327.250  126.508    6.428    0.457    0.240
  327.500  125.181    6.415    0.452    0.239
  327.750  125.143    6.407    0.448    0.236
  328.000  126.355    6.268    0.448    0.229
  328.250  128.231    6.260    0.447    0.228
  328.500  131.369    6.375    0.447    0.224
  328.750  131.956    6.485    0.452    0.222
  329.000  131.255    6.479    0.464    0.221
  329.250  130.579    6.336    0.479    0.222
  329.500  130.515    6.087    0.491    0.222
  329.750  133.641    5.962    0.499    0.225
  330.000  136.155    5.835    0.507    0.228
  330.250  138.005    5.831    0.514    0.240
  330.500  137.941    5.597    0.505    0.242
  330.750  137.903    5.480    0.504    0.244
  331.000  138.490    5.258    0.513    0.246
  331.250  139.090    5.251    0.502    0.254
  331.500  140.940    5.346    0.488    0.260
  331.750  141.514    5.544    0.482    0.258
  332.000  141.476    5.540    0.488    0.254
  332.250  140.800    5.530    0.501    0.250
  332.500  138.810    5.519    0.508    0.253
  332.750  137.509    5.515    0.510    0.257
  333.000  136.183    5.503    0.500    0.260
  333.250  137.395    5.494    0.490    0.267
  333.500  138.632    5.483    0.483    0.268
  333.750  140.495    5.476    0.478    0.268
  334.000  141.070    5.470    0.475    0.267
  334.250  141.657    5.461    0.477    0.265
  334.500  138.416    5.342    0.477    0.259
  334.750  136.452    5.334    0.477    0.256
  335.000  132.561    5.222    0.477    0.254
  335.250  131.872    5.115    0.478    0.252
  335.500  131.821    4.910    0.478    0.249
  335.750  131.145    4.904    0.478    0.245
  336.000  131.095    4.707    0.480    0.248
  336.250  130.406    4.611    0.482    0.250
  336.500  129.704    4.424    0.494    0.255
  336.750  129.654    4.333    0.504    0.263
  337.000  129.603    4.326    0.511    0.272
  337.250  129.552    4.236    0.516    0.277
  337.500  129.488    4.229    0.517    0.274
  337.750  128.162    4.222    0.514    0.272
  338.000  126.848    4.213    0.510    0.275
  338.250  126.159    4.291    0.508    0.280
  338.500  124.820    4.627    0.505    0.278
  338.750  123.493    4.806    0.503    0.276
  339.000  122.792    5.087    0.508    0.270
  339.250  122.128    5.384    0.516    0.266
  339.500  122.078    5.479    0.514    0.261
  339.750  122.014    5.468    0.506    0.259
  340.000  121.963    5.463    0.491    0.257
  340.250  122.550    5.452    0.473    0.258
  340.500  124.400    5.338    0.460    0.259
  340.750  126.263    5.025    0.462    0.264
  341.000  127.488    4.827    0.499    0.272
  341.250  131.265    4.286    0.494    0.276
  341.500  131.214    4.038    0.489    0.281
  341.750  131.163    3.803    0.494    0.282
  342.000  129.836    3.870    0.497    0.282
  342.250  127.234    4.176    0.502    0.282
  342.500  124.644    4.686    0.511    0.277
  342.750  120.116    5.363    0.507    0.265
  343.000  114.336    6.627    0.481    0.250
  343.250  104.692    6.752    0.465    0.227
  343.500   99.551    6.868    0.451    0.216
  343.750   96.948    6.860    0.439    0.203
  344.000  100.725    6.590    0.442    0.182
  344.250  106.415    6.084    0.469    0.164
  344.500  112.743    5.731    0.483    0.267
  344.750  120.347    5.089    0.493    0.281
  345.000  124.123    4.517    0.504    0.276
  345.250  125.335    4.256    0.502    0.272
  345.500  125.897    4.085    0.495    0.267
  345.750  126.510    4.003    0.492    0.270
  346.000  125.821    3.918    0.486    0.275
  346.250  125.783    3.911    0.482    0.285
  346.500  126.370    3.980    0.476    0.287
  346.750  126.944    4.135    0.469    0.292
  347.000  126.906    4.288    0.474    0.299
  347.250  130.657    4.200    0.481    0.299
  347.500  131.270    4.114    0.492    0.299
  347.750  131.857    3.798    0.500    0.296
  348.000  130.530    3.508    0.501    0.284
  348.250  126.001    3.178    0.500    0.242
  348.500  120.209    2.935    0.499    0.233
  348.750  118.245    2.709    0.498    0.208
  349.000  118.832    2.757    0.492    0.210
  349.250  123.884    2.863    0.495    0.257
  349.500  127.661    3.212    0.503    0.278
  349.750  125.696    3.606    0.506    0.285
  350.000  121.818    4.289    0.492    0.295
  350.250  117.302    4.198    0.465    0.294
  350.500  115.975    3.955    0.480    0.292
  350.750  114.636    3.579    0.510    0.293
  351.000  112.034    3.507    0.515    0.300
  351.250  107.505    4.172    0.511    0.300
  351.500  104.277    5.687    0.465    0.302
  351.750   99.761    6.014    0.450    0.295
  352.000   95.870    6.128    0.432    0.284
  352.250   91.992    6.485    0.431    0.287
  352.500   91.303    6.864    0.438    0.291
  352.750   94.429    7.408    0.450    0.288
  353.000   96.943    6.973    0.473    0.285
  353.250  101.370    6.316    0.501    0.282
  353.500  105.772    5.394    0.508    0.282
  353.750  108.285    4.792    0.516    0.284
  354.000  110.148    4.513    0.519    0.286
  354.250  110.722    4.335    0.496    0.288
  354.500  111.947    4.245    0.487    0.288
  354.750  114.435    4.073    0.479    0.285
  355.000  115.686    4.069    0.447    0.279
  355.250  119.449    4.061    0.432    0.274
  355.500  122.588    4.294    0.437    0.263
  355.750  125.727    4.291    0.441    0.227
  356.000  127.589    4.365    0.444    0.232
  356.250  128.176    4.361    0.447    0.286
  356.500  129.389    4.270    0.447    0.295
  356.750  129.351    4.181    0.450    0.288
  357.000  129.300    4.254    0.453    0.286
  357.250  127.335    4.249    0.461    0.285
  357.500  124.733    4.584    0.470    0.286
  357.750  122.105    4.760    0.476    0.292
  358.000  120.804    4.845    0.477    0.296
  358.250  120.728    5.029    0.474    0.299
  358.500  121.340    5.118    0.473    0.299
  358.750  121.902    5.310    0.469    0.295
  359.000  121.876    5.410    0.465    0.286
  359.250  119.899    5.613    0.463    0.284
  359.500  117.935    5.826    0.462    0.283
  359.750  115.957    5.931    0.462    0.281
  360.000  115.269    6.038    0.459    0.278
  360.250  115.218    6.028    0.460    0.282
  360.500  115.792    6.018    0.457    0.293
  360.750  115.754    5.888    0.455    0.305
  361.000  115.716    5.880    0.454    0.297
  361.250  115.027    5.873    0.451    0.294
  361.500  114.338    5.635    0.450    0.297
  361.750  113.624    5.522    0.448    0.303
  362.000  112.961    5.098    0.447    0.300
  362.250  113.548    4.897    0.445    0.292
  362.500  116.049    4.523    0.449    0.284
  362.750  119.825    4.015    0.455    0.286
  363.000  122.951    3.782    0.463    0.289
  363.250  124.801    3.562    0.472    0.293
  363.500  126.052    3.555    0.493    0.298
  363.750  127.277    3.550    0.500    0.306
  364.000  126.575    3.756    0.522    0.308
  364.250  125.236    3.900    0.523    0.301
  364.500  124.560    4.047    0.521    0.296
  364.750  123.220    4.201    0.493    0.294
  365.000  122.532    4.360    0.491    0.288
  365.250  122.481    4.615    0.484    0.284
  365.500  121.805    4.700    0.474    0.277
  365.750  120.478    4.974    0.471    0.272
  366.000  117.225    5.163    0.468    0.267
  366.250  113.334    5.359    0.464    0.264
  366.500  111.383    5.893    0.460    0.258
  366.750  109.418    6.237    0.458    0.252
  367.000  108.091    6.354    0.456    0.242
  367.250  109.291    6.596    0.452    0.261
  367.500  111.141    6.331    0.452    0.272
  367.750  111.754    6.201    0.456    0.281
  368.000  112.341    5.950    0.462    0.285
  368.250  113.578    5.716    0.466    0.287
