~Version : LASO    vs 4.00 
VERS.                2.00:   CWLS Log ASCII Standard -VERSION 2.0
WRAP.                  NO:
~Well Information Block
#MNEM.UNIT       Data                        Description of Mnemonic
#----.----      -------------------------- : -----------------------------
STRT.M             1.0000:
STOP.M           202.5000:
STEP.M             0.1000:
NULL.           -999.2500:
COMP.  MOBIL OIL CANADA                    :COMPANY
WELL.  MOBIL 90 CLARKE CREEK 16-31         :WELL
FLD.   CLARKE CREEK                        :FIELD
LOC.   16-31-089-07W4                      :LOCATION
CTRY.  CANADA                              :COUNTRY
PROV.  ALBERTA                             :PROVINCE
SRVC.  BRITISH PLASTERBOARD                :SERVICE COMPANY
DATE.  22-JAN-90                           :LOG DATE
UWI.   AA/16-31-089-07W400                 :UNIQUE WELL ID
~Parameter Information Block
#MNEM.UNIT       Data                        Description of Mnemonic
#----.----      -------------------------- : -----------------------------
RUN .                   1                 : Run Number
GL  .M           453.6000                 : Ground Level Elevation
DREF.                  GD                 : Depth Reference
EREF.M           453.6000                 : Elevation of Depth Reference
TDL .M           204.5000                 : Total Depth Logger
TDD .M           204.5000                 : Total Depth Driller
~Curve Information Block
#MNEM.UNIT        API CODE    Curve Description
#---------    ------------    -------------------------------------------
DEPT.M                    :   DEPTH
CALI.mm                   :   CALI
DPHI.V/V                  :   DPHI
DT  .US/M     60 520  0  1:   2 SONIC INTERVAL TRANSIT TIME (COMPENSATED)
GR  .API                  :   GR
ILD .Ohmm                 :   ILD
NPHI.V/V                  :   NPHI
RHOB.K/M3     45 350  1  1:   3 BULK DENSITY
~A  Depth           CALI        DPHI          DT          GR         ILD        NPHI        RHOB
# ...
150.4000        144.1772      0.2551    431.5600    103.3161     37.7218      0.3789   1343.3000
150.5000        145.4302      0.2420    430.6400    108.0169     32.9617      0.3884   1284.3000
150.6000        143.4968      0.2305    437.0000    107.7710     29.2064      0.3866   1199.2000
150.7000        141.1288      0.2470    444.2000    110.0495     27.1661      0.3833   1149.4000
150.8000        139.4948      0.2715    444.8000    111.2518     26.1476      0.3828   1092.7000
150.9000        138.9821      0.2831    445.4000    111.3653     26.0336      0.3815   1092.7000
151.0000        138.9117      0.2909    445.8800    111.8791     25.5718      0.3910   1068.1000
151.1000        140.8818      0.2880    429.5200    109.9361     26.0421      0.3993   1125.7000
151.2000        143.1444      0.2834    420.0000    107.1787     27.0008      0.3989   1239.7000
151.3000        143.7048      0.2799    416.6800     98.1008     28.9405      0.3917   1246.7000
151.4000        141.0266      0.2754    413.0000     90.0812     31.6285      0.3841   1222.3000
151.5000        139.2788      0.2732    421.3200     85.8010     34.1640      0.4058   1261.7000
151.6000        138.8912      0.2675    417.2800     83.3489     37.4840      0.4155   1255.3000
151.7000        140.0183      0.2565    412.0400     85.8156     39.0934      0.3978   1210.1001
151.8000        140.4561      0.2520    413.8800     88.1266     34.5829      0.3925   1266.7000
151.9000        140.5058      0.2486    403.0400     89.2422     32.6440      0.3986   1256.4000
152.0000        140.1832      0.2474    409.1600     90.3932     33.1509      0.3941   1286.5000
152.1000        140.4997      0.2441    411.6400     94.1405     33.9128      0.3873   1240.2000
152.2000        141.9827      0.2427    419.4800    102.6004     31.4417      0.3804   1229.9000
152.3000        142.8177      0.2435    434.2000    109.8036     29.6703      0.3804   1261.9000
152.4000        143.9221      0.2425    446.6000    116.0408     27.8358      0.3931   1207.7000
152.5000        144.1252      0.2436    455.5200    122.0506     25.6223      0.4072   1259.7000
152.6000        144.5544      0.2454    461.7200    127.6598     24.9552      0.4204   1292.3000
152.7000        144.9424      0.2450    463.1200    127.3461     24.8927      0.4348   1245.5000
152.8000        144.9882      0.2449    463.3600    122.7410     24.4612      0.4527   1219.5000
152.9000        144.9940      0.2488    452.6000    115.3438     24.4859      0.4509   1203.5000
153.0000        144.6012      0.2521    439.1600    107.4546     26.2048      0.4457   1308.7000
153.1000        142.6802      0.2490    428.6800    104.1579     29.1228      0.4397   1332.1001
153.2000        139.9413      0.2466    417.1600    102.7755     29.2044      0.4408   1259.9000
153.3000        139.1675      0.2503    417.4000    102.7315     28.7388      0.4129   1195.5000
153.4000        138.9033      0.2535    426.4000     99.9843     28.2776      0.3942   1229.3000
153.5000        140.4774      0.2582    438.5600     96.4883     29.0504      0.3827   1148.7000
153.6000        142.0029      0.2596    440.5200     93.4494     30.2922      0.3808   1095.5000
153.7000        142.1044      0.2556    436.4800     90.4662     32.3983      0.3998   1206.0000
153.8000        140.0930      0.2491    425.1200     87.4909     34.8955      0.4281   1246.0000
153.9000        138.7094      0.2428    410.4000     84.3631     36.3098      0.4347   1256.5000
154.0000        137.1614      0.2381    402.5200     84.3072     37.7182      0.4213   1272.5000
154.1000        137.9870      0.2420    394.7200     84.7416     38.5666      0.3818   1295.3000
154.2000        138.3878      0.2476    402.4800     85.3997     38.8068      0.3610   1254.5000
154.3000        138.7737      0.2515    409.4800     86.2891     39.5755      0.3503   1195.5000
154.4000        139.4924      0.2551    421.6000     86.7273     38.3767      0.3532   1217.6001
154.5000        140.2518      0.2605    450.5600     83.3035     38.3061      0.3655   1261.7000
154.6000        141.2050      0.2654    436.9200     84.0064     38.3564      0.3743   1239.3000
154.7000        141.9861      0.2659    438.2000     84.7534     38.4156      0.3775   1252.9000
154.8000        141.4991      0.2561    439.8000     87.2846     35.9301      0.3770   1269.9000
154.9000        141.9747      0.2433    441.0800     91.3038     34.0670      0.3793   1259.5000
155.0000        142.0884      0.2340    431.9200     96.7817     31.8499      0.3885   1286.1001
155.1000        141.7886      0.2288    439.4800    103.8038     30.5952      0.3991   1357.9000
155.2000        142.4029      0.2261    433.6000    110.9839     29.2680      0.4088   1325.1001
155.3000        143.1512      0.2254    424.3200    113.7803     28.7278      0.4162   1315.8000
155.4000        143.7145      0.2323    436.5200    116.6213     27.8225      0.4244   1312.8000
155.5000        143.7181      0.2461    443.6800    120.1621     26.1664      0.4324   1105.5000
155.6000        144.0813      0.2583    448.0400    119.8782     23.9942      0.4444   1110.5000
155.7000        144.8065      0.2681    461.8400    117.2115     23.4751      0.4636   1105.9000
155.8000        145.5679      0.2695    465.1600    114.8010     23.7636      0.4597   1101.3000
155.9000        145.7127      0.2579    452.4000    114.4103     25.0060      0.4533   1165.4000
156.0000        145.7516      0.2530    443.2400    117.1851     26.2941      0.4349   1208.4000
156.1000        145.0361      0.2474    445.4000    119.9241     27.8027      0.4073   1242.1001
156.2000        143.5597      0.2377    441.0000    120.8606     28.3364      0.3874   1239.8000
156.3000        142.2737      0.2284    432.1600    120.0270     28.5265      0.3870   1305.9000
156.4000        141.2498      0.2258    426.7200    115.5612     28.6440      0.3916   1282.1001
156.5000        141.6334      0.2266    417.1600    110.1283     29.1086      0.3964   1246.5000
156.6000        144.5024      0.2298    417.5600    107.0994     28.7920      0.3935   1296.6001
156.7000        146.8449      0.2363    423.4000    103.5455     28.3457      0.3911   1334.1001
156.8000        148.9385      0.2463    425.6000     99.9650     27.6313      0.3907   1212.3000
156.9000        147.0908      0.2583    436.2400     95.2718     27.3107      0.3966   1220.5000
157.0000        145.1166      0.2622    437.3200     91.0180     28.1231      0.4132   1234.1001
157.1000        143.1350      0.2679    426.3200     86.2766     30.3704      0.4208   1215.9000
157.2000        141.8639      0.2781    421.4800     84.0765     33.2538      0.4221   1197.7000
157.3000        140.6705      0.2909    420.7600     89.4584     38.2158      0.4247   1115.9000
157.4000        140.0042      0.2798    426.0000     97.0621     41.7783      0.4261   1180.9000
157.5000        143.0032      0.2597    438.8000    107.8661     48.3894      0.4136   1232.9000
157.6000        144.2953      0.2356    452.6800    116.6486     48.8621      0.3938   1223.3000
157.7000        144.1534      0.2198    459.4400    120.2129     39.2936      0.3862   1270.7000
157.8000        144.0992      0.2229    453.9200    122.1887     30.1508      0.3977   1259.6001
157.9000        144.0844      0.2321    446.0400    121.0777     26.5823      0.4208   1237.3000
158.0000        144.0819      0.2405    436.9200    121.5532     28.2235      0.4215   1316.3000
158.1000        144.0800      0.2425    441.3600    118.4135     29.3022      0.4053   1318.7000
158.2000        144.0781      0.2468    448.7600    114.3550     27.9357      0.4003   1280.1001
158.3000        144.4818      0.2486    455.8800    110.7021     27.4832      0.4076   1297.7000
158.4000        144.4831      0.2434    459.4400    106.5964     27.9736      0.4197   1307.7000
158.5000        144.4814      0.2345    450.0800    102.9180     27.6204      0.4323   1312.5000
158.6000        144.4795      0.2323    452.7200    102.5953     28.4742      0.4455   1324.3000
