~VERSION INFORMATION
 VERS.                 2.0:   CWLS LOG ASCII STANDARD -VERSION 2.0
 WRAP.                  NO:   ONE LINE PER DEPTH STEP
~WELL INFORMATION BLOCK
#MNEM.UNIT           DATA                    DESCRIPTION OF MNEMONIC
#---------    -------------------            -------------------------------
# Generated from Intellog Unique Number	CN_94_101/WELL/5039
WELL.         14-07-097-09W4                 : Well_name    - WELL
LOC .         AA/14-07-097-09W4/0            : Location     - LOCATION
UWI .         AA/14-07-097-09W400            : Uwi          - UNIQUE WELL ID
ENTR.         JOETTE                         : Entered      - ENTERED BY
SRVC.         SCHLUMBERGER                   : Scn          - SERVICE COMPANY
DATE.         08/11/92                       : Date         - LOG DATE
STRT.M        62.5                           : top_depth    - START DEPTH
STOP.M        175                            : bot_depth    - STOP DEPTH
STEP.M        0.25                           : increment    - STEP LENGTH
 NULL. -999.2500:NULL Value
~CURVE INFORMATION BLOCK
#MNEM UNIT       ERCB CURVE CODE    CURVE DESCRIPTION
#-----------   ------------------   ----------------------------------
DEPT.M        00 001 00 00         : DEPTH        - DEPTH
DPHI.V/V      00 890 00 00         : PHID         - DENSITY POROSITY (SANDSTONE)
NPHI.V/V      00 330 00 00         : PHIN         - NEUTRON POROSITY (SANDSTONE)
ILD .OHMM     00 120 00 00         : RESD         - DEEP RESISTIVITY (DIL)
GR  .API      00 310 00 00         : GR           - GAMMA RAY
~PARAMETER INFORMATION
#MNEM.UNIT           DATA             DESCRIPTION OF MNEMONIC
#---------         -----------     ------------------------------
GL  .M        330.5                : gl           - GROUND LEVEL ELEVATION
EREF.M        330.5                : kb           - ELEVATION OF DEPTH REFERENCE
DATM.M        330.5                : datum        - DATUM ELEVATION
TDD .M        177                  : tdd          - TOTAL DEPTH DRILLER
RUN .         ONE                  : Run          - RUN NUMBER
ENG .         BILL                 : Engineer     - RECORDING ENGINEER
WIT .         JIM                  : Witness      - WITNESSED BY
MUD .         GEL                  : Mud_type     - MUD TYPE
MATR.         SANDSTONE            : Logunit      - NEUTRON MATRIX
TMAX.C        0                    : BHT          - MAXIMUM RECORDED TEMPERATURE
BHTD.M        177                  : BHTDEP       - MAXIMUM RECORDED TEMPERATURE
RMT .C        0                    : MDTP         - TEMPERATURE OF MUD
MUDD.KG/M     0                    : MWT          - MUD DENSITY
NEUT.         1                    : NEUTRON      - NEUTRON TYPE
RESI.         0                    : RESIST       - RESISTIVITY TYPE
RM  .OHMM     0                    : RM           - RESISTIVITY OF MUD
RMC .OHMM     0                    : RMC          - RESISTIVITY OF MUD CAKE
RMF .OHMM     0                    : RMF          - RESISTIVITY OF MUD FILTRATE
SUFT.C        4                    : SUFT         - SURFACE TEMPERATURE
~A  DEPTH     PHID     PHIN     RESD       GR
# ...
  106.000    0.265    0.545    7.843  114.658
  106.250    0.270    0.561    6.994  131.801
  106.500    0.319    0.567    9.325  131.197
  106.750    0.358    0.568    8.808  124.474
  107.000    0.323    0.567    7.310  133.661
  107.250    0.325    0.567    6.904  120.207
  107.500    0.355    0.567    6.906  107.976
  107.750    0.349    0.562    6.810  120.224
  108.000    0.283    0.553    6.812  125.741
  108.250    0.254    0.540    7.217  117.181
  108.500    0.236    0.536    8.702  116.577
  108.750    0.228    0.540    8.459  145.347
  109.000    0.233    0.542    7.875  155.759
  109.250    0.246    0.552    7.124  138.632
  109.500    0.257    0.548    7.768  128.849
  109.750    0.249    0.544    8.113  119.066
  110.000    0.255    0.546    8.353  100.716
  110.250    0.243    0.550    7.888  126.426
  110.500    0.240    0.546    7.558  119.704
  110.750    0.239    0.537    8.242  109.921
  111.000    0.238    0.530    8.127   92.184
  111.250    0.236    0.523    9.941   75.057
  111.500    0.231    0.503   10.382   73.842
  111.750    0.232    0.503   10.385   80.581
  112.000    0.236    0.493   10.847   84.261
  112.250    0.234    0.502   10.543   90.388
  112.500    0.233    0.514    9.675  109.367
  112.750    0.221    0.515    9.008  105.091
  113.000    0.220    0.511    9.408  105.712
  113.250    0.221    0.495    9.825   76.347
  113.500    0.229    0.481    9.147   93.491
  113.750    0.231    0.481   10.118   82.484
  114.000    0.230    0.478   10.122   85.552
  114.250    0.235    0.483    9.698   90.455
  114.500    0.242    0.482   10.575   89.852
  114.750    0.231    0.478    9.988   89.248
  115.000    0.231    0.473    9.570   75.183
  115.250    0.236    0.479    9.302   70.906
  115.500    0.230    0.488    9.172   94.780
  115.750    0.227    0.483    9.858  100.908
  116.000    0.244    0.477   10.149   86.843
  116.250    0.249    0.476   10.449   85.629
  116.500    0.239    0.479   10.603   80.128
  116.750    0.250    0.483   10.607   94.823
  117.000    0.252    0.482   10.459   91.772
  117.250    0.253    0.483   10.166   97.286
  117.500    0.247    0.484   10.025  102.802
  117.750    0.243    0.503    9.200  114.437
  118.000    0.242    0.518    8.323  130.357
  118.250    0.246    0.519   10.180  116.901
  118.500    0.304    0.519   13.770  115.687
  118.750    0.323    0.520   19.726   78.980
  119.000    0.322    0.512   27.066   45.942
  119.250    0.345    0.493   43.496   25.145
  119.500    0.347    0.475   47.427   22.093
  119.750    0.336    0.478   39.361   42.295
  120.000    0.312    0.481   26.716   50.259
  120.250    0.316    0.467   19.765   30.074
  120.500    0.323    0.478   16.404   20.290
  120.750    0.306    0.486   13.614   46.612
  121.000    0.294    0.493    9.787   58.247
  121.250    0.319    0.512    8.982   79.061
  121.500    0.329    0.528    8.985   87.025
  121.750    0.361    0.550    6.099  118.854
  122.000    0.478    0.566    6.943  120.698
  122.250    0.582    0.569    7.903   77.259
  122.500    0.835    0.570   10.093   39.939
  122.750    0.664    0.564    8.498   41.784
  123.000    0.384    0.560    9.400   56.478
  123.250    0.263    0.556    8.626   93.814
  123.500    0.253    0.542    9.272  101.166
  123.750    0.240    0.534    9.965  120.144
  124.000    0.233    0.530   10.711  107.303
  124.250    0.238    0.516   12.370  100.580
  124.500    0.251    0.496   12.735   87.125
  124.750    0.267    0.467   14.499   48.581
  125.000    0.254    0.474   14.295   55.933
  125.250    0.262    0.480   14.301   70.016
  125.500    0.286    0.490   15.818   61.458
  125.750    0.300    0.487   16.521   52.286
  126.000    0.290    0.497   16.290   52.294
  126.250    0.287    0.498   15.610   52.914
  126.500    0.287    0.487   14.532   60.266
  126.750    0.292    0.497   13.725   43.752
  127.000    0.292    0.502   14.753   53.551
  127.250    0.283    0.506   14.757   55.396
  127.500    0.290    0.507   15.412   68.867
  127.750    0.293    0.501   16.806   50.517
  128.000    0.305    0.491   18.858   36.450
  128.250    0.322    0.497   20.564   43.191
  128.500    0.333    0.505   22.422   40.751
  128.750    0.335    0.502   22.753   40.759
  129.000    0.341    0.493   20.000   29.140
  129.250    0.335    0.491   17.331   30.984
  129.500    0.331    0.493   15.904   27.321
  129.750    0.331    0.495   14.597   35.286
  130.000    0.334    0.495   13.986   23.667
  130.250    0.339    0.500   13.790   38.361
  130.500    0.339    0.486   13.795   34.087
  130.750    0.331    0.477   13.602   33.482
  131.000    0.330    0.486   13.607   38.998
  131.250    0.333    0.490   13.809   22.484
  131.500    0.343    0.482   14.014   32.895
  131.750    0.340    0.480   14.018   36.575
  132.000    0.327    0.480   14.023   29.852
  132.250    0.302    0.480   14.231   15.787
  132.500    0.298    0.475   14.863   32.928
  132.750    0.306    0.476   14.868   45.176
  133.000    0.303    0.475   14.452   42.125
  133.250    0.305    0.474   14.249   31.730
  133.500    0.301    0.473   14.254   26.231
  133.750    0.299    0.474   14.465   18.897
  134.000    0.294    0.478   14.470   44.605
  134.250    0.291    0.479   14.475   37.270
  134.500    0.286    0.475   14.480   32.995
  134.750    0.292    0.469   14.696   43.406
  135.000    0.326    0.466   14.284   36.071
  135.250    0.314    0.476   14.084   48.319
  135.500    0.292    0.483   13.889   50.165
  135.750    0.302    0.480   13.893   50.784
  136.000    0.288    0.473   13.897   44.673
  136.250    0.285    0.466   13.902   41.009
  136.500    0.292    0.476   14.109   55.703
  136.750    0.316    0.474   14.114   50.204
  137.000    0.327    0.469   13.916   39.198
  137.250    0.315    0.471   13.723   30.028
  137.500    0.303    0.476   13.727   34.931
  137.750    0.316    0.469   13.732   14.133
  138.000    0.320    0.470   13.737   19.649
  138.250    0.320    0.486   13.741   28.838
  138.500    0.312    0.483   13.746   23.338
  138.750    0.336    0.476   13.750   38.646
  139.000    0.328    0.475   14.156   41.712
  139.250    0.326    0.475   14.366   33.765
  139.500    0.317    0.479   14.370   39.282
  139.750    0.342    0.483   13.572   41.737
  140.000    0.342    0.485   12.819   19.105
  140.250    0.328    0.484   12.640   24.619
  140.500    0.325    0.479   12.465   37.478
  140.750    0.313    0.474   13.987   41.771
  141.000    0.287    0.459   13.991   52.794
  141.250    0.259    0.447   14.405   67.489
  141.500    0.259    0.439   14.410   49.139
  141.750    0.278    0.437   14.006   39.968
  142.000    0.293    0.457   13.614   50.379
  142.250    0.294    0.474   13.044   40.596
  142.500    0.306    0.475   12.862   51.008
  142.750    0.339    0.475   12.503   24.703
  143.000    0.347    0.483   11.808   28.995
  143.250    0.360    0.491   12.692   33.286
  143.500    0.376    0.513   12.879   44.311
  143.750    0.388    0.522   12.519   40.036
  144.000    0.367    0.521   13.075   38.819
  144.250    0.329    0.494   13.269   33.321
  144.500    0.325    0.479   13.274   32.105
  144.750    0.323    0.479   13.471   30.890
  145.000    0.326    0.479   13.669   32.734
  145.250    0.313    0.478   13.872   35.189
  145.500    0.326    0.480   13.877   28.467
  145.750    0.334    0.472   13.881   33.369
  146.000    0.322    0.472   13.886   43.170
  146.250    0.321    0.476   13.890   36.449
  146.500    0.314    0.476   13.895   37.680
  146.750    0.308    0.477   14.101   29.732
  147.000    0.330    0.479   14.105   32.189
  147.250    0.335    0.480   14.315   38.927
  147.500    0.339    0.481   14.526   41.996
  147.750    0.335    0.484   14.741   35.884
  148.000    0.324    0.484   14.746   32.834
  148.250    0.327    0.478   14.752   33.453
  148.500    0.316    0.481   14.546   23.670
  148.750    0.333    0.487   14.344   34.693
  149.000    0.336    0.487   14.143   33.478
  149.250    0.332    0.482   13.169   31.039
