~VERSION INFORMATION
 VERS.                 2.0:   CWLS LOG ASCII STANDARD -VERSION 2.0
 WRAP.                  NO:   ONE LINE PER DEPTH STEP
~WELL INFORMATION BLOCK
#MNEM.UNIT           DATA                    DESCRIPTION OF MNEMONIC
#---------    -------------------            -------------------------------
# Generated from Intellog Unique Number	CN_94_101/WELL/3202
NULL.         -999.25                        : NULL_VALUE
WELL.         SHELL ELLS OV                  : Well_name    - WELL              
LOC .         13-11-095-15W4                 : Location     - LOCATION          
UWI .         AA/13-11-095-15W4/0            : Uwi          - UNIQUE WELL ID    
ENTR.         JOETTE                         : Entered      - ENTERED BY        
SRVC.         SCHLUMBERGER                   : Scn          - SERVICE COMPANY   
DATE.         15 MAR 71                      : Date         - LOG DATE          
STRT.F        300                            : top_depth    - START DEPTH       
STOP.F        906.955                        : bot_depth    - STOP DEPTH        
STEP.F        0.82                           : increment    - STEP LENGTH       
~CURVE INFORMATION BLOCK
#MNEM UNIT       ERCB CURVE CODE    CURVE DESCRIPTION
#-----------   ------------------   ----------------------------------
DEPT.F        00 001 00 00         : DEPTH        - DEPTH                       
GR  .API      00 310 00 00         : GR           - GAMMA RAY                   
DPHI.V/V      00 890 00 00         : PHID         - DENSITY POROSITY (SANDSTONE)
ILD .OHMM     00 120 00 00         : RESD         - DEEP RESISTIVITY (DIL)      
~PARAMETER INFORMATION       
#MNEM.UNIT           DATA             DESCRIPTION OF MNEMONIC
#---------         -----------     ------------------------------
GL  .M        535.534              : gl           - GROUND LEVEL ELEVATION      
EREF.M        539.496              : kb           - ELEVATION OF DEPTH REFERENCE
DATM.M        539.496              : datum        - DATUM ELEVATION             
TDD .M        281.94               : tdd          - TOTAL DEPTH DRILLER         
RUN .         ONE                  : Run          - RUN NUMBER                  
ENG .         BILL                 : Engineer     - RECORDING ENGINEER          
WIT .         JIM                  : Witness      - WITNESSED BY                
MUD .         GEL                  : Mud_type     - MUD TYPE                    
MATR.         SANDSTONE            : Logunit      - NEUTRON MATRIX              
TMAX.F        84                   : BHT          - MAXIMUM RECORDED TEMPERATURE
BHTD.F        925                  : BHTDEP       - MAXIMUM RECORDED TEMPERATURE
RMT .F        79                   : MDTP         - TEMPERATURE OF MUD          
MUDD.LB/G     9.8                  : MWT          - MUD DENSITY                 
NEUT.         1                    : NEUTRON      - NEUTRON TYPE                
RESI.         0                    : RESIST       - RESISTIVITY TYPE            
RM  .OHMM     4.97                 : RM           - RESISTIVITY OF MUD          
RMC .OHMM     4.97                 : RMC          - RESISTIVITY OF MUD CAKE     
RMF .OHMM     4.97                 : RMF          - RESISTIVITY OF MUD FILTRATE 
SUFT.F        39.2                 : SUFT         - SURFACE TEMPERATURE         
~A  DEPTH       GR     PHID     RESD
  300.000   54.636    0.300    9.081
  300.820   47.427    0.308    8.748
  301.640   43.821    0.285    8.271
  302.461   54.025    0.275    8.116
  303.281   56.423    0.279    7.965
  304.101   59.422    0.286    7.962
  304.921   61.220    0.296    8.571
  305.741   55.213    0.289    8.892
  306.562   52.808    0.291    8.889
  307.382   65.413    0.276    8.887
  308.202   68.411    0.257    8.884
  309.022   69.009    0.264    8.556
  309.843   63.002    0.282    9.211
  310.663   51.591    0.311   10.102
  311.483   40.179    0.347   10.877
  312.303   34.772    0.353   12.381
  313.123   35.370    0.336   12.375
  313.944   40.169    0.325   11.487
  314.764   43.769    0.324   10.861
  315.584   47.968    0.318   10.659
  316.404   45.563    0.314   10.267
  317.224   37.154    0.327   10.264
  318.045   34.750    0.345   11.050
  318.865   40.750    0.347   12.345
  319.685   36.544    0.344   12.572
  320.505   38.942    0.336   11.668
  321.325   38.339    0.329   10.437
  322.146   31.130    0.323   10.629
  322.966   31.727    0.323   11.874
  323.786   32.325    0.317   14.289
  324.606   35.323    0.308   12.781
  325.427   37.721    0.311   10.612
  326.247   40.119    0.322   11.639
  327.067   41.317    0.336   13.004
  327.887   40.713    0.344   13.244
  328.707   38.909    0.343   13.240
  329.528   36.503    0.339   12.518
  330.348   34.699    0.324   11.837
  331.168   34.697    0.321   11.833
  331.988   34.694    0.329   12.049
  332.808   39.492    0.346   12.045
  333.629   43.693    0.329   11.601
  334.449   52.095    0.324   11.177
  335.269   58.096    0.322    9.996
  336.089   53.289    0.325   10.762
  336.909   47.882    0.332   11.373
  337.730   48.479    0.325   10.955
  338.550   53.279    0.313   10.170
  339.370   57.479    0.296    9.096
  340.190   60.477    0.302    8.287
  341.010   62.876    0.314    7.412
  341.831   60.470    0.313    6.880
  342.651   58.066    0.307    6.386
  343.471   62.865    0.302    6.384
  344.291   71.267    0.310    6.264
  345.112   69.463    0.312    6.147
  345.932   66.457    0.302    5.922
  346.752   67.656    0.296    5.810
  347.572   70.654    0.297    5.596
  348.392   73.652    0.302    5.492
  349.213   74.850    0.315    5.389
  350.033   71.245    0.274    5.388
  350.853   64.037    0.189    5.386
  351.673   47.223    0.167    5.484
  352.493   47.820    0.228    5.795
  353.314   54.421    0.297    6.013
  354.134   61.021    0.323    6.238
  354.954   61.618    0.324    6.235
  355.774   58.612    0.334    6.118
  356.594   57.409    0.341    6.117
  357.415   61.609    0.329    6.707
  358.235   55.602    0.341    6.832
  359.055   51.395    0.321    7.087
  359.875   69.404    0.307    7.085
  360.696   77.806    0.310    6.699
  361.516   84.406    0.296    5.992
  362.336   83.203    0.278    4.976
  363.156   88.003    0.271    4.533
  363.976   86.799    0.275    4.367
  364.797   81.392    0.269    4.366
  365.617   76.585    0.286    4.446
  366.437   68.776    0.307    4.698
  367.257   66.973    0.323    4.874
  368.077   69.972    0.316    4.963
  368.898   74.171    0.315    4.962
  369.718   77.168    0.326    4.691
  370.538   74.163    0.326    4.519
  371.358   69.358    0.321    4.273
  372.178   63.350    0.323    3.893
  372.999   48.337    0.311    4.115
  373.819   44.132    0.294    5.138
  374.639   36.923    0.262    6.183
  375.459   30.915    0.228    7.721
  376.280   29.712    0.203    9.641
  377.100   30.909    0.277   10.772
  377.920   36.910    0.337   13.451
  378.740   39.908    0.378   18.426
  379.560   38.104    0.388   19.117
  380.381   36.299    0.387   19.834
  381.201   36.296    0.381   20.195
  382.021   39.295    0.381   19.817
  382.841   41.693    0.391   19.445
  383.661   38.687    0.388   19.804
  384.482   37.484    0.382   20.929
  385.302   33.877    0.375   21.714
  386.122   31.471    0.376   24.257
  386.942   30.269    0.378   24.702
  387.762   30.266    0.367   22.931
  388.583   32.064    0.375   22.087
  389.403   31.460    0.380   23.342
  390.223   29.054    0.370   24.218
  391.043   27.850    0.364   26.071
  391.864   27.848    0.356   27.046
  392.684   27.844    0.354   25.105
  393.504   27.840    0.358   23.732
  394.324   27.837    0.363   22.864
  395.144   28.434    0.371   22.857
  395.965   28.431    0.376   22.851
  396.785   29.028    0.375   22.843
  397.605   30.226    0.376   23.692
  398.425   32.023    0.382   23.686
  399.245   32.019    0.386   24.123
  400.066   30.216    0.396   24.566
  400.886   27.811    0.392   25.013
  401.706   26.607    0.369   25.006
  402.526   28.404    0.360   24.994
  403.346   30.803    0.353   25.455
  404.167   32.001    0.333   25.444
  404.987   30.195    0.286   25.916
  405.807   28.993    0.241   27.389
  406.627   26.587    0.116   29.487
  407.448   23.581    0.079   36.145
  408.268   22.978    0.304  248.474
  409.088   22.975    0.349   78.691
  409.908   25.372    0.369   51.351
  410.728   27.172    0.385   41.094
  411.549   30.770    0.383   37.444
  412.369   34.968    0.380   32.875
  413.189   34.966    0.374   28.864
  414.009   34.362    0.368   26.787
  414.829   33.159    0.368   25.803
  415.650   32.555    0.371   25.323
  416.470   30.749    0.363   24.843
  417.290   30.146    0.371   24.380
  418.110   30.744    0.370   23.926
  418.930   31.941    0.365   23.046
  419.751   34.340    0.365   21.791
  420.571   37.338    0.332   20.227
  421.391   35.534    0.306   19.484
  422.211   39.733    0.288   19.120
  423.031   48.135    0.261   18.417
  423.852   56.538    0.259    9.622
  424.672   56.534    0.304    8.448
  425.492   63.136    0.349    9.438
  426.312   57.729    0.372    7.986
  427.133   52.922    0.333    6.632
  427.953   62.525    0.317    7.548
  428.773   69.726    0.284    8.125
  429.593   70.924    0.278    7.268
  430.413   63.116    0.270    7.132
  431.234   55.307    0.240    7.678
  432.054   60.708    0.237    7.675
  432.874   66.108    0.271    7.394
  433.694   70.907    0.308    6.862
  434.514   74.507    0.322    6.136
  435.335   78.706    0.297    5.913
  436.155   83.505    0.292    5.387
  436.975   86.505    0.283    5.094
  437.795   90.104    0.270    4.556
  438.615   91.300    0.300    4.075
  439.436   90.697    0.283    3.925
  440.256   91.294    0.276    3.924
  441.076   91.891    0.276    3.923
  441.896   91.287    0.261    3.994
  442.717   91.284    0.264    4.068
  443.537   91.280    0.277    4.143
  444.357   91.877    0.286    4.140
  445.177   96.078    0.285    4.139
  445.997   95.472    0.277    4.138
  446.818   94.871    0.270    4.136
  447.638   96.668    0.276    4.135
  448.458   96.065    0.264    4.133
  449.278   96.661    0.265    4.132
  450.098  101.461    0.280    4.054
  450.919   99.057    0.292    4.053
  451.739   93.650    0.296    3.904
  452.559   90.645    0.303    3.831
  453.379   89.440    0.298    3.760
  454.199   88.836    0.291    3.689
  455.020   88.231    0.282    3.688
  455.840   88.230    0.287    3.686
  456.660   86.424    0.278    3.685
  457.480   85.822    0.293    3.684
  458.301   85.217    0.297    3.683
  459.121   84.615    0.291    3.681
  459.941   85.211    0.283    3.749
  460.761   87.009    0.281    3.818
  461.581   87.606    0.274    3.960
  462.402   85.802    0.265    4.033
  463.222   82.796    0.276    4.184
  464.042   82.793    0.293    4.261
  464.862   85.191    0.303    4.339
  465.682   88.189    0.294    4.418
  466.503   86.385    0.297    4.500
  467.323   83.380    0.305    4.498
  468.143   79.775    0.308    4.497
  468.963   79.170    0.308    4.173
  469.783   81.570    0.301    4.096
  470.604   81.565    0.281    3.596
  471.424   79.159    0.264    3.337
  472.244   79.756    0.252    3.041
  473.064   80.956    0.261    2.771
  473.885   84.555    0.299    2.620
  474.705   88.754    0.313    2.619
  475.525   90.551    0.303    2.618
  476.345   89.948    0.290    2.666
  477.165   91.146    0.274    2.715
