~VERSION INFORMATION
 VERS.                 2.0:   CWLS LOG ASCII STANDARD -VERSION 2.0
 WRAP.                  NO:   ONE LINE PER DEPTH STEP
~WELL INFORMATION BLOCK
#MNEM.UNIT           DATA                    DESCRIPTION OF MNEMONIC
#---------    -------------------            -------------------------------
# Generated from Intellog Unique Number	CN_94_101/WELL/5010
WELL.         10-32-097-07W4                 : Well_name    - WELL
LOC .         AA/10-32-097-07W4/0            : Location     - LOCATION
UWI .         AA/10-32-097-07W400            : Uwi          - UNIQUE WELL ID
ENTR.         T                              : Entered      - ENTERED BY
SRVC.         SCHLUMBERGER                   : Scn          - SERVICE COMPANY
DATE.         08/11/92                       : Date         - LOG DATE
STRT.M        0                              : top_depth    - START DEPTH
STOP.M        50                             : bot_depth    - STOP DEPTH
STEP.M        0.25                           : increment    - STEP LENGTH
 NULL. -999.2500:NULL Value
~CURVE INFORMATION BLOCK
#MNEM UNIT       ERCB CURVE CODE    CURVE DESCRIPTION
#-----------   ------------------   ----------------------------------
DEPT.M        00 001 00 00         : DEPTH        - DEPTH
GR  .API      00 310 00 00         : GR           - GAMMA RAY
ILD .OHMM     00 120 00 00         : RESD         - DEEP RESISTIVITY (DIL)
DPHI.V/V      00 890 00 00         : PHID         - DENSITY POROSITY (SANDSTONE)
NPHI.V/V      00 330 00 00         : PHIN         - NEUTRON POROSITY (SANDSTONE)
~PARAMETER INFORMATION
#MNEM.UNIT           DATA             DESCRIPTION OF MNEMONIC
#---------         -----------     ------------------------------
GL  .M        300.6                : gl           - GROUND LEVEL ELEVATION
EREF.M        300.6                : kb           - ELEVATION OF DEPTH REFERENCE
DATM.M        300.6                : datum        - DATUM ELEVATION
TDD .M        54.2                 : tdd          - TOTAL DEPTH DRILLER
RUN .         ONE                  : Run          - RUN NUMBER
ENG .         BILL                 : Engineer     - RECORDING ENGINEER
WIT .         JIM                  : Witness      - WITNESSED BY
MUD .         GEL                  : Mud_type     - MUD TYPE
MATR.         SANDSTONE            : Logunit      - NEUTRON MATRIX
TMAX.C        14.2                 : BHT          - MAXIMUM RECORDED TEMPERATURE
BHTD.M        54.2                 : BHTDEP       - MAXIMUM RECORDED TEMPERATURE
RMT .C        14.5                 : MDTP         - TEMPERATURE OF MUD
MUDD.KG/M     1022                 : MWT          - MUD DENSITY
NEUT.         1                    : NEUTRON      - NEUTRON TYPE
RESI.         0                    : RESIST       - RESISTIVITY TYPE
RM  .OHMM     14.6                 : RM           - RESISTIVITY OF MUD
RMC .OHMM     7.81                 : RMC          - RESISTIVITY OF MUD CAKE
RMF .OHMM     11.3                 : RMF          - RESISTIVITY OF MUD FILTRATE
SUFT.C        4                    : SUFT         - SURFACE TEMPERATURE
~A  DEPTH       GR     RESD     PHID     PHIN
    0.000   65.255   19.110    0.047    0.437
    0.250   64.650   18.055    0.049    0.437
    0.500   62.815   17.803    0.053    0.439
    0.750   62.211   17.554    0.056    0.444
    1.000   61.612   17.558    0.062    0.451
    1.250   60.392   17.564    0.075    0.457
    1.500   57.930   17.567    0.090    0.447
    1.750   57.331   17.322    0.102    0.443
    2.000   59.229   17.326    0.119    0.446
    2.250   59.252   17.085    0.150    0.454
    2.500   58.654   16.847    0.165    0.461
    2.750   61.168   16.612    0.175    0.462
    3.000   61.800   16.617    0.181    0.454
    3.250   63.066   16.620    0.187    0.452
    3.500   63.716   16.865    0.193    0.455
    3.750   64.354   16.867    0.201    0.459
    4.000   66.868   16.871    0.208    0.452
    4.250   69.371   16.637    0.212    0.446
    4.500   74.365   16.406    0.083    0.438
    4.750   79.359   16.408    0.071    0.441
    5.000   94.294   16.413    0.079    0.446
    5.250  105.501   16.651    0.086    0.459
    5.500  108.637   16.656    0.099    0.475
    5.750  102.440   16.425    0.130    0.490
    6.000  103.085   16.428    0.174    0.466
    6.250  103.734   16.432    0.190    0.444
    6.500  105.627   16.672    0.194    0.445
    6.750  101.295   16.676    0.165    0.464
    7.000   97.584   15.983    0.194    0.497
    7.250   97.606   15.758    0.205    0.456
    7.500  100.742   15.762    0.194    0.458
    7.750   99.522   16.222    0.185    0.475
    8.000  105.137   17.427    0.177    0.491
    8.250  105.160   17.429    0.165    0.509
    8.500  101.454   17.434    0.174    0.506
    8.750  101.477   17.191    0.188    0.487
    9.000   98.393   17.443    0.201    0.469
    9.250   94.067   17.698    0.207    0.459
    9.500   87.876   17.956    0.193    0.448
    9.750   86.040   17.959    0.162    0.429
   10.000   88.543   17.710    0.132    0.416
   10.250   90.435   17.462    0.085    0.409
   10.500   86.724   16.975    0.050    0.404
   10.750   84.267   16.269    0.033    0.404
   11.000   85.533   15.591    0.038    0.406
   11.250   89.284   15.156    0.040    0.407
   11.500   88.680   14.945    0.034    0.405
   11.750   87.460   15.381    0.038    0.402
   12.000   92.454   16.287    0.046    0.401
   12.250  102.418   17.496    0.055    0.397
   12.500  109.276   18.006    0.087    0.388
   12.750  113.654   18.011    0.106    0.384
   13.000  109.943   18.015    0.129    0.383
   13.250  103.131   17.764    0.103    0.386
   13.500  109.367   17.515    0.129    0.382
   13.750  109.396   16.550    0.133    0.389
   14.000  109.419   16.319    0.114    0.400
   14.250  104.465   15.640    0.109    0.485
   14.500   98.901   15.203    0.096    0.493
   14.750   92.705   14.991    0.096    0.464
   15.000   99.563   14.573    0.095    0.435
   15.250   99.585   14.370    0.089    0.408
   15.500   99.608   14.169    0.080    0.399
   15.750  102.117   14.173    0.078    0.411
   16.000   99.033   14.176    0.081    0.434
   16.250  106.512   15.012    0.101    0.735
   16.500  116.476   17.818    0.148    0.766
   16.750  129.559   29.361    0.235    0.758
   17.000  126.470 1180.790    0.446    0.701
   17.250  118.415 1381.690    0.554    0.520
   17.500  112.218 2120.000    0.566    0.515
   17.750  102.921 4388.980    0.540    0.494
   18.000  115.376 2861.650    0.396    0.486
   18.250  107.943 1594.990    0.418    0.487
   18.500  102.368 3031.250    0.449    0.483
   18.750   96.183 5598.510    0.434    0.475
   19.000   92.472 5844.620    0.401    0.469
   19.250   91.873 5930.320    0.388    0.465
   19.500   93.144 6016.570    0.393    0.464
   19.750   90.676 5933.120    0.361    0.462
   20.000   91.320 5850.470    0.367    0.461
   20.250   88.858 5768.630    0.378    0.461
   20.500   86.395 5607.730    0.371    0.463
   20.750   83.938 5451.630    0.382    0.463
   21.000   80.854 5375.690    0.390    0.463
   21.250   78.386 5300.810    0.388    0.463
   21.500   73.443 5301.750    0.388    0.463
   21.750   74.703 5303.300    0.388    0.462
   22.000   77.838 5380.750    0.381    0.461
   22.250   79.720 5382.330    0.375    0.460
   22.500   82.855 5382.960    0.374    0.460
   22.750   80.392 5384.230    0.371    0.459
   23.000   76.681 5385.490    0.369    0.459
   23.250   77.953 5386.760    0.354    0.459
   23.500   81.077 5465.420    0.349    0.459
   23.750   84.839 5706.030    0.344    0.459
   24.000   81.134 5789.010    0.342    0.459
   24.250   79.287 5873.550    0.346    0.459
   24.500   76.824 5874.930    0.320    0.459
   24.750   78.717 5711.400    0.311    0.460
   25.000   79.361 5395.950    0.315    0.460
   25.250   79.378 5245.440    0.324    0.460
   25.500   79.401 5099.420    0.328    0.461
   25.750   79.424 5028.390    0.325    0.461
   26.000   83.175 5029.570    0.318    0.463
   26.250   84.440 5030.760    0.313    0.464
   26.500   89.440 5031.940    0.312    0.464
   26.750   92.564 5033.120    0.293    0.463
   27.000   98.179 5106.620    0.296    0.463
   27.250  104.415 5180.890    0.301    0.463
   27.500  105.681 5256.550    0.348    0.466
   27.750   97.005 5410.240    0.369    0.468
   28.000   88.950 5648.410    0.354    0.469
   28.250  100.778 5730.230    0.354    0.469
   28.500  109.500 5813.910    0.353    0.468
   28.750   85.290 5898.810    0.345    0.467
   29.000   79.721 6070.920    0.326    0.464
   29.250   82.235 6072.350    0.298    0.463
   29.500   81.015 6074.130    0.283    0.462
   29.750   79.173 6075.560    0.277    0.461
   30.000   79.818 6076.990    0.269    0.461
   30.250   81.704 6078.420    0.279    0.460
   30.500   82.964 5993.750    0.289    0.458
   30.750   84.230 5744.050    0.291    0.458
   31.000   88.602 5504.750    0.304    0.461
   31.250   86.761 5200.420    0.302    0.464
   31.500   89.896 4446.360    0.297    0.468
   31.750   94.885 1131.020    0.286    0.475
   32.000  122.874  516.292    0.213    0.481
   32.250  138.437  429.016    0.204    0.487
   32.500  131.619  382.845    0.250    0.490
   32.750  125.428  336.804    0.271    0.491
   33.000  134.772  394.108    0.231    0.490
   33.250  126.101  524.325    0.261    0.485
   33.500  117.425  658.922    0.288    0.481
   33.750  118.069  640.542    0.305    0.480
   34.000  116.228  688.010    0.293    0.480
   34.250  114.381  816.632    0.263    0.481
   34.500  112.540  955.573    0.264    0.481
   34.750  106.349 1134.220    0.272    0.483
   35.000  100.158 1308.400    0.282    0.483
   35.250   95.831 1446.110    0.348    0.483
   35.500   88.398 1488.300    0.371    0.481
   35.750   82.828 1135.280    0.377    0.479
   36.000   92.793  903.858    0.347    0.477
   36.250  100.272  806.583    0.327    0.477
   36.500  107.130  436.922    0.311    0.478
   36.750  111.508  482.908    0.329    0.481
   37.000  109.040  879.266    0.339    0.484
   37.250   97.257  720.285    0.305    0.485
   37.500  105.357  533.986    0.288    0.481
   37.750  114.079  358.259    0.287    0.491
   38.000  119.073  293.482    0.301    0.521
   38.250  134.630  254.532    0.253    0.547
   38.500  155.785  240.474    0.186    0.516
   38.750  142.759  273.474    0.132    0.479
   39.000  126.621  379.738    0.027    0.459
   39.250  115.459 1139.090    0.005    0.457
   39.500  116.103  809.100   -0.004    0.465
   39.750  121.097  329.495   -0.004    0.479
   40.000  131.683  344.020   -0.000    0.514
   40.250  141.653  325.001    0.008    0.526
   40.500  141.676  290.040    0.013    0.521
   40.750  144.184  274.005    0.021    0.515
   41.000  156.013  258.872    0.029    0.491
   41.250  149.822  251.651    0.036    0.485
   41.500  144.253  258.993    0.033    0.476
   41.750  149.247  290.365    0.028    0.470
   42.000  146.784  325.536    0.023    0.470
   42.250  142.463  409.079    0.009    0.471
   42.500  137.509  492.530    0.002    0.471
   42.750  123.241  627.820   -0.002    0.471
   43.000  118.914  734.637   -0.003    0.471
   43.250  113.339  714.145   -0.002    0.468
