~VERSION INFORMATION
 VERS.                 2.0:   CWLS LOG ASCII STANDARD -VERSION 2.0
 WRAP.                  NO:   ONE LINE PER DEPTH STEP
~WELL INFORMATION BLOCK
#MNEM.UNIT           DATA                    DESCRIPTION OF MNEMONIC
#---------    -------------------            -------------------------------
# Generated from Intellog Unique Number	utf_inj/WELL/589
WELL.         AO-33                          : Well_name    - WELL              
LOC .         AA/12-18-093-12W4/0            : Location     - LOCATION          
UWI .         AA/12-18-093-12W400            : Uwi          - UNIQUE WELL ID    
ENTR.         JHS                            : Entered      - ENTERED BY        
SRVC.         SCHLUMBERGER                   : Scn          - SERVICE COMPANY   
STRT.M        2                              : top_depth    - START DEPTH       
STOP.M        158                            : bot_depth    - STOP DEPTH        
STEP.M        0.25                           : increment    - STEP LENGTH       
NULL.         -999.250                       : null         - NULL VALUE       
~CURVE INFORMATION BLOCK
#MNEM UNIT       ERCB CURVE CODE    CURVE DESCRIPTION
#-----------   ------------------   ----------------------------------
DEPT.M        00 001 00 00         : DEPTH        - DEPTH                       
GR  .API      00 310 00 00         : GR           - GAMMA RAY                   
DPHI.V/V      00 890 00 00         : PHID         - DENSITY POROSITY (SANDSTONE)
NPHI.V/V      00 330 00 00         : PHIN         - NEUTRON POROSITY (SANDSTONE)
ILD .OHMM     00 120 00 00         : RESD         - DEEP RESISTIVITY (DIL)      
SP  .MV       00 010 00 00         : SP           - SPONTANEOUS POTENTIAL       
CALI.MM       00 280 01 00         : CAL          - CALIPER                     
~PARAMETER INFORMATION       
#MNEM.UNIT           DATA             DESCRIPTION OF MNEMONIC
#---------         -----------     ------------------------------
GL  .M        423.5                : gl           - GROUND LEVEL ELEVATION      
EREF.M        423.5                : kb           - ELEVATION OF DEPTH REFERENCE
DATM.M        423.5                : datum        - DATUM ELEVATION             
TDD .M        162                  : tdd          - TOTAL DEPTH DRILLER         
RUN .         ONE                  : Run          - RUN NUMBER                  
ENG .         BILL                 : Engineer     - RECORDING ENGINEER          
WIT .         JIM                  : Witness      - WITNESSED BY                
MUD .         GEL                  : Mud_type     - MUD TYPE                    
MATR.         SANDSTONE            : Logunit      - NEUTRON MATRIX              
TMAX.C        6.5                  : BHT          - MAXIMUM RECORDED TEMPERATURE
BHTD.M        151.49               : BHTDEP       - MAXIMUM RECORDED TEMPERATURE
MATR.         1                    : LOGUNIT      - NEUTRON MATRIX              
RMT .C        25                   : MDTP         - TEMPERATURE OF MUD          
NEUT.         1                    : NEUTRON      - NEUTRON TYPE                
RESI.         0                    : RESIST       - RESISTIVITY TYPE            
RMC .OHMM     0.25                 : RMC          - RESISTIVITY OF MUD CAKE     
RMF .OHMM     0.25                 : RMF          - RESISTIVITY OF MUD FILTRATE 
SUFT.C        15                   : SUFT         - SURFACE TEMPERATURE         
~A  DEPTH       GR     PHID     PHIN     RESD       SP      CAL
# ...
   95.750  137.293    0.267    0.618   11.204    0.000  132.336
   96.000  137.185    0.270    0.656   13.007    0.000  130.392
   96.250  140.258    0.270    0.646   14.819    0.000  129.690
   96.500  115.022    0.254    0.604   13.177    0.000  130.131
   96.750  116.191    0.232    0.573   12.915    0.000  130.654
   97.000  129.306    0.216    0.570   12.175    0.000  131.112
   97.250  134.868    0.244    0.616   12.377    0.000  132.190
   97.500  132.898    0.247    0.642   13.317    0.000  133.268
   97.750  142.875    0.250    0.592   14.319    0.000  133.791
   98.000  130.842    0.254    0.520   14.285    0.000  135.457
   98.250  121.946    0.260    0.484   16.595    0.000  132.926
   98.500  120.604    0.257    0.476   16.871    0.000  135.229
   98.750  129.932    0.173    0.553   15.019    0.000  135.082
   99.000  124.824    0.229    0.567   15.560    0.000  133.172
   99.250  131.641    0.208    0.554   14.394    0.000  135.459
   99.500  140.990    0.235    0.577   13.569    0.000  130.477
   99.750  133.372    0.234    0.585   13.795    0.000  129.171
  100.000  132.636    0.220    0.566   14.024    0.000  130.217
  100.250  135.060    0.225    0.564   13.729    0.000    0.000
  100.500  124.931    0.244    0.581   12.942    0.000    0.000
  100.750  119.801    0.241    0.630   12.200    0.000    0.000
  101.000  129.778    0.246    0.666   11.720    0.000    0.000
  101.250  135.968    0.245    0.578   14.946    0.000    0.000
  101.500  130.860    0.224    0.464   17.017    0.000    0.000
  101.750  122.614    0.154    0.459   13.784    0.000    0.000
  102.000  128.176    0.200    0.505   13.495    0.000    0.000
  102.250  140.663    0.236    0.556   13.211    0.000    0.000
  102.500  145.597    0.249    0.584   12.691    0.000    0.000
  102.750  127.288    0.243    0.574   12.191    0.000    0.000
  103.000  141.615    0.253    0.544   12.155    0.000    0.000
  103.250  134.645    0.263    0.508   12.593    0.000    0.000
  103.500  134.537    0.279    0.520   12.328    0.000    0.000
  103.750  140.099    0.273    0.507   12.306    0.000    0.000
  104.000  135.013    0.244    0.535   12.277    0.000    0.000
  104.250  126.745    0.252    0.602   12.248    0.000    0.000
  104.500  122.265    0.255    0.682   13.946    0.000    0.000
  104.750  120.295    0.254    0.646   16.814    0.000    0.000
  105.000  114.560    0.262    0.596   19.882    0.000    0.000
  105.250  128.908    0.180    0.575   16.421    0.000    0.000
  105.500  129.449    0.136    0.606   14.069    0.000    0.000
  105.750  126.852    0.251    0.599   13.014    0.000    0.000
  106.000  131.764    0.289    0.595   11.820    0.000    0.000
  106.250  127.933    0.302    0.637    9.396    0.000    0.000
  106.500  129.102    0.317    0.659    9.031    0.000    0.000
  106.750  134.664    0.306    0.600    9.717    0.000    0.000
  107.000  131.439    0.280    0.565   11.932    0.000    0.000
  107.250  133.235    0.261    0.620   12.123    0.000    0.000
  107.500  133.776    0.249    0.679   11.428    0.000    0.000
  107.750  143.125    0.269    0.701   10.979    0.000    0.000
  108.000  143.666    0.281    0.670   11.598    0.000    0.000
  108.250  135.398    0.289    0.649   17.201    0.000    0.000
  108.500  129.035    0.245    0.598   18.161    0.000    0.000
  108.750  117.629    0.239    0.545   15.000    0.000    0.000
  109.000  111.266    0.286    0.674   11.930    0.000    0.000
  109.250  130.030    0.301    0.724   10.036    0.000    0.000
  109.500  115.486    0.287    0.730    9.460    0.000    0.000
  109.750  111.611    0.284    0.681    8.918    0.000    0.000
  110.000  123.450    0.311    0.637    8.731   27.445    0.000
  110.250  107.023    0.407    0.600    9.388   27.453    0.000
  110.500  107.563    0.451    0.561    9.726   26.240    0.000
  110.750  106.849    0.460    0.597    9.521   24.420    0.000
  111.000  118.103    0.447    0.630    8.970   25.041    0.000
  111.250  112.346    0.405    0.503    8.627   19.562    0.000
  111.500  102.844    0.361    0.454    8.128   18.351    0.000
  111.750  120.981    0.316    0.583    8.587   20.801    0.000
  112.000   99.511    0.297    0.595   11.588   20.810    0.000
  112.250  103.839    0.277    0.569   15.648   23.259    0.000
  112.500  106.891    0.295    0.553   17.156   23.268    0.000
  112.750  105.549    0.287    0.528   17.774   18.400    0.000
  113.000   92.260    0.288    0.530   16.442   17.800    0.000
  113.250  109.141    0.307    0.587   13.572   20.248    0.000
  113.500  132.298    0.324    0.617   11.000   22.697    0.000
  113.750  130.328    0.311    0.594    9.610   22.707    0.000
  114.000  112.018    0.322    0.635    9.232   20.887    0.000
  114.250  125.739    0.313    0.648    9.564   18.456    0.000
  114.500  130.068    0.294    0.652    9.723   16.027    0.000
  114.750  126.821    0.287    0.670    9.519   19.085    0.000
  115.000  120.458    0.286    0.633   10.050   20.924    0.000
  115.250  122.924    0.262    0.559   12.150   23.371    0.000
  115.500  121.081    0.318    0.633   10.106   20.942    0.000
  115.750  144.339    0.290    0.658    9.474   23.392    0.000
  116.000  133.924    0.279    0.592    9.474   21.573    0.000
  116.250  145.551    0.277    0.584    9.473   19.751    0.000
  116.500  144.320    0.284    0.622    9.560   16.711    0.000
  116.750  120.437    0.243    0.648    9.919   14.284    0.000
  117.000  109.411    0.228    0.610   10.579   15.511    0.000
  117.250   91.038    0.268    0.614   11.179   11.863    0.000
  117.500   75.726    0.315    0.562   14.873    0.000    0.000
  117.750   63.475    0.313    0.438   15.289    0.000    0.000
  118.000   57.346    0.302    0.438   15.429    0.000    0.000
  118.250   64.075    0.307    0.462   15.287    0.000    0.000
  118.500   56.722    0.309    0.436   14.070    0.000    0.000
  118.750   96.510    0.315    0.428   12.598    0.000    0.000
  119.000   80.586    0.322    0.448   13.436    0.000    0.000
  119.250   67.110    0.284    0.451   12.253    0.000    0.000
  119.500   99.552    0.265    0.474   12.029   10.119    0.000
  119.750  109.341    0.257    0.516   12.712   11.957    0.000
  120.000  106.885    0.258    0.498   13.683   11.357    0.000
  120.250   90.350    0.270    0.433   15.141    5.878    0.000
  120.500   92.792    0.262    0.450   14.864    4.058    0.000
  120.750   92.174    0.268    0.481   13.935    5.896    0.000
  121.000  104.412    0.285    0.450   15.563    9.566    0.000
  121.250   94.610    0.286    0.437   14.325    9.576    0.000
  121.500   97.664    0.273    0.440   14.063    8.366    0.000
  121.750  119.086    0.272    0.435   14.998    8.985    0.000
  122.000  100.101    0.285    0.422   14.724   10.213    0.000
  122.250  103.768    0.274    0.438   14.997    9.614    0.000
  122.500  103.762    0.275    0.509   14.723    8.404    0.000
  122.750   90.286    0.282    0.520   15.274    8.415    0.000
  123.000   98.851    0.287    0.510   14.857    8.422    0.000
  123.250   96.396    0.288    0.507   15.557    7.211    0.000
  123.500  112.920    0.259    0.509   16.592    4.781    0.000
  123.750   93.322    0.254    0.475   17.056    4.791    0.000
  124.000   98.213    0.274    0.463   15.554    5.412    0.000
  124.250   97.595    0.300    0.483   14.854    5.421    0.000
  124.500   89.630    0.305    0.480   14.316    6.650    0.000
  124.750   89.623    0.282    0.463   14.054    7.879    0.000
  125.000   93.291    0.243    0.491   19.045    5.448    0.000
  125.250   94.508    0.106    0.333   41.281    0.000    0.000
  125.500   79.197    0.083    0.258   38.347    7.296    0.000
  125.750   91.435    0.215    0.264   16.133    1.208    0.000
  126.000  105.510    0.273    0.439   14.713    0.000    0.000
  126.250  107.953    0.281    0.485   16.131    0.000    0.000
  126.500   93.865    0.294    0.467   17.687    0.000    0.000
  126.750  103.654    0.302    0.485   19.392    0.000    0.000
