~VERSION INFORMATION
 VERS.                 2.0:   CWLS LOG ASCII STANDARD -VERSION 2.0
 WRAP.                  NO:   ONE LINE PER DEPTH STEP
~WELL INFORMATION BLOCK
#MNEM.UNIT           DATA                    DESCRIPTION OF MNEMONIC
#---------    -------------------            -------------------------------
# Generated from Intellog Unique Number	CN_94_101/WELL/3257
WELL.         10-02-095-06W4                 : Well_name    - WELL
LOC .         AA/10-02-095-06W4/0            : Location     - LOCATION
UWI .         AA/10-02-095-06W400            : Uwi          - UNIQUE WELL ID
ENTR.         TIM                            : Entered      - ENTERED BY
SRVC.         SCHLUMBERGER                   : Scn          - SERVICE COMPANY
DATE.         06/18/92                       : Date         - LOG DATE
STRT.M        100                            : top_depth    - START DEPTH
STOP.M        340                            : bot_depth    - STOP DEPTH
STEP.M        0.25                           : increment    - STEP LENGTH
 NULL. -999.2500:NULL Value
~CURVE INFORMATION BLOCK
#MNEM UNIT       ERCB CURVE CODE    CURVE DESCRIPTION
#-----------   ------------------   ----------------------------------
DEPT.M        00 001 00 00         : DEPTH        - DEPTH
GR  .API      00 310 00 00         : GR           - GAMMA RAY
NPHI.V/V      00 330 00 00         : PHIN         - NEUTRON POROSITY (SANDSTONE)
DPHI.V/V      00 890 00 00         : PHID         - DENSITY POROSITY (SANDSTONE)
ILD .OHMM     00 120 00 00         : RESD         - DEEP RESISTIVITY (DIL)
~PARAMETER INFORMATION
#MNEM.UNIT           DATA             DESCRIPTION OF MNEMONIC
#---------         -----------     ------------------------------
GL  .M        595.5                : gl           - GROUND LEVEL ELEVATION
EREF.M        598.5                : kb           - ELEVATION OF DEPTH REFERENCE
DATM.M        598.5                : datum        - DATUM ELEVATION
TDD .M        344                  : tdd          - TOTAL DEPTH DRILLER
RUN .         ONE                  : Run          - RUN NUMBER
ENG .         BILL                 : Engineer     - RECORDING ENGINEER
WIT .         JIM                  : Witness      - WITNESSED BY
MUD .         GEL                  : Mud_type     - MUD TYPE
MATR.         SANDSTONE            : Logunit      - NEUTRON MATRIX
TMAX.C        14                   : BHT          - MAXIMUM RECORDED TEMPERATURE
BHTD.M        344                  : BHTDEP       - MAXIMUM RECORDED TEMPERATURE
RMT .C        14                   : MDTP         - TEMPERATURE OF MUD
MUDD.KG/M     1050                 : MWT          - MUD DENSITY
NEUT.         1                    : NEUTRON      - NEUTRON TYPE
RESI.         0                    : RESIST       - RESISTIVITY TYPE
RM  .OHMM     3.15                 : RM           - RESISTIVITY OF MUD
RMC .OHMM     3.15                 : RMC          - RESISTIVITY OF MUD CAKE
RMF .OHMM     3.15                 : RMF          - RESISTIVITY OF MUD FILTRATE
SUFT.C        4                    : SUFT         - SURFACE TEMPERATURE
~A  DEPTH       GR     PHIN     PHID     RESD
  100.000   75.734    0.325    0.108   23.172
  100.250   75.762    0.328    0.102   23.239
  100.500   75.213    0.330    0.097   23.267
  100.750   75.282    0.330    0.094   23.296
  101.000   75.323    0.330    0.094   23.325
  101.250   74.787    0.331    0.101   23.363
  101.500   74.279    0.332    0.100   22.970
  101.750   74.307    0.334    0.104   22.565
  102.000   74.349    0.338    0.115   22.185
  102.250   74.432    0.342    0.133   21.793
  102.500   74.474    0.346    0.137   21.426
  102.750   75.121    0.353    0.135   21.048
  103.000   75.190    0.358    0.138   21.091
  103.250   75.245    0.358    0.141   21.117
  103.500   74.696    0.349    0.142   21.559
  103.750   72.330    0.331    0.140   23.313
  104.000   71.161    0.317    0.125   24.724
  104.250   68.204    0.308    0.111   28.850
  104.500   65.233    0.300    0.104   32.381
  104.750   64.050    0.300    0.101   37.771
  105.000   61.684    0.301    0.100   42.428
  105.250   59.318    0.299    0.102   43.315
  105.500   58.177    0.296    0.104   42.586
  105.750   58.218    0.294    0.109   42.638
  106.000   59.498    0.292    0.104   40.354
  106.250   60.764    0.295    0.098   39.658
  106.500   62.031    0.298    0.108   38.959
  106.750   62.691    0.296    0.121   37.580
  107.000   63.985    0.286    0.127   36.917
  107.250   64.027    0.287    0.105   37.008
  107.500   64.674    0.293    0.107   36.355
  107.750   65.968    0.301    0.113   36.415
  108.000   65.996    0.311    0.113   35.773
  108.250   64.854    0.317    0.108   35.185
  108.500   64.305    0.315    0.107   34.564
  108.750   63.755    0.295    0.105   33.968
  109.000   63.810    0.284    0.100   34.024
  109.250   63.852    0.282    0.098   34.094
  109.500   63.316    0.282    0.095   34.136
  109.750   63.358    0.282    0.094   34.849
  110.000   62.822    0.281    0.095   36.974
  110.250   62.272    0.279    0.099   38.456
  110.500   61.722    0.280    0.103   39.998
  110.750   61.764    0.285    0.108   42.453
  111.000   61.228    0.290    0.114   42.506
  111.250   60.664    0.295    0.118   42.576
  111.500   58.931    0.300    0.125   41.825
  111.750   58.367    0.308    0.135   39.600
  112.000   58.423    0.313    0.140   38.902
  112.250   58.478    0.320    0.142   38.231
  112.500   59.126    0.326    0.147   39.030
  112.750   60.419    0.333    0.154   39.829
  113.000   61.066    0.338    0.158   41.460
  113.250   61.108    0.344    0.160   42.327
  113.500   61.191    0.339    0.162   42.414
  113.750   61.233    0.280    0.163   43.282
  114.000   61.880    0.287    0.166   43.371
  114.250   63.160    0.314    0.166   42.606
  114.500   64.440    0.339    0.158   39.547
  114.750   65.706    0.355    0.146   36.738
  115.000   66.972    0.367    0.136   36.075
  115.250   67.028    0.362    0.126   34.784
  115.500   66.478    0.357    0.122   33.540
  115.750   65.942    0.352    0.119   31.743
  116.000   65.970    0.344    0.116   30.030
  116.250   66.644    0.339    0.113   29.500
  116.500   67.305    0.337    0.112   28.445
  116.750   67.952    0.334    0.110   27.966
  117.000   68.627    0.329    0.110   27.484
  117.250   69.274    0.324    0.110   27.021
  117.500   69.935    0.328    0.111   26.533
  117.750   70.609    0.331    0.114   26.076
  118.000   71.270    0.338    0.118   26.129
  118.250   71.312    0.346    0.121   25.668
  118.500   71.381    0.348    0.124   25.247
  118.750   71.423    0.354    0.130   25.267
  119.000   70.873    0.355    0.139   24.832
  119.250   70.323    0.345    0.144   24.883
  119.500   69.773    0.335    0.147   24.454
  119.750   69.843    0.332    0.147   24.494
  120.000   69.307    0.330    0.146   24.524
  120.250   68.729    0.333    0.143   24.101
  120.500   68.179    0.339    0.139   24.141
  120.750   68.263    0.340    0.138   24.181
  121.000   68.304    0.327    0.135   24.231
  121.250   68.360    0.324    0.133   24.727
  121.500   69.020    0.325    0.129   25.729
  121.750   70.314    0.328    0.127   25.296
  122.000   70.342    0.331    0.126   27.856
  122.250   71.608    0.335    0.127   27.376
  122.500   72.269    0.338    0.130   26.418
  122.750   74.154    0.342    0.132   26.440
  123.000   74.801    0.348    0.135   25.984
  123.250   76.095    0.351    0.139   25.054
  123.500   76.756    0.357    0.138   23.722
  123.750   77.403    0.362    0.137   23.313
  124.000   78.064    0.365    0.134   22.470
  124.250   78.119    0.366    0.129   22.091
  124.500   78.175    0.364    0.128   21.693
  124.750   78.836    0.360    0.124   21.737
  125.000   78.891    0.359    0.120   21.354
  125.250   78.947    0.361    0.119   20.985
  125.500   78.397    0.362    0.117   20.641
  125.750   78.480    0.364    0.116   20.658
  126.000   78.522    0.367    0.117   20.302
  126.250   79.197    0.369    0.123   19.951
  126.500   79.830    0.371    0.127   19.992
  126.750   80.490    0.371    0.134   19.656
  127.000   81.770    0.364    0.140   19.301
  127.250   82.417    0.364    0.145   19.349
  127.500   82.473    0.366    0.146   19.015
  127.750   81.923    0.371    0.146   19.047
  128.000   81.387    0.374    0.147   18.718
  128.250   80.246    0.377    0.147   18.749
  128.500   79.668    0.378    0.146   18.780
  128.750   79.118    0.377    0.144   18.811
  129.000   79.188    0.373    0.142   18.849
  129.250   79.243    0.365    0.139   19.235
  129.500   79.299    0.359    0.137   20.792
  129.750   78.749    0.353    0.133   22.474
  130.000   78.791    0.342    0.129   23.844
  130.250   78.255    0.330    0.128   24.800
  130.500   78.296    0.323    0.123   25.308
  130.750   77.774    0.313    0.117   25.837
  131.000   77.197    0.302    0.115   26.883
  131.250   76.647    0.292    0.111   28.510
  131.500   76.097    0.287    0.106   29.690
  131.750   74.956    0.289    0.100   30.323
  132.000   74.392    0.295    0.102   30.348
  132.250   73.251    0.307    0.109   29.849
  132.500   73.292    0.313    0.118   29.323
  132.750   72.757    0.317    0.126   28.805
  133.000   72.798    0.318    0.123   28.320
  133.250   72.868    0.313    0.114   28.355
  133.500   73.514    0.318    0.106   28.413
  133.750   74.203    0.323    0.110   28.472
  134.000   74.850    0.292    0.114   28.495
  134.250   74.314    0.293    0.122   28.016
  134.500   74.342    0.306    0.128   28.050
  134.750   72.581    0.319    0.134   28.648
  135.000   70.216    0.318    0.139   29.797
  135.250   67.864    0.289    0.131   32.208
  135.500   69.130    0.278    0.124   34.813
  135.750   71.607    0.285    0.107   38.369
  136.000   73.478    0.300    0.094   36.981
  136.250   74.139    0.319    0.088   30.633
  136.500   74.236    0.330    0.092   27.360
  136.750   73.672    0.332    0.099   24.457
  137.000   73.714    0.329    0.100   24.035
  137.250   73.150    0.332    0.099   25.980
  137.500   71.418    0.339    0.092   27.032
  137.750   70.854    0.343    0.088   27.609
  138.000   69.685    0.339    0.083   27.631
  138.250   66.741    0.327    0.126   28.209
  138.500   65.559    0.298    0.102   34.852
  138.750   65.009    0.259    0.097   39.886
  139.000   68.710    0.260    0.088   39.968
  139.250   73.608    0.269    0.089   37.114
  139.500   77.296    0.294    0.100   35.757
  139.750   78.562    0.325    0.107   32.590
  140.000   79.236    0.328    0.118   30.806
  140.250   78.659    0.328    0.125   27.549
  140.500   77.517    0.327    0.136   26.541
  140.750   75.743    0.328    0.167   24.171
  141.000   72.772    0.333    0.180   22.876
  141.250   67.380    0.340    0.195   23.345
  141.500   62.593    0.346    0.206   26.717
  141.750   58.425    0.353    0.200   31.762
  142.000   60.902    0.358    0.189   36.350
  142.250   63.378    0.370    0.181   42.400
  142.500   67.066    0.397    0.169   44.118
  142.750   70.162    0.405    0.161   41.755
  143.000   71.400    0.407    0.154   39.485
  143.250   72.666    0.406    0.141   35.310
