~VERSION INFORMATION
 VERS.                 2.0:   CWLS LOG ASCII STANDARD -VERSION 2.0
 WRAP.                  NO:   ONE LINE PER DEPTH STEP
~WELL INFORMATION BLOCK
#MNEM.UNIT           DATA                    DESCRIPTION OF MNEMONIC
#---------    -------------------            -------------------------------
# Generated from Intellog Unique Number	CW_82_90/WELL/1033
WELL.         14-05-082-21W4                 : Well_name    - WELL
LOC .         AA/14-05-082-21W4/0            : Location     - LOCATION
UWI .         AA/14-05-082-21W4/0            : Uwi          - UNIQUE WELL ID
ENTR.         JAYE                           : Entered      - ENTERED BY
SRVC.         SCHLUMBERGER                   : Scn          - SERVICE COMPANY
DATE.         26 JAN 82                      : Date         - LOG DATE
STRT.M        225                            : top_depth    - START DEPTH
STOP.M        430                            : bot_depth    - STOP DEPTH
STEP.M        0.25                           : increment    - STEP LENGTH
 NULL. -999.2500:NULL Value
~CURVE INFORMATION BLOCK
#MNEM UNIT       ERCB CURVE CODE    CURVE DESCRIPTION
#-----------   ------------------   ----------------------------------
DEPT.M        00 001 00 00         : DEPTH        - DEPTH
CALI.MM       00 280 01 00         : CAL          - CALIPER
GR  .API      00 310 00 00         : GR           - GAMMA RAY
NPHI.V/V      00 330 00 00         : PHIN         - NEUTRON POROSITY (SANDSTONE)
DPHI.V/V      00 890 00 00         : PHID         - DENSITY POROSITY (SANDSTONE)
ILD .OHMM     00 120 00 00         : RESD         - DEEP RESISTIVITY (DIL)
~PARAMETER INFORMATION
#MNEM.UNIT           DATA             DESCRIPTION OF MNEMONIC
#---------         -----------     ------------------------------
GL  .M        615.3                : gl           - GROUND LEVEL ELEVATION
EREF.M        619.8                : kb           - ELEVATION OF DEPTH REFERENCE
DATM.M        615.3                : datum        - DATUM ELEVATION
TDD .M        437                  : tdd          - TOTAL DEPTH DRILLER
RUN .         ONE                  : Run          - RUN NUMBER
ENG .         KUZIO                : Engineer     - RECORDING ENGINEER
WIT .         WALKER               : Witness      - WITNESSED BY
BASE.         EDMONTON             : Branch       - HOME BASE OF LOGGING UNIT
MUD .         GEL CHEM             : Mud_type     - MUD TYPE
MATR.         SANDSTONE            : Logunit      - NEUTRON MATRIX
TMAX.C        24.4                 : BHT          - MAXIMUM RECORDED TEMPERATURE
BHTD.M        437                  : BHTDEP       - MAXIMUM RECORDED TEMPERATURE
RMT .C        14.4                 : MDTP         - TEMPERATURE OF MUD
MUDD.KG/M     1060                 : MWT          - MUD DENSITY
NEUT.         1                    : NEUTRON      - NEUTRON TYPE
RESI.         0                    : RESIST       - RESISTIVITY TYPE
RM  .OHMM     6.58                 : RM           - RESISTIVITY OF MUD
RMC .OHMM     0.25                 : RMC          - RESISTIVITY OF MUD CAKE
RMF .OHMM     5.72                 : RMF          - RESISTIVITY OF MUD FILTRATE
SUFT.C        4                    : SUFT         - SURFACE TEMPERATURE
~A  DEPTH      CAL       GR     PHIN     PHID     RESD
# ...
  334.500  158.909   80.830    0.476    0.271    8.239
  334.750  159.430   79.580    0.450    0.275    8.542
  335.000  160.158   82.206    0.465    0.276    8.595
  335.250  160.887   88.144    0.486    0.276    8.222
  335.500  161.407   92.395    0.499    0.270    7.649
  335.750  161.927   92.208    0.488    0.262    7.754
  336.000  162.760   90.708    0.468    0.259    8.330
  336.250  162.863   89.146    0.448    0.260    8.620
  336.500  162.653   89.397    0.437    0.267    8.821
  336.750  162.443   92.210    0.439    0.263    8.646
  337.000  163.067   96.211    0.458    0.254    8.572
  337.250  165.048   96.899    0.482    0.247    8.463
  337.500  166.089   95.587    0.473    0.250    7.770
  337.750  165.462   94.650    0.483    0.261    7.322
  338.000  163.583   94.526    0.480    0.244    6.598
  338.250  162.643   95.589    0.483    0.225    7.089
  338.500  162.433   98.464    0.486    0.217    7.160
  338.750  162.536  101.340    0.486    0.223    7.230
  339.000  163.056  102.653    0.480    0.231    7.413
  339.250  163.576  101.279    0.475    0.236    7.514
  339.500  164.305   97.842    0.475    0.240    7.660
  339.750  164.617  100.155    0.471    0.230    7.826
  340.000  165.345   97.531    0.464    0.219    7.858
  340.250  166.178   98.594    0.461    0.231    7.805
  340.500  166.803  101.344    0.455    0.242    7.750
  340.750  167.635  103.657    0.466    0.232    7.498
  341.000  168.051  104.783    0.497    0.238    7.419
  341.250  168.363  105.596    0.507    0.249    7.342
  341.500  168.048   99.972    0.478    0.259    7.372
  341.750  167.525   97.535    0.468    0.250    7.558
  342.000  166.898   96.723    0.458    0.239    7.706
  342.250  167.105   95.224    0.444    0.234    7.854
  342.500  167.208   92.287    0.433    0.230    8.234
  342.750  166.164   83.912    0.420    0.193    8.715
  343.000  164.181   84.725    0.415    0.192    9.539
  343.250  162.615   88.663    0.427    0.236   10.639
  343.500  161.675   93.852    0.445    0.248   10.724
  343.750  161.048   97.290    0.454    0.247   10.532
  344.000  160.838   93.353    0.452    0.262   10.439
  344.250  160.732   80.666    0.460    0.245   11.342
  344.500  160.418   72.979    0.423    0.127   12.936
  344.750  159.791   63.855    0.290    0.033   15.960
  345.000  159.581   64.105    0.173    0.006   22.404
  345.250  160.101   67.293    0.192    0.009   28.697
  345.500  160.517   72.544    0.214    0.048   30.147
  345.750  161.454   79.794    0.270    0.105   27.520
  346.000  162.600   87.483    0.360    0.188   22.795
  346.250  162.807   92.108    0.400    0.195   12.675
  346.500  162.388   92.421    0.438    0.210   12.081
  346.750  162.074   90.609    0.441    0.218   11.998
  347.000  163.116   90.985    0.438    0.192   11.959
  347.250  164.992   88.548    0.428    0.174   11.722
  347.500  165.408   90.861    0.420    0.188   11.662
  347.750  165.406   91.674    0.420    0.194   11.801
  348.000  165.405   87.050    0.438    0.203   12.258
  348.250  165.716   82.113    0.434    0.212   12.854
  348.500  165.715   83.114    0.429    0.219   13.251
  348.750  166.026   87.114    0.425    0.206   13.409
  349.000  166.129   93.052    0.425    0.202   13.268
  349.250  165.293   96.615    0.430    0.207   12.548
  349.500  164.457   97.304    0.446    0.210   12.027
  349.750  163.100   93.992    0.438    0.216   10.960
  350.000  160.492   93.180    0.417    0.220   10.965
  350.250  160.177   96.805    0.427    0.222   11.304
  350.500  160.175   95.806    0.431    0.229   11.897
  350.750  160.174   92.494    0.417    0.216   12.197
  351.000  161.112   93.558    0.415    0.193   12.067
  351.250  162.362   94.871    0.423    0.191   11.719
  351.500  164.029   97.871    0.438    0.220   11.106
  351.750  163.819   99.684    0.430    0.219   10.725
  352.000  163.505   99.747    0.421    0.211   10.336
  352.250  163.086   94.810    0.432    0.207   10.303
  352.500  162.772   93.374    0.439    0.215   10.080
  352.750  162.770   93.687    0.441    0.218    9.901
  353.000  162.665   94.875    0.420    0.218    9.923
  353.250  162.142   94.063    0.395    0.223   10.041
  353.500  161.306   91.938    0.410    0.238   10.469
  353.750  160.783   89.126    0.428    0.246   10.793
  354.000  160.156   86.940    0.423    0.229   10.839
  354.250  159.633   89.315    0.440    0.213   10.845
  354.500  159.319   90.503    0.470    0.207   10.812
  354.750  159.839   90.942    0.454    0.198   10.716
  355.000  162.758   91.817    0.440    0.200   10.563
  355.250  165.990   92.630    0.440    0.206   10.086
  355.500  168.179   94.568    0.437    0.192    9.524
  355.750  169.950   98.506    0.437    0.183    9.009
  356.000  170.888  103.257    0.464    0.180    8.507
  356.250  172.764  104.820    0.480    0.191    8.307
  356.500  174.848  103.446    0.429    0.195    8.112
  356.750  173.908   93.759    0.412    0.224    7.906
  357.000  168.275   93.260    0.417    0.224    8.075
  357.250  159.721   91.948    0.429    0.201    9.687
  357.500  153.775   89.136    0.444    0.209   10.368
  357.750  158.049   83.386    0.408    0.150   11.937
  358.000  155.753   76.324    0.319    0.087   13.871
  358.250  157.108   66.825    0.253    0.041   17.051
  358.500  159.401   55.263    0.190    0.016   20.532
  358.750  160.025   51.076    0.179    0.014   25.762
  359.000  160.024   54.827    0.219    0.017   35.695
  359.250  160.127   59.203    0.264    0.029   37.147
  359.500  160.751   56.953    0.282    0.058   36.823
  359.750  161.793   60.454    0.275    0.046   34.898
  360.000  162.313   61.017    0.248    0.030   33.138
  360.250  162.729   61.455    0.179   -0.001   32.849
  360.500  163.040   68.143    0.185    0.044   30.382
  360.750  162.309   77.206    0.274    0.169   26.075
  361.000  160.847   86.082    0.343    0.199   21.355
  361.250  158.030   93.520    0.391    0.219   11.831
  361.500  155.734   89.583    0.398    0.216   12.061
  361.750  155.628   89.459    0.393    0.219   13.476
  362.000  157.504   90.834    0.391    0.224   12.868
  362.250  159.067   92.647    0.405    0.227   12.518
  362.500  158.544   95.460    0.429    0.229   12.133
  362.750  158.021   96.898    0.432    0.228   11.893
  363.000  157.498   95.962    0.424    0.220   11.745
  363.250  156.871   97.150    0.434    0.208   11.598
  363.500  156.661   92.963    0.452    0.199   11.542
  363.750  156.660   90.838    0.462    0.224   11.569
  364.000  157.701   93.151    0.455    0.224   11.576
  364.250  159.786   93.590    0.429    0.209   11.582
  364.500  161.245   94.278    0.412    0.211   11.590
  364.750  161.869   97.091    0.423    0.215   11.596
  365.000  159.677   98.091    0.449    0.212   11.732
  365.250  160.302   97.967    0.444    0.210   11.784
  365.500  160.926   99.030    0.452    0.213   11.945
  365.750  161.029   94.843    0.454    0.224   12.065
  366.000  160.819   94.469    0.441    0.209   12.184
  366.250  160.818   97.595    0.430    0.204   12.260
  366.500  160.712   99.595    0.430    0.197   12.340
  366.750  161.023   98.471    0.424    0.189   12.343
  367.000  160.918   95.409    0.424    0.193   12.326
  367.250  159.561   96.284    0.423    0.210   12.311
  367.500  158.308  100.473    0.421    0.205   12.250
  367.750  158.515  105.786    0.424    0.193   12.213
  368.000  160.078  111.911    0.429    0.184   12.126
  368.250  161.537  102.349    0.431    0.179   11.864
  368.500  161.535  101.850    0.442    0.184   11.739
  368.750  160.387  105.538    0.448    0.202   11.658
  369.000  158.716  109.476    0.458    0.211   11.751
  369.250  158.402  108.727    0.458    0.212   11.891
  369.500  160.382  110.165    0.460    0.207   11.986
  369.750  162.675  110.791    0.461    0.194   12.084
  370.000  163.613  107.479    0.456    0.183   12.272
  370.250  161.317  103.667    0.446    0.183   12.418
  370.500  160.064  102.355    0.434    0.202   12.518
  370.750  160.167  101.918    0.407    0.216   12.716
