~VERSION INFORMATION
 VERS.                 2.0:   CWLS LOG ASCII STANDARD -VERSION 2.0
 WRAP.                  NO:   ONE LINE PER DEPTH STEP
~WELL INFORMATION BLOCK
#MNEM.UNIT           DATA                    DESCRIPTION OF MNEMONIC
#---------    -------------------            -------------------------------
# Generated from Intellog Unique Number	CN_94_101/WELL/5021
WELL.         11-24-099-14W4                 : Well_name    - WELL
LOC .         AA/11-24-099-14W4/0            : Location     - LOCATION
UWI .         AA/11-24-099-14W400            : Uwi          - UNIQUE WELL ID
ENTR.         TIM                            : Entered      - ENTERED BY
SRVC.         SCHLUMBERGER                   : Scn          - SERVICE COMPANY
DATE.         08/13/92                       : Date         - LOG DATE
STRT.M        370                            : top_depth    - START DEPTH
STOP.M        570                            : bot_depth    - STOP DEPTH
STEP.M        0.25                           : increment    - STEP LENGTH
 NULL. -999.2500:NULL Value
~CURVE INFORMATION BLOCK
#MNEM UNIT       ERCB CURVE CODE    CURVE DESCRIPTION
#-----------   ------------------   ----------------------------------
DEPT.M        00 001 00 00         : DEPTH        - DEPTH
GR  .API      00 310 00 00         : GR           - GAMMA RAY
ILD .OHMM     00 120 00 00         : RESD         - DEEP RESISTIVITY (DIL)
NPHI.V/V      00 330 00 00         : PHIN         - NEUTRON POROSITY (SANDSTONE)
DPHI.V/V      00 890 00 00         : PHID         - DENSITY POROSITY (SANDSTONE)
~PARAMETER INFORMATION
#MNEM.UNIT           DATA             DESCRIPTION OF MNEMONIC
#---------         -----------     ------------------------------
GL  .M        815.9                : gl           - GROUND LEVEL ELEVATION
EREF.M        819.1                : kb           - ELEVATION OF DEPTH REFERENCE
DATM.M        819.1                : datum        - DATUM ELEVATION
TDD .M        573                  : tdd          - TOTAL DEPTH DRILLER
RUN .         ONE                  : Run          - RUN NUMBER
ENG .         BILL                 : Engineer     - RECORDING ENGINEER
WIT .         JIM                  : Witness      - WITNESSED BY
MUD .         GEL                  : Mud_type     - MUD TYPE
MATR.         SANDSTONE            : Logunit      - NEUTRON MATRIX
TMAX.C        25                   : BHT          - MAXIMUM RECORDED TEMPERATURE
BHTD.M        573                  : BHTDEP       - MAXIMUM RECORDED TEMPERATURE
RMT .C        25                   : MDTP         - TEMPERATURE OF MUD
MUDD.KG/M     1090                 : MWT          - MUD DENSITY
NEUT.         1                    : NEUTRON      - NEUTRON TYPE
RESI.         0                    : RESIST       - RESISTIVITY TYPE
RM  .OHMM     4.6                  : RM           - RESISTIVITY OF MUD
RMC .OHMM     4.6                  : RMC          - RESISTIVITY OF MUD CAKE
RMF .OHMM     4.6                  : RMF          - RESISTIVITY OF MUD FILTRATE
SUFT.C        4                    : SUFT         - SURFACE TEMPERATURE
~A  DEPTH       GR     RESD     PHIN     PHID
# ...
  500.500  113.451    8.193    0.286    0.247
  500.750  121.911    7.563    0.390    0.273
  501.000  121.310    6.723    0.410    0.265
  501.250  122.521    6.513    0.403    0.259
  501.500  126.147    5.882    0.400    0.257
  501.750  130.378    5.462    0.401    0.254
  502.000  137.024    5.042    0.434    0.246
  502.250  143.068    4.622    0.453    0.231
  502.500  142.466    4.412    0.483    0.223
  502.750  140.055    4.202    0.501    0.231
  503.000  138.850    3.992    0.520    0.242
  503.250  138.854    3.782    0.494    0.236
  503.500  138.856    3.571    0.476    0.226
  503.750  136.444    3.571    0.478    0.203
  504.000  132.823    3.571    0.476    0.188
  504.250  129.204    3.782    0.448    0.166
  504.500  133.434    3.782    0.442    0.194
  504.750  141.892    3.782    0.450    0.228
  505.000  150.956    3.571    0.479    0.247
  505.250  149.146    3.571    0.507    0.254
  505.500  146.130    3.361    0.530    0.259
  505.750  144.926    3.151    0.547    0.261
  506.000  144.326    2.731    0.546    0.265
  506.250  143.723    2.521    0.519    0.262
  506.500  138.895    2.311    0.516    0.256
  506.750  133.463    2.311    0.509    0.252
  507.000  129.239    2.311    0.499    0.248
  507.250  133.470    2.311    0.486    0.246
  507.500  140.117    2.521    0.479    0.249
  507.750  145.556    2.731    0.473    0.246
  508.000  145.559    3.782    0.462    0.239
  508.250  143.147    4.202    0.450    0.231
  508.500  139.527    4.622    0.432    0.228
  508.750  137.718    4.832    0.418    0.224
  509.000  136.513    5.042    0.412    0.217
  509.250  135.912    5.042    0.439    0.212
  509.500  135.916    5.042    0.455    0.198
  509.750  136.523    5.042    0.458    0.180
  510.000  140.150    5.042    0.423    0.205
  510.250  142.569    5.042    0.410    0.215
  510.500  143.177    5.042    0.437    0.219
  510.750  143.784    4.832    0.442    0.213
  511.000  144.391    4.622    0.437    0.207
  511.250  143.790    4.412    0.430    0.209
  511.500  143.794    4.412    0.427    0.218
  511.750  143.796    4.202    0.432    0.222
  512.000  144.404    3.992    0.441    0.227
  512.250  144.407    3.992    0.454    0.224
  512.500  143.204    3.992    0.473    0.215
  512.750  142.601    3.782    0.482    0.215
  513.000  141.398    3.782    0.484    0.222
  513.250  140.192    3.571    0.480    0.225
  513.500  138.988    3.571    0.473    0.233
  513.750  138.991    3.361    0.473    0.239
  514.000  140.807    3.361    0.485    0.246
  514.250  140.810    2.941    0.494    0.255
  514.500  135.379    2.941    0.486    0.251
  514.750  132.966    2.731    0.475    0.244
  515.000  131.762    2.521    0.469    0.235
  515.250  133.577    2.311    0.467    0.230
  515.500  134.789    2.101    0.470    0.228
  515.750  134.791    2.101    0.473    0.234
  516.000  134.794    1.891    0.472    0.237
  516.250  134.194    1.891    0.467    0.245
  516.500  134.800    1.891    0.465    0.248
  516.750  136.011    1.681    0.465    0.245
  517.000  139.035    1.681    0.469    0.243
  517.250  142.057    1.471    0.472    0.238
  517.500  149.308    1.471    0.479    0.233
  517.750  155.350    1.471    0.484    0.228
  518.000  156.562    1.471    0.485    0.219
  518.250  151.733    1.681    0.487    0.218
  518.500  142.677    1.681    0.494    0.216
  518.750  131.810    1.891    0.501    0.222
  519.000  121.546    1.891    0.515    0.239
  519.250  104.035    2.101    0.527    0.261
  519.500   83.505    2.521    0.420    0.280
  519.750   59.351    3.361    0.417    0.308
  520.000   49.692    4.622    0.401    0.363
  520.250   48.488    6.513    0.320    0.395
  520.500   48.490    9.454    0.282    0.415
  520.750   47.889   15.546    0.256    0.407
  521.000   47.894   48.109    0.214    0.396
  521.250   48.500   52.311    0.211    0.383
  521.500   49.107   55.252    0.208    0.373
  521.750   50.319   56.513    0.208    0.373
  522.000   51.530   58.403    0.217    0.374
  522.250   52.742   59.034    0.275    0.372
  522.500   53.952   59.664    0.279    0.367
  522.750   55.769   59.244    0.279    0.363
  523.000   56.978   58.403    0.295    0.362
  523.250   58.795   57.353    0.353    0.359
  523.500   60.004   56.513    0.362    0.355
  523.750   61.820   55.882    0.380    0.352
  524.000   63.031   55.672    0.403    0.346
  524.250   64.847   55.882    0.420    0.339
  524.500   66.058   55.462    0.427    0.331
  524.750   69.081   53.782    0.433    0.326
  525.000   70.291   48.109    0.406    0.322
  525.250   72.106   46.429    0.416    0.315
  525.500   72.714   41.597    0.429    0.310
  525.750   73.925   37.395    0.437    0.300
  526.000   76.948   33.193    0.434    0.292
  526.250   80.574   27.311    0.406    0.280
  526.500   85.409   18.698    0.400    0.265
  526.750   90.848   14.286    0.390    0.243
  527.000   99.306   11.765    0.390    0.222
  527.250  110.180    9.454    0.415    0.249
  527.500  121.054    7.353    0.457    0.275
  527.750  125.891    6.303    0.479    0.274
  528.000  125.893    5.042    0.508    0.264
  528.250  125.896    3.782    0.531    0.258
  528.500  125.900    3.361    0.559    0.260
  528.750  127.111    2.731    0.547    0.273
  529.000  129.530    2.101    0.536    0.284
  529.250  132.554    1.681    0.536    0.289
  529.500  134.368    1.471    0.535    0.281
  529.750  127.728    1.471    0.530    0.275
  530.000  113.841    1.681    0.519    0.265
  530.250  104.785    2.101    0.471    0.255
  530.500   95.729    2.731    0.393    0.243
  530.750   84.257    3.571    0.352    0.228
  531.000   75.806    4.412    0.304    0.223
  531.250   69.166    5.252    0.278    0.322
  531.500   69.170    7.143    0.258    0.345
  531.750   71.590    9.664    0.247    0.372
  532.000   72.195   12.815    0.244    0.371
  532.250   72.802   20.798    0.249    0.366
  532.500   71.599   34.874    0.252    0.367
  532.750   69.790   34.664    0.264    0.368
  533.000   67.981   35.294    0.319    0.367
  533.250   63.756   37.185    0.353    0.362
  533.500   58.929   33.824    0.366    0.353
  533.750   53.497   29.622    0.373    0.337
  534.000   49.876   26.050    0.371    0.310
  534.250   43.840   22.899    0.357    0.295
  534.500   39.615   20.588    0.333    0.289
  534.750   35.392   19.328    0.293    0.283
  535.000   32.375   18.277    0.285    0.274
  535.250   31.775   18.067    0.279    0.267
  535.500   35.402   18.698    0.277    0.253
  535.750   39.633   20.168    0.280    0.239
  536.000   43.258   22.059    0.290    0.243
  536.250   46.885   40.126    0.311    0.254
  536.500   51.116   44.538    0.359    0.279
  536.750   54.745   53.151    0.366    0.305
  537.000   57.768   54.622    0.359    0.314
  537.250   66.225   55.672    0.351    0.305
  537.500   92.198   55.462    0.350    0.282
  537.750  112.735   54.202    0.382    0.274
  538.000  118.174   53.571    0.403    0.258
  538.250  118.177   52.731    0.436    0.243
  538.500  113.953   52.521    0.447    0.243
  538.750  104.293   52.521    0.457    0.249
  539.000   88.594   52.521    0.449    0.268
  539.250   83.766   52.941    0.420    0.311
  539.500   81.354   53.571    0.411    0.338
  539.750   84.980   53.992    0.373    0.298
  540.000   92.834   53.992    0.369    0.270
  540.250   99.481   53.992    0.369    0.252
  540.500   98.881   53.782    0.377    0.236
  540.750   86.201   53.151    0.383    0.220
  541.000   83.184   51.891    0.384    0.202
  541.250   82.585   50.420    0.355    0.173
  541.500   83.191   48.109    0.347    0.164
  541.750   86.819   45.378    0.371    0.145
  542.000   91.050   44.538    0.378    0.300
  542.250   94.676   43.067    0.394    0.310
  542.500  100.114   41.387    0.402    0.300
  542.750  106.763   38.235    0.400    0.273
  543.000  109.785   28.571    0.400    0.263
  543.250  112.808   22.479    0.402    0.242
  543.500  115.227   15.966    0.403    0.241
  543.750  118.250   11.765    0.404    0.245
