~VERSION INFORMATION
 VERS.                 2.0:   CWLS LOG ASCII STANDARD -VERSION 2.0
 WRAP.                  NO:   ONE LINE PER DEPTH STEP
~WELL INFORMATION BLOCK
#MNEM.UNIT           DATA                    DESCRIPTION OF MNEMONIC
#---------    -------------------            -------------------------------
# Generated from Intellog Unique Number	CN_94_101/WELL/1163
WELL.         14-20-094-08W4                 : Well_name    - WELL
LOC .         AA/14-20-094-08W4/0            : Location     - LOCATION
UWI .         AA/14-20-094-08W400            : Uwi          - UNIQUE WELL ID
ENTR.         JOETTE                         : Entered      - ENTERED BY
SRVC.         SCHLUMBERGER                   : Scn          - SERVICE COMPANY
DATE.         04/22/92                       : Date         - LOG DATE
STRT.M        15                             : top_depth    - START DEPTH
STOP.M        110                            : bot_depth    - STOP DEPTH
STEP.M        0.25                           : increment    - STEP LENGTH
 NULL. -999.2500:NULL Value
~CURVE INFORMATION BLOCK
#MNEM UNIT       ERCB CURVE CODE    CURVE DESCRIPTION
#-----------   ------------------   ----------------------------------
DEPT.M        00 001 00 00         : DEPTH        - DEPTH
GR  .API      00 310 00 00         : GR           - GAMMA RAY
ILD .OHMM     00 120 00 00         : RESD         - DEEP RESISTIVITY (DIL)
DPHI.V/V      00 890 00 00         : PHID         - DENSITY POROSITY (SANDSTONE)
NPHI.V/V      00 330 00 00         : PHIN         - NEUTRON POROSITY (SANDSTONE)
CALI.MM       00 280 01 00         : CAL          - CALIPER
~PARAMETER INFORMATION
#MNEM.UNIT           DATA             DESCRIPTION OF MNEMONIC
#---------         -----------     ------------------------------
GL  .M        357.19               : gl           - GROUND LEVEL ELEVATION
EREF.M        357.19               : kb           - ELEVATION OF DEPTH REFERENCE
DATM.M        357.19               : datum        - DATUM ELEVATION
TDD .M        112.3                : tdd          - TOTAL DEPTH DRILLER
RUN .         ONE                  : Run          - RUN NUMBER
ENG .         BILL                 : Engineer     - RECORDING ENGINEER
WIT .         JIM                  : Witness      - WITNESSED BY
MUD .         GEL                  : Mud_type     - MUD TYPE
MATR.         SANDSTONE            : Logunit      - NEUTRON MATRIX
TMAX.C        7                    : BHT          - MAXIMUM RECORDED TEMPERATURE
BHTD.M        112.3                : BHTDEP       - MAXIMUM RECORDED TEMPERATURE
RMT .C        7                    : MDTP         - TEMPERATURE OF MUD
MUDD.KG/M     1050                 : MWT          - MUD DENSITY
NEUT.         1                    : NEUTRON      - NEUTRON TYPE
RESI.         0                    : RESIST       - RESISTIVITY TYPE
RM  .OHMM     14.7                 : RM           - RESISTIVITY OF MUD
RMC .OHMM     14.7                 : RMC          - RESISTIVITY OF MUD CAKE
RMF .OHMM     14.7                 : RMF          - RESISTIVITY OF MUD FILTRATE
SUFT.C        4                    : SUFT         - SURFACE TEMPERATURE
~A  DEPTH       GR     RESD     PHID     PHIN      CAL
# ...
   88.000   31.646   86.702    0.337    0.364  134.327
   88.250   28.700  277.835    0.338    0.406  134.161
   88.500   24.859  660.967    0.327    0.421  136.795
   88.750   23.708  294.893    0.301    0.396  137.024
   89.000   22.866  657.520    0.286    0.389  137.057
   89.250   23.499  108.448    0.271    0.401  137.892
   89.500   29.507  403.232    0.290    0.397  138.524
   89.750   34.328  686.349    0.291    0.348  139.359
   90.000   33.177  560.509    0.295    0.369  138.196
   90.250   40.080  749.265    0.315    0.353  136.631
   90.500   29.980  373.815    0.331    0.351  134.671
   90.750   25.552  305.204    0.328    0.352  136.503
   91.000   27.379  400.470    0.331    0.344  135.340
   91.250   32.492  609.717    0.347    0.350  134.377
   91.500   19.707  561.868    0.359    0.371  136.803
   91.750   13.192  912.946    0.366    0.400  139.029
   92.000   19.195  636.603    0.348    0.437  140.263
   92.250   27.595  258.755    0.329    0.413  140.102
   92.500   25.549  776.761    0.321    0.350  139.932
   92.750   18.128  413.582    0.318    0.362  139.571
   93.000   20.860  563.231    0.314    0.338  138.005
   93.250   27.167  648.721    0.294    0.363  136.842
   93.500   26.911   83.252    0.275    0.374  139.667
   93.750   39.189   72.558    0.289    0.441  138.704
   94.000   27.895  185.938    0.321    0.477  138.741
   94.250   19.878  325.516    0.331    0.406  138.580
   94.500   18.732  643.048    0.311    0.355  140.009
   94.750   21.464  444.254    0.299    0.355  139.241
   95.000   29.257  141.778    0.270    0.291  137.493
   95.250   42.132   15.532    0.249    0.275  136.920
   95.500   63.961    4.777    0.213    0.281  136.554
   95.750   83.398   13.313    0.227    0.385  138.382
   96.000   97.770   14.239    0.197    0.433  139.612
   96.250  108.556   12.068    0.197    0.471  138.250
   96.500  129.182   14.561    0.190    0.442  138.882
   96.750  126.837   17.411    0.199    0.370  138.130
   97.000  123.896   17.607    0.205    0.386  136.166
   97.250  120.955   13.723    0.216    0.452  132.403
   97.500  120.406   12.764    0.205    0.479  129.251
   97.750  123.144   15.840    0.189    0.475  128.886
   98.000  124.672   16.941    0.194    0.436  128.919
   98.250  120.234   16.056    0.176    0.411  131.544
   98.500  122.663   16.238    0.164    0.407  134.772
   98.750  126.583   24.261    0.155    0.316  136.210
   99.000  119.764  193.374    0.162    0.165  134.843
   99.250  114.735  431.062    0.175    0.176  132.879
   99.500  112.098  286.866    0.169    0.169  133.914
   99.750  110.941  167.615    0.169    0.158  134.151
  100.000  108.906  124.735    0.174    0.174  132.381
  100.250  108.938  111.759    0.154    0.165  130.222
  100.500  110.775  113.019    0.139    0.137  130.858
  100.750  113.203  165.872    0.127    0.126  131.494
  101.000  115.930  167.701    0.163    0.166  132.125
  101.250  118.961  140.791    0.163    0.169  132.562
  101.500  119.008  132.177    0.158    0.161  132.786
  101.750  119.008  132.493    0.149    0.161  132.824
  102.000  119.103  111.207    0.157    0.191  133.265
  102.250  119.129  110.389    0.160    0.191  133.689
  102.500   79.790  104.602    0.160    0.183  134.324
  102.750   66.403   77.122    0.152    0.178  134.557
  103.000   73.311   76.555    0.145    0.170  134.790
  103.250   66.785   81.120    0.153    0.206  135.023
  103.500   64.148   79.778    0.155    0.232  135.659
  103.750   68.063   74.897    0.149    0.248  135.688
  104.000   70.790   66.484    0.149    0.258  135.921
  104.250   70.235   51.830    0.144    0.260  136.158
  104.500   83.115   43.110    0.156    0.266  136.395
  104.750   81.964   46.538    0.162    0.281  136.624
  105.000   82.603   38.709    0.161    0.285  136.865
  105.250   89.208   35.680    0.155    0.296  137.896
  105.500   82.096   31.968    0.150    0.288  138.124
  105.750   86.011   30.292    0.163    0.306  137.564
  106.000   89.936   29.791    0.148    0.317  137.402
  106.250   81.322   31.275    0.148    0.320  137.428
  106.500   72.713   25.065    0.144    0.363  137.660
  106.750   83.798   27.051    0.151    0.322  137.902
  107.000   75.189   31.749    0.143    0.296  137.935
  107.250   82.391   30.649    0.150    0.300  138.168
  107.500   72.584   34.983    0.141    0.274  138.397
  107.750   62.782   38.463    0.149    0.250  138.634
  108.000   60.139   40.747    0.149    0.233  138.672
  108.250   64.656   41.601    0.155    0.266  138.502
  108.500   57.240   47.472    0.078    0.226  138.136
  108.750   44.151   95.539    0.079    0.206  137.572
  109.000   36.139   84.849    0.074    0.184  136.210
  109.250   38.877   74.622    0.065    0.170  134.848
  109.500   31.152   94.342    0.063    0.159  133.494
  109.750   40.149  166.743    0.084    0.157  132.522
  110.000   44.373  145.255    0.086    0.172  131.563
