~VERSION INFORMATION
 VERS.                 2.0:   CWLS LOG ASCII STANDARD -VERSION 2.0
 WRAP.                  NO:   ONE LINE PER DEPTH STEP
~WELL INFORMATION BLOCK
#MNEM.UNIT           DATA                    DESCRIPTION OF MNEMONIC
#---------    -------------------            -------------------------------
# Generated from Intellog Unique Number	CN_94_101/WELL/5004
WELL.         10-18-097-07W4                 : Well_name    - WELL
LOC .         AA/10-18-097-07W4/0            : Location     - LOCATION
UWI .         AA/10-18-097-07W400            : Uwi          - UNIQUE WELL ID
ENTR.         T                              : Entered      - ENTERED BY
SRVC.         SCHLUMBERGER                   : Scn          - SERVICE COMPANY
DATE.         08/11/92                       : Date         - LOG DATE
STRT.M        0                              : top_depth    - START DEPTH
STOP.M        80                             : bot_depth    - STOP DEPTH
STEP.M        0.25                           : increment    - STEP LENGTH
 NULL. -999.2500:NULL Value
~CURVE INFORMATION BLOCK
#MNEM UNIT       ERCB CURVE CODE    CURVE DESCRIPTION
#-----------   ------------------   ----------------------------------
DEPT.M        00 001 00 00         : DEPTH        - DEPTH
GR  .API      00 310 00 00         : GR           - GAMMA RAY
DPHI.V/V      00 890 00 00         : PHID         - DENSITY POROSITY (SANDSTONE)
ILD .OHMM     00 120 00 00         : RESD         - DEEP RESISTIVITY (DIL)
NPHI.V/V      00 330 00 00         : PHIN         - NEUTRON POROSITY (SANDSTONE)
~PARAMETER INFORMATION
#MNEM.UNIT           DATA             DESCRIPTION OF MNEMONIC
#---------         -----------     ------------------------------
GL  .M        319                  : gl           - GROUND LEVEL ELEVATION
EREF.M        319                  : kb           - ELEVATION OF DEPTH REFERENCE
DATM.M        319                  : datum        - DATUM ELEVATION
TDD .M        85                   : tdd          - TOTAL DEPTH DRILLER
RUN .         ONE                  : Run          - RUN NUMBER
ENG .         BILL                 : Engineer     - RECORDING ENGINEER
WIT .         JIM                  : Witness      - WITNESSED BY
MUD .         GEL                  : Mud_type     - MUD TYPE
MATR.         SANDSTONE            : Logunit      - NEUTRON MATRIX
TMAX.C        10                   : BHT          - MAXIMUM RECORDED TEMPERATURE
BHTD.M        78.6                 : BHTDEP       - MAXIMUM RECORDED TEMPERATURE
RMT .C        10                   : MDTP         - TEMPERATURE OF MUD
MUDD.KG/M     1090                 : MWT          - MUD DENSITY
NEUT.         1                    : NEUTRON      - NEUTRON TYPE
RESI.         0                    : RESIST       - RESISTIVITY TYPE
RM  .OHMM     13.1                 : RM           - RESISTIVITY OF MUD
RMC .OHMM     13.1                 : RMC          - RESISTIVITY OF MUD CAKE
RMF .OHMM     13.1                 : RMF          - RESISTIVITY OF MUD FILTRATE
SUFT.C        4                    : SUFT         - SURFACE TEMPERATURE
~A  DEPTH       GR     PHID     RESD     PHIN
    0.000   31.730    0.254   22.049    0.557
    0.250   31.733    0.262   22.360    0.565
    0.500   31.735    0.267   22.358    0.568
    0.750   31.736    0.274   22.355    0.564
    1.000   30.494    0.276   22.352    0.538
    1.250   29.252    0.264   22.348    0.452
    1.500   26.766    0.221   22.345    0.407
    1.750   25.523    0.238   22.341    0.382
    2.000   23.037    0.253   22.338    0.364
    2.250   21.795    0.264   22.334    0.357
    2.500   23.663    0.274   22.331    0.361
    2.750   24.910    0.287   22.328    0.369
    3.000   23.668    0.297   22.326    0.378
    3.250   21.803    0.320   22.639    0.393
    3.500   19.939    0.351   22.959    0.389
    3.750   19.941    0.363   23.283    0.385
    4.000   22.432    0.371   23.611    0.377
    4.250   24.922    0.371   23.608    0.342
    4.500   23.680    0.361   23.273    0.321
    4.750   22.438    0.347   22.620    0.313
    5.000   26.173    0.273   21.986    0.307
    5.250   27.419    0.176   21.372    0.307
    5.500   22.445    0.149   20.481    0.308
    5.750   19.958    0.149   20.192    0.308
    6.000   25.559    0.163   19.626    0.308
    6.250   28.672    0.182   19.622    0.307
    6.500   26.808    0.200   19.619    0.307
    6.750   25.566    0.217   19.895    0.306
    7.000   26.190    0.217   20.177    0.306
    7.250   29.303    0.198   21.048    0.305
    7.500   28.683    0.177   21.956    0.306
    7.750   28.685    0.172   22.583    0.306
    8.000   31.176    0.179   22.901    0.306
    8.250   32.423    0.192   22.897    0.304
    8.500   31.803    0.217   22.572    0.302
    8.750   34.293    0.232   22.253    0.301
    9.000   38.028    0.241   21.628    0.299
    9.250   37.408    0.236   21.023    0.297
    9.500   40.521    0.234   20.726    0.293
    9.750   43.634    0.234   19.863    0.289
   10.000   39.282    0.235   19.582    0.288
   10.250   35.550    0.233   19.033    0.288
   10.500   34.930    0.233   18.763    0.289
   10.750   38.044    0.235   18.497    0.290
   11.000   35.557    0.238   18.495    0.291
   11.250   33.071    0.243   19.293    0.291
   11.500   31.829    0.245   20.702    0.291
   11.750   35.563    0.241   22.531    0.289
   12.000   34.943    0.218   23.504    0.289
   12.250   34.945    0.196   24.518    0.290
   12.500   36.192    0.193   24.169    0.293
   12.750   38.061    0.196   23.163    0.294
   13.000   39.307    0.207   22.836    0.295
   13.250   40.554    0.219   21.884    0.295
   13.500   41.801    0.243   21.574    0.295
   13.750   43.046    0.252   21.268    0.295
   14.000   44.914    0.259   20.967    0.295
   14.250   44.294    0.271   20.965    0.295
   14.500   42.430    0.299   21.260    0.296
   14.750   42.433    0.329   21.560    0.297
   15.000   49.278    0.353   21.863    0.298
   15.250   65.456    0.388   22.172    0.298
   15.500   59.236    0.416   22.169    0.299
   15.750   57.995    0.442   21.854    0.299
   16.000   58.620    0.387   20.944    0.299
   16.250   56.755    0.376   20.357    0.299
   16.500   49.292    0.372   20.069    0.300
   16.750   41.828    0.371   20.066    0.302
   17.000   30.009    0.368   19.781    0.306
   17.250   20.057    0.366   20.059    0.307
   17.500   19.437    0.359   20.341    0.310
   17.750   25.038    0.351   20.923    0.310
   18.000   27.529    0.348   21.519    0.308
   18.250   28.775    0.348   22.133    0.306
   18.500   24.422    0.352   23.750    0.305
   18.750   25.669    0.359   27.352    0.305
   19.000   33.137    0.373   36.282    0.306
   19.250   35.005    0.374 5248.760    0.314
   19.500   38.740    0.372 5398.090    0.349
   19.750   48.075    0.361 5397.710    0.364
   20.000   54.920    0.350 5473.770    0.393
   20.250   45.590    0.342 5550.710    0.491
   20.500   37.505    0.343 5628.920    0.501
   20.750   33.774    0.350 5628.130    0.492
   21.000   29.421    0.356 5627.340    0.483
   21.250   31.913    0.362 5626.160    0.472
   21.500   33.158    0.361 5625.770    0.459
   21.750   33.160    0.356 5468.030    0.459
   22.000   27.564    0.362 5390.550    0.468
   22.250   23.832    0.373 5314.340    0.473
   22.500   23.835    0.375 5313.420    0.462
   22.750   24.459    0.368 5388.470    0.452
   23.000   25.705    0.373 5620.850    0.452
   23.250   25.707    0.379 5947.120    0.450
   23.500   25.710    0.379 5310.620    0.440
   23.750   25.090    0.373 4059.490    0.430
   24.000   25.714    0.356 2440.390    0.424
   24.250   27.583    0.316 2118.400    0.417
   24.500   31.318    0.273 2059.140    0.409
   24.750   54.961    0.282 1918.400    0.417
   25.000   74.872    0.268 1466.390    0.412
   25.250   86.695    0.229 1487.000    0.414
   25.500   98.518    0.223 1595.710    0.470
   25.750  102.875    0.221 1837.670    0.488
   26.000  102.255    0.224 2336.390    0.503
   26.250   93.547    0.229 3519.440    0.504
   26.500   84.839    0.226 5609.660    0.502
   26.750   72.398    0.231 5300.600    0.501
   27.000   63.690    0.251 4938.290    0.496
   27.250   58.093    0.268 4536.350    0.493
   27.500   53.119    0.292 3993.990    0.492
   27.750   54.365    0.311 3010.200    0.491
   28.000   61.832    0.322 2268.730    0.488
   28.250   66.190    0.304 1344.730    0.482
   28.500   83.612    0.274  918.035    0.488
   28.750  118.454    0.256  785.752    0.496
   29.000  134.632    0.234  732.018    0.507
   29.250  117.836    0.209  796.656    0.508
   29.500   98.552    0.202 1913.240    0.510
   29.750   94.822    0.211 3988.970    0.508
   30.000   91.712    0.223 4593.830    0.499
   30.250   81.138    0.248 5365.520    0.509
   30.500   71.186    0.278 5757.570    0.516
   30.750   58.745    0.300 5838.700    0.506
   31.000   52.526    0.321 5439.420    0.488
   31.250   46.929    0.342 5067.790    0.470
   31.500   41.954    0.344 4856.570    0.469
   31.750   35.112    0.337 4995.110    0.474
   32.000   37.603    0.333 5065.670    0.480
   32.250   36.983    0.341 5210.160    0.482
   32.500   32.631    0.348 5283.570    0.470
   32.750   32.010    0.351 5282.830    0.472
   33.000   41.967    0.343 4458.160    0.476
   33.250   53.168    0.330 2642.440    0.481
   33.500   63.124    0.310 1908.890    0.484
   33.750   66.859    0.309 1588.240    0.486
   34.000   67.483    0.315 2167.190    0.498
   34.250   60.642    0.304 2794.550    0.505
   34.500   55.667    0.284 4780.560    0.497
   34.750   50.070    0.263 2873.860    0.438
   35.000   43.850    0.241 1024.120    0.406
   35.250   73.094    0.216  852.119    0.431
   35.500   71.229    0.209  771.723    0.456
   35.750   71.231    0.210  729.232    0.478
   36.000   73.100    0.213  633.038    0.486
   36.250   76.835    0.218  557.354    0.498
   36.500   78.703    0.218  483.832    0.499
   36.750   78.705    0.220  470.282    0.490
   37.000   78.707    0.230  519.094    0.490
   37.250   78.710    0.261  572.991    0.494
   37.500   78.712    0.274  632.506    0.495
   37.750   78.714    0.278  718.195    0.492
   38.000   78.716    0.251  718.094    0.492
   38.250   74.364    0.179  697.984    0.489
   38.500   71.255    0.177  678.437    0.482
   38.750   70.634    0.232  874.832    0.464
   39.000   67.526    0.262 3912.410    0.482
   39.250   65.662    0.261 4767.700    0.493
   39.500   68.152    0.249 5337.630    0.501
   39.750   69.399    0.229 5336.700    0.498
   40.000   54.469    0.215 5261.260    0.472
   40.250   42.651    0.351 5113.920    0.462
   40.500   29.588    0.360 5041.450    0.445
   40.750   38.922    0.353 5112.130    0.438
   41.000   35.815    0.338 5332.590    0.437
   41.250   32.705    0.306 5408.110    0.427
   41.500   28.975    0.311 5641.140    0.419
   41.750   25.244    0.311 5721.030    0.415
   42.000   23.380    0.295 5639.960    0.410
   42.250   22.759    0.300 5405.080    0.403
   42.500   22.140    0.288 5328.490    0.401
   42.750   22.764    0.284 5480.290    0.401
   43.000   25.877    0.294 4893.920    0.397
   43.250   31.478    0.300 4014.860    0.393
