~VERSION INFORMATION
 VERS.                 2.0:   CWLS LOG ASCII STANDARD -VERSION 2.0
 WRAP.                  NO:   ONE LINE PER DEPTH STEP
~WELL INFORMATION BLOCK
#MNEM.UNIT           DATA                    DESCRIPTION OF MNEMONIC
#---------    -------------------            -------------------------------
# Generated from Intellog Unique Number	CN_91_93/WELL/3934
WELL.         16-21-092-08W4                 : Well_name    - WELL
LOC .         AA/16-21-092-08W4/0            : Location     - LOCATION
UWI .         AA/16-21-092-08W400            : Uwi          - UNIQUE WELL ID
ENTR.         JOETTE                         : Entered      - ENTERED BY
SRVC.         SCHLUMBERGER                   : Scn          - SERVICE COMPANY
DATE.         03/16/92                       : Date         - LOG DATE
STRT.F        30                             : top_depth    - START DEPTH
STOP.F        550.013                        : bot_depth    - STOP DEPTH
STEP.F        0.8202                         : increment    - STEP LENGTH
 NULL. -999.2500:NULL Value
~CURVE INFORMATION BLOCK
#MNEM UNIT       ERCB CURVE CODE    CURVE DESCRIPTION
#-----------   ------------------   ----------------------------------
DEPT.F        00 001 00 00         : DEPTH        - DEPTH
GR  .API      00 310 00 00         : GR           - GAMMA RAY
CALI.IN       00 280 01 00         : CAL          - CALIPER
NPHI.V/V      00 330 00 00         : PHIN         - NEUTRON POROSITY (SANDSTONE)
ILD .OHMM     00 120 00 00         : RESD         - DEEP RESISTIVITY (DIL)
~PARAMETER INFORMATION
#MNEM.UNIT           DATA             DESCRIPTION OF MNEMONIC
#---------         -----------     ------------------------------
GL  .M        433.73               : gl           - GROUND LEVEL ELEVATION
EREF.M        434.95               : kb           - ELEVATION OF DEPTH REFERENCE
DATM.M        434.95               : datum        - DATUM ELEVATION
TDD .M        168.859              : tdd          - TOTAL DEPTH DRILLER
RUN .         ONE                  : Run          - RUN NUMBER
ENG .         BILL                 : Engineer     - RECORDING ENGINEER
WIT .         JIM                  : Witness      - WITNESSED BY
MUD .         GEL                  : Mud_type     - MUD TYPE
MATR.         SANDSTONE            : Logunit      - NEUTRON MATRIX
TMAX.F        50                   : BHT          - MAXIMUM RECORDED TEMPERATURE
BHTD.F        554                  : BHTDEP       - MAXIMUM RECORDED TEMPERATURE
RMT .F        50                   : MDTP         - TEMPERATURE OF MUD
MUDD.LB/G     9.9                  : MWT          - MUD DENSITY
NEUT.         1                    : NEUTRON      - NEUTRON TYPE
RESI.         0                    : RESIST       - RESISTIVITY TYPE
RM  .OHMM     2.5                  : RM           - RESISTIVITY OF MUD
RMC .OHMM     1.8                  : RMC          - RESISTIVITY OF MUD CAKE
RMF .OHMM     1.8                  : RMF          - RESISTIVITY OF MUD FILTRATE
SUFT.F        39.2                 : SUFT         - SURFACE TEMPERATURE
~A  DEPTH       GR      CAL     PHIN     RESD
# ...
  458.150   55.991    7.180    0.303   35.889
  458.970   60.106    7.182    0.305   30.904
  459.790   61.301    7.146    0.302   23.774
  460.610   63.087    7.148    0.298   20.095
  461.430   64.865    7.151    0.310   17.963
  462.251   64.897    7.153    0.329   15.468
  463.071   62.018    7.194    0.320   16.692
  463.891   57.982    7.196    0.318   17.022
  464.711   56.267    7.198    0.310   18.027
  465.531   53.970    7.200    0.304   20.973
  466.352   52.255    7.202    0.310   23.058
  467.172   49.376    7.205    0.311   24.878
  467.992   51.154    7.207    0.308   24.434
  468.812   55.851    7.209    0.312   23.998
  469.633   54.136    7.173    0.319   22.283
  470.453   51.839    7.175    0.323   19.919
  471.273   50.132    7.177    0.321   19.563
  472.093   50.746    7.179    0.320   19.951
  472.913   52.524    7.182    0.328   20.735
  473.734   56.630    7.184    0.325   20.370
  474.554   64.811    7.225    0.309   18.561
  475.374   71.254    7.228    0.306   17.228
  476.194   68.375    7.230    0.311   16.296
  477.014   60.839    7.232    0.312   17.582
  477.835   52.721    7.234    0.311   18.270
  478.655   48.095    7.197    0.310   18.985
  479.475   44.634    7.199    0.300   19.001
  480.295   40.008    7.163    0.292   17.977
  481.115   31.316    7.166    0.293   17.005
  481.936   25.526    7.167    0.300   20.927
  482.756   18.572    7.171    0.316   46.999
  483.576   13.954    7.172    0.333   79.609
  484.396   13.993    7.174    0.342   79.688
  485.217   16.354    7.176    0.311   67.342
  486.037   19.296    7.141    0.302   84.445
  486.857   21.066    7.142    0.294  103.920
  487.677   24.598    7.107    0.288  148.663
  488.497   25.802    7.069    0.276   21.070
  489.318   24.669    7.032    0.279   18.487
  490.138   22.372    6.996    0.279   37.804
  490.958   20.657    6.996    0.278   48.294
  491.778   18.368    7.118    0.276  163.997
  492.598   16.653    7.119    0.276  230.239
  493.419   18.431    7.160    0.277  230.423
  494.239   20.807    7.162    0.278  161.362
  495.059   21.995    7.165    0.279  121.822
  495.879   24.355    7.167    0.282  104.901
  496.699   25.543    7.169    0.291   93.809
  497.520   29.083    7.172    0.302   87.085
  498.340   32.033    7.213    0.303   77.862
  499.160   33.213    7.214    0.303   62.191
  499.980   35.581    7.217    0.304   45.220
  500.801   35.039    7.219    0.305   24.803
  501.621   34.480    7.222    0.306   22.176
  502.441   32.765    7.224    0.306   27.290
  503.261   30.484    7.227    0.302   26.804
  504.081   29.933    7.228    0.299   21.414
  504.902   31.129    7.230    0.283   25.861
  505.722   32.907    7.233    0.291   47.225
  506.542   31.192    7.235    0.318   31.851
  507.362   27.739    7.237    0.330   21.082
  508.182   26.024    7.200    0.337   24.070
  509.003   23.719    7.164    0.339   37.115
  509.823   24.349    7.167    0.342   60.560
  510.643   25.537    6.781    0.344   40.845
  511.463   27.905    6.705    0.342   30.836
  512.283   29.683    6.707    0.342   32.651
  513.104   27.386    6.709    0.342   49.428
  513.924   23.924    6.712    0.337   56.410
  514.744   23.374    6.713    0.332   65.615
  515.564   23.405    6.755    0.326   83.840
  516.385   22.878    6.758    0.321  113.362
  517.205   22.894    6.798    0.337   87.207
  518.025   22.359    6.801    0.340   75.124
  518.845   22.383    6.842    0.339   85.738
  519.665   21.832    6.844    0.341  105.511
  520.486   21.864    6.963    0.340  127.427
  521.306   21.903    7.003    0.338  185.712
  522.126   23.107    7.161    0.330  303.024
  522.946   24.295    7.319    0.323  345.904
  523.766   26.081    7.399    0.310  395.010
  524.587   28.441    7.440    0.313  380.743
  525.407   31.383    7.480    0.310  340.348
  526.227   33.743    7.521    0.305  256.948
  527.047   34.357    7.484    0.306  272.068
  527.867   30.904    7.061    0.329  396.592
  528.688   25.696    7.063    0.356  419.930
  529.508   26.317    7.064    0.373  368.462
  530.328   28.095    7.068    0.382  258.029
  531.148   29.881    7.069    0.386   49.408
  531.969   32.823    7.072    0.380   33.323
  532.789   34.593    7.073    0.366   25.635
  533.609   41.618    6.998    0.333   22.924
  534.429   46.307    6.962    0.309   22.516
  535.249   52.742    6.926    0.313   24.749
  536.070   59.767    6.927    0.322   30.462
  536.890   62.717    6.890    0.324   36.790
  537.710   60.428    6.854    0.323   44.440
  538.530   58.706    6.818    0.311   50.729
  539.350   55.834    6.704    0.284   39.765
  540.171   53.537    6.666    0.290   23.960
  540.991   51.815    6.591    0.294   23.095
  541.811   46.607    6.516    0.282   25.390
  542.631   40.243    6.441    0.261   25.410
  543.451   35.035    6.443    0.238   24.962
  544.272   28.663    6.406    0.196   39.220
  545.092   25.210    6.448    0.162   53.021
  545.912   24.651    6.449    0.164   50.174
  546.732   24.108    6.569    0.160   49.270
  547.552   24.148    6.648    0.143   59.515
  548.373   25.918    6.689    0.138   66.672
  549.193   31.771    6.769    0.138   67.992
  550.013   39.378    6.850    0.139   64.316
