~VERSION INFORMATION
 VERS.                 2.0:   CWLS LOG ASCII STANDARD -VERSION 2.0
 WRAP.                  NO:   ONE LINE PER DEPTH STEP
~WELL INFORMATION BLOCK
#MNEM.UNIT           DATA                    DESCRIPTION OF MNEMONIC
#---------    -------------------            -------------------------------
# Generated from Intellog Unique Number	CC_88_90/WELL/3772
WELL.         CAN. KEWANEE MUCLUC            : Well_name    - WELL
LOC .         AA/16-33-088-14W4/0            : Location     - LOCATION
UWI .         AA/16-33-088-14W400            : Uwi          - UNIQUE WELL ID
ENTR.         T                              : Entered      - ENTERED BY
SRVC.         SCHLUMBERGER                   : Scn          - SERVICE COMPANY
DATE.         03/02/92                       : Date         - LOG DATE
STRT.M        45.72                          : top_depth    - START DEPTH
STOP.M        216.47                         : bot_depth    - STOP DEPTH
STEP.M        0.25                           : increment    - STEP LENGTH
 NULL. -999.2500:NULL Value
~CURVE INFORMATION BLOCK
#MNEM UNIT       ERCB CURVE CODE    CURVE DESCRIPTION
#-----------   ------------------   ----------------------------------
DEPT.M        00 001 00 00         : DEPTH        - DEPTH
GR  .API      00 310 00 00         : GR           - GAMMA RAY
ILD .OHMM     00 120 00 00         : RESD         - DEEP RESISTIVITY (DIL)
NPHI.V/V      00 330 00 00         : PHIN         - NEUTRON POROSITY (SANDSTONE)
~PARAMETER INFORMATION
#MNEM.UNIT           DATA             DESCRIPTION OF MNEMONIC
#---------         -----------     ------------------------------
GL  .M        499.872              : gl           - GROUND LEVEL ELEVATION
EREF.M        499.872              : kb           - ELEVATION OF DEPTH REFERENCE
DATM.M        499.872              : datum        - DATUM ELEVATION
TDD .M        220.37               : tdd          - TOTAL DEPTH DRILLER
RUN .         ONE                  : Run          - RUN NUMBER
ENG .         BILL                 : Engineer     - RECORDING ENGINEER
WIT .         JIM                  : Witness      - WITNESSED BY
MUD .         GEL                  : Mud_type     - MUD TYPE
MATR.         SANDSTONE            : Logunit      - NEUTRON MATRIX
TMAX.C        11.1111              : BHT          - MAXIMUM RECORDED TEMPERATURE
BHTD.M        220.37               : BHTDEP       - MAXIMUM RECORDED TEMPERATURE
RMT .C        11.1111              : MDTP         - TEMPERATURE OF MUD
MUDD.KG/M     1.18                 : MWT          - MUD DENSITY
NEUT.         1                    : NEUTRON      - NEUTRON TYPE
RESI.         0                    : RESIST       - RESISTIVITY TYPE
RM  .OHMM     10.8                 : RM           - RESISTIVITY OF MUD
RMC .OHMM     7.5                  : RMC          - RESISTIVITY OF MUD CAKE
RMF .OHMM     7.5                  : RMF          - RESISTIVITY OF MUD FILTRATE
SUFT.C        4                    : SUFT         - SURFACE TEMPERATURE
~A  DEPTH       GR     RESD     PHIN
# ...
   99.970   53.908   10.039    0.401
  100.220   54.417   10.116    0.403
  100.470   54.936   10.120    0.403
  100.720   54.936   10.120    0.403
  100.970   54.954   10.123    0.403
  101.220   54.973   10.127    0.403
  101.470   54.992    9.982    0.402
  101.720   55.010    9.912    0.398
  101.970   55.510    9.840    0.390
  102.220   56.510    9.696    0.385
  102.470   57.020    9.551    0.377
  102.720   57.020    9.407    0.385
  102.970   57.538    9.335    0.393
  103.220   57.557    9.264    0.393
  103.470   58.066    9.194    0.396
  103.720   57.585    9.194    0.395
  103.970   56.622    9.198    0.395
  104.220   55.659    9.201    0.401
  104.470   55.659    9.205    0.401
  104.720   56.168    9.208    0.402
  104.970   57.669    9.358    0.405
  105.220   57.669    9.509    0.405
  105.470   57.196    9.587    0.408
  105.720   57.215    9.738    0.408
  105.970   57.234    9.738    0.402
  106.220   58.234    9.816    0.399
  106.470   58.743    9.745    0.394
  106.720   58.743    9.675    0.408
  106.970   59.743    9.603    0.413
  107.220   60.253    9.458    0.414
  107.470   59.781    9.388    0.412
  107.720   59.799    9.244    0.409
  107.970   59.818    9.247    0.403
  108.220   59.818    9.249    0.393
  108.470   59.836    9.253    0.387
  108.720   59.855    9.256    0.378
  108.970   60.855    9.256    0.369
  109.220   61.846    9.186    0.373
  109.470   63.828    9.189    0.411
  109.720   64.828    9.193    0.430
  109.970   63.865    9.196    0.440
  110.220   62.902    9.200    0.452
  110.470   62.902    9.054    0.449
  110.720   61.939    8.760    0.439
  110.970   62.458    7.283    0.430
  111.220   62.458    5.735    0.427
  111.470   63.458    4.554    0.425
  111.720   64.958    4.409    0.420
  111.970   64.958    4.559    0.428
  112.220   64.486    4.710    0.430
  112.470   63.523    5.010    0.419
  112.720   62.560    5.161    0.408
  112.970   61.597    5.165    0.408
  113.220   61.597    5.019    0.408
  113.470   62.116    4.872    0.408
  113.720   63.106    3.619    0.411
  113.970   68.033    3.399    0.415
  114.220   67.561    3.109    0.418
  114.470   66.588    3.109    0.425
  114.720   66.588    3.113    0.438
  114.970   64.653    3.042    0.460
  115.220   66.635    3.046    0.473
  115.470   67.635    2.975    0.478
  115.720   70.108    2.979    0.478
  115.970   72.080    2.979    0.486
  116.220   75.043    2.982    0.479
  116.470   79.970    2.986    0.466
  116.720   83.914    3.064    0.482
  116.970   92.767    3.213    0.494
  117.220   94.739    3.512    0.496
  117.470   96.230    4.107    0.504
  117.720   96.249    5.811    0.507
  117.970   94.786    6.775    0.510
  118.220   92.351    8.183    0.510
  118.470   90.897    8.704    0.508
  118.720   94.342    8.634    0.505
  118.970   98.296    8.488    0.488
  119.220   95.851    8.196    0.437
  119.470   92.916    7.830    0.416
  119.720   80.165    7.833    0.420
  119.970   70.368    7.983    0.417
  120.220   64.488    8.578    0.412
  120.470   64.488    9.321    0.406
  120.720   61.571    9.692    0.406
  120.970   63.553    9.697    0.403
  121.220   67.498    8.960    0.398
  121.470   69.480    7.557    0.400
  121.720   69.007    6.820    0.417
  121.970   68.535    6.454    0.425
  122.220   69.035    6.753    0.444
  122.470   69.535    6.903    0.471
  122.720   76.915    6.982    0.485
  122.970   82.333    6.982    0.489
  123.220   78.425    6.911    0.476
  123.470   74.999    6.767    0.454
  123.720   73.545    6.697    0.437
  123.970   72.573    6.699    0.437
  124.220   72.101    6.554    0.414
  124.470   72.101    6.262    0.423
  124.720   73.601    6.116    0.430
  124.970   80.490    5.824    0.447
  125.220   82.472    5.678    0.450
  125.470   82.472    5.386    0.446
  125.720   83.972    5.240    0.443
  125.970   83.019    4.948    0.443
  126.220   83.019    4.877    0.443
  126.470   84.019    5.027    0.447
  126.720   84.528    5.769    0.445
  126.970   84.056    6.438    0.447
  127.220   83.584    6.294    0.449
  127.470   83.112    6.000    0.449
  127.720   82.630    5.486    0.450
  127.970   81.667    5.045    0.450
  128.220   80.695    5.196    0.449
  128.470   79.232    6.160    0.450
  128.720   74.834    6.977    0.451
  128.970   61.592    6.759    0.452
  129.220   60.629    6.243    0.450
  129.470   61.620    5.729    0.446
  129.720   66.546    5.435    0.446
  129.970   71.963    5.435    0.443
  130.220   79.344    4.775    0.439
  130.470   79.362    4.853    0.429
  130.720   75.936    5.374    0.428
  130.970   67.602    6.264    0.440
  131.220   65.167    6.859    0.472
  131.470   71.566    6.861    0.497
  131.720   78.455    6.199    0.502
  131.970   83.872    5.684    0.471
  132.220   83.891    6.279    0.436
  132.470   79.483    7.836    0.422
  132.720   77.039    7.321    0.416
  132.970   72.150    6.287    0.417
  133.220   71.187    4.887    0.415
  133.470   69.724    4.297    0.417
  133.720   69.724    3.783    0.419
  133.970   69.751    3.637    0.424
  134.220   72.715    3.271    0.449
  134.470   78.132    3.125    0.466
  134.720   81.095    3.055    0.488
  134.970   85.531    3.354    0.502
  135.220   88.485    4.170    0.506
  135.470   92.429    5.431    0.496
  135.720   89.994    5.582    0.485
  135.970   89.031    5.512    0.460
  136.220   86.096    5.512    0.444
  136.470   83.651    5.441    0.430
  136.720   80.725    5.297    0.431
  136.970   78.290    5.301    0.450
  137.220   76.336    5.304    0.456
  137.470   75.864    5.306    0.449
  137.720   76.373    5.457    0.435
  137.970   76.883    5.904    0.432
  138.220   78.374    7.534    0.444
  138.470   78.374    8.055    0.455
  138.720   78.883    8.352    0.459
  138.970   78.902    7.839    0.454
  139.220   78.430    7.325    0.436
  139.470   78.448    7.254    0.427
  139.720   78.448    7.332    0.422
  139.970   77.485    7.332    0.424
  140.220   75.550    7.409    0.433
  140.470   75.550    7.487    0.439
  140.720   77.532    7.638    0.455
  140.970   80.986    7.788    0.464
  141.220   82.967    8.087    0.464
  141.470   81.514    8.240    0.467
  141.720   80.541    8.240    0.461
  141.970   78.106    8.096    0.449
  142.220   76.152    7.730    0.439
  142.470   74.208    7.584    0.439
  142.720   71.763    7.439    0.441
  142.970   68.837    7.960    0.441
  143.220   66.893    8.407    0.446
  143.470   65.930    8.557    0.446
  143.720   64.467    8.635    0.454
  143.970   63.495    8.638    0.458
  144.220   60.569    8.642    0.455
  144.470   62.550    8.645    0.451
  144.720   64.032    8.645    0.443
  144.970   67.977    8.575    0.432
  145.220   71.921    8.506    0.423
  145.470   75.376    8.506    0.409
  145.720   79.811    8.510    0.405
  145.970   79.329    8.439    0.402
  146.220   75.913    8.439    0.401
  146.470   72.977    8.371    0.401
  146.720   72.977    8.154    0.396
  146.970   69.570    8.154    0.393
  147.220   68.607    8.084    0.395
  147.470   66.662    8.014    0.399
  147.720   68.153    8.313    0.407
  147.970   68.653    8.316    0.411
  148.220   68.672    8.170    0.411
  148.470   68.672    8.026    0.416
  148.720   68.700    7.880    0.410
  148.970   69.209    7.366    0.400
  149.220   69.709    7.220    0.386
  149.470   68.256    6.930    0.359
  149.720   66.311    6.930    0.370
  149.970   64.357    6.859    0.382
  150.220   59.959    6.715    0.392
  150.470   57.024    6.571    0.409
  150.720   64.404    6.426    0.420
  150.970   69.821    6.280    0.432
  151.220   74.747    6.136    0.446
  151.470   74.747    5.990    0.444
  151.720   77.229    5.624    0.434
  151.970   74.794    5.478    0.427
  152.220   74.312    4.964    0.427
  152.470   73.840    4.818    0.434
  152.720   73.840    5.117    0.454
  152.970   72.396    6.008    0.458
  153.220   70.461    6.972    0.445
  153.470   70.461    7.789    0.425
  153.720   69.988    8.606    0.425
  153.970   71.970    8.238    0.428
