~VERSION INFORMATION
 VERS.                 2.0:   CWLS LOG ASCII STANDARD -VERSION 2.0
 WRAP.                  NO:   ONE LINE PER DEPTH STEP
~WELL INFORMATION BLOCK
#MNEM.UNIT           DATA                    DESCRIPTION OF MNEMONIC
#---------    -------------------            -------------------------------
# Generated from Intellog Unique Number	CW_79_81/WELL/2487
WELL.         13-06-081-21W4                 : Well_name    - WELL
LOC .         AA/13-06-081-21W4/0            : Location     - LOCATION
UWI .         AA/13-06-081-21W4/0            : Uwi          - UNIQUE WELL ID
ENTR.         MAX                            : Entered      - ENTERED BY
SRVC.         SCHLUMBERGER                   : Scn          - SERVICE COMPANY
STRT.M        185                            : top_depth    - START DEPTH
STOP.M        434.75                         : bot_depth    - STOP DEPTH
STEP.M        0.25                           : increment    - STEP LENGTH
 NULL. -999.2500:NULL Value
~CURVE INFORMATION BLOCK
#MNEM UNIT       ERCB CURVE CODE    CURVE DESCRIPTION
#-----------   ------------------   ----------------------------------
DEPT.M        00 001 00 00         : DEPTH        - DEPTH
ILD .OHMM     00 120 00 00         : RESD         - DEEP RESISTIVITY (DIL)
NPHI.V/V      00 330 00 00         : PHIN         - NEUTRON POROSITY (SANDSTONE)
DPHI.V/V      00 890 00 00         : PHID         - DENSITY POROSITY (SANDSTONE)
GR  .API      00 310 00 00         : GR           - GAMMA RAY
CALI.MM       00 280 01 00         : CAL          - CALIPER
~PARAMETER INFORMATION
#MNEM.UNIT           DATA             DESCRIPTION OF MNEMONIC
#---------         -----------     ------------------------------
GL  .M        604.15               : gl           - GROUND LEVEL ELEVATION
EREF.M        608.75               : kb           - ELEVATION OF DEPTH REFERENCE
DATM.M        604.15               : datum        - DATUM ELEVATION
TDD .M        442                  : tdd          - TOTAL DEPTH DRILLER
RUN .         ONE                  : Run          - RUN NUMBER
ENG .         BILL                 : Engineer     - RECORDING ENGINEER
WIT .         JIM                  : Witness      - WITNESSED BY
MUD .         GEL                  : Mud_type     - MUD TYPE
MATR.         SANDSTONE            : Logunit      - NEUTRON MATRIX
TMAX.C        28.9                 : BHT          - MAXIMUM RECORDED TEMPERATURE
BHTD.M        442                  : BHTDEP       - MAXIMUM RECORDED TEMPERATURE
MATR.         1                    : LOGUNIT      - NEUTRON MATRIX
RMT .C        23.9                 : MDTP         - TEMPERATURE OF MUD
NEUT.         1                    : NEUTRON      - NEUTRON TYPE
RESI.         0                    : RESIST       - RESISTIVITY TYPE
RMC .OHMM     5.54                 : RMC          - RESISTIVITY OF MUD CAKE
RMF .OHMM     3.27                 : RMF          - RESISTIVITY OF MUD FILTRATE
SUFT.C        -20                  : SUFT         - SURFACE TEMPERATURE
~A  DEPTH     RESD     PHIN     PHID       GR      CAL
# ...
  221.500    2.802    0.529    0.280  103.948  188.354
  221.750    2.801    0.517    0.289  104.403  186.337
  222.000    2.837    0.523    0.285  104.441  184.516
  222.250    3.026    0.557    0.271  102.089  189.280
  222.500    3.200    0.558    0.270   96.370  195.439
  222.750    3.487    0.546    0.300   85.172  198.179
  223.000    3.857    0.515    0.320   73.618  189.922
  223.250    4.450    0.456    0.313   62.776  177.600
  223.500    5.605    0.384    0.276   53.123  167.654
  223.750    9.048    0.331    0.217   45.924  165.947
  224.000   12.230    0.321    0.193   52.838  165.498
  224.250   11.582    0.380    0.279   60.667  165.855
  224.500   10.354    0.458    0.309   66.710  166.518
  224.750    9.277    0.504    0.317   69.067  167.475
  225.000    8.866    0.501    0.324   67.856  168.330
  225.250   10.293    0.465    0.338   64.867  168.044
  225.500   13.609    0.434    0.357   63.115  166.773
  225.750   15.727    0.475    0.356   64.759  165.545
  226.000   18.456    0.466    0.362   66.225  165.511
  226.250   21.305    0.458    0.368   66.087  165.676
  226.500   23.857    0.464    0.370   64.936  165.443
  226.750   27.294    0.457    0.365   65.882  164.775
  227.000   31.439    0.448    0.359   68.339  165.557
  227.250   35.398    0.449    0.357   65.702  165.532
  227.500   38.582    0.444    0.354   62.170  165.200
  227.750   41.130    0.442    0.354   60.484  164.966
  228.000   43.393    0.446    0.354   61.357  165.032
  228.250   45.846    0.460    0.351   63.320  165.466
  228.500   46.156    0.465    0.351   62.562  165.850
  228.750   46.139    0.482    0.359   60.638  165.815
  229.000   46.123    0.493    0.364   60.855  165.185
  229.250   47.030    0.490    0.363   60.475  164.951
  229.500   48.792    0.475    0.356   58.966  165.214
  229.750   50.246    0.454    0.347   57.994  165.092
  230.000   50.934    0.444    0.347   57.968  164.639
  230.250   51.947    0.445    0.351   59.616  164.607
  230.500   52.986    0.450    0.355   61.617  164.273
  230.750   54.047    0.454    0.359   63.260  163.843
  231.000   54.947    0.457    0.365   63.478  163.317
  231.250   55.450    0.462    0.372   60.689  162.478
  231.500   56.211    0.459    0.373   59.922  162.445
  231.750   57.718    0.451    0.367   61.805  163.599
  232.000   59.856    0.449    0.367   61.192  163.567
  232.250   58.793    0.455    0.370   58.794  163.333
  232.500   55.092    0.464    0.368   56.038  163.593
  232.750   54.374    0.462    0.349   55.110  164.656
  233.000   63.086    0.470    0.332   55.336  164.207
  233.250   63.063    0.472    0.342   54.366  164.575
  233.500   54.993    0.475    0.358   54.642  164.938
  233.750   43.513    0.477    0.368   56.286  165.299
  234.000   26.818    0.474    0.364   59.595  165.760
  234.250   10.607    0.461    0.343   66.577  166.926
  234.500    5.248    0.478    0.336   74.234  168.950
  234.750    6.754    0.469    0.307   73.501  169.314
  235.000    8.853    0.438    0.299   64.027  165.809
  235.250   11.805    0.431    0.319   56.631  163.791
  235.500   16.104    0.457    0.353   55.658  164.251
  235.750   23.953    0.482    0.368   59.360  163.813
  236.000   29.019    0.469    0.358   61.322  163.784
  236.250   14.353    0.440    0.318   60.590  164.541
  236.500    9.201    0.440    0.282   62.709  165.596
  236.750    6.313    0.456    0.280   67.444  166.355
  237.000    4.811    0.481    0.301   73.131  166.718
  237.250    4.419    0.522    0.290   77.416  167.068
  237.500    4.607    0.512    0.301   81.112  167.032
  237.750    5.324    0.482    0.311   83.706  166.607
  238.000    6.305    0.486    0.307   81.664  166.177
  238.250    7.579    0.487    0.309   74.153  166.338
  238.500    8.952    0.472    0.319   64.620  167.094
  238.750    9.964    0.442    0.319   61.529  167.683
  239.000   11.477    0.425    0.312   65.225  166.820
  239.250   12.839    0.422    0.322   65.681  165.196
  239.500   14.375    0.430    0.320   62.391  164.766
  239.750   15.557    0.436    0.323   57.733  164.735
  240.000   15.814    0.432    0.337   54.025  164.901
  240.250   14.543    0.425    0.346   53.918  165.652
  240.500   12.666    0.438    0.342   55.880  165.605
  240.750    9.598    0.448    0.328   60.142  165.969
  241.000    7.678    0.447    0.290   67.078  166.042
  241.250    6.854    0.436    0.267   74.788  166.210
  241.500    6.580    0.427    0.275   80.892  166.571
  241.750    6.068    0.453    0.308   82.480  166.925
  242.000    5.506    0.463    0.286   82.212  166.888
  242.250    4.670    0.454    0.247   86.236  167.253
  242.500    4.075    0.460    0.221   92.398  168.209
  242.750    3.974    0.484    0.224   98.442  169.956
  243.000    4.423    0.515    0.248   99.076  172.001
  243.250    5.784    0.530    0.274   83.838  173.072
  243.500    7.007    0.522    0.331   73.165  172.622
  243.750    7.244    0.485    0.348   70.288  169.020
  244.000    7.120    0.457    0.339   73.658  164.823
  244.250    6.451    0.435    0.317   81.009  162.808
  244.500    5.501    0.426    0.292   88.895  163.170
  244.750    4.583    0.452    0.272   93.768  163.852
  245.000    4.334    0.473    0.257   99.194  165.470
  245.250    4.420    0.492    0.263   95.132  168.209
  245.500    4.576    0.471    0.267   93.567  170.059
  245.750    4.622    0.457    0.266   96.282  171.808
  246.000    4.559    0.463    0.262  101.433  173.653
  246.250    4.650    0.469    0.262  103.596  175.448
  246.500    4.988    0.457    0.263  103.826  176.654
  246.750    5.507    0.444    0.253  102.616  174.237
  247.000    5.998    0.443    0.248  103.189  174.498
  247.250    6.437    0.446    0.253  104.477  175.852
  247.500    6.783    0.441    0.261  105.408  177.603
  247.750    6.975    0.411    0.244  103.867  178.455
  248.000    7.021    0.413    0.239   98.643  170.984
  248.250    7.017    0.412    0.249   94.817  168.574
  248.500    6.980    0.404    0.244   95.806  167.348
  248.750    6.814    0.394    0.241   99.352  166.718
  249.000    6.521    0.401    0.249  101.471  166.389
  249.250    6.091    0.449    0.271   94.966  166.185
  249.500    5.680    0.428    0.272   87.515  165.322
  249.750    5.416    0.415    0.254   87.967  165.287
  250.000    5.272    0.405    0.237   94.310  166.738
  250.250    5.164    0.422    0.233   99.878  168.288
  250.500    5.077    0.454    0.247  101.640  169.145
  250.750    5.026    0.450    0.269  100.537  169.102
  251.000    4.956    0.434    0.255  102.251  169.066
  251.250    4.725    0.446    0.248  106.748  169.434
  251.500    4.552    0.443    0.241  111.958  170.686
  251.750    4.324    0.456    0.230  117.763  172.236
  252.000    4.036    0.486    0.214  122.618  173.789
  252.250    3.734    0.506    0.194  123.298  175.583
  252.500    3.655    0.486    0.193  122.038  176.781
  252.750    3.679    0.482    0.196  117.736  178.727
  253.000    3.554    0.492    0.192  116.825  175.918
  253.250    3.355    0.500    0.200  118.110  173.308
  253.500    3.091    0.502    0.216  119.811  173.672
  253.750    2.691    0.509    0.224  119.104  177.428
  254.000    2.458    0.526    0.228  116.857  176.569
  254.250    2.878    0.543    0.260  110.891  170.193
  254.500    3.531    0.504    0.296   97.968  167.089
  254.750    4.387    0.457    0.306   93.309  165.666
  255.000    5.239    0.430    0.291   98.223  165.430
  255.250    5.582    0.441    0.281  100.198  167.056
  255.500    5.135    0.450    0.281  100.673  167.436
  255.750    5.414    0.445    0.280  102.081  168.982
  256.000    6.477    0.457    0.284   97.958  172.915
  256.250    8.351    0.478    0.299   90.565  174.667
  256.500   11.098    0.486    0.321   81.924  172.551
  256.750   15.076    0.439    0.338   72.772  166.597
  257.000   17.745    0.411    0.347   67.548  160.784
  257.250   20.904    0.426    0.352   61.581  160.749
  257.500   24.334    0.428    0.355   58.646  160.713
  257.750   27.435    0.431    0.352   57.079  160.678
