~VERSION INFORMATION
 VERS.                 2.0:   CWLS LOG ASCII STANDARD -VERSION 2.0
 WRAP.                  NO:   ONE LINE PER DEPTH STEP
~WELL INFORMATION BLOCK
#MNEM.UNIT           DATA                    DESCRIPTION OF MNEMONIC
#---------    -------------------            -------------------------------
# Generated from Intellog Unique Number	CC_88_90/WELL/3772
WELL.         CAN. KEWANEE MUCLUC            : Well_name    - WELL
LOC .         AA/16-33-088-14W4/0            : Location     - LOCATION
UWI .         AA/16-33-088-14W400            : Uwi          - UNIQUE WELL ID
ENTR.         T                              : Entered      - ENTERED BY
SRVC.         SCHLUMBERGER                   : Scn          - SERVICE COMPANY
DATE.         03/02/92                       : Date         - LOG DATE
STRT.M        45.72                          : top_depth    - START DEPTH
STOP.M        216.47                         : bot_depth    - STOP DEPTH
STEP.M        0.25                           : increment    - STEP LENGTH
 NULL. -999.2500:NULL Value
~CURVE INFORMATION BLOCK
#MNEM UNIT       ERCB CURVE CODE    CURVE DESCRIPTION
#-----------   ------------------   ----------------------------------
DEPT.M        00 001 00 00         : DEPTH        - DEPTH
GR  .API      00 310 00 00         : GR           - GAMMA RAY
ILD .OHMM     00 120 00 00         : RESD         - DEEP RESISTIVITY (DIL)
NPHI.V/V      00 330 00 00         : PHIN         - NEUTRON POROSITY (SANDSTONE)
~PARAMETER INFORMATION
#MNEM.UNIT           DATA             DESCRIPTION OF MNEMONIC
#---------         -----------     ------------------------------
GL  .M        499.872              : gl           - GROUND LEVEL ELEVATION
EREF.M        499.872              : kb           - ELEVATION OF DEPTH REFERENCE
DATM.M        499.872              : datum        - DATUM ELEVATION
TDD .M        220.37               : tdd          - TOTAL DEPTH DRILLER
RUN .         ONE                  : Run          - RUN NUMBER
ENG .         BILL                 : Engineer     - RECORDING ENGINEER
WIT .         JIM                  : Witness      - WITNESSED BY
MUD .         GEL                  : Mud_type     - MUD TYPE
MATR.         SANDSTONE            : Logunit      - NEUTRON MATRIX
TMAX.C        11.1111              : BHT          - MAXIMUM RECORDED TEMPERATURE
BHTD.M        220.37               : BHTDEP       - MAXIMUM RECORDED TEMPERATURE
RMT .C        11.1111              : MDTP         - TEMPERATURE OF MUD
MUDD.KG/M     1.18                 : MWT          - MUD DENSITY
NEUT.         1                    : NEUTRON      - NEUTRON TYPE
RESI.         0                    : RESIST       - RESISTIVITY TYPE
RM  .OHMM     10.8                 : RM           - RESISTIVITY OF MUD
RMC .OHMM     7.5                  : RMC          - RESISTIVITY OF MUD CAKE
RMF .OHMM     7.5                  : RMF          - RESISTIVITY OF MUD FILTRATE
SUFT.C        4                    : SUFT         - SURFACE TEMPERATURE
~A  DEPTH       GR     RESD     PHIN
# ...
  154.220   74.443    6.096    0.435
  154.470   75.433    5.732    0.437
  154.720   77.906    5.881    0.437
  154.970   80.378    6.031    0.429
  155.220   80.888    6.700    0.423
  155.470   79.425    7.001    0.418
  155.720   76.008    6.855    0.418
  155.970   75.036    6.782    0.423
  156.220   73.091    6.712    0.426
  156.470   73.601    6.712    0.434
  156.720   74.601    6.865    0.438
  156.970   76.092    7.017    0.443
  157.220   76.092    7.242    0.445
  157.470   77.092    7.393    0.449
  157.720   78.092    7.247    0.452
  157.970   78.601    7.105    0.454
  158.220   78.129    6.959    0.454
  158.470   77.157    6.813    0.450
  158.720   76.194    6.520    0.444
  158.970   75.231    6.226    0.436
  159.220   75.231    6.378    0.432
  159.470   76.231    6.455    0.433
  159.720   83.611    6.607    0.433
  159.970   86.575    6.682    0.431
  160.220   87.584    6.612    0.427
  160.470   86.121    6.616    0.414
  160.720   85.158    6.471    0.409
  160.970   84.186    6.325    0.410
  161.220   83.214    6.105    0.414
  161.470   83.723    5.739    0.430
  161.720   87.668    5.445    0.453
  161.970   87.668    4.340    0.456
  162.220   89.659    4.046    0.460
  162.470   86.242    3.830    0.457
  162.720   86.751    4.127    0.451
  162.970   88.733    4.277    0.438
  163.220   89.724    5.093    0.432
  163.470   92.687    5.540    0.437
  163.720   93.678    5.396    0.443
  163.970   90.752    5.102    0.448
  164.220   87.817    4.662    0.467
  164.470   81.946    4.518    0.468
  164.720   81.465    4.446    0.460
  164.970   84.918    4.376    0.446
  165.220   86.909    4.453    0.428
  165.470   86.428    4.603    0.443
  165.720   87.428    4.902    0.465
  165.970   88.428    5.349    0.468
  166.220   86.965    5.574    0.468
  166.470   85.993    5.504    0.471
  166.720   85.993    5.581    0.471
  166.970   84.058    5.731    0.471
  167.220   87.030    5.954    0.471
  167.470   89.003    6.475    0.470
  167.720   92.457    7.440    0.463
  167.970   91.485    8.330    0.442
  168.220   91.503    8.705    0.443
  168.470   92.013    8.855    0.445
  168.720   93.013    9.006    0.448
  168.970   94.504    9.010    0.444
  169.220   95.985    9.010    0.432
  169.470   96.976    9.013    0.422
  169.720   98.967    9.017    0.414
  169.970   97.995    8.873    0.404
  170.220   96.041    8.727    0.404
  170.470   94.097    8.435    0.408
  170.720   93.134    7.993    0.410
  170.970   92.161    7.627    0.413
  171.220   89.726    7.335    0.425
  171.470   88.263    7.190    0.430
  171.720   87.309    7.120    0.439
  171.970   87.810    7.120    0.451
  172.220   89.300    6.976    0.457
  172.470   90.291    6.905    0.460
  172.720   90.310    6.909    0.456
  172.970   89.347    6.912    0.453
  173.220   89.347    6.916    0.448
  173.470   88.884    6.916    0.443
  173.720   88.412    6.919    0.439
  173.970   87.940    6.849    0.439
  174.220   87.940    6.705    0.436
  174.470   87.958    6.561    0.433
  174.720   87.486    6.561    0.419
  174.970   85.532    6.416    0.414
  175.220   82.606    6.124    0.411
  175.470   80.662    5.832    0.411
  175.720   80.190    5.686    0.413
  175.970   81.190    5.320    0.419
  176.220   81.190    5.174    0.424
  176.470   82.190    4.734    0.432
  176.720   83.690    4.440    0.432
  176.970   83.690    4.148    0.429
  177.220   83.709    3.782    0.423
  177.470   83.728    3.636    0.423
  177.720   83.746    3.196    0.417
  177.970   83.765    3.124    0.410
  178.220   83.783    3.127    0.408
  178.470   82.811    3.426    0.411
  178.720   81.839    3.947    0.430
  178.970   79.403    5.651    0.441
  179.220   78.922    6.468    0.454
  179.470   79.922    6.468    0.464
  179.720   82.395    7.064    0.469
  179.970   84.367    7.365    0.478
  180.220   87.821    7.145    0.481
  180.470   90.294    5.447    0.478
  180.720   93.748    4.784    0.470
  180.970   92.285    2.863    0.450
  181.220   84.451    2.793    0.436
  181.470   82.006    3.388    0.428
  181.720   81.043    4.944    0.419
  181.970   80.080    6.647    0.416
  182.220   79.108    9.462    0.410
  182.470   76.182   14.198    0.402
  182.720   74.228   14.349    0.411
  182.970   74.228   12.059    0.440
  183.220   69.348   11.544    0.467
  183.470   69.367   10.067    0.483
  183.720   69.367    7.778    0.489
  183.970   66.941    5.266    0.477
  184.220   64.015    3.716    0.453
  184.470   62.061    3.129    0.436
  184.720   46.366    3.129    0.425
  184.970   43.940    3.133    0.413
  185.220   43.940    3.211    0.421
  185.470   45.922    3.362    0.429
  185.720   47.903    3.438    0.429
  185.970   50.376    3.441    0.433
  186.220   53.339    3.519    0.427
  186.470   55.311    3.522    0.427
  186.720   60.238    3.452    0.427
  186.970   64.182    3.380    0.441
  187.220   67.146    3.457    0.446
  187.470   72.563    3.607    0.464
  187.720   75.517    3.906    0.489
  187.970   79.471    5.684    0.484
  188.220   80.471    6.576    0.479
  188.470   80.471    6.576    0.471
  188.720   81.471    6.579    0.459
  188.970   81.981    6.509    0.449
  189.220   82.490    5.995    0.450
  189.470   82.508    5.553    0.454
  189.720   83.009    5.187    0.463
  189.970   84.499    5.191    0.462
  190.220   85.490    5.268    0.449
  190.470   87.472    5.418    0.453
  190.720   90.926    5.865    0.458
  190.970   95.852    6.015    0.461
  191.220   98.816    6.610    0.473
  191.470   95.389    7.426    0.466
  191.720   89.510   14.456    0.447
  191.970   73.823   18.896    0.430
  192.220   71.379   20.082    0.414
  192.470   68.453   20.529    0.411
  192.720   65.517   36.730    0.420
  192.970   62.101   38.212    0.426
  193.220   60.147   39.176    0.442
  193.470   54.767   40.067    0.424
  193.720   53.795   40.368    0.409
  193.970   50.378   40.368    0.409
  194.220   47.933   40.371    0.399
  194.470   44.026   40.375    0.399
  194.720   40.600   40.157    0.399
  194.970   36.692   40.011    0.394
  195.220   33.275   39.497    0.394
  195.470   32.303   39.129    0.394
  195.720   31.831   37.874    0.391
  195.970   32.331   32.700    0.381
  196.220   33.331   27.010    0.365
  196.470   33.350   27.161    0.365
  196.720   32.387   27.161    0.368
  196.970   32.396   27.239    0.369
  197.220   32.415   27.390    0.370
  197.470   33.415   27.837    0.370
  197.720   34.415   28.802    0.373
  197.970   35.406   29.914    0.375
  198.220   36.406   30.731    0.376
  198.470   37.397   31.547    0.376
  198.720   40.851   32.290    0.374
  198.970   43.323   33.181    0.374
  199.220   44.314   33.330    0.381
  199.470   45.814   33.777    0.391
  199.720   45.814   34.152    0.396
  199.970   46.324   34.006    0.393
  200.220   46.342   33.860    0.381
  200.470   45.379   30.757    0.358
  200.720   44.407   30.242    0.350
  200.970   41.972   28.322    0.359
  201.220   41.009   17.008    0.388
  201.470   39.546   15.090    0.393
  201.720   39.074   14.427    0.383
  201.970   38.101   13.763    0.377
  202.220   37.139   13.471    0.373
  202.470   36.175   13.471    0.368
  202.720   36.685   13.328    0.368
  202.970   37.676   13.406    0.370
  203.220   39.657   13.557    0.376
  203.470   40.648   13.707    0.379
  203.720   43.121   13.710    0.381
  203.970   46.575   13.710    0.381
  204.220   51.992   13.568    0.383
  204.470   55.937   13.276    0.386
  204.720   57.909   12.836    0.400
  204.970   60.382   12.542    0.411
  205.220   63.836   12.176    0.409
  205.470   65.817   12.030    0.404
  205.720   66.808   11.886    0.392
  205.970   65.855   11.815    0.395
  206.220   64.391   11.819    0.401
  206.470   63.919   11.822    0.409
  206.720   62.947   11.822    0.415
  206.970   62.475   11.826    0.420
  207.220   61.503   11.903    0.410
  207.470   57.595   11.903    0.404
  207.720   55.641   11.982    0.396
  207.970   53.206   11.912    0.396
  208.220   55.669   11.768    0.393
