~VERSION INFORMATION
 VERS.                 2.0:   CWLS LOG ASCII STANDARD -VERSION 2.0
 WRAP.                  NO:   ONE LINE PER DEPTH STEP
~WELL INFORMATION BLOCK
#MNEM.UNIT           DATA                    DESCRIPTION OF MNEMONIC
#---------    -------------------            -------------------------------
# Generated from Intellog Unique Number	CN_94_101/WELL/5045
WELL.         15-08-098-10W4                 : Well_name    - WELL
LOC .         AA/15-08-098-10W4/0            : Location     - LOCATION
UWI .         AA/15-08-098-10W400            : Uwi          - UNIQUE WELL ID
ENTR.         TIM                            : Entered      - ENTERED BY
SRVC.         SCHLUMBERGER                   : Scn          - SERVICE COMPANY
DATE.         08/11/92                       : Date         - LOG DATE
STRT.M        0                              : top_depth    - START DEPTH
STOP.M        65                             : bot_depth    - STOP DEPTH
STEP.M        0.25                           : increment    - STEP LENGTH
 NULL. -999.2500:NULL Value
~CURVE INFORMATION BLOCK
#MNEM UNIT       ERCB CURVE CODE    CURVE DESCRIPTION
#-----------   ------------------   ----------------------------------
DEPT.M        00 001 00 00         : DEPTH        - DEPTH
GR  .API      00 310 00 00         : GR           - GAMMA RAY
ILD .OHMM     00 120 00 00         : RESD         - DEEP RESISTIVITY (DIL)
NPHI.V/V      00 330 00 00         : PHIN         - NEUTRON POROSITY (SANDSTONE)
DPHI.V/V      00 890 00 00         : PHID         - DENSITY POROSITY (SANDSTONE)
~PARAMETER INFORMATION
#MNEM.UNIT           DATA             DESCRIPTION OF MNEMONIC
#---------         -----------     ------------------------------
GL  .M        253.92               : gl           - GROUND LEVEL ELEVATION
EREF.M        253.92               : kb           - ELEVATION OF DEPTH REFERENCE
DATM.M        253.92               : datum        - DATUM ELEVATION
TDD .M        68.8                 : tdd          - TOTAL DEPTH DRILLER
RUN .         ONE                  : Run          - RUN NUMBER
ENG .         BILL                 : Engineer     - RECORDING ENGINEER
WIT .         JIM                  : Witness      - WITNESSED BY
MUD .         GEL                  : Mud_type     - MUD TYPE
MATR.         SANDSTONE            : Logunit      - NEUTRON MATRIX
TMAX.C        10                   : BHT          - MAXIMUM RECORDED TEMPERATURE
BHTD.M        68.8                 : BHTDEP       - MAXIMUM RECORDED TEMPERATURE
RMT .C        10                   : MDTP         - TEMPERATURE OF MUD
MUDD.KG/M     1090                 : MWT          - MUD DENSITY
NEUT.         1                    : NEUTRON      - NEUTRON TYPE
RESI.         0                    : RESIST       - RESISTIVITY TYPE
RM  .OHMM     13.1                 : RM           - RESISTIVITY OF MUD
RMC .OHMM     13.1                 : RMC          - RESISTIVITY OF MUD CAKE
RMF .OHMM     13.1                 : RMF          - RESISTIVITY OF MUD FILTRATE
SUFT.C        4                    : SUFT         - SURFACE TEMPERATURE
~A  DEPTH       GR     RESD     PHIN     PHID
    0.000   58.680   22.319    0.309    0.446
    0.250   59.328   22.323    0.309    0.443
    0.500   59.350   21.714    0.309    0.441
    0.750   59.395   21.416    0.308    0.442
    1.000   59.450   21.123    0.307    0.443
    1.250   58.334   21.128    0.306    0.445
    1.500   56.636   21.430    0.306    0.445
    1.750   53.767   21.738    0.306    0.441
    2.000   49.166   21.740    0.306    0.437
    2.250   49.791   21.745    0.306    0.437
    2.500   52.750   21.447    0.306    0.440
    2.750   53.945   21.452    0.306    0.441
    3.000   63.280   20.292    0.311    0.444
    3.250   63.917   19.736    0.336    0.445
    3.500   69.176   18.668    0.373    0.442
    3.750   70.974   17.170    0.423    0.439
    4.000   68.718   16.467    0.435    0.435
    4.250   66.418   15.795    0.445    0.429
    4.500   62.398   15.149    0.440    0.425
    4.750   65.346   15.582    0.425    0.424
    5.000   71.197   16.713    0.430    0.422
    5.250   75.887   18.958    0.437    0.421
    5.500   78.835   28.843    0.438    0.418
    5.750   75.407   37.104    0.435    0.411
    6.000   73.709   39.799    0.405    0.404
    6.250   70.270   45.147    0.376    0.245
    6.500   67.981   49.800    0.383    0.252
    6.750   65.714   53.420    0.394    0.265
    7.000   87.243   55.717    0.401    0.298
    7.250   85.546   57.309    0.393    0.309
    7.500   89.074   59.780    0.395    0.305
    7.750   92.022   61.489    0.393    0.287
    8.000   87.433   64.136    0.390    0.271
    8.250   83.982   67.844    0.390    0.259
    8.500   80.543   69.779    0.386    0.264
    8.750   82.932   70.773    0.382    0.289
    9.000   83.535   73.824    0.382    0.276
    9.250   84.752   77.003    0.384    0.263
    9.500   85.378   79.199    0.380    0.276
    9.750   84.250   82.610    0.378    0.281
   10.000   76.165   87.380    0.380    0.270
   10.250   77.371   93.732    0.390    0.285
   10.500   76.835   97.768    0.404    0.293
   10.750   69.331  112.462    0.414    0.325
   11.000   72.290  131.186    0.413    0.353
   11.250   65.356  155.190    0.409    0.368
   11.500   63.670  171.173    0.405    0.315
   11.750   65.467  199.671    0.403    0.280
   12.000   64.909  226.492    0.400    0.280
   12.250   64.954  249.846    0.391    0.284
   12.500   66.740  271.781    0.387    0.288
   12.750   69.699  279.518    0.391    0.298
   13.000   66.829  291.570    0.399    0.303
   13.250   59.325  299.903    0.411    0.298
   13.500   59.370  304.191    0.408    0.299
   13.750   58.845  308.541    0.405    0.303
   14.000   62.955  304.307    0.408    0.307
   14.250   62.999  283.855    0.403    0.314
   14.500   67.689  264.749    0.393    0.313
   14.750   67.734  246.928    0.393    0.269
   15.000   64.875  230.295    0.390    0.253
   15.250   71.307  224.006    0.387    0.272
   15.500   74.847  230.408    0.394    0.290
   15.750   70.235  240.342    0.401    0.290
   16.000   63.312  243.753    0.400    0.291
   16.250   63.937  230.546    0.395    0.266
   16.500   70.949  186.974    0.391    0.264
   16.750   77.381  155.936    0.382    0.257
   17.000   75.684  130.050    0.385    0.254
   17.250   80.966  114.700    0.391    0.245
   17.500   83.333   97.006    0.395    0.227
   17.750   90.345   85.556    0.404    0.232
   18.000   94.477   74.410    0.412    0.248
   18.250   91.607   74.430    0.406    0.245
   18.500   88.157   76.557    0.400    0.256
   18.750   82.975   78.749    0.400    0.276
   19.000   86.515   79.867    0.392    0.202
   19.250   84.226   77.682    0.394    0.190
   19.500   85.432   67.561    0.404    0.189
   19.750   93.617   58.760    0.406    0.207
   20.000   95.984   61.290    0.402    0.220
   20.250   88.469   71.494    0.397    0.245
   20.500   76.900   90.694    0.389    0.281
   20.750   68.235  118.319    0.388    0.245
   21.000   69.441  123.414    0.392    0.260
   21.250   56.142  130.540    0.395    0.270
   21.500   57.336  170.293    0.397    0.279
   21.750   59.715  222.152    0.387    0.291
   22.000   56.264  259.138    0.379    0.312
   22.250   52.836  277.961    0.388    0.305
   22.500   56.934  266.602    0.402    0.310
   22.750   62.797  266.660    0.398    0.303
   23.000   58.777  266.718    0.383    0.292
   23.250   59.983  259.421    0.378    0.293
   23.500   58.866  263.130    0.388    0.291
   23.750   57.169  270.650    0.394    0.293
   24.000   56.041  286.279    0.390    0.299
   24.250   54.924  307.089    0.382    0.305
   24.500   45.678  334.051    0.378    0.307
   24.750   44.003  348.454    0.380    0.310
   25.000   44.617  353.398    0.382    0.298
   25.250   45.231  358.451    0.382    0.287
   25.500   46.437  358.529    0.384    0.287
   25.750   51.708  363.656    0.377    0.287
   26.000   53.517  379.315    0.363    0.285
   26.250   50.055  412.617    0.354    0.282
   26.500   44.293  442.564    0.349    0.278
   26.750   37.381  488.196    0.349    0.276
   27.000   37.995  495.150    0.351    0.288
   27.250   39.201  468.323    0.368    0.293
   27.500   39.837  424.780    0.372    0.265
   27.750   40.463  401.765    0.354    0.250
   28.000   40.507  379.977    0.354    0.248
   28.250   40.552  344.629    0.358    0.257
   28.500   40.597  264.295    0.371    0.268
   28.750   44.706  217.361    0.380    0.276
   29.000   50.557  178.762    0.383    0.260
   29.250   58.742  144.977    0.388    0.262
   29.500   61.098  133.356    0.393    0.273
   29.750   60.562  141.049    0.390    0.289
   30.000   51.327  153.424    0.398    0.307
   30.250   54.264  164.577    0.404    0.262
   30.500   59.546   78.456    0.413    0.221
   30.750   65.397   63.628    0.421    0.205
   31.000   74.732   42.430    0.430    0.216
   31.250   92.208   36.392    0.437    0.228
   31.500   96.898   35.894    0.397    0.254
   31.750   88.233   40.148    0.391    0.280
   32.000   77.233   56.170    0.388    0.302
   32.250   48.826   80.808    0.392    0.315
   32.500   32.601  192.302    0.404    0.330
   32.750   36.140  200.582    0.414    0.339
   33.000   40.239  192.385    0.402    0.345
   33.250   43.778  200.669    0.384    0.340
   33.500   41.500  212.268    0.389    0.342
   33.750   37.480  212.315    0.404    0.341
   34.000   41.009  141.572    0.419    0.326
   34.250   49.183  102.666    0.429    0.276
   34.500   60.840   88.052    0.409    0.301
   34.750   57.982   85.642    0.410    0.303
   35.000   49.897   81.002    0.422    0.270
   35.250   56.329   68.507    0.399    0.306
   35.500   68.579   81.038    0.403    0.318
   35.750   43.074  118.239    0.401    0.305
   36.000   45.430  113.407    0.395    0.311
   36.250   46.056  132.281    0.387    0.321
   36.500   39.713  156.476    0.384    0.307
   36.750   38.608  177.495    0.391    0.274
   37.000   41.555  141.951    0.402    0.256
   37.250   49.149  116.743    0.415    0.293
   37.500   56.742   96.012    0.424    0.305
   37.750   57.948   78.962    0.399    0.317
   38.000   55.100   67.722    0.419    0.311
   38.250   62.682   75.756    0.436    0.230
   38.500   81.319   58.912    0.406    0.271
   38.750   65.686   35.622    0.394    0.311
   39.000   43.654   39.293    0.385    0.314
   39.250   36.162  128.970    0.378    0.310
   39.500   36.195  140.293    0.373    0.294
   39.750   35.078  159.130    0.366    0.251
   40.000   32.812  204.718    0.376    0.243
   40.250   33.437  228.993    0.407    0.340
   40.500   36.373  213.580    0.412    0.358
   40.750   39.902  191.032    0.407    0.375
   41.000   42.281  185.805    0.402    0.347
   41.250   42.906  183.256    0.395    0.342
   41.500   40.628  183.306    0.391    0.336
   41.750   38.350  188.534    0.389    0.336
   42.000   36.072  202.229    0.385    0.340
   42.250   34.944  219.971    0.380    0.325
   42.500   35.000  235.949    0.375    0.320
   42.750   35.625  249.574    0.374    0.288
   43.000   36.831  260.320    0.372    0.262
   43.250   38.037  253.198    0.368    0.254
