~VERSION INFORMATION
 VERS.                 2.0:   CWLS LOG ASCII STANDARD -VERSION 2.0
 WRAP.                  NO:   ONE LINE PER DEPTH STEP
~WELL INFORMATION BLOCK
#MNEM.UNIT           DATA                    DESCRIPTION OF MNEMONIC
#---------    -------------------            -------------------------------
# Generated from Intellog Unique Number	CC_80_83/WELL/2385
NULL.         -999.25                        : NULL_VALUE
COMP.         PETRO CANADA                   : COMPANY
WELL.         PEX PCEJU HOUSE OV             : Well_name    - WELL              
LOC .         10-29-081-13W4                 : Location     - LOCATION          
UWI .         AA/10-29-081-13W400            : Uwi          - UNIQUE WELL ID    
ENTR.         RJA                            : Entered      - ENTERED BY        
SRVC.         SCHLUMBERGER                   : Scn          - SERVICE COMPANY   
DATE.         04 FEB 81                      : Date         - LOG DATE
STRT.M        175                            : top_depth    - START DEPTH       
STOP.M        454.893                        : bot_depth    - STOP DEPTH        
STEP.M        0.3                            : increment    - STEP LENGTH       
~CURVE INFORMATION BLOCK
#MNEM UNIT       ERCB CURVE CODE    CURVE DESCRIPTION
#-----------   ------------------   ----------------------------------
DEPT.M        00 001 00 00         : DEPTH        - DEPTH                       
DPHI.V/V      00 890 00 00         : PHID         - DENSITY POROSITY (LIMESTONE)
NPHI.V/V      00 330 00 00         : PHIN         - NEUTRON POROSITY (LIMESTONE)
GR  .API      00 310 00 00         : GR           - GAMMA RAY                   
ILD .OHMM     00 120 00 00         : RESD         - DEEP RESISTIVITY (DIL)      
~PARAMETER INFORMATION       
#MNEM.UNIT           DATA             DESCRIPTION OF MNEMONIC
#---------         -----------     ------------------------------
GL  .M        656.2                : gl           - GROUND LEVEL ELEVATION      
EREF.M        659.1                : kb           - ELEVATION OF DEPTH REFERENCE
DATM.M        659.1                : datum        - DATUM ELEVATION             
TDD .M        460.2                : tdd          - TOTAL DEPTH DRILLER         
RUN .         ONE                  : Run          - RUN NUMBER                  
ENG .         BILL                 : Engineer     - RECORDING ENGINEER          
WIT .         JIM                  : Witness      - WITNESSED BY                
MUD .         GEL                  : Mud_type     - MUD TYPE                    
MATR.         LIMESTONE            : Logunit      - NEUTRON MATRIX              
TMAX.C        23                   : BHT          - MAXIMUM RECORDED TEMPERATURE
BHTD.M        460.2                : BHTDEP       - MAXIMUM RECORDED TEMPERATURE
MATR.         1                    : LOGUNIT      - NEUTRON MATRIX              
RMT .C        25                   : MDTP         - TEMPERATURE OF MUD          
NEUT.         1                    : NEUTRON      - NEUTRON TYPE                
RESI.         0                    : RESIST       - RESISTIVITY TYPE            
RMC .OHMM     0.25                 : RMC          - RESISTIVITY OF MUD CAKE     
RMF .OHMM     0.25                 : RMF          - RESISTIVITY OF MUD FILTRATE 
SUFT.C        4                    : SUFT         - SURFACE TEMPERATURE         
~A  DEPTH     PHID     PHIN       GR     RESD
# ...
  279.400    0.366    0.451   26.294   10.992
  279.700    0.365    0.453   25.021   10.983
  280.000    0.355    0.462   27.458   11.184
  280.300    0.363    0.467   29.305   11.177
  280.600    0.365    0.463   27.999   11.385
  280.900    0.363    0.459   26.717   11.815
  281.200    0.383    0.451   25.426   12.040
  281.500    0.396    0.455   25.396   12.030
  281.800    0.388    0.461   27.855   12.247
  282.100    0.378    0.462   28.442   12.476
  282.400    0.375    0.462   24.028   12.708
  282.700    0.361    0.456   24.613   12.697
  283.000    0.366    0.447   28.935   12.445
  283.300    0.380    0.452   28.898   12.198
  283.600    0.365    0.451   27.614   12.425
  283.900    0.363    0.458   25.698   12.178
  284.200    0.369    0.462   22.525   11.706
  284.500    0.358    0.459   21.867   11.253
  284.800    0.343    0.448   26.182   11.247
  285.100    0.349    0.468   27.410   11.239
  285.400    0.357    0.471   27.367   11.893
  285.700    0.367    0.463   30.447   11.658
  286.000    0.376    0.456   30.409   11.428
  286.300    0.371    0.448   32.231   11.865
  286.600    0.362    0.451   32.828   12.318
  286.900    0.361    0.453   25.910   12.071
  287.200    0.364    0.454   26.488   12.065
  287.500    0.360    0.461   29.567   12.052
  287.800    0.357    0.468   27.640   12.039
  288.100    0.364    0.455   26.997   11.803
  288.400    0.371    0.455   29.448   11.128
  288.699    0.375    0.454   29.402   10.910
  288.999    0.388    0.453   31.247   11.328
  289.299    0.388    0.438   33.083   11.991
  289.599    0.384    0.424   31.787   12.215
  289.899    0.369    0.410   26.738   12.204
  290.199    0.155    0.385   24.830   11.287
  290.499    0.188    0.332   27.286   10.244
  290.799    0.255    0.384   30.370   10.042
  291.099    0.365    0.418   33.458    9.838
  291.399    0.373    0.469   31.531    9.830
  291.699    0.371    0.476   29.623    9.824
  291.999    0.367    0.471   28.330    9.816
  292.299    0.367    0.485   28.296    9.998
  292.599    0.366    0.494   30.736   10.182
  292.899    0.358    0.490   30.712   10.373
  293.199    0.369    0.495   31.295   10.363
  293.499    0.369    0.485   32.495   10.349
  293.799    0.367    0.475   31.203   10.144
  294.099    0.369    0.474   26.784   10.137
  294.399    0.367    0.478   25.512   10.133
  294.699    0.373    0.491   29.833   10.515
  294.999    0.364    0.493   31.675   10.509
  295.299    0.366    0.497   27.256   10.704
  295.599    0.368    0.496   32.841   10.490
  295.899    0.363    0.490   32.799   10.484
  296.199    0.357    0.500   29.002   10.675
  296.499    0.356    0.515   27.718   10.877
  296.799    0.359    0.490   27.058   11.509
  297.099    0.359    0.488   29.510   11.724
  297.399    0.356    0.478   27.596   11.944
  297.699    0.364    0.500   29.419   12.165
  297.999    0.375    0.488   28.132   11.468
  298.299    0.388    0.494   28.706   11.243
  298.599    0.397    0.501   29.303   11.230
  298.899    0.377    0.489   28.017   11.440
  299.199    0.379    0.478   32.956   11.431
  299.499    0.381    0.488   32.288   11.207
  299.799    0.377    0.492   30.391   10.773
  300.099    0.361    0.490   29.103   10.556
  300.399    0.360    0.489   32.175   10.551
  300.699    0.350    0.484   31.508   10.541
  300.999    0.347    0.491   32.101   10.532
  301.299    0.356    0.491   35.176   10.522
  301.599    0.366    0.459   33.889   10.512
  301.899    0.366    0.461   28.844   10.302
  302.199    0.359    0.448   32.560   10.296
  302.499    0.355    0.467   35.023   10.286
  302.799    0.358    0.464   33.723   10.475
  303.099    0.365    0.459   34.303   10.468
  303.399    0.365    0.483   34.270   10.456
  303.699    0.362    0.490   40.481   10.448
  303.999    0.369    0.490   41.061   10.642
  304.299    0.373    0.488   39.144   10.635
  304.599    0.367    0.467   35.349   10.625
  304.899    0.365    0.458   34.058   10.825
  305.199    0.363    0.460   35.904   10.815
  305.499    0.322    0.462   35.839   10.802
  305.799    0.311    0.454   33.937   10.795
  306.099    0.330    0.457   32.657   10.578
  306.399    0.352    0.487   40.113   10.572
  306.699    0.351    0.502   33.193   10.558
  306.999    0.355    0.498   35.657   10.350
  307.299    0.351    0.489   41.864   10.344
  307.599    0.350    0.503   38.072   10.533
  307.899    0.348    0.503   41.157   10.527
  308.199    0.343    0.478   39.223   10.318
  308.499    0.344    0.464   40.444   10.309
  308.799    0.344    0.476   39.155   10.098
  309.099    0.331    0.472   41.611   10.091
  309.399    0.319    0.460   40.321   10.086
  309.699    0.333    0.467   38.411   10.074
  309.999    0.337    0.474   34.605   10.068
  310.299    0.338    0.484   36.438   10.060
  310.599    0.352    0.478   38.287   10.052
  310.899    0.360    0.484   40.117    9.661
  311.199    0.355    0.480   45.066    9.291
  311.499    0.340    0.475   46.912    8.934
  311.799    0.319    0.470   45.621    8.427
  312.099    0.330    0.481   47.443    7.357
  312.399    0.325    0.469   48.652    6.677
  312.699    0.322    0.481   47.360    6.177
  312.999    0.315    0.476   49.193    5.940
  313.298    0.292    0.473   47.908    5.819
  313.598    0.294    0.473   49.122    5.928
  313.898    0.294    0.461   47.828    5.812
  314.198    0.326    0.461   44.659    5.696
  314.498    0.315    0.471   42.743    5.477
  314.798    0.292    0.469   45.833    5.369
  315.098    0.302    0.486   50.793    5.574
  315.398    0.337    0.484   49.501    6.619
  315.698    0.342    0.464   45.061    7.009
  315.998    0.328    0.460   43.787    8.010
  316.298    0.326    0.455   38.130    8.810
  316.598    0.318    0.473   36.215    9.150
  316.898    0.335    0.473   36.172    9.684
  317.198    0.345    0.492   37.370    9.134
  317.498    0.338    0.483   33.589    7.384
  317.798    0.334    0.476   38.538    6.967
  318.098    0.336    0.467   38.510    6.569
  318.398    0.337    0.465   35.964    5.962
  318.698    0.336    0.467   37.174    5.207
  318.998    0.338    0.494   38.381    4.547
  319.298    0.348    0.506   40.207    4.290
  319.598    0.379    0.503   45.803    4.627
  319.898    0.478    0.540   51.999    5.190
  320.198    0.375    0.534   50.092    6.405
  320.498    0.339    0.495   44.429    7.607
  320.798    0.344    0.492   40.010    8.054
  321.098    0.357    0.489   40.592    8.689
  321.398    0.365    0.481   46.169    8.853
  321.698    0.370    0.488   47.999    8.846
  321.998    0.361    0.502   49.842    8.184
  322.298    0.356    0.491   49.800    7.144
  322.598    0.357    0.480   47.264    6.871
  322.898    0.354    0.490   42.847    6.481
  323.198    0.361    0.491   39.063    6.230
  323.498    0.358    0.490   42.146    5.136
  323.798    0.338    0.480   48.973    4.075
  324.098    0.326    0.485   52.678    3.171
  324.398    0.372    0.514   57.009    2.516
  324.698    0.396    0.533   61.968    2.155
  324.998    0.358    0.546   56.298    2.033
  325.298    0.363    0.547   55.017    1.954
  325.598    0.374    0.551   58.096    1.878
  325.898    0.338    0.527   62.417    1.841
  326.198    0.293    0.493   63.017    1.875
  326.498    0.283    0.505   59.220    2.023
  326.798    0.297    0.542   55.410    2.101
  327.098    0.302    0.558   54.121    2.311
  327.398    0.308    0.532   54.723    2.853
  327.698    0.318    0.515   52.185    3.521
  327.998    0.320    0.519   51.511    4.184
  328.298    0.327    0.510   50.860    5.264
  328.598    0.340    0.493   45.179    5.902
  328.898    0.326    0.486   42.030    6.247
  329.198    0.297    0.486   41.974    6.006
  329.498    0.300    0.488   45.071    5.451
  329.798    0.280    0.482   51.277    4.854
  330.098    0.260    0.480   57.462    4.578
  330.398    0.271    0.474   59.317    4.845
  330.698    0.284    0.479   51.150    5.030
  330.998    0.300    0.488   51.740    4.745
  331.298    0.310    0.491   52.937    4.307
