~Version : LASO    vs 4.00 - DATA COPYRIGHT - RILEYS DATASHARE INTERNATIONAL
 VERS.                2.0 :   CWLS Log ASCII Standard -VERSION 2.0
 WRAP.                 NO :   One line per depth step
~Well Information Block
#MNEM.UNIT       Data                        Description of Mnemonic
#----.----      -------------------------- : -----------------------------
 STRT.FT           30.0000                 : Start Depth
 STOP.FT          463.0000                 : End Depth
 STEP.FT            0.5000                 : Depth Increment
 NULL.           -999.25                   : NULL Value
 COMP.    PACIFIC PETROLEUMS LIMITED       : COMPANY
 WELL.    BAYSEL-ASHLAND STPBK CH#21 13-30 : WELL NAME
 FLD .    STPBK. OIL SANDS                 : FIELD NAME
 LOC .    13-30-091-08W4                     : WELL LOCATION
 PROV.    ALBERTA                          : PROVINCE
 SRVC.    SCHLUMBERGER                     : LOGGING SERVICE COMPANY
 DATE.    01-MAR-73                        : DATE LOGGED
 UWI .    AA/13-30-091-08W400              : UNIQUE WELL ID
~Curve Information Block
#MNEM.UNIT        API CODE                   Curve Description
#----.----      LG--CV-CL--M               : -----------------
 DEPT.FT         0   1  0  0               : 1 DEPTH
 CALI.IN        45 280  1  1               : 2 DENSITY CALIPER
 DPHI.%         45 890 12  1               : 3 DENSITY POROSITY (SANDSTONE)
 GR  .GAPI      45 310  1  1               : 4 GAMMA RAY
 RHOB.G/C3      45 350  1  1               : 5 BULK DENSITY
 LLS .OHMM      11 220  9  1               : 6 FOCUSSED RESISTIVITY
 SP  .MV        11  10  1  1               : 7 SPONTANEOUS POTENTIAL
 NPHI.%         41 890  3  1               : 8 NEUTRON POROSITY (SANDSTONE)
~Parameter Information Block
#MNEM.UNIT       Data                        Description of Mnemonic
#----.----      -------------------------- : -----------------------------
 RUN .                   1                 : Run Number
 GL  .FT         1240.0000                 : Ground Level Elevation
 DREF.                  KB                 : Depth Reference
 EREF.FT         1244.0000                 : Elevation of Depth Reference
 TDL .FT          464.0000                 : Total Depth Logger
 TDD .FT          455.0000                 : Total Depth Driller
 CSGL.FT            0.0000                 : Casing Bottom Logger
 CSGD.FT            0.0000                 : Casing Bottom Driller
 CSGS.IN          219.0000                 : Casing Size
 CSGW.LBS           0.0000                 : Casing Weight
 BHT .DEGF         52.0000                 : Bottom Hole Temperature
 BS  .IN            6.2500                 : Bit Size
 DFD .           1110.0000                 : Mud Weight (Density)
 DFV .             89.0000                 : Mud Viscosity
 DFL .              4.5000                 : Mud Fluid Loss
 DFPH.              9.0000                 : Mud pH
 RM  .OHMM          4.6200                 : Mud Resistivity
 RMT .DEGF         49.0000                 : Mud Resistivity Temperature
 RMF .OHMM          5.0000                 : Mud Filtrate Resistivity
 RMFT.DEGF         20.0000                 : RMF Temperature
 RMC .OHMM          5.3000                 : Mud Cake Resistivity
 RMCT.DEGF         20.0000                 : RMC Temperature
~Asc DEPTH      CALI       DPHI       GR         RHOB       LLS        SP         NPHI 
# ...
  166.5000     7.4360    24.8100    73.9400     2.2390    12.2076    70.9350    41.1840
  167.0000     7.4370    25.1700    75.0400     2.2318    10.4287    70.9800    41.4300
  167.5000     7.4390    25.5480    76.8300     2.2322     7.7096    70.0800    41.7780
  168.0000     7.4620    26.1000    76.3200     2.2326     5.7047    70.6050    42.2040
  168.5000     7.5240    26.9280    75.3700     2.2098     4.3354    71.1750    44.0940
  169.0000     7.6520    27.7440    76.0800     2.1907     3.8853    72.1650    45.9960
  169.5000     7.7210    28.5540    74.5100     2.1769     3.8533    72.7200    46.5300
  170.0000     7.5390    28.0980    73.8800     2.1904     5.1125    71.4450    45.5100
  170.5000     7.5720    27.6060    70.1700     2.1984     6.2897    70.6800    44.8680
  171.0000     7.5980    26.9820    73.2900     2.2050     7.4444    70.6500    46.9620
  171.5000     7.6380    25.3260    73.9400     2.2234     8.0136    70.6200    46.9740
  172.0000     7.6020    23.3880    74.3000     2.2480     8.4612    71.4750    43.8420
  172.5000     7.5300    23.7720    73.1000     2.2469     9.2179    71.7600    44.2200
  173.0000     7.4580    24.3540    72.6700     2.2506     8.8273    70.5000    42.2640
  173.5000     7.4180    23.9580    74.2500     2.2536     8.2382    69.0300    41.2380
  174.0000     7.3860    23.3460    76.6600     2.2543     7.6178    67.6800    40.7880
  174.5000     7.3520    22.0740    77.7600     2.2701     7.4376    68.3400    41.2620
  175.0000     7.3720    21.1020    78.2500     2.2890     8.6662    68.1900    41.0400
  175.5000     7.3630    20.1480    78.5800     2.3020    10.2761    67.9800    40.3560
  176.0000     7.3480    19.5720    78.1400     2.3188    11.2055    67.6650    40.4160
  176.5000     7.3940    19.0980    77.8100     2.3354    11.5194    67.2900    39.1200
  177.0000     7.4950    18.8160    74.5100     2.3377    14.8535    66.9000    37.3200
  177.5000     7.6100    18.0120    73.2600     2.3431    19.8715    66.5100    35.7060
  178.0000     7.4860    16.8060    73.7800     2.3733    19.7802    66.0900    34.8720
  178.5000     7.0550    15.5460    72.4200     2.4097    18.1899    65.7600    34.1220
  179.0000     7.1020    14.2860    70.3700     2.4256    14.3031    66.9750    34.2600
  179.5000     7.1030    13.6320    70.7000     2.3646    10.0886    67.3050    33.7560
  180.0000     7.1040    19.0920    72.0200     2.2953    10.1445    67.5000    36.7260
  180.5000     7.1070    22.7820    73.3100     2.2704    10.2289    67.3950    39.3300
  181.0000     7.1230    23.1120    73.5800     2.2652    10.6716    67.3200    41.6940
  181.5000     7.1680    23.1420    72.8200     2.2679    11.8312    67.6350    43.3740
  182.0000     7.2340    23.7180    71.0800     2.2598    13.4595    67.8600    42.8760
  182.5000     7.3130    25.3140    69.8100     2.2458    10.0607    66.3450    42.0600
  183.0000     7.2660    27.1980    70.0400     2.2017     6.6409    65.9550    41.1360
  183.5000     7.2150    28.8540    70.2300     2.1576     4.3836    65.7600    42.6840
  184.0000     7.1840    30.5160    70.2900     2.1268     3.4027    67.8450    44.5620
  184.5000     7.1530    31.6500    65.1300     2.1132     2.9555    68.4150    48.4500
  185.0000     7.1200    32.6340    62.4400     2.1058     3.4788    69.2400    56.1720
  185.5000     7.0710    33.4320    62.4400     2.0823     3.8109    70.4850    54.8400
  186.0000     7.1480    33.8700    64.2100     2.0874     3.9321    72.1800    52.9920
  186.5000     7.2790    32.3040    65.3500     2.1006     3.9832    71.0400    51.5400
  187.0000     7.3720    31.4700    66.5400     2.1172     3.9869    71.1150    50.4720
  187.5000     7.4000    30.9660    67.7100     2.1298     4.0053    71.1600    52.1940
  188.0000     7.2170    30.8340    63.9500     2.1349     4.1863    70.0650    49.0020
  188.5000     7.1590    30.6720    60.8100     2.1376     4.4733    69.1050    48.1620
  189.0000     7.1260    30.0180    62.9700     2.1426     4.7058    68.1450    48.9240
  189.5000     7.1780    29.1960    65.9900     2.1542     4.9457    67.4700    46.9860
  190.0000     7.2420    28.0980    68.8200     2.1755     5.3485    67.2600    48.1020
  190.5000     7.3240    26.8860    69.7400     2.1989     6.6287    67.1700    46.9920
  191.0000     7.1960    25.6320    71.0400     2.2187     8.7062    66.7500    46.0440
  191.5000     6.9950    24.5580    71.0400     2.2380     9.5111    66.1650    43.6500
  192.0000     6.9370    24.2100    61.9800     2.2481     9.6523    65.7300    41.3760
  192.5000     6.8960    23.8620    61.5200     2.2564     6.2897    65.6400    40.5120
  193.0000     6.9340    23.5800    64.2800     2.2574     5.4933    66.1650    41.5140
  193.5000     6.9560    24.2220    65.8800     2.2523     5.8970    66.7200    44.1120
  194.0000     6.9020    24.6720    66.6000     2.2424     7.0832    66.3300    46.4220
  194.5000     6.8760    24.8100    63.6700     2.2393     8.3836    65.8050    44.3160
  195.0000     6.8800    23.7720    62.7900     2.2549     8.9666    64.5600    41.6160
  195.5000     6.8830    23.0340    64.5800     2.2647    11.0619    63.1350    39.1200
  196.0000     6.8860    21.4500    62.7700     2.2843    14.2374    61.7850    37.2300
  196.5000     6.9080    19.4820    60.6100     2.3174    14.9221    62.6100    35.3400
  197.0000     6.9310    17.5140    62.8600     2.3505    13.0807    63.5250    33.2580
  197.5000     6.9540    15.5460    66.2300     2.3836    10.0700    63.2250    34.1640
  198.0000     6.9830    14.5140    70.7800     2.4073     9.0580    62.7450    35.1180
  198.5000     7.0430    21.2880    72.1100     2.3191     8.3451    63.0000    37.6380
  199.0000     7.1030    24.1080    73.7700     2.2550     7.0442    63.7050    39.1620
  199.5000     7.1660    24.6840    76.3700     2.2454     6.1014    65.0700    40.2300
  200.0000     7.2370    25.9560    78.5300     2.2311     5.3781    66.1200    41.7540
  200.5000     7.2810    25.8480    81.1900     2.2200     4.9731    66.0300    42.6420
  201.0000     7.2290    25.6380    85.2400     2.2220     5.7894    65.7450    43.0800
  201.5000     7.2640    25.5060    83.5000     2.2244     5.4680    65.3250    43.7940
  202.0000     7.2800    25.3440    76.5200     2.2308     5.2075    64.7250    44.8020
  202.5000     7.2860    25.5960    74.9700     2.2280     5.4179    64.9650    46.2360
  203.0000     7.3070    26.0580    74.7900     2.2236     5.8000    65.5050    45.7680
  203.5000     7.3360    26.2740    74.4100     2.2182     6.3013    65.3250    47.1960
  204.0000     7.3520    25.5240    75.2900     2.2244     5.7787    65.0250    49.3440
  204.5000     7.3360    24.8040    77.1800     2.2380     5.4029    65.4300    46.6260
  205.0000     7.3210    24.1920    78.5000     2.2433     5.1598    65.6550    45.9240
  205.5000     7.3170    24.9360    78.1100     2.2477     5.0656    65.7600    44.0220
  206.0000     7.4120    25.4160    76.6000     2.2355     5.2800    64.6950    42.5940
  206.5000     7.3020    25.7340    74.2600     2.2271     5.4882    64.0650    43.6140
  207.0000     7.1380    26.0820    74.4900     2.2209     5.6524    64.2450    44.8980
  207.5000     7.1680    26.4900    76.9100     2.2124     5.5237    63.8250    44.9880
  208.0000     7.2140    26.4840    76.3700     2.2085     5.6732    63.3600    46.6620
  208.5000     7.2570    25.8720    76.0000     2.2238     6.2897    62.9400    46.1700
  209.0000     7.2610    25.2600    76.3600     2.2353     6.9925    62.7300    44.5380
  209.5000     7.2080    24.7080    73.9900     2.2429     7.7380    62.4450    43.9560
  210.0000     7.1190    24.3240    73.1900     2.2496     8.0210    61.6050    44.1960
  210.5000     7.0350    23.9400    74.5100     2.2558     8.2838    62.0250    43.4040
  211.0000     6.9600    23.6280    77.2300     2.2533     6.5861    62.4600    42.0000
  211.5000     6.9360    24.1920    77.1300     2.2474     5.9187    62.8500    40.4880
