~Version : LASO    vs 4.00
VERS.                2.00:   CWLS Log ASCII Standard -VERSION 2.0
WRAP.                  NO:
~Well Information Block
#MNEM.UNIT       Data                        Description of Mnemonic
#----.----      -------------------------- : -----------------------------
STRT.M            15.0000:
STOP.M           203.4000:
STEP.M             0.1000:
NULL.           -999.2500:
COMP.  MOBIL OIL CANADA LTD.     :COMPANY
WELL.  MOBIL CLARKE OV 12-34     :WELL
FLD.   CLARKE                    :FIELD
LOC.   12-34-089-08W4            :LOCATION
CTRY.  CANADA                    :COUNTRY
PROV.  ALBERTA                   :PROVINCE
SRVC.  SCHLUMBERGER              :SERVICE COMPANY
DATE.  20-FEB-81                 :LOG DATE
UWI.   AA/12-34-089-08W400       :UNIQUE WELL ID
~Parameter Information Block
#MNEM.UNIT       Data                        Description of Mnemonic
#----.----      -------------------------- : -----------------------------
RUN .                   1                 : Run Number
GL  .M           415.1000                 : Ground Level Elevation
DREF.                  KB                 : Depth Reference
EREF.M           418.1000                 : Elevation of Depth Reference
TDL .M           203.0000                 : Total Depth Logger
TDD .M           200.0000                 : Total Depth Driller
CSGL.M            18.0000                 : Casing Bottom Logger
CSGD.M            15.0000                 : Casing Bottom Driller
CSGS.MM          219.0000                 : Casing Size
CSGW.KG/M          0.0000                 : Casing Weight
BHT .DEGC         12.0000                 : Bottom Hole Temperature
BS  .MM          159.0000                 : Bit Size
DFD .           1110.0000                 : Mud Weight (Density)
DFV .             90.0000                 : Mud Viscosity
DFPH.             10.0000                 : Mud pH
RM  .OHMM          1.9600                 : Mud Resistivity
RMT .DEGC         20.0000                 : Mud Resistivity Temperature
~Curve Information Block
#MNEM.UNIT        API CODE    Curve Description
#---------    ------------    -------------------------------------------
DEPT.M                    :   DEPTH
CALI.MM       42 280  1  1:   3 DENSITY CALIPER
DPHI.V/V                  :   DPHI
DT  .US/M     60 520  0  1:   2 SONIC INTERVAL TRANSIT TIME (COMPENSATED)
GR  .GAPI     42 310  1  1:   4 GAMMA RAY
ILD .OHMM      7 120 46  1:   7 DEEP INDUCTION
ILM .OHMM      7 120 44  1:   8 MEDIUM INDUCTION
NPHI.V/V      42 890  3  1:   5 NEUTRON POROSITY (SANDSTONE)
RHOB.K/M3     42 350  1  1:   6 BULK DENSITY
SFLU.OHMM      7 220  1  1:   9 FOCUSSED RESISTIVITY
SP  .MV        7  10  1  1:   10 SPONTANEOUS POTENTIAL
~A  Depth           CALI        DPHI          DT          GR         ILD         ILM        NPHI        RHOB        SFLU          SP
# ...
76.0000         179.4500      0.3066    529.6000     98.7750      4.9594      4.9503      0.5294   2181.0000      4.1251    -33.3200
76.1000         179.4500      0.3053    530.4800     97.8750      4.9594      4.9503      0.5294   2181.0000      4.1251    -33.3200
76.2000         179.0000      0.3185    531.4000     95.9400      4.9049      4.9915      0.5449   2190.1001      4.8065    -33.3300
76.3000         179.0000      0.3002    529.0400     94.0050      4.9049      4.9915      0.5449   2190.1001      4.8065    -33.3300
76.4000         180.1000      0.2892    525.6801     91.5300      5.0470      5.1266      0.5536   2195.3000      5.1313    -33.3700
76.5000         180.1000      0.2865    522.5200     88.8300      5.0470      5.1266      0.5536   2195.3000      5.1313    -33.3700
76.6000         180.6750      0.2852    520.4000     86.1300      5.1931      5.2654      0.5588   2188.2000      4.7712    -33.4000
76.7000         180.6750      0.2789    518.3200     83.4600      5.1931      5.2654      0.5588   2188.2000      4.7712    -33.4000
76.8000         174.5000      0.2727    516.2800     81.4200      5.5339      5.5288      0.5084   2181.8999      4.3796    -33.4100
76.9000         174.5000      0.2621    517.4400     80.8500      5.5339      5.5288      0.5084   2181.8999      4.3796    -33.4100
77.0000         171.4250      0.2598    519.8000     80.5050      5.7469      5.5441      0.5098   2174.1001      4.9004    -34.1200
77.1000         171.4250      0.2613    522.5200     82.5900      5.7469      5.5441      0.5098   2174.1001      4.9004    -34.1200
77.2000         171.3250      0.2659    524.4000     83.8200      6.0455      5.8970      0.5167   2160.6001      5.9900    -35.0600
77.3000         171.3250      0.2660    524.0400     84.5700      6.0455      5.8970      0.5167   2160.6001      5.9900    -35.0600
77.4000         169.3250      0.2701    523.4800     83.5200      6.7148      6.6777      0.4816   2156.2000      6.0177    -35.2500
77.5000         169.3250      0.2733    522.3200     82.7100      6.7148      6.6777      0.4816   2156.2000      6.0177    -35.2500
77.6000         167.5250      0.2766    521.2000     83.3250      7.0963      6.8965      0.4612   2177.7000      5.2219    -37.4900
77.7000         167.5250      0.2732    518.5200     83.9400      7.0963      6.8965      0.4612   2177.7000      5.2219    -37.4900
77.8000         167.0500      0.2693    515.8400     84.5550      7.9110      7.5828      0.4595   2197.1001      6.7894    -40.6900
77.9000         167.0500      0.2642    514.3600     86.1600      7.9110      7.5828      0.4595   2197.1001      6.7894    -40.6900
78.0000         168.5500      0.2609    513.6400     87.9900      8.2838      8.1551      0.4688   2234.5000     13.6217    -44.0100
78.1000         168.5500      0.2633    513.8000     89.8200      8.2838      8.1551      0.4688   2234.5000     13.6217    -44.0100
78.2000         168.1500      0.2698    513.9200     92.4150      8.3451      9.0413      0.4721   2255.0000     12.9369    -43.5400
78.3000         168.1500      0.2771    515.3200     94.8000      8.3451      9.0413      0.4721   2255.0000     12.9369    -43.5400
78.4000         168.3750      0.2788    517.6400     96.3000      8.3605      9.3979      0.4745   2245.0000     10.5446    -42.4100
78.5000         168.3750      0.2773    516.9200     96.7650      8.3605      9.3979      0.4745   2245.0000     10.5446    -42.4100
78.6000         174.3500      0.2789    516.0000     97.6050      7.8674      7.9621      0.4787   2221.1001      9.6523    -38.1000
78.7000         174.3500      0.2781    514.2400     98.8050      7.8674      7.9621      0.4787   2221.1001      9.6523    -38.1000
78.8000         177.0250      0.2794    511.9200    100.3200      7.3423      6.7148      0.4871   2203.0000      7.5410    -35.6300
78.9000         177.0250      0.2800    510.6000    101.9700      7.3423      6.7148      0.4871   2203.0000      7.5410    -35.6300
79.0000         178.6250      0.2817    512.9200    101.3100      6.7894      6.6962      0.5011   2186.7000      5.4680    -34.6000
79.1000         178.6250      0.2847    517.7200     99.8700      6.7894      6.6962      0.5011   2186.7000      5.4680    -34.6000
79.2000         177.6500      0.2892    522.5200     98.2650      5.7047      5.6264      0.5372   2146.6001      5.7840    -33.8500
79.3000         177.6500      0.2933    527.3200     99.2550      5.7047      5.6264      0.5372   2146.6001      5.7840    -33.8500
79.4000         176.9750      0.2971    530.8400    100.1550      5.3043      4.8734      0.5459   2133.6001      6.0288    -34.2200
79.5000         176.9750      0.2979    534.2400    100.6650      5.3043      4.8734      0.5459   2133.6001      6.0288    -34.2200
79.6000         176.6500      0.2961    537.6400    101.1450      4.8824      4.5733      0.5492   2126.8000      5.4983    -34.3300
79.7000         176.6500      0.2903    540.3600    101.7750      4.8824      4.5733      0.5492   2126.8000      5.4983    -34.3300
79.8000         176.7000      0.2850    542.4400    102.4200      4.4857      4.3434      0.5438   2122.8999      4.4569    -33.4800
79.9000         176.7000      0.2793    544.5200    102.9900      4.4857      4.3434      0.5438   2122.8999      4.4569    -33.4800
80.0000         176.0250      0.2731    546.6000    101.7000      4.1023      3.8818      0.5581   2122.7000      3.4342    -33.1400
80.1000         176.0250      0.2668    548.3200    100.9950      4.1023      3.8818      0.5581   2122.7000      3.4342    -33.1400
80.2000         174.8000      0.2618    550.5600    100.9500      3.8746      3.7656      0.5627   2137.3000      3.3684    -33.4400
80.3000         174.8000      0.2556    550.3200    101.9100      3.8746      3.7656      0.5627   2137.3000      3.3684    -33.4400
80.4000         174.3750      0.2486    549.7600    101.3850      3.6663      3.6361      0.5636   2152.3000      3.3222    -33.7500
80.5000         174.3750      0.2407    548.3200    100.6350      3.6663      3.6361      0.5636   2152.3000      3.3222    -33.7500
80.6000         175.9250      0.2403    549.7200     99.8850      3.2139      3.3192      0.5620   2153.3999      3.2257    -34.4900
80.7000         175.9250      0.2409    551.7600    100.2750      3.2139      3.3192      0.5620   2153.3999      3.2257    -34.4900
80.8000         176.3000      0.2432    553.8000    100.6650      3.0495      3.1378      0.5770   2140.5000      3.2139    -34.7600
80.9000         176.3000      0.2484    555.6800    101.4150      3.0495      3.1378      0.5770   2140.5000      3.2139    -34.7600
81.0000         176.7500      0.2548    557.5200    102.8700      2.9149      3.0579      0.5972   2131.6001      3.2436    -34.8700
81.1000         176.7500      0.2614    559.3600    102.1950      2.9149      3.0579      0.5972   2131.6001      3.2436    -34.8700
81.2000         178.0750      0.2684    560.9200    101.2350      2.7659      2.8935      0.6418   2120.8999      3.0551    -35.0300
81.3000         178.0750      0.2774    562.4000     99.7650      2.7659      2.8935      0.6418   2120.8999      3.0551    -35.0300
81.4000         180.0500      0.2834    563.2800     98.4450      2.7154      2.8043      0.6256   2137.3000      2.7254    -34.9900
81.5000         180.0500      0.2931    563.5600     99.2850      2.7154      2.8043      0.6256   2137.3000      2.7254    -34.9900
81.6000         188.3000      0.3025    561.7200    100.0650      2.6438      2.7004      0.6145   2132.6001      2.4112    -34.9900
81.7000         188.3000      0.3067    559.4000    100.4100      2.6438      2.7004      0.6145   2132.6001      2.4112    -34.9900
81.8000         187.7500      0.3107    557.0800    100.7250      2.5552      2.5836      0.6003   2169.3000      2.2669    -35.1200
81.9000         187.7500      0.3126    553.5600     99.9900      2.5552      2.5836      0.6003   2169.3000      2.2669    -35.1200
82.0000         186.1250      0.3121    550.0400     99.3150      2.5812      2.5908      0.6008   2194.2000      2.4001    -35.0800
