~VERSION INFORMATION
 VERS.                 2.0:   CWLS LOG ASCII STANDARD -VERSION 2.0
 WRAP.                  NO:   ONE LINE PER DEPTH STEP
~WELL INFORMATION BLOCK
#MNEM.UNIT           DATA                    DESCRIPTION OF MNEMONIC
#---------    -------------------            -------------------------------
# Generated from Intellog Unique Number	CS_77_79/WELL/964
WELL.         PEX PCEJ LEISMER OV            : Well_name    - WELL
LOC .         AA/10-26-079-08W4/0            : Location     - LOCATION
UWI .         AA/10-26-079-08W4/0            : Uwi          - UNIQUE WELL ID
ENTR.         JHS                            : Entered      - ENTERED BY
SRVC.         SCHLUMBERGER                   : Scn          - SERVICE COMPANY
STRT.M        175                            : top_depth    - START DEPTH
STOP.M        400                            : bot_depth    - STOP DEPTH
STEP.M        0.25                           : increment    - STEP LENGTH
 NULL. -999.2500:NULL Value
~CURVE INFORMATION BLOCK
#MNEM UNIT       ERCB CURVE CODE    CURVE DESCRIPTION
#-----------   ------------------   ----------------------------------
DEPT.M        00 001 00 00         : DEPTH        - DEPTH
DPHI.V/V      00 890 00 00         : PHID         - DENSITY POROSITY (LIMESTONE)
NPHI.V/V      00 330 00 00         : PHIN         - NEUTRON POROSITY (LIMESTONE)
GR  .API      00 310 00 00         : GR           - GAMMA RAY
ILD .OHMM     00 120 00 00         : RESD         - DEEP RESISTIVITY (DIL)
RHOB.KG/M3    00 350 00 00         : DENS         - BULK DENSITY
~PARAMETER INFORMATION
#MNEM.UNIT           DATA             DESCRIPTION OF MNEMONIC
#---------         -----------     ------------------------------
GL  .M        614.8                : gl           - GROUND LEVEL ELEVATION
EREF.M        618.45               : kb           - ELEVATION OF DEPTH REFERENCE
DATM.M        618.45               : datum        - DATUM ELEVATION
TDD .M        407.6                : tdd          - TOTAL DEPTH DRILLER
RUN .         ONE                  : Run          - RUN NUMBER
ENG .         BILL                 : Engineer     - RECORDING ENGINEER
WIT .         JIM                  : Witness      - WITNESSED BY
MUD .         GEL                  : Mud_type     - MUD TYPE
MATR.         LIMESTONE            : Logunit      - NEUTRON MATRIX
TMAX.C        19                   : BHT          - MAXIMUM RECORDED TEMPERATURE
BHTD.M        407.6                : BHTDEP       - MAXIMUM RECORDED TEMPERATURE
MATR.         1                    : LOGUNIT      - NEUTRON MATRIX
RMT .C        25                   : MDTP         - TEMPERATURE OF MUD
NEUT.         1                    : NEUTRON      - NEUTRON TYPE
RESI.         0                    : RESIST       - RESISTIVITY TYPE
RMC .OHMM     0.25                 : RMC          - RESISTIVITY OF MUD CAKE
RMF .OHMM     0.25                 : RMF          - RESISTIVITY OF MUD FILTRATE
SUFT.C        15                   : SUFT         - SURFACE TEMPERATURE
~A  DEPTH     PHID     PHIN       GR     RESD     DENS
# ...
  321.000    0.316    0.369   95.224    4.936    0.000
  321.250    0.385    0.414   89.634    4.015    0.000
  321.500    0.522    0.474   90.242    3.940    0.000
  321.750    0.591    0.590   93.951    4.091    0.000
  322.000    0.612    0.408   95.799    4.665 1663.420
  322.250    0.275    0.381   97.026    5.420 2239.460
  322.500    0.285    0.375  100.117    6.066 2222.600
  322.750    0.300    0.383   98.864    6.538 2197.330
  323.000    0.312    0.383   93.896    6.662 2176.270
  323.250    0.322    0.370   96.364    6.788 2159.420
  323.500    0.274    0.340   91.394    6.916 2241.380
  323.750    0.249    0.333   88.285    7.596 2283.400
  324.000    0.249    0.339   87.655    8.188 2283.360
  324.250    0.210    0.317   83.924    9.163 2350.610
  324.500    0.173    0.283   78.335    9.877 2413.650
  324.750    0.119    0.240   73.983    9.877 2506.120
  325.000    0.089    0.189   70.874    9.335 2558.640
  325.250    0.215    0.220   73.344    8.991 2342.060
  325.500    0.263    0.318   88.828    8.185 2260.020
  325.750    0.257    0.374   90.675    7.312 2270.490
  326.000    0.262    0.369   94.385    6.912 2262.060
  326.250    0.253    0.368   99.332    6.657 2276.740
  326.500    0.245    0.363   98.701    6.411 2291.420
  326.750    0.239    0.354   93.112    6.410 2301.900
  327.000    0.230    0.362   92.480    6.174 2316.580
  327.250    0.234    0.378   96.809    6.173 2310.230
  327.500    0.320    0.372   94.317    6.290 2163.030
  327.750    0.359    0.372   94.307    6.530 2095.720
  328.000    0.384    0.379   95.534    6.654 2053.640
  328.250    0.392    0.394   93.665    6.529 2038.880
  328.500    0.390    0.372   94.894    6.172 2043.060
  328.750    0.363    0.357   99.219    5.944 2089.280
  329.000    0.383    0.393   99.831    6.056 2055.600
  329.250    0.400    0.405   98.579    6.170 2026.120
  329.500    0.406    0.412  101.667    6.527 2015.580
  329.750    0.413    0.413  105.995    6.777 2002.930
  330.000    0.272    0.394  105.364    7.443 2244.680
  330.250    0.208    0.378  104.114    7.727 2353.970
  330.500    0.214    0.371  111.542    7.873 2343.420
  330.750    0.245    0.377  115.869    7.726 2290.830
  331.000    0.303    0.398  112.753    7.167 2191.970
  331.250    0.335    0.415  111.508    6.403 2137.280
  331.500    0.361    0.410  107.156    5.307 2093.090
  331.750    0.387    0.442  104.048    4.653 2048.910
  332.000    0.372    0.442   97.217    4.004 2074.100
  332.250    0.369    0.447   95.348    3.382 2078.270
  332.500    0.363    0.470   90.378    2.965 2088.740
  332.750    0.367    0.478   85.409    2.600 2082.400
  333.000    0.395    0.492   90.976    2.367 2034.010
  333.250    0.373    0.483   94.065    2.237 2071.820
  333.500    0.363    0.468   93.434    2.195 2088.610
  333.750    0.367    0.474   91.564    2.237 2082.270
  334.000    0.384    0.516   94.033    2.322 2052.800
  334.250    0.370    0.526   92.781    2.456 2077.990
  334.500    0.373    0.501   90.290    2.550 2071.640
  334.750    0.392    0.512   91.520    2.698 2040.080
  335.000    0.435    0.517   95.228    3.019 1966.450
  335.250    0.430    0.488   94.597    3.642 1974.830
  335.500    0.392    0.467   95.825    4.154 2039.970
  335.750    0.371    0.448   97.055    4.826 2075.670
  336.000    0.343    0.431   96.421    5.402 2124.000
  336.250    0.321    0.415   98.890    5.933 2161.810
  336.500    0.326    0.396   98.260    6.516 2153.360
  336.750    0.343    0.383   92.672    6.765 2123.900
  337.000    0.337    0.392   90.181    6.394 2134.370
  337.250    0.289    0.397   87.071    5.821 2216.330
  337.500    0.369    0.442   94.497    5.400 2079.640
  337.750    0.355    0.419   99.445    4.734 2102.730
  338.000    0.360    0.401  101.913    4.310 2094.280
  338.250    0.361    0.406  104.382    3.924 2092.140
  338.500    0.349    0.425  105.611    3.779 2113.130
  338.750    0.327    0.434  102.501    3.639 2150.950
  339.000    0.317    0.433  102.489    3.571 2167.720
  339.250    0.306    0.438  102.479    3.505 2186.620
  339.500    0.295    0.440   96.888    3.505 2205.510
  339.750    0.294    0.440   98.736    3.571 2207.560
  340.000    0.306    0.433  101.205    3.638 2186.510
  340.250    0.326    0.451  100.575    3.777 2152.840
  340.500    0.331    0.449  101.802    4.071 2144.390
  340.750    0.320    0.430   99.311    4.227 2163.280
  341.000    0.310    0.430   97.442    4.307 2180.060
  341.250    0.315    0.421   94.952    4.471 2171.620
  341.500    0.336    0.412   91.842    4.820 2135.840
  341.750    0.333    0.427   96.169    5.195 2140.020
  342.000    0.317    0.405   98.639    5.814 2167.310
  342.250    0.337    0.399  100.485    6.150 2133.640
  342.500    0.367    0.390   97.995    6.506 2083.140
  342.750    0.292    0.370   94.885    6.755 2211.360
  343.000    0.283    0.338   93.636    7.013 2226.040
  343.250    0.324    0.368   95.484    7.419 2156.620
  343.500    0.308    0.347   94.854    8.302 2183.920
  343.750    0.183    0.318   84.304    9.119 2396.230
  344.000    0.190    0.303   78.097    9.467 2385.680
  344.250    0.256    0.310   77.464    9.646 2272.120
  344.500    0.256    0.322   73.115    9.645 2272.070
  344.750    0.250    0.336   77.444    9.289 2282.550
  345.000    0.241    0.336   79.909    8.946 2297.230
  345.250    0.240    0.348   80.520    8.299 2299.310
  345.500    0.241    0.343   79.889    7.992 2297.180
  345.750    0.234    0.347   81.117    7.554 2309.750
  346.000    0.243    0.357   78.629    7.140 2294.990
  346.250    0.277    0.360   78.615    6.877 2236.100
  346.500    0.317    0.374   77.367    6.876 2168.780
  346.750    0.315    0.352   75.495    7.274 2170.850
  347.000    0.299    0.333   71.146    7.552 2198.150
  347.250    0.283    0.324   67.416    9.639 2225.440
  347.500    0.298    0.320   62.447   12.302 2200.180
  347.750    0.291    0.336   64.291   14.841 2212.760
  348.000    0.290    0.336   64.901   16.924 2214.820
  348.250    0.291    0.338   64.271   18.940 2212.690
  348.500    0.291    0.335   61.784   23.723 2212.650
  348.750    0.288    0.340   61.772   27.053 2216.830
  349.000    0.286    0.335   58.662   31.435 2220.990
  349.250    0.286    0.341   62.989   32.635 2220.950
  349.500    0.284    0.352   67.937   31.430 2225.120
  349.750    0.280    0.357   66.064   31.428 2231.400
  350.000    0.279    0.343   66.675   31.426 2233.470
  350.250    0.280    0.335   71.622   29.704 2231.320
  350.500    0.281    0.334   74.712   27.554 2229.190
  350.750    0.279    0.327   66.643   26.043 2233.340
  351.000    0.279    0.324   70.970   25.082 2233.320
  351.250    0.281    0.340   74.058   24.614 2229.080
  351.500    0.284    0.334   74.667   25.079 2224.840
  351.750    0.284    0.342   77.135   26.037 2224.810
  352.000    0.280    0.335   74.026   25.551 2231.080
  352.250    0.276    0.333   81.452   24.608 2237.360
  352.500    0.278    0.333   84.538   22.826 2235.220
  352.750    0.275    0.340   88.868   21.174 2239.390
  353.000    0.281    0.347   92.576   19.276 2228.840
  353.250    0.279    0.339   88.226   16.279 2233.010
  353.500    0.267    0.329   94.413   13.748 2254.000
  353.750    0.253    0.336   98.120   11.830 2277.090
  354.000    0.241    0.322  103.069   10.373 2298.080
  354.250    0.236    0.329  111.114    9.095 2306.460
  354.500    0.243    0.357  117.921    8.925 2293.810
  354.750    0.272    0.368  120.392    9.621 2245.420
  355.000    0.269    0.370  124.718   10.767 2249.590
  355.250    0.261    0.355  122.846   12.050 2264.260
  355.500    0.263    0.339  104.242   13.741 2260.020
  355.750    0.262    0.333   78.199   15.966 2262.100
  356.000    0.255    0.325   78.806   18.904 2274.680
  356.250    0.264    0.316   82.517   22.381 2257.820
  356.500    0.280    0.307   71.968   24.582 2230.460
  356.750    0.273    0.326   66.378   26.004 2243.030
  357.000    0.272    0.326   58.309   26.003 2245.090
  357.250    0.271    0.335   57.678   23.671 2247.160
