~VERSION INFORMATION
 VERS.                 2.0:   CWLS LOG ASCII STANDARD -VERSION 2.0
 WRAP.                  NO:   ONE LINE PER DEPTH STEP
~WELL INFORMATION BLOCK
#MNEM.UNIT           DATA                    DESCRIPTION OF MNEMONIC
#---------    -------------------            -------------------------------
# Generated from Intellog Unique Number	CN_91_93/WELL/3686
WELL.         10-14-093-08W4                 : Well_name    - WELL
LOC .         AA/10-14-093-08W4/0            : Location     - LOCATION
UWI .         AA/10-14-093-08W400            : Uwi          - UNIQUE WELL ID
ENTR.         JOETTE                         : Entered      - ENTERED BY
SRVC.         SCHLUMBERGER                   : Scn          - SERVICE COMPANY
DATE.         03/22/92                       : Date         - LOG DATE
STRT.M        50                             : top_depth    - START DEPTH
STOP.M        219                            : bot_depth    - STOP DEPTH
STEP.M        0.25                           : increment    - STEP LENGTH
 NULL. -999.2500:NULL Value
~CURVE INFORMATION BLOCK
#MNEM UNIT       ERCB CURVE CODE    CURVE DESCRIPTION
#-----------   ------------------   ----------------------------------
DEPT.M        00 001 00 00         : DEPTH        - DEPTH
CALI.MM       00 280 01 00         : CAL          - CALIPER
GR  .API      00 310 00 00         : GR           - GAMMA RAY
NPHI.V/V      00 330 00 00         : PHIN         - NEUTRON POROSITY (SANDSTONE)
DPHI.V/V      00 890 00 00         : PHID         - DENSITY POROSITY (SANDSTONE)
ILD .OHMM     00 120 00 00         : RESD         - DEEP RESISTIVITY (DIL)
~PARAMETER INFORMATION
#MNEM.UNIT           DATA             DESCRIPTION OF MNEMONIC
#---------         -----------     ------------------------------
GL  .M        466.5                : gl           - GROUND LEVEL ELEVATION
EREF.M        466.5                : kb           - ELEVATION OF DEPTH REFERENCE
DATM.M        466.5                : datum        - DATUM ELEVATION
TDD .M        219.4                : tdd          - TOTAL DEPTH DRILLER
RUN .         ONE                  : Run          - RUN NUMBER
ENG .         BILL                 : Engineer     - RECORDING ENGINEER
WIT .         JIM                  : Witness      - WITNESSED BY
MUD .         GEL                  : Mud_type     - MUD TYPE
MATR.         SANDSTONE            : Logunit      - NEUTRON MATRIX
TMAX.C        16                   : BHT          - MAXIMUM RECORDED TEMPERATURE
BHTD.M        219.4                : BHTDEP       - MAXIMUM RECORDED TEMPERATURE
RMT .C        14                   : MDTP         - TEMPERATURE OF MUD
MUDD.KG/M     9666.66              : MWT          - MUD DENSITY
NEUT.         1                    : NEUTRON      - NEUTRON TYPE
RESI.         0                    : RESIST       - RESISTIVITY TYPE
RM  .OHMM     4.5                  : RM           - RESISTIVITY OF MUD
RMC .OHMM     4.5                  : RMC          - RESISTIVITY OF MUD CAKE
RMF .OHMM     4.5                  : RMF          - RESISTIVITY OF MUD FILTRATE
SUFT.C        4                    : SUFT         - SURFACE TEMPERATURE
~A  DEPTH      CAL       GR     PHIN     PHID     RESD
# ...
  196.000  189.456   80.053    0.312    0.301 1399.630
  196.250  188.509   81.282    0.307    0.298 1400.810
  196.500  188.606   85.478    0.304    0.298 1401.200
  196.750  188.683   87.901    0.302    0.296 1381.970
  197.000  187.756   87.936    0.303    0.289 1343.560
  197.250  187.834   89.767    0.307    0.287 1306.220
  197.500  187.930   89.790    0.309    0.287 1269.910
  197.750  187.042   88.666    0.314    0.289 1182.670
  198.000  187.080   88.121    0.321    0.289 1133.390
  198.250  186.173   88.168    0.331    0.295 1070.810
  198.500  186.269   87.020    0.333    0.302 1071.110
  198.750  185.362   87.658    0.327    0.309 1151.890
  199.000  185.420   84.760    0.325    0.311 1274.360
  199.250  184.550   85.989    0.326    0.310 1628.020
  199.500  184.608   89.571    0.327    0.305 1700.940
  199.750  183.720   86.070    0.333    0.306 1561.050
  200.000  182.793   83.752    0.338    0.312 1258.990
  200.250  180.938   87.948    0.344    0.313 1030.070
  200.500  179.007   88.574    0.352    0.306  807.100
  200.750  176.128   93.361    0.341    0.286  597.140
  201.000  173.269   98.728    0.329    0.256  540.359
  201.250  172.342  104.686    0.357    0.192  474.986
  201.500  171.434  120.113    0.416    0.200  212.491
  201.750  171.531  106.564    0.411    0.227  142.145
  202.000  171.589   95.367    0.396    0.272  176.471
  202.250  173.637   98.960    0.388    0.278  184.350
  202.500  175.685  114.388    0.394    0.301  176.668
  202.750  176.767  131.577    0.396    0.313  157.566
  203.000  177.849  113.298    0.392    0.313  132.676
  203.250  178.873   99.737    0.384    0.209  136.622
  203.500  178.950   93.872    0.361    0.328  184.867
  203.750  179.066   94.510    0.369    0.337  195.917
  204.000  179.105   95.738    0.390    0.344  268.975
  204.250  179.182  135.414    0.394    0.288  261.462
  204.500  179.279  137.234    0.402    0.202  165.177
  204.750  178.390  128.993    0.409    0.263  131.296
  205.000  178.448  121.946    0.419    0.269  117.132
  205.250  177.521  119.037    0.414    0.300  151.783
  205.500  177.637  119.083    0.408    0.304  156.319
  205.750  176.710  123.267    0.414    0.259  147.626
  206.000  176.768  136.922    0.414    0.234  137.485
  206.250  176.768  126.919    0.417    0.232  112.471
  206.500  173.967  120.451    0.416    0.284  115.816
  206.750  174.045  127.023    0.395    0.310  150.120
  207.000  175.165  122.329    0.392    0.318  156.801
  207.250  175.204  134.789    0.396    0.259  137.851
  207.500  176.286  134.836    0.402    0.259  124.725
  207.750  176.344  132.518    0.408    0.270  111.239
  208.000  177.426  136.702    0.404    0.244  100.647
  208.250  177.484  136.157    0.389    0.222   92.408
  208.500  177.600  133.851    0.376    0.273   89.827
  208.750  178.643  135.080    0.382    0.242   88.595
  209.000  178.701  129.203    0.389    0.214   91.217
  209.250  178.779  122.156    0.383    0.218   93.930
  209.500  178.856  126.931    0.352    0.243   90.028
  209.750  179.938  132.889    0.352    0.265   88.793
  210.000  179.996  141.814    0.384    0.252   94.114
  210.250  181.059  124.115    0.392    0.200   94.167
  210.500  181.059  139.543    0.406    0.225   96.967
  210.750  181.214  151.412    0.323    0.249  105.746
  211.000  182.296  154.414    0.386    0.205  117.005
  211.250  182.354  150.914    0.412    0.173  104.353
  211.500  182.450  143.866    0.433    0.173   91.742
  211.750  183.532  127.952    0.429    0.188   83.006
  212.000  183.610  103.159    0.356    0.283   80.722
  212.250  183.668   87.233    0.334    0.293   80.756
  212.500  183.745   90.826    0.362    0.287   83.169
  212.750  183.842  105.071    0.373    0.284   83.192
  213.000  183.919  112.212    0.344    0.286   84.456
  213.250  183.997  101.617    0.360    0.291   84.491
  213.500  184.055  101.664    0.405    0.326   84.550
  213.750  184.151   98.755    0.426    0.366   87.077
  214.000  184.248   97.039    0.436    0.330   93.605
  214.250  184.306   97.665    0.416    0.304   99.200
  214.500  184.364   92.994    0.361    0.293   95.080
  214.750  184.442   92.449    0.339    0.280   93.749
  215.000  184.519   90.131    0.320    0.281   92.476
  215.250  184.616   87.802    0.303    0.282   92.541
  215.500  183.708   90.224    0.300    0.288   92.567
  215.750  181.815   93.226    0.300    0.287   93.972
  216.000  179.902   95.637    0.303    0.280   95.373
  216.250  178.029   96.866    0.305    0.264   95.426
  216.500  177.101   92.763    0.311    0.255   95.493
  216.750  175.208   82.180    0.313    0.274   95.546
  217.000  173.335   85.171    0.316    0.294   94.249
  217.250  173.412   86.991    0.315    0.301   92.956
  217.500  174.475   85.264    0.314    0.303   89.082
  217.750  174.552   84.128    0.314    0.303   87.860
  218.000  174.629   85.948    0.309    0.301   86.655
  218.250  173.722   88.950    0.301    0.264   86.691
  218.500  172.833   91.964    0.289    0.260   87.995
  218.750  172.891   89.043    0.279    0.258   83.137
  219.000  172.968   73.719    0.279    0.253   78.535
