~VERSION INFORMATION
 VERS.                 2.0:   CWLS LOG ASCII STANDARD -VERSION 2.0
 WRAP.                  NO:   ONE LINE PER DEPTH STEP
~WELL INFORMATION BLOCK
#MNEM.UNIT           DATA                    DESCRIPTION OF MNEMONIC
#---------    -------------------            -------------------------------
# Generated from Intellog Unique Number	CN_94_101/WELL/5025
WELL.         11-30-101-13W4                 : Well_name    - WELL
LOC .         AA/11-30-101-13W4/0            : Location     - LOCATION
UWI .         AA/11-30-101-13W400            : Uwi          - UNIQUE WELL ID
ENTR.         TIM                            : Entered      - ENTERED BY
SRVC.         SCHLUMBERGER                   : Scn          - SERVICE COMPANY
DATE.         08/13/92                       : Date         - LOG DATE
STRT.M        390                            : top_depth    - START DEPTH
STOP.M        500                            : bot_depth    - STOP DEPTH
STEP.M        0.25                           : increment    - STEP LENGTH
NULL. -999.2500:NULL Value
~CURVE INFORMATION BLOCK
#MNEM UNIT       ERCB CURVE CODE    CURVE DESCRIPTION
#-----------   ------------------   ----------------------------------
DEPT.M        00 001 00 00         : DEPTH        - DEPTH
GR  .API      00 310 00 00         : GR           - GAMMA RAY
ILD .OHMM     00 120 00 00         : RESD         - DEEP RESISTIVITY (DIL)
NPHI.V/V      00 330 00 00         : PHIN         - NEUTRON POROSITY (SANDSTONE)
DPHI.V/V      00 890 00 00         : PHID         - DENSITY POROSITY (SANDSTONE)
~PARAMETER INFORMATION
#MNEM.UNIT           DATA             DESCRIPTION OF MNEMONIC
#---------         -----------     ------------------------------
GL  .M        723.6                : gl           - GROUND LEVEL ELEVATION
EREF.M        726.86               : kb           - ELEVATION OF DEPTH REFERENCE
DATM.M        726.86               : datum        - DATUM ELEVATION
TDD .M        503                  : tdd          - TOTAL DEPTH DRILLER
RUN .         ONE                  : Run          - RUN NUMBER
ENG .         BILL                 : Engineer     - RECORDING ENGINEER
WIT .         JIM                  : Witness      - WITNESSED BY
MUD .         GEL                  : Mud_type     - MUD TYPE
MATR.         SANDSTONE            : Logunit      - NEUTRON MATRIX
TMAX.C        30                   : BHT          - MAXIMUM RECORDED TEMPERATURE
BHTD.M        503                  : BHTDEP       - MAXIMUM RECORDED TEMPERATURE
RMT .C        10                   : MDTP         - TEMPERATURE OF MUD
MUDD.KG/M     1090                 : MWT          - MUD DENSITY
NEUT.         1                    : NEUTRON      - NEUTRON TYPE
RESI.         0                    : RESIST       - RESISTIVITY TYPE
RM  .OHMM     0.75                 : RM           - RESISTIVITY OF MUD
RMC .OHMM     0.75                 : RMC          - RESISTIVITY OF MUD CAKE
RMF .OHMM     0.75                 : RMF          - RESISTIVITY OF MUD FILTRATE
SUFT.C        4                    : SUFT         - SURFACE TEMPERATURE
~A  DEPTH       GR     RESD     PHIN     PHID
# ...
  477.000   52.747   13.794    0.412    0.333
  477.250   57.115    9.418    0.430    0.342
  477.500   53.960    8.889    0.435    0.349
  477.750   52.064    9.054    0.435    0.343
  478.000   45.148    9.580    0.432    0.328
  478.250   39.483    9.947    0.425    0.309
  478.500   38.214    9.939    0.412    0.291
  478.750   34.432   10.123    0.393    0.265
  479.000   41.934   11.783    0.362    0.243
  479.250   51.946   14.799    0.379    0.298
  479.500   63.837   13.704    0.388    0.268
  479.750   78.235   10.293    0.410    0.284
  480.000   80.724    7.730    0.416    0.298
  480.250   76.940    7.874    0.420    0.297
  480.500   72.534    8.332    0.419    0.299
  480.750   69.377    9.334    0.410    0.306
  481.000   67.478   10.863    0.399    0.310
  481.250   68.087   13.645    0.382    0.302
  481.500   66.189   17.465    0.378    0.307
  481.750   62.402   21.117    0.378    0.305
  482.000   62.389   24.113    0.378    0.323
  482.250   57.978   25.514    0.377    0.319
  482.500   56.704   22.316    0.382    0.305
  482.750   57.315   18.085    0.398    0.343
  483.000   60.429   15.228    0.399    0.329
  483.250   60.406   11.437    0.392    0.327
  483.500   61.018   10.591    0.401    0.332
  483.750   61.622   10.188    0.414    0.337
  484.000   61.604    9.435    0.427    0.346
  484.250   61.584    7.646    0.402    0.337
  484.500   62.190    6.316    0.392    0.329
  484.750   64.050    5.023    0.375    0.319
  485.000   68.421    3.844    0.360    0.306
  485.250   74.045    3.299    0.374    0.287
  485.500   82.800    2.831    0.404    0.261
  485.750   84.663    2.723    0.415    0.276
  486.000   84.013    2.670    0.400    0.270
  486.250   85.874    2.618    0.396    0.227
  486.500   87.739    2.617    0.396    0.239
  486.750   88.972    2.665    0.404    0.253
  487.000   88.952    2.613    0.401    0.244
  487.250   87.053    2.467    0.393    0.254
  487.500   82.642    2.373    0.393    0.267
  487.750   81.368    2.283    0.396    0.275
  488.000   81.353    2.238    0.395    0.283
  488.250   80.706    2.112    0.393    0.273
  488.500   81.936    2.071    0.393    0.263
  488.750   85.053    1.992    0.406    0.262
  489.000   85.662    1.992    0.400    0.283
  489.250   84.390    2.067    0.394    0.324
  489.500   81.233    2.229    0.388    0.334
  489.750   81.839    2.228    0.378    0.315
  490.000   86.836    2.184    0.381    0.274
  490.250   86.189    2.102    0.388    0.266
  490.500   84.918    2.022    0.394    0.260
  490.750   84.897    1.872    0.399    0.287
  491.000   82.999    1.836    0.405    0.314
  491.250   82.351    1.834    0.412    0.297
  491.500   82.958    1.834    0.409    0.293
  491.750   85.442    1.868    0.396    0.284
  492.000   87.308    1.866    0.391    0.273
  492.250   86.660    1.975    0.403    0.265
  492.500   83.505    2.012    0.430    0.261
  492.750   80.978    2.049    0.416    0.272
  493.000   80.960    2.048    0.398    0.256
  493.250   80.939    2.046    0.405    0.270
  493.500   84.053    1.932    0.413    0.278
  493.750   85.919    1.893    0.402    0.264
  494.000   86.520    1.929    0.394    0.256
  494.250   89.012    1.965    0.389    0.243
  494.500   94.636    2.040    0.392    0.248
  494.750   98.375    2.078    0.402    0.250
  495.000   94.595    2.076    0.410    0.244
  495.250   90.187    2.075    0.417    0.237
  495.500   88.288    2.074    0.410    0.252
  495.750   87.641    2.072    0.396    0.259
  496.000   86.996    2.032    0.385    0.264
  496.250   83.839    1.954    0.405    0.257
  496.500   82.567    1.845    0.395    0.268
  496.750   76.905    1.775    0.373    0.270
  497.000   75.004    1.774    0.383    0.264
  497.250   72.476    1.773    0.388    0.255
  497.500   69.326    1.521    0.394    0.273
  497.750   64.288    1.305    0.383    0.294
  498.000   63.641    1.256    0.364    0.317
  498.250   64.252    1.354    0.346    0.333
  498.500   69.247    1.576    0.315    0.253
  498.750   74.242    2.178    0.253    0.212
  499.000   76.102    2.683    0.240    0.200
  499.250   73.576    2.631    0.235    0.173
  499.500   68.538    2.579    0.234    0.036
  499.750   65.389    3.430    0.232    0.030
  500.000   61.605    4.147    0.231    0.032
