~VERSION INFORMATION
 VERS.                 2.0:   CWLS LOG ASCII STANDARD -VERSION 2.0
 WRAP.                  NO:   ONE LINE PER DEPTH STEP
~WELL INFORMATION BLOCK
#MNEM.UNIT           DATA                    DESCRIPTION OF MNEMONIC
#---------    -------------------            -------------------------------
# Generated from Intellog Unique Number	CS_73_76/WELL/3235
WELL.         HOME OIL COMPANY LIMITED       : Well_name    - WELL
LOC .         AA/10-14-076-07W4/0            : Location     - LOCATION
UWI .         AA/10-14-076-07W4/0            : Uwi          - UNIQUE WELL ID
ENTR.         SP                             : Entered      - ENTERED BY
SRVC.         SCHLUMBERGER                   : Scn          - SERVICE COMPANY
STRT.M        175                            : top_depth    - START DEPTH
STOP.M        405                            : bot_depth    - STOP DEPTH
STEP.M        0.25                           : increment    - STEP LENGTH
 NULL. -999.2500:NULL Value
~CURVE INFORMATION BLOCK
#MNEM UNIT       ERCB CURVE CODE    CURVE DESCRIPTION
#-----------   ------------------   ----------------------------------
DEPT.M        00 001 00 00         : DEPTH        - DEPTH
DPHI.V/V      00 890 00 00         : PHID         - DENSITY POROSITY (LIMESTONE)
NPHI.V/V      00 330 00 00         : PHIN         - NEUTRON POROSITY (LIMESTONE)
GR  .API      00 310 00 00         : GR           - GAMMA RAY
ILD .OHMM     00 120 00 00         : RESD         - DEEP RESISTIVITY (DIL)
~PARAMETER INFORMATION
#MNEM.UNIT           DATA             DESCRIPTION OF MNEMONIC
#---------         -----------     ------------------------------
GL  .M        590.89               : gl           - GROUND LEVEL ELEVATION
EREF.M        594.34               : kb           - ELEVATION OF DEPTH REFERENCE
DATM.M        590.89               : datum        - DATUM ELEVATION
TDD .M        430                  : tdd          - TOTAL DEPTH DRILLER
RUN .         ONE                  : Run          - RUN NUMBER
ENG .         BILL                 : Engineer     - RECORDING ENGINEER
WIT .         JIM                  : Witness      - WITNESSED BY
MUD .         GEL                  : Mud_type     - MUD TYPE
MATR.         LIMESTONE            : Logunit      - NEUTRON MATRIX
TMAX.C        21                   : BHT          - MAXIMUM RECORDED TEMPERATURE
BHTD.M        430                  : BHTDEP       - MAXIMUM RECORDED TEMPERATURE
MATR.         1                    : LOGUNIT      - NEUTRON MATRIX
RMT .C        25                   : MDTP         - TEMPERATURE OF MUD
NEUT.         1                    : NEUTRON      - NEUTRON TYPE
RESI.         0                    : RESIST       - RESISTIVITY TYPE
RMC .OHMM     0.25                 : RMC          - RESISTIVITY OF MUD CAKE
RMF .OHMM     0.25                 : RMF          - RESISTIVITY OF MUD FILTRATE
SUFT.C        15                   : SUFT         - SURFACE TEMPERATURE
~A  DEPTH     PHID     PHIN       GR     RESD
# ...
  305.500    0.319    0.436   45.862    9.946
  305.750    0.327    0.424   47.088    9.945
  306.000    0.328    0.419   48.317    9.944
  306.250    0.327    0.418   48.320    9.758
  306.500    0.332    0.418   48.326    9.758
  306.750    0.322    0.407   49.554    9.756
  307.000    0.317    0.402   50.167    9.756
  307.250    0.322    0.409   52.003    9.573
  307.500    0.323    0.415   53.228    9.572
  307.750    0.317    0.411   55.065    9.572
  308.000    0.323    0.405   55.679    9.571
  308.250    0.330    0.378   55.075    9.571
  308.500    0.330    0.402   53.862    9.391
  308.750    0.326    0.396   53.258    9.391
  309.000    0.327    0.381   53.266    9.390
  309.250    0.328    0.381   53.273    9.390
  309.500    0.334    0.408   53.277    9.389
  309.750    0.340    0.436   53.894    9.389
  310.000    0.339    0.454   53.899    9.387
  310.250    0.328    0.446   53.905    9.565
  310.500    0.323    0.419   52.691    9.565
  310.750    0.320    0.406   52.087    9.564
  311.000    0.315    0.410   50.875    9.563
  311.250    0.317    0.411   47.832    9.563
  311.500    0.324    0.410   47.228    9.562
  311.750    0.324    0.393   48.453    9.562
  312.000    0.329    0.393   51.509    9.742
  312.250    0.339    0.404   52.125    9.742
  312.500    0.343    0.398   52.130    9.741
  312.750    0.339    0.386   50.308    9.559
  313.000    0.340    0.430   49.703    9.558
  313.250    0.345    0.444   49.711    9.557
  313.500    0.349    0.414   50.935    9.557
  313.750    0.335    0.351   52.771    9.556
  314.000    0.321    0.333   52.778    9.737
  314.250    0.324    0.384   52.784    9.554
  314.500    0.338    0.403   52.789    9.376
  314.750    0.343    0.412   53.404    9.375
  315.000    0.338    0.410   54.022    9.199
  315.250    0.333    0.405   53.417    9.199
  315.500    0.330    0.414   52.203    9.027
  315.750    0.333    0.444   51.600    9.026
  316.000    0.330    0.461   50.387    9.026
  316.250    0.329    0.451   52.221    8.692
  316.500    0.334    0.435   55.277    8.061
  316.750    0.322    0.432   58.943    7.336
  317.000    0.296    0.383   62.606    6.430
  317.250    0.269    0.389   68.710    5.636
  317.500    0.264    0.444   76.642    5.227
  317.750    0.270    0.445   82.746    5.129
  318.000    0.245    0.449   82.752    5.226
  318.250    0.247    0.470   83.978    5.426
  318.500    0.241    0.455   85.203    5.850
  318.750    0.231    0.434   87.649    5.961
  319.000    0.220    0.429   88.264    6.307
  319.250    0.225    0.434   84.613    6.548
  319.500    0.232    0.427   82.788    6.548
  319.750    0.240    0.423   82.796    6.547
  320.000    0.246    0.441   84.020    6.425
  320.250    0.245    0.472   85.856    6.304
  320.500    0.243    0.477   87.691    6.304
  320.750    0.251    0.463   81.600    6.303
  321.000    0.251    0.452   79.777    6.423
  321.250    0.251    0.447   83.441    6.422
  321.500    0.258    0.449   86.496    6.544
  321.750    0.274    0.451   79.795    6.668
  322.000    0.282    0.460   75.533    6.667
  322.250    0.287    0.451   73.709    6.793
  322.500    0.285    0.436   74.935    6.922
  322.750    0.292    0.430   73.722    6.922
  323.000    0.297    0.444   71.288    7.053
  323.250    0.298    0.427   76.176    6.921
  323.500    0.295    0.420   78.620    6.920
  323.750    0.282    0.424   81.064    6.664
  324.000    0.255    0.418   82.289    6.298
  324.250    0.218    0.420   81.686    5.625
  324.500    0.215    0.441   80.471    5.217
  324.750    0.219    0.466   79.260    4.659
  325.000    0.229    0.461   80.486    4.084
  325.250    0.233    0.447   82.322    3.383
  325.500    0.241    0.442   83.545    2.750
  325.750    0.274    0.463   81.112    2.321
  326.000    0.298    0.516   79.898    2.235
  326.250    0.302    0.544   80.515    2.235
  326.500    0.294    0.522   79.911    2.278
  326.750    0.283    0.502   77.479    2.321
  327.000    0.279    0.476   75.655    2.320
  327.250    0.290    0.475   74.441    2.320
  327.500    0.282    0.480   75.058    2.364
  327.750    0.275    0.502   78.724    2.364
  328.000    0.271    0.512   80.556    2.364
  328.250    0.266    0.516   84.222    2.409
  328.500    0.263    0.535   86.666    2.454
  328.750    0.258    0.556   87.282    2.548
  329.000    0.263    0.539   87.289    2.962
  329.250    0.263    0.545   86.076    3.254
  329.500    0.252    0.536   84.254    3.643
  329.750    0.226    0.465   84.260    4.156
  330.000    0.216    0.442   83.656    4.922
  330.250    0.225    0.440   84.271    5.307
  330.500    0.226    0.442   84.277    5.722
  330.750    0.226    0.442   79.405    5.941
  331.000    0.220    0.431   76.971    5.940
  331.250    0.206    0.365   76.977    5.509
  331.500    0.237    0.393   81.862    5.109
  331.750    0.260    0.425   84.916    4.738
  332.000    0.248    0.455   84.922    4.478
  332.250    0.228    0.432   83.101    4.477
  332.500    0.222    0.422   84.326    4.477
  332.750    0.224    0.429   83.721    4.477
  333.000    0.220    0.425   82.509    4.477
  333.250    0.217    0.433   83.735    4.311
  333.500    0.218    0.443   85.570    4.074
  333.750    0.226    0.457   89.847    3.639
  334.000    0.229    0.472   91.070    3.439
  334.250    0.234    0.485   92.905    3.129
  334.500    0.237    0.459   94.129    3.014
  334.750    0.228    0.457   89.258    2.743
  335.000    0.226    0.460   84.997    2.496
  335.250    0.227    0.468   83.172    2.107
  335.500    0.229    0.481   85.618    1.882
  335.750    0.233    0.494   89.284    1.713
  336.000    0.234    0.489   90.508    1.681
  336.250    0.221    0.481   86.247    1.847
  336.500    0.217    0.466   86.253    2.229
  336.750    0.224    0.476   86.871    2.449
  337.000    0.228    0.499   87.484    2.591
  337.250    0.217    0.519   88.710    2.448
  337.500    0.213    0.480   88.105    2.228
  337.750    0.219    0.461   86.893    2.228
  338.000    0.223    0.485   88.118    2.402
  338.250    0.218    0.494   88.734    2.792
  338.500    0.207    0.491   82.032    3.307
  338.750    0.191    0.502   76.550    4.068
  339.000    0.133    0.455   77.166    4.729
  339.250    0.124    0.460   85.711    5.003
  339.500    0.189    0.475   89.983    5.195
  339.750    0.235    0.460   93.038    5.496
  340.000    0.251    0.443   77.191    6.389
  340.250    0.274    0.356   56.465    8.472
  340.500    0.362    0.291   38.178   16.998
  340.750    0.398    0.120   30.867   50.640
  341.000    0.405    0.095   28.435   69.732
  341.250    0.401    0.090   29.660   81.057
  341.500    0.404    0.108   30.886   76.600
  341.750    0.402    0.121   29.063   73.767
  342.000    0.401    0.127   30.290   75.162
  342.250    0.402    0.121   30.904   78.041
  342.500    0.406    0.115   28.472   79.518
  342.750    0.409    0.104   26.039   84.130
  343.000    0.408    0.101   25.434   87.350
  343.250    0.404    0.093   26.660   87.344
  343.500    0.399    0.092   29.716   89.000
  343.750    0.389    0.121   31.552   85.706
  344.000    0.382    0.136   32.166   79.484
  344.250    0.379    0.141   32.173   72.339
  344.500    0.378    0.151   32.179   64.609
  344.750    0.385    0.168   34.013   57.706
  345.000    0.386    0.185   36.459   48.710
  345.250    0.379    0.193   37.684   43.506
  345.500    0.375    0.201   32.812   34.708
  345.750    0.386    0.207   29.769   22.511
  346.000    0.370    0.286   28.557   12.559
  346.250    0.331    0.356   30.392   10.019
  346.500    0.315    0.357   29.787    9.468
  346.750    0.317    0.353   27.356   10.018
  347.000    0.311    0.350   26.752   11.644
  347.250    0.304    0.356   27.978   13.793
  347.500    0.302    0.356   29.203   20.096
  347.750    0.303    0.363   29.209   27.157
  348.000    0.292    0.381   29.215   39.567
  348.250    0.302    0.370   28.611   51.493
  348.500    0.320    0.364   27.398   65.764
  348.750    0.330    0.383   27.405   80.886
