~VERSION INFORMATION
 VERS.                 2.0:   CWLS LOG ASCII STANDARD -VERSION 2.0
 WRAP.                  NO:   ONE LINE PER DEPTH STEP
~WELL INFORMATION BLOCK
#MNEM.UNIT           DATA                    DESCRIPTION OF MNEMONIC
#---------    -------------------            -------------------------------
# Generated from Intellog Unique Number	CC_84_87/WELL/2306
NULL.         -999.25                        : NULL_VALUE
WELL.         PEX PCEJ HANGST OV             : Well_name    - WELL              
LOC .         10-26-086-09W4                 : Location     - LOCATION          
UWI .         AA/10-26-086-09W400            : Uwi          - UNIQUE WELL ID    
ENTR.         DW                             : Entered      - ENTERED BY        
SRVC.         DRESSER ATLAS                  : Scn          - SERVICE COMPANY   
DATE.         02 FEB 81                      : Date         - LOG DATE
STRT.M        65                             : top_depth    - START DEPTH       
STOP.M        220.102                        : bot_depth    - STOP DEPTH        
STEP.M        0.3                            : increment    - STEP LENGTH       
~CURVE INFORMATION BLOCK
#MNEM UNIT       ERCB CURVE CODE    CURVE DESCRIPTION
#-----------   ------------------   ----------------------------------
DEPT.M        00 001 00 00         : DEPTH        - DEPTH                       
DPHI.V/V      00 890 00 00         : PHID         - DENSITY POROSITY (LIMESTONE)
NPHI.V/V      00 330 00 00         : PHIN         - NEUTRON POROSITY (LIMESTONE)
GR  .API      00 310 00 00         : GR           - GAMMA RAY                   
ILD .OHMM     00 120 00 00         : RESD         - DEEP RESISTIVITY (DIL)      
~PARAMETER INFORMATION       
#MNEM.UNIT           DATA             DESCRIPTION OF MNEMONIC
#---------         -----------     ------------------------------
GL  .M        478.88               : gl           - GROUND LEVEL ELEVATION      
EREF.M        483.98               : kb           - ELEVATION OF DEPTH REFERENCE
DATM.M        483.98               : datum        - DATUM ELEVATION             
TDD .M        279                  : tdd          - TOTAL DEPTH DRILLER         
RUN .         ONE                  : Run          - RUN NUMBER                  
ENG .         BILL                 : Engineer     - RECORDING ENGINEER          
WIT .         JIM                  : Witness      - WITNESSED BY                
MUD .         GEL                  : Mud_type     - MUD TYPE                    
MATR.         LIMESTONE            : Logunit      - NEUTRON MATRIX              
TMAX.C        23                   : BHT          - MAXIMUM RECORDED TEMPERATURE
BHTD.M        279                  : BHTDEP       - MAXIMUM RECORDED TEMPERATURE
MATR.         1                    : LOGUNIT      - NEUTRON MATRIX              
RMT .C        25                   : MDTP         - TEMPERATURE OF MUD          
NEUT.         1                    : NEUTRON      - NEUTRON TYPE                
RESI.         0                    : RESIST       - RESISTIVITY TYPE            
RMC .OHMM     0.25                 : RMC          - RESISTIVITY OF MUD CAKE     
RMF .OHMM     0.25                 : RMF          - RESISTIVITY OF MUD FILTRATE 
SUFT.C        4                    : SUFT         - SURFACE TEMPERATURE         
~A  DEPTH     PHID     PHIN       GR     RESD
# ...
  169.401    0.310    0.388   26.373   16.578
  169.701    0.274    0.392   37.408   15.050
  170.001    0.292    0.410   42.878   13.143
  170.301    0.308    0.406   48.996   11.471
  170.601    0.262    0.392   58.791   10.605
  170.901    0.235    0.391   52.568    9.618
  171.201    0.207    0.384   50.654    8.717
  171.501    0.200    0.375   51.840    8.374
  171.801    0.212    0.364   53.624    8.040
  172.101    0.217    0.357   52.334    7.866
  172.401    0.209    0.354   51.662    7.839
  172.701    0.205    0.366   54.057    7.964
  173.001    0.226    0.368   55.856    8.247
  173.301    0.227    0.362   57.643    8.541
  173.601    0.204    0.372   58.818    8.519
  173.901    0.187    0.370   50.124    8.657
  174.201    0.191    0.340   49.450    8.628
  174.501    0.209    0.345   61.723    8.613
  174.801    0.208    0.344   59.795    8.418
  175.101    0.184    0.343   57.277    8.397
  175.401    0.191    0.352   56.603    8.368
  175.701    0.210    0.362   50.390    8.513
  176.001    0.222    0.362   50.944    8.640
  176.301    0.236    0.365   53.963    8.789
  176.601    0.246    0.375   53.289    9.093
  176.901    0.266    0.381   52.620    9.081
  177.201    0.255    0.386   50.085    9.056
  177.501    0.204    0.381   46.949    8.681
  177.801    0.223    0.365   51.820    8.662
  178.101    0.237    0.368   54.848    8.309
  178.401    0.257    0.357   49.843    8.296
  178.701    0.267    0.352   47.949    8.269
  179.001    0.225    0.361   47.880    8.249
  179.301    0.220    0.363   50.906    8.531
  179.601    0.206    0.362   55.167    8.675
  179.901    0.239    0.340   58.187    8.647
  180.201    0.255    0.349   49.501    8.798
  180.501    0.256    0.356   46.977    8.604
  180.801    0.225    0.366   59.857    8.569
  181.101    0.222    0.357   64.730    8.716
  181.401    0.259    0.354   57.264    8.854
  181.701    0.239    0.352   52.276    9.005
  182.001    0.240    0.350   54.692    9.328
  182.301    0.242    0.353   58.926    9.656
  182.601    0.221    0.358   60.113    9.624
  182.901    0.210    0.366   57.594    9.595
  183.201    0.209    0.365   50.117    9.399
  183.501    0.227    0.368   52.524    9.018
  183.801    0.239    0.375   51.868    8.649
  184.101    0.218    0.379   50.568    8.472
  184.401    0.233    0.379   52.366    8.127
  184.701    0.228    0.364   56.001    7.960
  185.001    0.227    0.357   57.163    7.775
  185.301    0.232    0.353   55.270    7.612
  185.601    0.221    0.366   52.121    7.738
  185.901    0.210    0.380   50.212    8.013
  186.201    0.230    0.364   45.848    8.455
  186.501    0.162    0.351   47.012    8.597
  186.801    0.227    0.335   55.587    8.415
  187.101    0.232    0.348   56.142    8.234
  187.401    0.216    0.346   56.067    7.746
  187.701    0.211    0.337   56.634    7.590
  188.001    0.207    0.343   54.730    7.426
  188.301    0.219    0.362   55.900    7.539
  188.601    0.210    0.366   59.543    7.806
  188.901    0.204    0.360   62.561    8.239
  189.201    0.202    0.360   61.257    8.538
  189.501    0.214    0.353   58.127    9.186
  189.801    0.209    0.349   55.605    9.511
  190.101    0.218    0.352   52.466    9.477
  190.401    0.238    0.358   46.243    9.463
  190.701    0.228    0.370   39.407   10.178
  191.001    0.268    0.377   29.489   12.985
  191.301    0.301    0.372   23.268   14.496
  191.601    0.329    0.384   20.748   13.925
  191.901    0.305    0.389   36.094   12.161
  192.201    0.252    0.388   43.422    9.657
  192.501    0.298    0.382   32.889    9.267
  192.801    0.328    0.381   25.437   10.167
  193.101    0.317    0.382   30.292   13.979
  193.401    0.306    0.389   30.236   15.934
  193.701    0.316    0.402   28.327   22.345
  194.001    0.268    0.405   26.415   30.760
  194.301    0.254    0.397   24.513   65.395
  194.601    0.324    0.411   21.381   65.285
  194.901    0.336    0.397   18.231   62.627
  195.201    0.342    0.397   20.018   59.023
  195.501    0.346    0.401   21.206   52.497
  195.801    0.343    0.411   21.141   45.004
  196.101    0.340    0.412   19.846   36.441
  196.401    0.344    0.397   22.250   27.341
  196.701    0.325    0.369   28.976   27.258
  197.001    0.283    0.359   34.467   29.310
  197.301    0.298    0.362   34.395   30.372
  197.601    0.324    0.383   30.642   29.700
  197.901    0.320    0.389   31.814   28.523
  198.201    0.316    0.388   36.066   26.354
  198.501    0.300    0.375   38.468   25.315
  198.801    0.271    0.379   36.564   25.717
  199.101    0.267    0.376   28.505   24.673
  199.401    0.290    0.364   25.976   23.252
  199.701    0.308    0.374   25.908   18.830
  200.001    0.328    0.404   28.304   12.370
  200.301    0.351    0.387   32.567    9.826
  200.601    0.199    0.376   44.846    7.954
  200.901    0.205    0.403   56.491    7.078
  201.201    0.237    0.413   52.735    7.051
  201.501    0.288    0.407   40.969    7.308
  201.801    0.306    0.385   32.279    7.863
  202.101    0.264    0.363   42.084    8.784
  202.401    0.198    0.368   56.199   10.191
  202.701    0.202    0.378   47.513   11.831
  203.001    0.268    0.394   25.267   14.532
  203.301    0.321    0.396   19.655   15.043
  203.601    0.330    0.392   26.998   13.393
  203.901    0.303    0.390   49.736   10.241
  204.201    0.224    0.374   57.689    8.610
  204.501    0.206    0.386   58.248    7.806
  204.801    0.200    0.392   54.479    7.783
  205.101    0.200    0.403   38.408    8.374
  205.401    0.293    0.403   29.723    8.509
  205.701    0.286    0.387   31.506    8.170
  206.001    0.229    0.348   46.241    7.408
  206.301    0.180    0.357   67.132    6.843
  206.601    0.194    0.382   58.441    6.450
  206.901    0.205    0.392   49.757    6.191
  207.201    0.220    0.373   49.087    6.053
  207.501    0.221    0.370   56.421    5.929
  207.801    0.211    0.385   66.829    5.909
  208.101    0.203    0.388   66.153    6.006
  208.401    0.193    0.396   63.022    5.984
  208.701    0.208    0.406   61.715    5.856
  209.001    0.229    0.409   62.277    5.731
  209.301    0.237    0.410   59.738    5.715
  209.601    0.248    0.406   56.605    5.812
  209.901    0.244    0.309   51.633    6.252
  210.201    0.138    0.283   41.088    7.392
  210.501    0.031    0.264   36.094    9.797
  210.801    0.015    0.229   30.497   15.693
  211.101    0.024    0.172   26.123   25.614
  211.401    0.024    0.177   24.209   28.602
  211.701    0.019    0.178   26.613   27.439
  212.001    0.035    0.187   31.488   24.899
  212.301    0.059    0.201   41.908   20.948
  212.602    0.092    0.222   44.934   15.132
  212.902    0.128    0.283   44.235   12.019
  213.202    0.158    0.325   44.187   10.492
  213.502    0.180    0.332   47.826    9.331
  213.802    0.250    0.342   53.316    9.135
  214.102    0.247    0.351   52.026    8.934
  214.402    0.234    0.336   53.795    9.085
  214.702    0.218    0.316   54.357    9.943
  215.002    0.232    0.261   52.449   10.312
  215.302    0.222    0.228   49.944   12.202
  215.602    0.017    0.166   22.770   14.981
  215.902    0.038    0.126   11.616   18.408
  216.202    0.056    0.155   10.945   25.807
  216.502    0.034    0.198   21.364   28.849
  216.802    0.027    0.193   26.845   28.215
  217.102    0.037    0.146   13.222   27.611
  217.402    0.056    0.152   11.937   30.267
  217.702    0.063    0.156   11.877   34.461
  218.002    0.071    0.161   13.053   34.372
  218.302    0.065    0.166   12.377   33.603
  218.602    0.056    0.166   12.930   34.152
  218.902    0.053    0.158   13.479   36.053
  219.202    0.044    0.153   13.408   35.952
  219.502    0.044    0.151   13.963   35.167
  219.802    0.047    0.152   15.132   35.064
  220.102    0.046    0.153   15.089   34.967
