~VERSION INFORMATION
 VERS.                 2.0:   CWLS LOG ASCII STANDARD -VERSION 2.0
 WRAP.                  NO:   ONE LINE PER DEPTH STEP
~WELL INFORMATION BLOCK
#MNEM.UNIT           DATA                    DESCRIPTION OF MNEMONIC
#---------    -------------------            -------------------------------
# Generated from Intellog Unique Number	CW_82_90/WELL/995
WELL.         11-17-082-19W4                 : Well_name    - WELL
LOC .         AA/11-17-082-19W4/0            : Location     - LOCATION
UWI .         AA/11-17-082-19W400            : Uwi          - UNIQUE WELL ID
ENTR.         JAYE                           : Entered      - ENTERED BY
SRVC.         SCHLUMBERGER                   : Scn          - SERVICE COMPANY
DATE.         28 JAN 78                      : Date         - LOG DATE
STRT.M        173.736                        : top_depth    - START DEPTH
STOP.M        363.986                        : bot_depth    - STOP DEPTH
STEP.M        0.25                           : increment    - STEP LENGTH
 NULL. -999.2500:NULL Value
~CURVE INFORMATION BLOCK
#MNEM UNIT       ERCB CURVE CODE    CURVE DESCRIPTION
#-----------   ------------------   ----------------------------------
DEPT.M        00 001 00 00         : DEPTH        - DEPTH
CALI.MM       00 280 01 00         : CAL          - CALIPER
GR  .API      00 310 00 00         : GR           - GAMMA RAY
NPHI.V/V      00 330 00 00         : PHIN         - NEUTRON POROSITY (SANDSTONE)
DPHI.V/V      00 890 00 00         : PHID         - DENSITY POROSITY (SANDSTONE)
ILD .OHMM     00 120 00 00         : RESD         - DEEP RESISTIVITY (DIL)
~PARAMETER INFORMATION
#MNEM.UNIT           DATA             DESCRIPTION OF MNEMONIC
#---------         -----------     ------------------------------
GL  .M        585.216              : gl           - GROUND LEVEL ELEVATION
EREF.M        588.569              : kb           - ELEVATION OF DEPTH REFERENCE
DATM.M        585.216              : datum        - DATUM ELEVATION
TDD .M        366.37               : tdd          - TOTAL DEPTH DRILLER
RUN .         ONE                  : Run          - RUN NUMBER
ENG .         GUNN                 : Engineer     - RECORDING ENGINEER
WIT .         BICKHAM              : Witness      - WITNESSED BY
BASE.         EDMONTON             : Branch       - HOME BASE OF LOGGING UNIT
MUD .         GEL CHEM             : Mud_type     - MUD TYPE
MATR.         SANDSTONE            : Logunit      - NEUTRON MATRIX
TMAX.C        27.7778              : BHT          - MAXIMUM RECORDED TEMPERATURE
BHTD.M        366.37               : BHTDEP       - MAXIMUM RECORDED TEMPERATURE
RMT .C        18.3333              : MDTP         - TEMPERATURE OF MUD
MUDD.KG/M     9300                 : MWT          - MUD DENSITY
NEUT.         0                    : NEUTRON      - NEUTRON TYPE
RESI.         0                    : RESIST       - RESISTIVITY TYPE
RM  .OHMM     4.82                 : RM           - RESISTIVITY OF MUD
RMC .OHMM     0                    : RMC          - RESISTIVITY OF MUD CAKE
RMF .OHMM     0                    : RMF          - RESISTIVITY OF MUD FILTRATE
SUFT.C        4                    : SUFT         - SURFACE TEMPERATURE
~A  DEPTH      CAL       GR     PHIN     PHID     RESD
# ...
  283.236  147.529  100.097    0.492    0.233    7.261
  283.486  148.158   92.073    0.496    0.235    7.114
  283.736  148.577   89.048    0.487    0.230    6.958
  283.986  148.577   88.122    0.487    0.223    6.855
  284.236  148.682   92.073    0.494    0.207    6.755
  284.486  148.472   94.480    0.504    0.194    6.693
  284.736  148.577   94.481    0.495    0.205    6.632
  284.986  148.682   94.110    0.489    0.195    6.559
  285.236  149.415   94.913    0.483    0.195    6.487
  285.486  150.881   97.197    0.498    0.185    6.368
  285.736  151.614   97.876    0.503    0.183    6.262
  285.986  151.300   99.975    0.496    0.200    6.263
  286.236  149.939   99.975    0.477    0.187    6.323
  286.486  149.205  100.098    0.463    0.176    6.407
  286.736  149.415  102.753    0.455    0.179    6.408
  286.986  150.567  105.901    0.459    0.203    6.279
  287.236  152.348  108.308    0.488    0.175    6.038
  287.486  154.966  107.568    0.488    0.163    6.038
  287.736  158.004  104.605    0.482    0.172    6.341
  287.986  160.622  100.840    0.483    0.203    6.401
  288.236  160.727   98.494    0.477    0.197    6.572
  288.486  159.156   98.185    0.485    0.202    6.760
  288.736  157.166   98.247    0.490    0.200    7.084
  288.986  155.595   96.210    0.492    0.204    7.867
  289.236  152.976   97.075    0.490    0.211    8.368
  289.486  151.195   99.297    0.482    0.216    8.836
  289.736  149.624   99.853    0.473    0.229    9.072
  289.986  148.263   98.248    0.466    0.219    9.210
  290.236  147.320   96.704    0.466    0.211    9.263
  290.486  146.796   92.384    0.482    0.203    9.212
  290.736  146.482   89.791    0.492    0.228    9.077
  290.986  146.482   90.902    0.492    0.239    9.028
  291.236  146.692   90.532    0.480    0.233    9.080
  291.486  147.529   88.248    0.474    0.218   10.216
  291.736  148.472   85.779    0.471    0.204   12.363
  291.986  150.043   82.322    0.446    0.152   17.147
  292.236  151.719   80.162    0.258    0.015   19.437
  292.486  152.662   82.816    0.242    0.031   20.105
  292.736  152.976   93.495    0.284    0.061   19.811
  292.986  152.033   92.817    0.335    0.123   17.255
  293.236  150.986   90.718    0.402    0.157   13.335
  293.486  150.776   91.829    0.404    0.187   11.293
  293.736  150.462   87.693    0.441    0.208   10.659
  293.986  150.358   84.484    0.468    0.223   10.582
  294.236  150.358   87.693    0.484    0.224   10.783
  294.486  150.358   88.249    0.492    0.219   11.300
  294.736  150.148   85.842    0.496    0.215   13.322
  294.986  150.148   84.792    0.444    0.207   15.329
  295.236  150.567   80.965    0.412    0.128   17.182
  295.486  151.614   79.175    0.283    0.050   17.872
  295.736  152.243   79.916    0.305    0.066   17.414
  295.986  152.662   87.447    0.338    0.091   16.528
  296.236  152.452   89.978    0.382    0.135   14.025
  296.486  151.824   96.398    0.366    0.124   13.065
  296.736  150.567   97.756    0.445    0.196   11.638
  296.986  149.834   96.830    0.475    0.212   10.701
  297.236  149.939   97.201    0.478    0.217   10.138
  297.486  150.148   96.892    0.471    0.213    9.551
  297.736  150.672   95.719    0.473    0.209    9.100
  297.986  151.195   99.361    0.486    0.211    8.949
  298.236  151.719  104.732    0.484    0.210    8.917
  298.486  151.824  105.040    0.479    0.205    8.952
  298.736  151.719  103.929    0.480    0.197    9.139
  298.986  151.300  103.991    0.484    0.206    9.261
  299.236  150.672  104.794    0.486    0.212    9.402
  299.486  150.358  102.386    0.488    0.203    9.403
  299.736  150.358  101.337    0.488    0.181    9.352
  299.986  150.253   99.362    0.482    0.190    9.319
  300.236  150.358   99.486    0.477    0.195    9.234
  300.486  150.358  102.942    0.479    0.186    9.166
  300.736  150.358  104.609    0.467    0.178    9.099
  300.986  150.567  105.350    0.472    0.176    9.050
  301.236  150.462  106.399    0.504    0.173    9.017
  301.486  150.567  103.622    0.496    0.178    9.019
  301.736  150.986   97.202    0.487    0.181    8.970
  301.986  151.300   93.190    0.491    0.170    8.871
  302.236  151.719   90.721    0.463    0.172    8.856
  302.486  152.138   93.190    0.451    0.184    8.841
  302.736  152.767   98.746    0.454    0.183    8.809
  302.986  153.814   99.363    0.465    0.193    8.794
  303.236  154.966   99.054    0.468    0.207    8.665
  303.486  155.804  100.536    0.465    0.177    8.506
  303.736  155.176  100.413    0.465    0.162    8.365
  303.986  154.442   98.376    0.465    0.172    8.075
  304.236  153.081   98.067    0.466    0.188    7.693
  304.486  152.452  100.166    0.465    0.196    7.426
  304.736  152.033  102.944    0.472    0.186    7.141
  304.986  152.243  104.178    0.487    0.164    6.880
  305.236  153.605  104.364    0.500    0.182    6.754
  305.486  158.108  103.685    0.509    0.188    6.882
  305.736  161.879  102.574    0.484    0.196    7.700
  305.986  161.879  100.598    0.480    0.199    8.599
  306.236  154.757   96.957    0.465    0.119    9.784
  306.486  145.958   94.302    0.435    0.113   11.818
  306.736  148.577   95.167    0.356    0.112   13.173
  306.986  151.300  100.537    0.362    0.117   12.835
  307.236  153.605  100.537    0.397    0.137   11.692
  307.486  154.233   93.500    0.440    0.150   10.492
  307.736  154.547   91.278    0.451    0.123    9.434
  307.986  154.652   92.513    0.441    0.173    8.201
  308.236  154.652   97.142    0.445    0.194    7.814
  308.486  154.966   99.920    0.455    0.184    7.570
  308.736  154.966   98.933    0.441    0.191    7.473
  308.986  154.966   95.538    0.451    0.198    7.530
  309.236  154.966   85.723    0.449    0.187    7.702
  309.486  155.071   83.501    0.435    0.204    7.937
  309.736  154.757   83.069    0.425    0.211    8.195
  309.986  154.338   80.229    0.416    0.186    8.398
  310.236  154.233   77.452    0.398    0.171    8.800
  310.486  153.919   75.662    0.360    0.118   10.336
  310.736  153.605   61.649    0.319    0.076   13.181
  310.986  153.605   58.131    0.187    0.012   16.252
  311.236  153.500   56.094    0.181   -0.000   23.400
  311.486  153.290   58.502    0.185    0.001   26.624
  311.736  153.290   62.020    0.194    0.007   24.896
  311.986  153.081   67.144    0.210    0.066   18.191
  312.236  153.290   75.539    0.296    0.096   14.404
  312.486  153.500   83.810    0.362    0.129   11.951
  312.736  153.605   92.514    0.424    0.197    9.288
  312.986  153.709   95.107    0.450    0.196    8.652
  313.236  153.709   99.243    0.437    0.175    8.509
  313.486  153.605  104.119    0.438    0.172    8.463
  313.736  153.395  104.243    0.445    0.158    8.560
  313.986  153.290  102.762    0.449    0.182    8.755
  314.236  152.976  103.317    0.454    0.179    8.955
  314.486  152.662  103.317    0.458    0.187    8.857
  314.736  152.557  101.342    0.455    0.195    8.646
  314.986  152.767  101.712    0.461    0.193    8.471
  315.236  152.976   99.182    0.467    0.185    8.409
  315.486  153.081   97.762    0.470    0.170    8.395
  315.736  153.186   99.120    0.474    0.182    8.380
  315.986  153.500   99.305    0.490    0.184    8.429
  316.236  153.919  102.022    0.497    0.179    8.478
  316.486  154.338  105.664    0.495    0.161    8.527
  316.736  155.280  107.577    0.485    0.172    8.576
  316.986  155.071  108.750    0.479    0.178    8.690
  317.236  155.490  109.614    0.480    0.180    8.724
  317.486  155.699  109.800    0.490    0.162    8.758
  317.736  155.280  108.750    0.482    0.157    8.678
  317.986  155.071  107.763    0.474    0.160    8.663
  318.236  154.966  109.306    0.474    0.174    8.680
  318.486  155.176  110.726    0.475    0.189    8.634
  318.736  155.804  111.652    0.478    0.178    8.602
  318.986  156.433  109.800    0.469    0.179    8.588
  319.236  157.061  107.948    0.465    0.171    8.589
  319.486  155.699  106.590    0.458    0.167    8.590
