~VERSION INFORMATION
 VERS.                 2.0:   CWLS LOG ASCII STANDARD -VERSION 2.0
 WRAP.                  NO:   ONE LINE PER DEPTH STEP
~WELL INFORMATION BLOCK
#MNEM.UNIT           DATA                    DESCRIPTION OF MNEMONIC
#---------    -------------------            -------------------------------
# Generated from Intellog Unique Number	CN_94_101/WELL/2490
WELL.         14-23-094-09W4                 : Well_name    - WELL
LOC .         AA/14-23-094-09W4/0            : Location     - LOCATION
UWI .         AA/14-23-094-09W400            : Uwi          - UNIQUE WELL ID
ENTR.         JOETTE                         : Entered      - ENTERED BY
SRVC.         SCHLUMBERGER                   : Scn          - SERVICE COMPANY
DATE.         05/17/92                       : Date         - LOG DATE
STRT.M        12                             : top_depth    - START DEPTH
STOP.M        130                            : bot_depth    - STOP DEPTH
STEP.M        0.25                           : increment    - STEP LENGTH
 NULL. -999.2500:NULL Value
~CURVE INFORMATION BLOCK
#MNEM UNIT       ERCB CURVE CODE    CURVE DESCRIPTION
#-----------   ------------------   ----------------------------------
DEPT.M        00 001 00 00         : DEPTH        - DEPTH
CALI.MM       00 280 01 00         : CAL          - CALIPER
GR  .API      00 310 00 00         : GR           - GAMMA RAY
ILD .OHMM     00 120 00 00         : RESD         - DEEP RESISTIVITY (DIL)
RHOB.KG/M3    00 350 00 00         : DENS         - BULK DENSITY
NPHI.V/V      00 330 00 00         : PHIN         - NEUTRON POROSITY (SANDSTONE)
~PARAMETER INFORMATION
#MNEM.UNIT           DATA             DESCRIPTION OF MNEMONIC
#---------         -----------     ------------------------------
GL  .M        334.3                : gl           - GROUND LEVEL ELEVATION
EREF.M        334.3                : kb           - ELEVATION OF DEPTH REFERENCE
DATM.M        334.3                : datum        - DATUM ELEVATION
TDD .M        132                  : tdd          - TOTAL DEPTH DRILLER
RUN .         ONE                  : Run          - RUN NUMBER
ENG .         BILL                 : Engineer     - RECORDING ENGINEER
WIT .         JIM                  : Witness      - WITNESSED BY
MUD .         GEL                  : Mud_type     - MUD TYPE
MATR.         SANDSTONE            : Logunit      - NEUTRON MATRIX
TMAX.C        7                    : BHT          - MAXIMUM RECORDED TEMPERATURE
BHTD.M        132                  : BHTDEP       - MAXIMUM RECORDED TEMPERATURE
RMT .C        7                    : MDTP         - TEMPERATURE OF MUD
MUDD.KG/M     1100                 : MWT          - MUD DENSITY
NEUT.         1                    : NEUTRON      - NEUTRON TYPE
RESI.         0                    : RESIST       - RESISTIVITY TYPE
RM  .OHMM     11.9                 : RM           - RESISTIVITY OF MUD
RMC .OHMM     13.8                 : RMC          - RESISTIVITY OF MUD CAKE
RMF .OHMM     12.3                 : RMF          - RESISTIVITY OF MUD FILTRATE
SUFT.C        4                    : SUFT         - SURFACE TEMPERATURE
~A  DEPTH      CAL       GR     RESD     DENS     PHIN
# ...
   85.000  143.490   66.484   38.762 2187.220    0.415
   85.250  142.616   60.368   54.919 2201.310    0.380
   85.500  141.336   56.065   47.301 2191.350    0.346
   85.750  142.490   48.740   72.232 2177.390    0.375
   86.000  142.832   36.559  106.246 2183.460    0.428
   86.250  140.726   31.030   89.742 2189.530    0.392
   86.500  139.852   35.780   96.475 2197.580    0.393
   86.750  141.005   35.728  107.507 2243.700    0.362
   87.000  142.580   33.844  105.377 2247.760    0.318
   87.250  146.978   31.373   35.324 2201.760    0.413
   87.500  146.494   63.367   35.233 2181.790    0.454
   87.750  144.013   56.041   43.128 2183.860    0.418
   88.000  140.690   23.890   88.506 2199.920    0.337
   88.250  139.411   14.111  125.462 2207.990    0.307
   88.500  140.564   15.285  127.539 2216.050    0.349
   88.750  141.312   15.803  129.651 2228.120    0.379
   89.000  140.844   11.500  155.636 2194.140    0.323
   89.250  139.970    9.012  109.286 2212.240    0.341
   89.500  140.702    7.110  138.736 2202.260    0.358
   89.750  140.655    6.436  126.236 2200.330    0.338
   90.000  140.997    8.802  140.744 2214.400    0.359
   90.250  140.497   14.779  199.615 2186.420    0.383
   90.500  138.812   12.895  222.555 2174.460    0.350
   90.750  139.560    8.575  153.415 2166.510    0.335
   91.000  139.903    9.715  167.915 2158.560    0.327
   91.250  140.245   13.290  209.264 2174.630    0.337
   91.500  139.371   14.395  201.259 2200.720    0.370
   91.750  138.903   14.360  176.303 2224.800    0.391
   92.000  140.867   17.296  133.429 2266.910    0.357
   92.250  142.021   20.267  192.669 2305.010    0.349
   92.500  141.147   20.801  244.590 2283.040    0.292
   92.750  139.462   17.069  123.164 2186.980    0.355
   93.000  138.588   14.598   86.484 2108.950    0.430
   93.250  138.119   12.731   67.881 2066.950    0.398
   93.500  139.273   13.249   57.336 2055.010    0.428
   93.750  140.832   22.871   55.086 2045.040    0.406
   94.000  141.564   24.615   53.995 2069.120    0.394
   94.250  141.096   20.295   53.912 2099.210    0.461
   94.500  139.410   16.597   54.804 2119.310    0.413
   94.750  138.552   12.865   56.721 2107.330    0.389
   95.000  138.084   12.830   59.830 2097.380    0.369
   95.250  138.005   11.533   60.790 2133.490    0.356
   95.500  138.753   13.882   61.859 2155.570    0.348
   95.750  139.922   12.620   61.669 2181.660    0.355
   96.000  141.466   10.736   61.606 2205.750    0.341
   96.250  141.808   14.899   62.626 2205.800    0.319
   96.500  141.761   13.602   64.850 2217.870    0.324
   96.750  141.667   13.533   67.152 2221.930    0.318
   97.000  141.603   15.277   68.229 2221.990    0.328
   97.250  141.540   15.812   69.394 2224.050    0.300
   97.500  140.666   17.556   70.543 2216.090    0.288
   97.750  138.170   20.509   70.362 2176.120    0.288
   98.000  136.906   18.608   67.671 2174.180    0.301
   98.250  136.843   15.532   61.605 2164.200    0.330
   98.500  137.154   13.061   61.479 2116.200    0.338
   98.750  137.091    9.328   64.849 2126.270    0.347
   99.000  137.839    9.259   70.942 2156.370    0.345
   99.250  139.414   14.043   76.226 2192.470    0.361
   99.500  138.119   18.811   78.892 2208.550    0.302
   99.750  137.650   13.299   80.280 2210.600    0.290
  100.000  139.225   13.816   80.115 2232.690    0.304
  100.250  141.190   15.561   77.012 2232.740    0.350
  100.500  141.907   15.491   74.066 2212.770    0.340
  100.750  141.469   16.630   68.649 2200.820    0.322
  101.000  142.218   17.770   63.661 2178.860    0.330
  101.250  143.777   18.909   58.975 2186.910    0.343
  101.500  144.509   20.671   59.952 2190.970    0.346
  101.750  144.041   26.665   64.417 2189.040    0.340
  102.000  142.761   25.386   70.505 2187.090    0.347
  102.250  141.903   13.205   70.361 2185.150    0.337
  102.500  143.462   11.304   67.669 2169.170    0.347
  102.750  143.788   10.630   66.329 2139.190    0.357
  103.000  142.914    8.746   59.217 2123.230    0.352
  103.250  144.068    8.676   61.352 2155.330    0.348
  103.500  143.615   11.612   69.678 2181.420    0.330
  103.750  140.292   13.978   82.112 2179.490    0.341
  104.000  139.402   13.926  100.407 2177.530    0.357
  104.250  142.194   12.024  120.531 2173.580    0.374
  104.500  144.143   11.350  131.991 2183.650    0.370
  104.750  143.269   11.885  164.409 2203.740    0.346
  105.000  142.816   11.815  208.500 2207.800    0.331
  105.250  142.347   11.140  173.065 2225.870    0.328
  105.500  140.646   11.640  182.552 2259.960    0.330
  105.750  143.844   12.193   68.331 2221.970    0.348
  106.000  146.198   11.501   86.790 2165.960    0.355
  106.250  146.541   11.466  150.828 2143.990    0.352
  106.500  144.871   10.791  266.868 2150.050    0.368
  106.750  144.403   10.721  472.424 2144.100    0.367
  107.000  145.119   10.617  331.901 2118.140    0.362
  107.250  146.289   10.582  275.211 2112.190    0.409
  107.500  145.414   10.512  787.982 2114.250    0.400
  107.750  144.946   11.047  862.459 2136.330    0.402
  108.000  144.477   12.773 1200.820 2182.440    0.377
  108.250  144.414   13.913  995.718 2132.440    0.393
  108.500  143.930   13.238  474.364 2110.480    0.389
  108.750  144.273   11.959  271.841 2106.520    0.360
  109.000  145.036   13.099 1281.680 2156.640    0.365
  109.250  140.902   22.721  384.757 2126.660    0.408
  109.500  139.623   16.000  122.022 2106.690    0.439
  109.750  142.788   11.697  864.223 2118.760    0.439
  110.000  143.552   12.819 1096.550 2138.840    0.405
  110.250  147.155   19.418  512.841 2164.920    0.414
  110.500  144.643   26.000  112.403 2189.010    0.400
  110.750  142.942   34.395   41.325 2255.160    0.370
  111.000  143.284   64.575   34.923 2283.250    0.344
  111.250  145.265  133.506   19.647 2319.350    0.421
  111.500  145.170  128.581   15.421 2319.400    0.526
  111.750  144.733  124.296   18.163 2311.460    0.585
  112.000  144.265  118.162   17.794 2331.530    0.596
  112.250  144.202  130.790   16.200 2333.590    0.550
  112.500  144.950  132.552   15.287 2313.620    0.607
  112.750  146.072  119.145   15.255 2305.660    0.610
  113.000  147.257  128.767   14.140 2289.700    0.619
  113.250  148.005  126.278   11.098 2273.740    0.538
  113.500  148.737  128.627    9.908 2291.820    0.554
  113.750  149.096  135.830   10.072 2295.890    0.610
  114.000  149.438  122.441   10.435 2301.950    0.500
  114.250  149.781  104.214   11.629 2322.030    0.502
  114.500  149.702   92.656   12.972 2274.030    0.490
  114.750  148.828  106.493   15.007 2268.090    0.495
  115.000  147.143  112.469   16.732 2276.160    0.492
  115.250  145.036  100.307   14.945 2268.190    0.492
  115.500  143.772   55.457   13.350 2250.230    0.456
  115.750  141.650   34.207   11.282 2176.220    0.471
  116.000  141.587   44.416   13.543 2174.250    0.395
  116.250  143.568   58.236   18.163 2180.310    0.385
  116.500  145.142   66.062   35.247 2204.400    0.407
  116.750  146.296   81.730   30.358 2224.490    0.430
  117.000  143.784   76.201   26.607 2222.530    0.439
  117.250  142.910   66.457   29.665 2202.560    0.450
  117.500  143.627   55.486   31.890 2232.650    0.457
  117.750  144.001   49.352   35.537 2212.690    0.440
  118.000  145.560   46.881   36.125 2182.710    0.461
  118.250  146.308   29.259   39.540 2184.760    0.434
  118.500  146.229   27.980   42.485 2202.840    0.404
  118.750  144.123   24.282   44.038 2212.910    0.386
  119.000  143.280   28.427   46.452 2162.910    0.382
  119.250  141.158   25.956   47.197 2168.970    0.387
  119.500  143.934   22.846   47.124 2165.030    0.361
  119.750  144.682   37.287   44.447 2171.080    0.376
  120.000  144.213   28.148   41.217 2151.120    0.399
  120.250  142.918   35.351   41.112 2119.150    0.407
  120.500  142.075   52.212   41.027 2127.210    0.406
  120.750  140.764   73.944   40.964 2161.310    0.391
  121.000  139.921  131.956   41.621 2163.380    0.394
  121.250  139.827   80.456   42.310 2151.410    0.511
