~VERSION INFORMATION
 VERS.                 2.0:   CWLS LOG ASCII STANDARD -VERSION 2.0
 WRAP.                  NO:   ONE LINE PER DEPTH STEP
~WELL INFORMATION BLOCK
#MNEM.UNIT           DATA                    DESCRIPTION OF MNEMONIC
#---------    -------------------            -------------------------------
# Generated from Intellog Unique Number	CC_80_83/WELL/2364
NULL.         -999.25                        : NULL_VALUE
WELL.         PEX PCEJ HANGST OV             : Well_name    - WELL              
LOC .         10-23-081-08W4                 : Location     - LOCATION          
UWI .         AA/10-23-081-08W4/0            : Uwi          - UNIQUE WELL ID    
ENTR.         DW                             : Entered      - ENTERED BY        
SRVC.         SCHLUMBERGER                   : Scn          - SERVICE COMPANY   
DATE.         18 JAN 80                      : Date         - LOG DATE
STRT.M        250                            : top_depth    - START DEPTH       
STOP.M        494.79                         : bot_depth    - STOP DEPTH        
STEP.M        0.3                            : increment    - STEP LENGTH       
~CURVE INFORMATION BLOCK
#MNEM UNIT       ERCB CURVE CODE    CURVE DESCRIPTION
#-----------   ------------------   ----------------------------------
DEPT.M        00 001 00 00         : DEPTH        - DEPTH                       
DPHI.V/V      00 890 00 00         : PHID         - DENSITY POROSITY (LIMESTONE)
NPHI.V/V      00 330 00 00         : PHIN         - NEUTRON POROSITY (LIMESTONE)
GR  .API      00 310 00 00         : GR           - GAMMA RAY                   
ILD .OHMM     00 120 00 00         : RESD         - DEEP RESISTIVITY (DIL)      
~PARAMETER INFORMATION       
#MNEM.UNIT           DATA             DESCRIPTION OF MNEMONIC
#---------         -----------     ------------------------------
GL  .M        735.25               : gl           - GROUND LEVEL ELEVATION      
EREF.M        738.85               : kb           - ELEVATION OF DEPTH REFERENCE
DATM.M        738.85               : datum        - DATUM ELEVATION             
TDD .M        497                  : tdd          - TOTAL DEPTH DRILLER         
RUN .         ONE                  : Run          - RUN NUMBER                  
ENG .         BILL                 : Engineer     - RECORDING ENGINEER          
WIT .         JIM                  : Witness      - WITNESSED BY                
MUD .         GEL                  : Mud_type     - MUD TYPE                    
MATR.         LIMESTONE            : Logunit      - NEUTRON MATRIX              
TMAX.C        19                   : BHT          - MAXIMUM RECORDED TEMPERATURE
BHTD.M        497                  : BHTDEP       - MAXIMUM RECORDED TEMPERATURE
MATR.         1                    : LOGUNIT      - NEUTRON MATRIX              
RMT .C        25                   : MDTP         - TEMPERATURE OF MUD          
NEUT.         1                    : NEUTRON      - NEUTRON TYPE                
RESI.         0                    : RESIST       - RESISTIVITY TYPE            
RMC .OHMM     0.25                 : RMC          - RESISTIVITY OF MUD CAKE     
RMF .OHMM     0.25                 : RMF          - RESISTIVITY OF MUD FILTRATE 
SUFT.C        4                    : SUFT         - SURFACE TEMPERATURE         
~A  DEPTH     PHID     PHIN       GR     RESD
  250.000    0.251    0.538  139.456    4.147
  250.300    0.265    0.546  133.885    4.311
  250.600    0.287    0.560  129.560    4.477
  250.900    0.265    0.520  143.902    4.830
  251.200    0.265    0.521  140.820    5.018
  251.500    0.264    0.526  134.626    5.313
  251.800    0.251    0.461  129.677    5.948
  252.100    0.234    0.424  132.199    6.661
  252.400    0.222    0.423  116.671    7.599
  252.700    0.159    0.413  107.988    8.672
  253.000    0.172    0.423  107.399    8.517
  253.300    0.243    0.452  104.317    8.059
  253.600    0.238    0.466  104.345    7.345
  253.900    0.233    0.479  110.596    6.821
  254.200    0.230    0.471  109.380    6.455
  254.500    0.239    0.467  115.634    6.340
  254.800    0.285    0.481  120.641    6.465
  255.100    0.308    0.534  118.805    6.350
  255.400    0.336    0.553  123.189    6.121
  255.700    0.304    0.519  107.662    6.013
  256.000    0.272    0.511  112.050    5.906
  256.300    0.258    0.518  106.478    5.694
  256.600    0.257    0.512  112.731    5.593
  256.900    0.257    0.501  130.805    5.495
  257.200    0.262    0.496  133.327    5.498
  257.500    0.273    0.531  118.421    5.302
  257.800    0.359    0.537  110.365    5.206
  258.100    0.293    0.543  114.125    5.020
  258.400    0.254    0.529  114.775    4.932
  258.700    0.255    0.513  109.205    4.843
  259.000    0.251    0.492  124.170    4.757
  259.300    0.262    0.502  129.800    4.673
  259.600    0.273    0.557  134.810    4.590
  259.900    0.304    0.593  131.726    4.595
  260.200    0.318    0.582  131.757    4.597
  260.500    0.274    0.571  122.457    4.516
  260.800    0.263    0.551  123.107    4.520
  261.100    0.264    0.543  129.360    4.525
  261.400    0.267    0.555  130.010    4.527
  261.700    0.262    0.587  120.706    4.447
  262.000    0.258    0.574  138.159    4.369
  262.300    0.300    0.548  135.083    4.212
  262.600    0.328    0.546  132.618    4.136
  262.900    0.275    0.560  118.334    4.064
  263.200    0.279    0.484  128.323    3.992
  263.500    0.303    0.548  121.511    3.920
  263.800    0.317    0.603  125.275    3.779
  264.100    0.329    0.615  128.413    3.643
  264.400    0.349    0.606  129.689    3.579
  264.700    0.291    0.602  132.207    3.516
  265.000    0.313    0.595  126.015    3.519
  265.300    0.367    0.582  121.684    3.589
  265.600    0.283    0.578  112.380    3.590
  265.900    0.271    0.550  118.632    3.731
  266.200    0.262    0.547  127.377    3.806
  266.500    0.266    0.568  131.759    3.808
  266.800    0.321    0.588  114.365    3.810
  267.100    0.332    0.599  119.374    3.887
  267.400    0.356    0.600  120.654    3.889
  267.700    0.362    0.595  122.553    3.893
  268.000    0.329    0.588  126.311    3.895
  268.300    0.340    0.589  124.472    4.048
  268.600    0.399    0.577  120.144    4.127
  268.900    0.315    0.590  115.817    4.209
  269.200    0.305    0.576  133.893    4.134
  269.500    0.259    0.563  125.833    4.061
  269.799    0.263    0.563  132.710    3.916
  270.099    0.316    0.592  127.763    3.705
  270.399    0.368    0.612  116.590    3.638
  270.699    0.384    0.633  110.398    3.442
  270.999    0.387    0.650  116.028    3.258
  271.299    0.398    0.637  122.904    3.141
  271.599    0.299    0.617  113.597    3.084
  271.899    0.301    0.609  113.626    2.974
  272.199    0.340    0.619  104.323    2.976
  272.499    0.356    0.655  101.242    2.870
  272.799    0.360    0.676  108.116    2.871
  273.099    0.347    0.667  100.678    2.928
  273.399    0.351    0.663  110.042    2.986
  273.699    0.362    0.663  102.605    2.989
  273.999    0.383    0.650  111.347    3.047
  274.299    0.372    0.631  107.020    3.107
  274.599    0.363    0.609   94.610    2.996
  274.899    0.370    0.606   91.524    2.942
  275.199    0.410    0.621   98.408    2.891
  275.499    0.409    0.637  100.916    2.893
  275.799    0.360    0.634  109.664    2.949
  276.099    0.379    0.579  110.311    3.182
  276.399    0.413    0.599  111.587    3.432
  276.699    0.447    0.592  111.615    3.633
  276.999    0.448    0.542  110.405    3.992
  277.299    0.349    0.539  109.185    4.389
  277.599    0.357    0.512  115.437    4.645
  277.899    0.369    0.502  114.846    5.012
  278.199    0.393    0.517  118.608    5.110
  278.499    0.351    0.530  118.020    5.211
  278.799    0.287    0.504  115.556    5.313
  279.099    0.305    0.495  123.056    5.221
  279.399    0.314    0.534  129.307    5.223
  279.699    0.346    0.539  128.091    5.130
  279.999    0.346    0.525  116.920    5.040
  280.299    0.343    0.525  108.238    5.539
  280.599    0.363    0.456  102.045    6.202
  280.899    0.389    0.466  100.832    6.816
  281.199    0.233    0.385   95.883    7.083
  281.499    0.227    0.360   62.312    6.828
  281.799    0.294    0.428   87.230    5.996
  282.099    0.312    0.434   89.126    5.464
  282.399    0.348    0.473  114.668    4.796
  282.699    0.332    0.528  125.901    4.291
  282.999    0.354    0.510  117.842    4.214
  283.299    0.282    0.487  122.227    4.378
  283.599    0.276    0.444  115.410    5.089
  283.899    0.281    0.470  119.800    6.028
  284.199    0.286    0.455  122.316    7.553
  284.499    0.285    0.443  114.879    9.642
  284.799    0.272    0.428  108.686   12.306
  285.099    0.261    0.402  105.604   14.308
  285.399    0.255    0.394  104.388   15.726
  285.699    0.247    0.388  119.358   16.035
  285.999    0.247    0.392  111.915   15.461
  286.299    0.258    0.426  106.346   13.829
  286.599    0.259    0.425  115.709   11.263
  286.899    0.267    0.440  131.918    9.889
  287.199    0.277    0.410  129.462   12.862
  287.499    0.277    0.390  112.688   16.417
  287.799    0.268    0.395  107.117   17.713
  288.099    0.263    0.388  103.412   18.063
  288.399    0.265    0.397  115.265   17.736
  288.699    0.276    0.416  117.783   17.099
  288.999    0.265    0.405  122.169   15.882
  289.299    0.263    0.440  129.045   15.024
  289.599    0.263    0.463  132.810   13.694
  289.899    0.251    0.495  138.438   12.252
  290.199    0.246    0.495  144.693   11.167
  290.499    0.275    0.459  147.832   12.271
  290.799    0.297    0.436  130.437   15.091
  291.099    0.257    0.376  114.290   23.223
  291.399    0.273    0.358  111.210   30.777
  291.699    0.274    0.365  102.524   33.831
  291.999    0.274    0.382   99.446   32.609
  292.299    0.277    0.399   93.253   30.281
  292.599    0.287    0.418   84.574   27.604
  292.899    0.278    0.390   89.576   25.637
  293.199    0.278    0.409  108.898   25.175
  293.499    0.306    0.401   90.882   25.673
  293.799    0.302    0.393   72.864   26.675
  294.099    0.274    0.388   85.342   26.197
  294.398    0.276    0.391   84.746   24.789
  294.698    0.283    0.386   77.934   25.757
  294.998    0.290    0.405   90.407   27.779
  295.298    0.312    0.418   85.461   32.302
  295.598    0.316    0.403   92.335   35.494
  295.898    0.317    0.409   96.721   38.280
  296.198    0.318    0.409   90.533   37.610
  296.498    0.323    0.404   87.443   35.584
  296.798    0.324    0.415   77.520   33.669
  297.098    0.319    0.407   75.680   32.452
  297.398    0.304    0.389   83.177   31.300
  297.698    0.302    0.381   83.209   31.910
  297.998    0.300    0.397   96.304   33.159
  298.298    0.299    0.387   97.579   34.452
  298.598    0.288    0.382   90.764   34.470
  298.898    0.288    0.383   95.774   32.619
  299.198    0.293    0.405   92.067   30.294
  299.498    0.291    0.390   97.075   28.135
  299.798    0.293    0.388  113.906   27.113
  300.098    0.289    0.434  109.580   26.140
  300.398    0.280    0.427  123.301   25.201
  300.698    0.279    0.420  119.603   24.298
  300.998    0.284    0.430  120.250   22.564
  301.298    0.285    0.438  125.258   20.184
  301.598    0.292    0.445  127.777   19.094
  301.898    0.300    0.470  119.094   19.843
