~VERSION INFORMATION
 VERS.                 2.0:   CWLS LOG ASCII STANDARD -VERSION 2.0
 WRAP.                  NO:   ONE LINE PER DEPTH STEP
~WELL INFORMATION BLOCK
#MNEM.UNIT           DATA                    DESCRIPTION OF MNEMONIC
#---------    -------------------            -------------------------------
# Generated from Intellog Unique Number	CW_82_90/WELL/1029
WELL.         11-20-082-20W4                 : Well_name    - WELL
LOC .         AA/11-20-082-20W4/0            : Location     - LOCATION
UWI .         AA/11-20-082-20W4/0            : Uwi          - UNIQUE WELL ID
ENTR.         JAYE                           : Entered      - ENTERED BY
SRVC.         SCHLUMBERGER                   : Scn          - SERVICE COMPANY
DATE.         2 FEB 76                       : Date         - LOG DATE
STRT.M        182.88                         : top_depth    - START DEPTH
STOP.M        387.13                         : bot_depth    - STOP DEPTH
STEP.M        0.25                           : increment    - STEP LENGTH
 NULL. -999.2500:NULL Value
~CURVE INFORMATION BLOCK
#MNEM UNIT       ERCB CURVE CODE    CURVE DESCRIPTION
#-----------   ------------------   ----------------------------------
DEPT.M        00 001 00 00         : DEPTH        - DEPTH
CALI.MM       00 280 01 00         : CAL          - CALIPER
GR  .API      00 310 00 00         : GR           - GAMMA RAY
NPHI.V/V      00 330 00 00         : PHIN         - NEUTRON POROSITY (SANDSTONE)
DPHI.V/V      00 890 00 00         : PHID         - DENSITY POROSITY (SANDSTONE)
ILD .OHMM     00 120 00 00         : RESD         - DEEP RESISTIVITY (DLL)
~PARAMETER INFORMATION
#MNEM.UNIT           DATA             DESCRIPTION OF MNEMONIC
#---------         -----------     ------------------------------
GL  .M        603.504              : gl           - GROUND LEVEL ELEVATION
EREF.M        606.857              : kb           - ELEVATION OF DEPTH REFERENCE
DATM.M        603.504              : datum        - DATUM ELEVATION
TDD .M        396.24               : tdd          - TOTAL DEPTH DRILLER
BASE.         EDMONTON             : Branch       - HOME BASE OF LOGGING UNIT
MATR.         SANDSTONE            : Logunit      - NEUTRON MATRIX
TMAX.C        20                   : BHT          - MAXIMUM RECORDED TEMPERATURE
BHTD.M        396.24               : BHTDEP       - MAXIMUM RECORDED TEMPERATURE
RMT .C        14.4444              : MDTP         - TEMPERATURE OF MUD
MUDD.KG/M     0                    : MWT          - MUD DENSITY
NEUT.         0                    : NEUTRON      - NEUTRON TYPE
RESI.         1                    : RESIST       - RESISTIVITY TYPE
RM  .OHMM     2.78                 : RM           - RESISTIVITY OF MUD
RMC .OHMM     3.2                  : RMC          - RESISTIVITY OF MUD CAKE
RMF .OHMM     2.13                 : RMF          - RESISTIVITY OF MUD FILTRATE
SUFT.C        4                    : SUFT         - SURFACE TEMPERATURE
~A  DEPTH      CAL       GR     PHIN     PHID     RESD
# ...
  219.380  141.598   63.388    0.478    0.322   10.598
  219.630  141.533   69.154    0.464    0.336   10.131
  219.880  141.349   71.920    0.461    0.347    9.896
  220.130  141.940   72.985    0.470    0.329    8.770
  220.380  147.485   78.170    0.516    0.307    7.292
  220.630  162.816   81.386    0.542    0.308    6.335
  220.880  154.274   91.853    0.537    0.347    6.465
  221.130  149.045   97.096    0.502    0.276    7.290
  221.380  149.847   95.294    0.448    0.303    7.819
  221.630  162.318   88.332    0.453    0.312    8.255
  221.880  177.764   83.849    0.470    0.280    8.997
  222.130  191.009   82.307    0.475    0.278    9.368
  222.380  179.933   85.593    0.480    0.262    9.676
  222.630  167.433   86.854    0.485    0.262   10.196
  222.880  158.674   88.838    0.463    0.261   10.636
  223.130  152.446   91.601    0.462    0.266   11.008
  223.380  151.171   94.177    0.447    0.250   11.348
  223.630  144.607   93.669    0.422    0.274   11.582
  223.880  139.814   90.299    0.412    0.259   11.751
  224.130  138.542   87.516    0.407    0.261   11.733
  224.380  138.573   85.448    0.404    0.263   10.670
  224.630  140.486   89.914    0.406    0.258    8.292
  224.880  143.276   96.396    0.433    0.230    6.827
  225.130  144.530   98.701    0.459    0.260    5.837
  225.380  148.317   98.403    0.445    0.279    5.101
  225.630  150.000  103.903    0.492    0.214    5.003
  225.880  151.468  108.371    0.526    0.233    5.240
  226.130  151.400  105.847    0.529    0.243    5.655
  226.380  150.891  104.952    0.531    0.212    5.806
  226.630  151.812  107.063    0.529    0.183    5.786
  226.880  154.605  105.650    0.520    0.214    5.531
  227.130  157.838  101.364    0.507    0.222    5.307
  227.380  159.528  104.456    0.517    0.248    5.052
  227.630  157.147  113.164    0.532    0.244    4.734
  227.880  152.678  113.835    0.543    0.249    4.560
  228.130  152.059  113.270    0.548    0.237    4.420
  228.380  153.202  109.965    0.544    0.221    4.502
  228.630  157.095  105.876    0.555    0.251    5.137
  228.880  160.443  101.069    0.574    0.258    5.990
  229.130  158.934   96.000    0.571    0.313    7.856
  229.380  142.369   88.516    0.471    0.329    9.571
  229.630  142.189   87.240    0.440    0.317   11.386
  229.880  142.452   87.650    0.415    0.288   12.609
  230.130  142.603   93.221    0.437    0.282   13.446
  230.380  142.860   98.660    0.439    0.289   14.139
  230.630  143.122   86.934    0.456    0.279   15.471
  230.880  142.505   72.532    0.466    0.266   18.368
  231.130  141.993   58.457    0.468    0.317   21.895
  231.380  142.037   45.557    0.457    0.339   27.538
  231.630  142.845   42.449    0.463    0.348   31.545
  231.880  143.660   42.990    0.466    0.349   34.726
  232.130  144.806   42.687    0.467    0.352   36.227
  232.380  145.400   45.195    0.469    0.348   37.123
  232.630  145.447   45.345    0.481    0.343   37.218
  232.880  145.698   47.063    0.474    0.344   37.761
  233.130  145.300   46.827    0.465    0.347   38.386
  233.380  145.235   46.002    0.461    0.357   39.024
  233.630  145.494   46.937    0.461    0.352   39.128
  233.880  145.754   47.548    0.461    0.344   39.073
  234.130  146.127   55.206    0.456    0.350   38.855
  234.380  146.170   55.230    0.458    0.359   38.411
  234.630  146.091   54.405    0.471    0.358   37.230
  234.880  145.479   54.883    0.481    0.349   35.512
  235.130  145.074   54.775    0.471    0.349   33.805
  235.380  144.126   52.715    0.466    0.351   31.239
  235.630  142.738   51.690    0.455    0.347   29.796
  235.880  142.007   49.232    0.458    0.347   27.587
  236.130  141.288   50.629    0.457    0.359   26.577
  236.380  141.649   51.953    0.458    0.354   26.485
  236.630  141.807   53.282    0.449    0.351   26.872
  236.880  141.951   51.806    0.452    0.345   27.048
  237.130  142.328   50.521    0.451    0.356   26.742
  237.380  142.479   48.520    0.445    0.341   25.866
  237.630  142.640   48.413    0.446    0.346   24.574
  237.880  143.116   47.586    0.454    0.353   23.300
  238.130  143.706   47.413    0.465    0.341   22.315
  238.380  144.520   49.198    0.473    0.337   21.670
  238.630  144.888   49.939    0.470    0.374   21.256
  238.880  145.581   49.832    0.466    0.365   21.224
  239.130  146.172   49.266    0.480    0.345   21.750
  239.380  146.548   48.509    0.489    0.335   22.241
  239.630  146.593   48.792    0.482    0.362   22.611
  239.880  146.420   51.424    0.493    0.356   22.712
  240.130  146.233   52.491    0.499    0.360   22.769
  240.380  145.828   54.478    0.485    0.360   22.557
  240.630  145.540   54.041    0.479    0.359   21.993
  240.880  147.236   53.279    0.466    0.356   21.400
  241.130  149.144   55.063    0.463    0.354   20.948
  241.380  151.499   59.524    0.474    0.352   20.587
  241.630  147.133   53.085    0.492    0.352   20.074
  241.880  144.315   51.998    0.489    0.360   19.650
  242.130  146.668   52.356    0.491    0.365   19.309
  242.380  142.641   52.109    0.494    0.363   19.016
  242.630  140.262   48.673    0.491    0.361   18.837
  242.880  138.761   43.999    0.486    0.361   18.623
  243.130  138.473   43.956    0.484    0.355   18.487
  243.380  138.959   45.091    0.490    0.361   20.931
  243.630  139.324   47.003    0.494    0.368   19.526
  243.880  140.257   48.073    0.488    0.369   19.382
  244.130  140.841   49.202    0.482    0.365   19.864
  244.380  141.869   48.768    0.482    0.362   19.832
  244.630  143.008   49.449    0.478    0.366   19.609
  244.880  144.043   50.641    0.473    0.362   19.505
  245.130  143.864   53.669    0.479    0.357   19.439
  245.380  143.248   56.628    0.490    0.346   19.485
  245.630  142.518   58.936    0.502    0.345   19.769
  245.880  141.566   52.887    0.501    0.351   19.975
  246.130  140.066   50.167    0.494    0.356   20.106
  246.380  138.583   47.841    0.489    0.361   20.001
  246.630  137.405   47.155    0.476    0.364   20.050
  246.880  137.004   47.169    0.482    0.366   20.138
  247.130  138.689   48.499    0.505    0.362   19.990
  247.380  139.395   49.957    0.514    0.365   18.180
  247.630  139.988   51.940    0.502    0.355   17.271
  247.880  141.127   51.699    0.493    0.358   16.675
  248.130  142.051   49.374    0.493    0.343   17.050
  248.380  142.199   49.985    0.494    0.321   18.399
  248.630  142.243   51.573    0.511    0.317   19.005
  248.880  142.278   60.667    0.515    0.358   19.358
  249.130  142.432   51.553    0.492    0.375   19.602
  249.380  142.364   50.857    0.491    0.366   19.613
  249.630  142.739   48.407    0.487    0.357   19.585
  249.880  142.793   50.511    0.474    0.358   19.595
  250.130  143.159   53.732    0.483    0.359   19.761
  250.380  143.298   53.558    0.503    0.351   19.813
  250.630  143.453   54.760    0.515    0.350   19.664
  250.880  143.379   56.741    0.519    0.359   19.835
  251.130  143.752   60.222    0.512    0.352   19.963
  251.380  144.017   64.748    0.471    0.357   19.933
  251.630  144.162   65.552    0.481    0.350   19.827
  251.880  143.875   66.623    0.488    0.345   19.955
  252.130  143.476   67.686    0.471    0.354   19.966
  252.380  143.519   66.861    0.481    0.356   19.857
  252.630  143.560   62.905    0.496    0.343   19.631
  252.880  143.929   60.903    0.506    0.343   19.219
  253.130  144.422   57.139    0.490    0.351   18.774
  253.380  144.670   53.507    0.478    0.345   17.695
  253.630  144.711   49.809    0.463    0.326   16.514
  253.880  143.985   48.270    0.456    0.307   15.690
  254.130  143.255   48.486    0.463    0.320   15.085
  254.380  142.966   51.511    0.479    0.340   13.967
  254.630  143.126   54.536    0.476    0.347   12.157
  254.880  143.165   56.913    0.471    0.343   12.135
  255.130  143.201   57.128    0.479    0.333   11.945
  255.380  143.353   62.371    0.488    0.322   12.146
  255.630  143.391   72.839    0.502    0.314   11.826
