~VERSION INFORMATION
 VERS.                 2.0:   CWLS LOG ASCII STANDARD -VERSION 2.0
 WRAP.                  NO:   ONE LINE PER DEPTH STEP
~WELL INFORMATION BLOCK
#MNEM.UNIT           DATA                    DESCRIPTION OF MNEMONIC
#---------    -------------------            -------------------------------
# Generated from Intellog Unique Number	CW_79_81/WELL/2487
WELL.         13-06-081-21W4                 : Well_name    - WELL
LOC .         AA/13-06-081-21W4/0            : Location     - LOCATION
UWI .         AA/13-06-081-21W4/0            : Uwi          - UNIQUE WELL ID
ENTR.         MAX                            : Entered      - ENTERED BY
SRVC.         SCHLUMBERGER                   : Scn          - SERVICE COMPANY
STRT.M        185                            : top_depth    - START DEPTH
STOP.M        434.75                         : bot_depth    - STOP DEPTH
STEP.M        0.25                           : increment    - STEP LENGTH
 NULL. -999.2500:NULL Value
~CURVE INFORMATION BLOCK
#MNEM UNIT       ERCB CURVE CODE    CURVE DESCRIPTION
#-----------   ------------------   ----------------------------------
DEPT.M        00 001 00 00         : DEPTH        - DEPTH
ILD .OHMM     00 120 00 00         : RESD         - DEEP RESISTIVITY (DIL)
NPHI.V/V      00 330 00 00         : PHIN         - NEUTRON POROSITY (SANDSTONE)
DPHI.V/V      00 890 00 00         : PHID         - DENSITY POROSITY (SANDSTONE)
GR  .API      00 310 00 00         : GR           - GAMMA RAY
CALI.MM       00 280 01 00         : CAL          - CALIPER
~PARAMETER INFORMATION
#MNEM.UNIT           DATA             DESCRIPTION OF MNEMONIC
#---------         -----------     ------------------------------
GL  .M        604.15               : gl           - GROUND LEVEL ELEVATION
EREF.M        608.75               : kb           - ELEVATION OF DEPTH REFERENCE
DATM.M        604.15               : datum        - DATUM ELEVATION
TDD .M        442                  : tdd          - TOTAL DEPTH DRILLER
RUN .         ONE                  : Run          - RUN NUMBER
ENG .         BILL                 : Engineer     - RECORDING ENGINEER
WIT .         JIM                  : Witness      - WITNESSED BY
MUD .         GEL                  : Mud_type     - MUD TYPE
MATR.         SANDSTONE            : Logunit      - NEUTRON MATRIX
TMAX.C        28.9                 : BHT          - MAXIMUM RECORDED TEMPERATURE
BHTD.M        442                  : BHTDEP       - MAXIMUM RECORDED TEMPERATURE
MATR.         1                    : LOGUNIT      - NEUTRON MATRIX
RMT .C        23.9                 : MDTP         - TEMPERATURE OF MUD
NEUT.         1                    : NEUTRON      - NEUTRON TYPE
RESI.         0                    : RESIST       - RESISTIVITY TYPE
RMC .OHMM     5.54                 : RMC          - RESISTIVITY OF MUD CAKE
RMF .OHMM     3.27                 : RMF          - RESISTIVITY OF MUD FILTRATE
SUFT.C        -20                  : SUFT         - SURFACE TEMPERATURE
~A  DEPTH     RESD     PHIN     PHID       GR      CAL
# ...
  331.000    9.049    0.423    0.256   89.453  162.105
  331.250    8.526    0.447    0.267   90.879  162.490
  331.500    8.124    0.453    0.264   91.707  162.478
  331.750    7.765    0.453    0.264   93.411  162.543
  332.000    7.468    0.446    0.254   92.405  162.943
  332.250    7.247    0.451    0.255   90.963  162.930
  332.500    7.032    0.461    0.257   92.210  162.913
  332.750    6.902    0.471    0.255   95.190  162.700
  333.000    6.888    0.481    0.253   97.931  162.289
  333.250    7.044    0.497    0.258   96.844  161.873
  333.500    7.323    0.520    0.266   93.847  161.859
  333.750    7.543    0.498    0.258   90.730  161.443
  334.000    7.728    0.472    0.252   89.585  161.331
  334.250    7.872    0.454    0.252   89.697  161.517
  334.500    7.960    0.449    0.256   90.704  162.100
  334.750    7.946    0.457    0.257   93.253  163.525
  335.000    7.883    0.462    0.252   96.484  164.755
  335.250    7.941    0.457    0.244  100.778  165.142
  335.500    7.955    0.458    0.240  102.562  165.825
  335.750    7.954    0.464    0.239  100.640  166.408
  336.000    7.952    0.470    0.240   96.628  166.394
  336.250    7.926    0.465    0.240   95.790  165.097
  336.500    7.802    0.458    0.235  100.013  164.670
  336.750    7.686    0.456    0.239  100.006  165.848
  337.000    7.613    0.469    0.233   98.922  165.536
  337.250    7.640    0.492    0.228   96.881  165.324
  337.500    7.852    0.513    0.231   94.601  165.408
  337.750    8.587    0.500    0.252   92.948  163.928
  338.000    9.661    0.454    0.264   90.697  160.592
  338.250   11.424    0.443    0.259   89.970  158.588
  338.500   13.262    0.455    0.253   88.886  156.879
  338.750   15.383    0.475    0.248   86.487  155.469
  339.000   18.215    0.488    0.245   81.817  154.358
  339.250   23.518    0.473    0.252   73.417  153.629
  339.500   29.844    0.462    0.265   70.916  154.029
  339.750   34.049    0.439    0.252   68.040  155.608
  340.000   34.111    0.395    0.222   64.981  158.085
  340.250   29.675    0.331    0.171   66.885  160.262
  340.500   24.017    0.286    0.129   74.469  161.243
  340.750   18.879    0.351    0.178   85.168  160.179
  341.000   15.957    0.420    0.257   90.889  158.921
  341.250   13.184    0.429    0.288   90.161  159.305
  341.500   12.282    0.420    0.285   88.897  160.287
  341.750   12.101    0.419    0.272   88.890  160.870
  342.000   12.301    0.435    0.262   90.915  160.756
  342.250   12.925    0.461    0.257   94.182  160.175
  342.500   13.229    0.461    0.261   91.432  159.328
  342.750   13.525    0.442    0.255   92.858  158.517
  343.000   13.448    0.426    0.240   94.463  158.004
  343.250   13.046    0.423    0.218   94.216  158.389
  343.500   12.425    0.431    0.201   92.056  159.571
  343.750   11.559    0.439    0.211   90.043  160.751
  344.000   10.864    0.418    0.222   90.782  160.735
  344.250   10.306    0.405    0.229   92.446  160.719
  344.500   10.061    0.411    0.237   92.677  160.706
  344.750   10.059    0.425    0.244   91.472  161.091
  345.000   10.171    0.435    0.247   89.551  161.874
  345.250   10.154    0.428    0.240   89.193  162.486
  345.500   10.073    0.427    0.226   93.418  161.639
  345.750    9.922    0.470    0.224   96.755  162.821
  346.000   10.050    0.481    0.221   99.735  161.909
  346.250   10.314    0.471    0.211  100.923  161.695
  346.500   10.683    0.455    0.200  100.019  162.777
  346.750   11.394    0.451    0.213   97.109  163.475
  347.000   12.128    0.454    0.226   93.364  163.046
  347.250   12.126    0.454    0.215   92.400  163.031
  347.500   11.786    0.442    0.213   90.717  163.018
  347.750   11.309    0.436    0.221   88.796  163.004
  348.000   10.793    0.444    0.234   88.129  163.089
  348.250   10.196    0.464    0.244   92.572  163.551
  348.500    9.961    0.462    0.245   99.289  163.951
  348.750    9.449    0.457    0.240  104.061  164.338
  349.000    9.016    0.466    0.234  101.841  164.723
  349.250    8.687    0.466    0.225   98.365  165.505
  349.500    8.447    0.456    0.217   96.742  166.686
  349.750    8.246    0.459    0.217   97.998  168.279
  350.000    8.180    0.470    0.223  100.730  170.340
  350.250    8.489    0.480    0.222  103.828  172.716
  350.500    9.003    0.487    0.217  102.445  173.000
  350.750    9.764    0.490    0.212   99.926  171.790
  351.000   10.799    0.484    0.212   98.721  169.286
  351.250   12.312    0.462    0.218   99.539  164.869
  351.500   13.525    0.442    0.225   95.294  162.779
  351.750   15.432    0.445    0.228   89.549  161.964
  352.000   17.997    0.444    0.239   77.166  161.752
  352.250   19.707    0.405    0.193   70.702  161.540
  352.500   19.513    0.331    0.109   73.383  161.227
  352.750   18.092    0.276    0.096   79.659  161.208
  353.000   16.746    0.342    0.151   82.390  161.191
  353.250   15.647    0.348    0.161   81.425  161.181
  353.500   14.539    0.358    0.159   78.308  161.467
  353.750   13.598    0.362    0.171   76.266  161.850
  354.000   12.936    0.361    0.201   76.616  162.233
  354.250   12.857    0.366    0.239   79.356  162.614
  354.500   14.012    0.390    0.258   82.336  162.598
  354.750   15.307    0.440    0.269   82.805  162.981
  355.000   16.910    0.446    0.276   81.841  163.366
  355.250   19.155    0.438    0.272   78.843  163.553
  355.500   22.123    0.425    0.252   72.918  163.540
  355.750   25.121    0.379    0.187   62.815  163.523
  356.000   25.913    0.309    0.071   62.557  163.507
  356.250   23.847    0.226    0.036   72.111  162.694
  356.500   19.949    0.241    0.070   80.412  162.181
  356.750   17.623    0.282    0.116   86.859  161.769
  357.000   16.668    0.319    0.152   90.377  161.457
  357.250   15.839    0.376    0.198   89.311  161.439
  357.500   15.353    0.452    0.208   88.804  161.424
  357.750   14.897    0.422    0.209   89.752  160.614
  358.000   14.456    0.390    0.194   89.624  159.502
  358.250   14.029    0.393    0.185   90.811  157.494
  358.500   13.666    0.425    0.201   94.210  155.290
  358.750   13.378    0.435    0.255  100.417  154.957
  359.000   12.967    0.431    0.256  106.385  155.357
  359.250   13.062    0.442    0.251  102.312  154.944
  359.500   12.938    0.445    0.253   99.314  155.727
  359.750   12.792    0.447    0.247  100.023  157.904
  360.000   12.719    0.449    0.234  103.541  160.779
  360.250   12.717    0.448    0.228  104.747  162.756
  360.500   12.715    0.446    0.235  101.250  162.742
  360.750   12.713    0.447    0.241  100.286  162.724
  361.000   12.782    0.450    0.233  101.471  162.710
  361.250   12.876    0.453    0.224  101.223  162.697
  361.500   12.946    0.455    0.225   99.961  162.683
  361.750   12.883    0.454    0.248  103.347  162.663
  362.000   12.585    0.449    0.257  109.566  162.651
  362.250   12.489    0.452    0.250  113.622  162.636
  362.500   12.325    0.460    0.241  111.760  162.324
  362.750   12.140    0.467    0.239  109.479  162.111
  363.000   12.004    0.467    0.242  108.573  162.096
  363.250   12.002    0.451    0.240  106.531  162.162
  363.500   12.000    0.450    0.225  103.534  162.564
  363.750   12.088    0.448    0.216  103.763  162.546
  364.000   12.176    0.444    0.215  104.712  162.233
  364.250   12.265    0.438    0.219  105.182  162.020
  364.500   12.401    0.434    0.222  105.292  161.906
  364.750   12.700    0.433    0.218  106.627  161.656
  365.000   12.797    0.431    0.204  107.365  162.471
  365.250   12.987    0.431    0.196  107.597  162.856
  365.500   13.254    0.427    0.208  109.262  162.941
  365.750   13.502    0.425    0.217  110.688  163.723
  366.000   13.703    0.428    0.216  110.560  165.403
  366.250   13.928    0.441    0.207  108.067  167.294
  366.500   14.035    0.456    0.209  108.805  166.867
  366.750   14.138    0.459    0.213  109.277  165.260
  367.000   14.162    0.447    0.216  108.133  164.247
  367.250   14.054    0.431    0.217  107.646  163.635
