~Version : LASO    vs 4.00
VERS.                2.00:   CWLS Log ASCII Standard -VERSION 2.0
WRAP.                  NO:
~Well Information Block
#MNEM.UNIT       Data                        Description of Mnemonic
#----.----      -------------------------- : -----------------------------
STRT.M             3.0000:
STOP.M           202.0000:
STEP.M             0.1250:
NULL.           -999.2500:
COMP.  MOBILOIL CANADA             :COMPANY
WELL.  MOBIL CLARKE OV 10-26       :WELL
FLD.   CLARKE                      :FIELD
LOC.   10-26-090-07W4              :LOCATION
CTRY.  CANADA                      :COUNTRY
PROV.  ALBERTA                     :PROVINCE
SRVC.  DRESSER ATLAS               :SERVICE COMPANY
DATE.  31-JAN-81                   :LOG DATE
UWI.   AA/10-26-090-07W400         :UNIQUE WELL ID
~Parameter Information Block
#MNEM.UNIT       Data                        Description of Mnemonic
#----.----      -------------------------- : -----------------------------
RUN .                   1                 : Run Number
GL  .M           456.0000                 : Ground Level Elevation
DREF.                  KB                 : Depth Reference
EREF.M           456.0000                 : Elevation of Depth Reference
TDL .M           201.0000                 : Total Depth Logger
TDD .M           203.0000                 : Total Depth Driller
CSGL.M            13.0000                 : Casing Bottom Logger
CSGD.M            12.0000                 : Casing Bottom Driller
CSGS.MM          219.0000                 : Casing Size
CSGW.KG/M          0.0000                 : Casing Weight
BHT .DEGC         18.0000                 : Bottom Hole Temperature
BS  .MM          171.4000                 : Bit Size
DFD .              9.7000                 : Mud Weight (Density)
DFV .             85.0000                 : Mud Viscosity
RM  .OHMM          4.0000                 : Mud Resistivity
RMT .DEGC         18.0000                 : Mud Resistivity Temperature
RMF .OHMM          6.2000                 : Mud Filtrate Resistivity
RMFT.DEGC         12.0000                 : RMF Temperature
RMC .OHMM         11.6000                 : Mud Cake Resistivity
RMCT.DEGC         12.0000                 : RMC Temperature
~Curve Information Block
#MNEM.UNIT        API CODE    Curve Description
#---------    ------------    -------------------------------------------
DEPT.M                    :   DEPTH
CALI.MM       42 280  1  1:   3 DENSITY CALIPER
DPHI.V/V                  :   DPHI
DT  .US/M     60 520 42  1:   2 SONIC INTERVAL TRANSIT TIME (COMPENSATED)
GR  .GAPI     42 310  1  1:   4 GAMMA RAY
LLD .Ohmm                 :   LLD
NPHI.V/V      42 890  3  1:   5 NEUTRON POROSITY (SANDSTONE)
RHOB.K/M3     42 350  1  1:   6 BULK DENSITY
~A  Depth           CALI        DPHI          DT          GR         LLD        NPHI        RHOB
# ...
75.6250         181.2500      0.2890    513.2400     85.5150     42.7437      0.4642   2165.7000
75.7500         182.7750      0.2889    521.0800     87.1800     44.7860      0.4627   2165.7000
75.8750         185.2250      0.2903    527.7200     87.1800     47.9509      0.4684   2174.8999
76.0000         186.4500      0.2901    526.4800     87.5400     51.1662      0.4695   2183.3999
76.1250         187.6750      0.2890    522.8000     87.5400     55.4371      0.4702   2190.8000
76.2500         187.6750      0.2859    521.0800     89.0100     61.4556      0.4609   2196.8999
76.3750         186.7500      0.2832    521.3600     90.4950     66.9157      0.4571   2203.6001
76.5000         185.8250      0.2807    505.9200     88.0950     74.1353      0.4541   2212.2000
76.6250         185.5250      0.2763    496.6000     87.3600     83.5787      0.4474   2220.1001
76.7500         186.7500      0.2734    505.6400     86.2500     91.2487      0.4436   2228.7000
76.8750         186.4500      0.2689    505.4000     87.7200    106.0141      0.4496   2233.6001
77.0000         187.9750      0.2631    504.2000     87.7200    121.3736      0.4571   2234.8000
77.1250         188.9000      0.2589    501.4400     86.6250    142.1306      0.4597   2231.8000
77.2500         187.0500      0.2550    498.8000     83.8500    134.3743      0.4537   2234.8000
77.3750         181.8500      0.2522    497.8000     80.3550    121.4017      0.4448   2242.8000
77.5000         176.3250      0.2505    496.3600     76.3050    125.4556      0.4433   2256.2000
77.6250         175.1000      0.2464    488.2400     73.9050    131.6026      0.4414   2276.3999
77.7500         174.5000      0.2426    432.1200     72.4350    136.7922      0.4283   2295.3999
77.8750         174.5000      0.2379    419.1200     71.5050    141.3262      0.4260   2302.8000
78.0000         175.1000      0.2321    418.8800     72.0600    136.5932      0.4309   2299.1001
78.1250         175.1000      0.2269    420.6000     73.1700    126.1963      0.4403   2278.8999
78.2500         173.5750      0.2219    434.5600     73.1700    113.9148      0.4444   2230.5000
78.3750         172.6500      0.2318    466.9200     72.0600    101.4963      0.4455   2177.8999
78.5000         173.5750      0.2443    503.6400     71.3250     92.9376      0.4421   2152.8000
78.6250         172.6500      0.2698    511.5200     72.9900     83.9985      0.4354   2151.6001
78.7500         170.2000      0.2894    510.0800     75.3750     77.1184      0.4189   2156.5000
78.8750         170.2000      0.2992    509.3200     76.6650     65.7956      0.4189   2163.2000
79.0000         169.9000      0.2982    509.3200     79.0650     57.6831      0.4208   2165.7000
79.1250         169.3000      0.2970    508.8400     82.9350     51.5423      0.4200   2168.7000
79.2500         169.3000      0.2957    506.1600     85.1400     45.6278      0.4238   2171.2000
79.3750         170.8250      0.2948    503.4000     87.1800     39.7432      0.4324   2171.8000
79.5000         172.0500      0.2932    499.0400     88.8300     33.8632      0.4410   2170.0000
79.6250         170.8250      0.2919    498.0400     89.5650     30.3746      0.4493   2165.7000
79.7500         170.8250      0.2917    514.9600     92.7000     28.1371      0.4605   2163.2000
79.8750         171.1250      0.2926    522.5600     96.7500     26.9513      0.4714   2163.2000
80.0000         171.7500      0.2927    532.8800     98.4150     26.7905      0.4796   2164.5000
80.1250         178.1750      0.2936    544.4000     98.0400     26.8362      0.4807   2166.3000
80.2500         181.2500      0.2955    560.8000     97.6800     27.6135      0.4954   2163.2000
80.3750         182.4750      0.2969    564.4800     98.2350     27.9317      0.4994   2166.3000
80.5000         183.0750      0.2980    564.9600     99.3300     29.4961      0.5047   2162.0000
80.6250         183.7000      0.2983    564.0000    101.7300     31.0035      0.5043   2161.3999
80.7500         184.0000      0.2992    560.8000    102.6600     33.0569      0.4912   2158.8999
80.8750         185.5250      0.3008    557.8800    102.8400     35.2050      0.4856   2154.0000
81.0000         186.7500      0.3008    554.9200    102.4650     38.2591      0.4849   2149.2000
81.1250         186.4500      0.3018    552.4800    102.6600     40.1556      0.4796   2146.7000
81.2500         186.4500      0.3040    548.5600    103.3950     42.6846      0.4642   2147.8999
81.3750         187.0500      0.3052    550.2800    102.2850     45.8214      0.4590   2152.2000
81.5000         188.9000      0.3044    549.7600     99.3300     49.0299      0.4605   2158.3000
81.6250         189.2000      0.3001    547.0800     96.0150     51.2846      0.4627   2168.7000
81.7500         189.2000      0.2963    542.4400     90.8550     53.4574      0.4646   2179.7000
81.8750         189.5000      0.2935    538.0000     90.6750     55.6242      0.4556   2192.6001
82.0000         189.8250      0.2900    536.2800     92.1450     57.7907      0.4511   2203.0000
82.1250         189.8250      0.2863    532.8800     94.1700     61.1836      0.4478   2209.7000
82.2500         190.7250      0.2836    528.9200     96.0150     63.9098      0.4410   2213.3999
82.3750         191.3500      0.2810    526.7200     98.4150     66.7197      0.4384   2215.2000
82.5000         192.8750      0.2776    523.0400     99.5250     69.0066      0.4354   2215.8999
82.6250         194.4000      0.2729    517.4400     96.7500     68.6470      0.4324   2215.8999
82.7500         195.0250      0.2699    505.1600     93.9900     67.8228      0.4451   2212.2000
82.8750         196.2500      0.2673    503.6400     94.7250     67.7564      0.4496   2204.2000
83.0000         196.2500      0.2658    505.4000     96.9450     66.1449      0.4530   2195.7000
83.1250         197.4750      0.2661    509.3200     97.6800     67.6354      0.4594   2189.5000
83.2500         197.7750      0.2671    511.0400     98.5950     69.6875      0.4729   2182.8000
83.3750         198.1000      0.2690    515.9600     99.8850     70.0929      0.4729   2174.2000
83.5000         196.8750      0.2712    520.3600    100.0800     69.3742      0.4721   2171.2000
83.6250         195.9500      0.2734    522.5600     99.3300     68.6542      0.4699   2173.6001
83.7500         196.5500      0.2779    514.0000     95.4600     69.3194      0.4567   2177.3000
83.8750         196.5500      0.2814    513.0000     92.1450     71.2608      0.4571   2179.1001
84.0000         195.9500      0.2845    515.7200     89.0100     75.2094      0.4556   2185.3000
84.1250         193.5000      0.2872    511.2800     88.0950     78.6893      0.4552   2198.1001
84.2500         189.8250      0.2877    505.9200     89.5650     80.4447      0.4493   2215.2000
84.3750         187.3750      0.2859    499.5200     91.4100     82.0079      0.4481   2234.2000
84.5000         186.4500      0.2807    496.3600     91.0500     82.2308      0.4459   2248.8999
84.6250         186.7500      0.2747    497.8000     89.9400     82.3378      0.4376   2264.2000
84.7500         185.5250      0.2675    491.4400     89.3850     80.9112      0.4346   2280.7000
84.8750         186.7500      0.2600    483.1200     88.8300     78.6734      0.4324   2298.5000
85.0000         187.3750      0.2545    470.8400     88.6500     74.8935      0.4294   2313.8000
85.1250         184.9250      0.2463    456.8800     88.0950     69.2188      0.4271   2329.1001
85.2500         181.2500      0.2386    444.4000     88.0950     64.2222      0.4328   2346.2000
85.3750         180.9250      0.2331    444.6400     90.4950     61.5958      0.4373   2352.3000
85.5000         181.5500      0.2238    446.8400     92.8800     58.1281      0.4421   2335.8000
85.6250         185.8250      0.2137    453.9600     94.7250     55.9671      0.4403   2296.6001
85.7500         188.9000      0.2047    491.4400     98.9700     52.9553      0.4451   2265.3999
85.8750         190.4250      0.1946    500.2400    103.0200     52.2345      0.4485   2259.3000
