~VERSION INFORMATION
 VERS.                 2.0:   CWLS LOG ASCII STANDARD -VERSION 2.0
 WRAP.                  NO:   ONE LINE PER DEPTH STEP
~WELL INFORMATION BLOCK
#MNEM.UNIT           DATA                    DESCRIPTION OF MNEMONIC
#---------    -------------------            -------------------------------
# Generated from Intellog Unique Number	CN_94_101/WELL/5047
WELL.         15-14-101-13W4                 : Well_name    - WELL
LOC .         AA/15-14-101-13W4/0            : Location     - LOCATION
UWI .         AA/15-14-101-13W400            : Uwi          - UNIQUE WELL ID
ENTR.         TIM                            : Entered      - ENTERED BY
SRVC.         SCHLUMBERGER                   : Scn          - SERVICE COMPANY
DATE.         08/14/92                       : Date         - LOG DATE
STRT.M        370                            : top_depth    - START DEPTH
STOP.M        585                            : bot_depth    - STOP DEPTH
STEP.M        0.25                           : increment    - STEP LENGTH
NULL. -999.2500:NULL Value
~CURVE INFORMATION BLOCK
#MNEM UNIT       ERCB CURVE CODE    CURVE DESCRIPTION
#-----------   ------------------   ----------------------------------
DEPT.M        00 001 00 00         : DEPTH        - DEPTH
GR  .API      00 310 00 00         : GR           - GAMMA RAY
ILD .OHMM     00 120 00 00         : RESD         - DEEP RESISTIVITY (DIL)
NPHI.V/V      00 330 00 00         : PHIN         - NEUTRON POROSITY (SANDSTONE)
DPHI.V/V      00 890 00 00         : PHID         - DENSITY POROSITY (SANDSTONE)
~PARAMETER INFORMATION
#MNEM.UNIT           DATA             DESCRIPTION OF MNEMONIC
#---------         -----------     ------------------------------
GL  .M        804                  : gl           - GROUND LEVEL ELEVATION
EREF.M        809                  : kb           - ELEVATION OF DEPTH REFERENCE
DATM.M        809                  : datum        - DATUM ELEVATION
TDD .M        590                  : tdd          - TOTAL DEPTH DRILLER
RUN .         ONE                  : Run          - RUN NUMBER
ENG .         BILL                 : Engineer     - RECORDING ENGINEER
WIT .         JIM                  : Witness      - WITNESSED BY
MUD .         GEL                  : Mud_type     - MUD TYPE
MATR.         SANDSTONE            : Logunit      - NEUTRON MATRIX
TMAX.C        25                   : BHT          - MAXIMUM RECORDED TEMPERATURE
BHTD.M        590                  : BHTDEP       - MAXIMUM RECORDED TEMPERATURE
RMT .C        10                   : MDTP         - TEMPERATURE OF MUD
MUDD.KG/M     1090                 : MWT          - MUD DENSITY
NEUT.         1                    : NEUTRON      - NEUTRON TYPE
RESI.         0                    : RESIST       - RESISTIVITY TYPE
RM  .OHMM     5.7                  : RM           - RESISTIVITY OF MUD
RMC .OHMM     5.7                  : RMC          - RESISTIVITY OF MUD CAKE
RMF .OHMM     5.7                  : RMF          - RESISTIVITY OF MUD FILTRATE
SUFT.C        4                    : SUFT         - SURFACE TEMPERATURE
~A  DEPTH       GR     RESD     PHIN     PHID
# ...
  457.000  109.105    8.977    0.547    0.317
  457.250  108.489    7.541    0.539    0.326
  457.500  106.636    6.721    0.518    0.326
  457.750  106.021    5.902    0.509    0.323
  458.000  107.261    5.496    0.505    0.318
  458.250  108.499    5.295    0.510    0.315
  458.500  110.975    5.507    0.515    0.310
  458.750  113.450    5.929    0.519    0.307
  459.000  113.453    6.138    0.525    0.306
  459.250  112.839    6.146    0.527    0.306
  459.500  112.840    5.944    0.526    0.306
  459.750  112.224    5.536    0.522    0.304
  460.000  111.608    4.719    0.521    0.301
  460.250  111.611    4.106    0.519    0.300
  460.500  111.613    3.904    0.516    0.303
  460.750  112.235    3.705    0.521    0.305
  461.000  112.238    3.711    0.543    0.299
  461.250  110.385    3.718    0.564    0.294
  461.500  109.769    3.721    0.567    0.289
  461.750  109.772    3.728    0.541    0.295
  462.000  110.392    3.732    0.519    0.306
  462.250  111.632    3.943    0.510    0.311
  462.500  112.872    4.157    0.503    0.311
  462.750  113.492    4.573    0.509    0.305
  463.000  114.113    5.404    0.512    0.297
  463.250  114.734    6.440    0.515    0.286
  463.500  115.355    7.270    0.516    0.281
  463.750  116.594    7.276    0.512    0.285
  464.000  118.451    6.871    0.511    0.292
  464.250  122.164    6.464    0.512    0.300
  464.500  125.876    6.056    0.538    0.308
  464.750  130.206    5.240    0.549    0.311
  465.000  135.774    4.832    0.540    0.313
  465.250  137.013    4.426    0.530    0.312
  465.500  138.252    4.225    0.552    0.297
  465.750  138.874    4.229    0.556    0.285
  466.000  135.166    4.030    0.563    0.285
  466.250  127.132    4.034    0.572    0.295
  466.500  127.752    4.040    0.574    0.295
  466.750  133.319    4.046    0.516    0.287
  467.000  137.032    4.257    0.523    0.276
  467.250  137.035    4.263    0.547    0.256
  467.500  136.419    4.475    0.552    0.256
  467.750  133.948    4.482    0.558    0.264
  468.000  129.622    4.486    0.531    0.269
  468.250  123.442    4.493    0.500    0.270
  468.500  136.429    4.497    0.469    0.272
  468.750  138.904    4.503    0.452    0.271
  469.000  143.236    4.714    0.443    0.265
  469.250  141.383    5.338    0.442    0.261
  469.500  134.585    6.168    0.438    0.256
  469.750  132.113    7.826    0.438    0.254
  470.000  129.026    8.449    0.442    0.258
  470.250  127.790    9.071    0.441    0.261
  470.500  125.938    9.695    0.441    0.267
  470.750  124.704    9.907    0.444    0.269
  471.000  122.852    9.912    0.474    0.269
  471.250  121.000    9.506    0.484    0.270
  471.500  119.766    9.101    0.486    0.270
  471.750  117.914    8.489    0.463    0.270
  472.000  115.442    8.083    0.442    0.266
  472.250  112.973    7.675    0.434    0.262
  472.500  112.975    7.267    0.424    0.259
  472.750  113.595    7.068    0.423    0.260
  473.000  113.598    7.279    0.421    0.261
  473.250  113.601    7.697    0.421    0.265
  473.500  113.603    7.908    0.450    0.269
  473.750  114.224    7.707    0.461    0.270
  474.000  112.991    7.300    0.440    0.272
  474.250  111.756    7.100    0.432    0.270
  474.500  109.904    7.108    0.421    0.267
  474.750  112.380    7.111    0.414    0.266
  475.000  113.619    7.530    0.421    0.266
  475.250  114.858    8.362    0.442    0.267
  475.500  114.242    8.987    0.444    0.267
  475.750  113.626    9.402    0.445    0.265
  476.000  115.483    9.201    0.452    0.264
  476.250  117.341    8.385    0.458    0.261
  476.500  119.199    7.976    0.464    0.261
  476.750  117.347    7.363    0.468    0.262
  477.000  115.495    6.341    0.463    0.267
  477.250  116.116    6.140    0.442    0.270
  477.500  114.883    5.938    0.434    0.267
  477.750  113.030    5.739    0.442    0.267
  478.000  111.177    5.949    0.445    0.272
  478.250  113.652    6.368    0.442    0.276
  478.500  117.983    6.786    0.496    0.285
  478.750  119.222    6.997    0.526    0.291
  479.000  121.080    6.386    0.540    0.301
  479.250  122.320    6.183    0.553    0.298
  479.500  122.940    5.572    0.505    0.293
  479.750  119.233    5.370    0.475    0.287
  480.000  115.526    5.169    0.463    0.282
  480.250  118.619    5.382    0.467    0.273
  480.500  121.095    5.593    0.467    0.268
  480.750  121.098    6.424    0.456    0.272
  481.000  120.482    7.048    0.454    0.273
  481.250  119.866    6.849    0.495    0.276
  481.500  118.632    6.647    0.510    0.278
  481.750  116.162    5.830    0.518    0.283
  482.000  116.783    5.423    0.516    0.291
  482.250  119.258    4.812    0.517    0.296
  482.500  123.590    4.610    0.519    0.299
  482.750  126.684    4.408    0.526    0.303
  483.000  127.304    3.795    0.534    0.308
  483.250  126.689    3.390    0.539    0.310
  483.500  126.691    3.396    0.569    0.312
  483.750  126.075    3.400    0.577    0.313
  484.000  126.078    3.407    0.587    0.313
  484.250  126.698    3.206    0.597    0.315
  484.500  126.701    3.211    0.605    0.321
  484.750  124.849    2.805    0.595    0.329
  485.000  125.470    2.606    0.574    0.335
  485.250  125.472    2.405    0.560    0.320
  485.500  126.094    2.410    0.538    0.305
  485.750  127.951    3.241    0.524    0.294
  486.000  130.427    3.865    0.509    0.287
  486.250  131.048    4.282    0.483    0.282
  486.500  131.669    4.904    0.477    0.276
  486.750  128.579    6.149    0.470    0.272
  487.000  123.018    6.567    0.469    0.266
  487.250  124.257    6.777    0.467    0.262
  487.500  126.114    7.198    0.465    0.261
  487.750  127.973    7.409    0.461    0.258
  488.000  128.593    7.412    0.459    0.260
  488.250  128.595    7.420    0.455    0.261
  488.500  127.979    7.425    0.452    0.263
  488.750  127.983    7.430    0.450    0.267
  489.000  127.986    7.228    0.445    0.264
  489.250  127.987    7.029    0.441    0.263
  489.500  127.991    7.035    0.439    0.261
  489.750  127.992    7.039    0.434    0.258
  490.000  126.758    7.046    0.426    0.260
  490.250  125.526    7.052    0.421    0.261
  490.500  124.909    7.263    0.426    0.259
  490.750  124.911    7.267    0.438    0.256
  491.000  126.152    7.894    0.444    0.252
  491.250  127.390    8.103    0.442    0.258
  491.500  128.629    8.315    0.442    0.266
  491.750  128.014    7.909    0.449    0.267
  492.000  127.397    7.094    0.457    0.267
  492.250  125.545    6.890    0.465    0.264
  492.500  121.219    6.278    0.468    0.259
  492.750  116.894    5.871    0.466    0.258
  493.000  115.042    5.878    0.459    0.258
  493.250  114.426    6.296    0.446    0.256
  493.500  113.192    6.712    0.436    0.253
  493.750  112.577    8.160    0.428    0.248
  494.000  111.960    8.990    0.423    0.273
  494.250  109.490    9.409    0.429    0.266
  494.500  106.401    9.414    0.426    0.264
  494.750  100.838    9.422    0.420    0.258
  495.000   97.749    9.219    0.415    0.256
  495.250   96.515    8.812    0.408    0.254
  495.500   96.519    8.407    0.402    0.256
  495.750   98.994    8.002    0.408    0.264
  496.000  105.179    8.006    0.436    0.270
  496.250  110.128    7.806    0.460    0.272
  496.500  116.314    7.194    0.488    0.275
  496.750  121.263    6.785    0.513    0.282
  497.000  123.739    5.760    0.526    0.284
  497.250  125.596    4.943    0.524    0.284
  497.500  131.164    4.741    0.520    0.284
  497.750  135.494    4.130    0.523    0.288
  498.000  139.825    3.928    0.528    0.291
  498.250  140.447    3.729    0.539    0.298
  498.500  139.213    3.528    0.560    0.303
  498.750  138.597    3.329    0.560    0.311
  499.000  138.600    3.336    0.587    0.319
  499.250  138.602    3.136    0.598    0.321
  499.500  137.369    3.138    0.593    0.321
  499.750  136.135    3.144    0.586    0.319
  500.000  135.518    3.150    0.563    0.311
  500.250  134.902    3.572    0.559    0.303
