~VERSION INFORMATION
 VERS.                 2.0:   CWLS LOG ASCII STANDARD -VERSION 2.0
 WRAP.                  NO:   ONE LINE PER DEPTH STEP
~WELL INFORMATION BLOCK
#MNEM.UNIT           DATA                    DESCRIPTION OF MNEMONIC
#---------    -------------------            -------------------------------
# Generated from Intellog Unique Number	CN_94_101/WELL/5037
WELL.         14-02-098-07W4                 : Well_name    - WELL
LOC .         AA/14-02-098-07W4/0            : Location     - LOCATION
UWI .         AA/14-02-098-07W400            : Uwi          - UNIQUE WELL ID
ENTR.         TIM                            : Entered      - ENTERED BY
SRVC.         SCHLUMBERGER                   : Scn          - SERVICE COMPANY
DATE.         08/11/92                       : Date         - LOG DATE
STRT.M        0                              : top_depth    - START DEPTH
STOP.M        70                             : bot_depth    - STOP DEPTH
STEP.M        0.25                           : increment    - STEP LENGTH
 NULL. -999.2500:NULL Value
~CURVE INFORMATION BLOCK
#MNEM UNIT       ERCB CURVE CODE    CURVE DESCRIPTION
#-----------   ------------------   ----------------------------------
DEPT.M        00 001 00 00         : DEPTH        - DEPTH
GR  .API      00 310 00 00         : GR           - GAMMA RAY
NPHI.V/V      00 330 00 00         : PHIN         - NEUTRON POROSITY (SANDSTONE)
ILD .OHMM     00 120 00 00         : RESD         - DEEP RESISTIVITY (DIL)
~PARAMETER INFORMATION
#MNEM.UNIT           DATA             DESCRIPTION OF MNEMONIC
#---------         -----------     ------------------------------
GL  .M        319                  : gl           - GROUND LEVEL ELEVATION
EREF.M        319                  : kb           - ELEVATION OF DEPTH REFERENCE
DATM.M        319                  : datum        - DATUM ELEVATION
TDD .M        70                   : tdd          - TOTAL DEPTH DRILLER
RUN .         ONE                  : Run          - RUN NUMBER
ENG .         BILL                 : Engineer     - RECORDING ENGINEER
WIT .         JIM                  : Witness      - WITNESSED BY
MUD .         GEL                  : Mud_type     - MUD TYPE
MATR.         SANDSTONE            : Logunit      - NEUTRON MATRIX
TMAX.C        10                   : BHT          - MAXIMUM RECORDED TEMPERATURE
BHTD.M        70                   : BHTDEP       - MAXIMUM RECORDED TEMPERATURE
RMT .C        10                   : MDTP         - TEMPERATURE OF MUD
MUDD.KG/M     1020                 : MWT          - MUD DENSITY
NEUT.         1                    : NEUTRON      - NEUTRON TYPE
RESI.         0                    : RESIST       - RESISTIVITY TYPE
RM  .OHMM     9                    : RM           - RESISTIVITY OF MUD
RMC .OHMM     9                    : RMC          - RESISTIVITY OF MUD CAKE
RMF .OHMM     0                    : RMF          - RESISTIVITY OF MUD FILTRATE
SUFT.C        4                    : SUFT         - SURFACE TEMPERATURE
~A  DEPTH       GR     PHIN     RESD
    0.000   43.448   -0.061    0.000
    0.250   37.252   -0.092    0.000
    0.500   32.918   -0.095    0.000
    0.750   30.444   -0.095    0.000
    1.000   31.695   -0.085    0.000
    1.250   38.534    0.140    0.000
    1.500   39.165    0.448    0.000
    1.750   44.141    0.512    0.000
    2.000   47.875    0.506    0.000
    2.250   54.093    0.475    0.000
    2.500   49.760    0.486    0.000
    2.750   49.147    0.473    0.000
    3.000   59.089    0.480    0.000
    3.250   54.132    0.452    0.000
    3.500   54.764    0.464    0.000
    3.750   54.775    0.446    0.000
    4.000   58.509    0.426    0.000
    4.250   64.725    0.433    0.000
    4.500   65.356    0.456    0.000
    4.750   59.781    0.453    0.000
    5.000   59.170    0.466    0.000
    5.250   56.700    0.453    0.000
    5.500   58.572    0.468    0.000
    5.750   50.514    0.460    0.000
    6.000   63.557    0.473    0.000
    6.250   59.843    0.452    0.000
    6.500   53.027    0.450    0.000
    6.750   48.071    0.439    0.000
    7.000   51.806    0.436    0.000
    7.250   60.506    0.467    0.000
    7.500   64.862    0.482    0.000
    7.750   49.356    0.464    0.000
    8.000   49.986    0.469    0.000
    8.250   53.099    0.479    0.000
    8.500   54.350    0.469    0.000
    8.750   46.913    0.461    0.000
    9.000   55.613    0.443    0.000
    9.250   48.177    0.396    0.000
    9.500   46.324    0.281    0.000
    9.750   32.059    0.250    0.000
   10.000   29.587    0.265   51.761
   10.250   33.321    0.298   51.783
   10.500   37.056    0.347   51.071
   10.750   36.444    0.383   50.367
   11.000   40.180    0.398   51.103
   11.250   62.533    0.390   54.102
   11.500   60.061    0.392   55.675
   11.750   75.588    0.320   52.626
   12.000   63.185    0.320   51.173
   12.250   45.196    0.353   58.147
   12.500   50.792    0.333   74.003
   12.750   58.872    0.320   69.953
   13.000   68.813    0.332   66.121
   13.250   76.891    0.350   60.754
   13.500   84.351    0.355   52.003
   13.750   87.463    0.365   64.341
   14.000   76.301    0.350   75.211
   14.250   49.623    0.306   67.175
   14.500   46.530    0.308   76.334
   14.750   70.127    0.326   67.220
   15.000   78.205    0.339   58.361
   15.250   72.009    0.336   58.383
   15.500   83.813    0.336   68.246
   15.750   80.099    0.341   86.859
   16.000   60.247    0.343  100.110
   16.250   37.293    0.320  131.075
   16.500   36.062    0.297  142.749
   16.750   38.556    0.281  162.211
   17.000   32.982    0.263  209.380
   17.250   34.854    0.268  688.387
   17.500   39.209    0.278  827.842
   17.750   33.632    0.304  954.129
   18.000   32.401    0.291 1053.930
   18.250   36.755    0.293 1399.550
   18.500   37.388    0.298 1659.400
   18.750   34.294    0.311 1286.370
   19.000   36.789    0.321 2612.810
   19.250   41.143    0.310 2083.650
   19.500   29.360    0.318 3621.440
   19.750   29.991    0.310 3471.920
   20.000   34.346    0.320 2616.260
   20.250   38.700    0.294 2769.690
   20.500   50.504    0.307  591.627
   20.750   70.996    0.330   99.332
   21.000   58.593    0.335  114.485
   21.250   51.157    0.337  188.017
   21.500   62.958    0.342  304.436
   21.750   71.038    0.352  177.778
   22.000   90.909    0.355  133.964
   22.250   77.886    0.378   81.626
   22.500   82.861    0.395   90.163
   22.750   66.734    0.393  118.052
   23.000   58.676    0.367  134.152
   23.250   72.341    0.356  114.830
   23.500   80.421    0.333   68.983
   23.750   89.741    0.338   73.031
   24.000   87.889    0.351   67.103
   24.250   92.866    0.371   67.128
   24.500   87.289    0.351   85.426
   24.750   73.024    0.338   81.899
   25.000   82.344    0.332   67.189
   25.250   85.457    0.317   66.272
   25.500   84.226    0.322   62.639
   25.750   82.376    0.342   60.053
   26.000   87.972    0.314   74.294
   26.250   88.603    0.316   75.379
   26.500   73.717    0.324   71.250
   26.750   66.900    0.321   78.703
   27.000   50.153    0.321  153.200
   27.250   58.852    0.285  148.976
   27.500   37.760    0.282  181.719
   27.750   23.495    0.320  781.886
   28.000   14.817    0.299  967.300
   28.250   17.931    0.240 3180.230
   28.500   22.286    0.250 2963.770
   28.750   29.123    0.255 1267.330
   29.000   29.133    0.250 2202.660
   29.250   37.833    0.288 1054.890
   29.500   35.361    0.278 1148.840
   29.750   32.270    0.286 3619.800
   30.000   31.038    0.273 4291.880
   30.250   31.668    0.272 3374.530
   30.500   26.714    0.282  984.387
   30.750   29.207    0.305 1325.850
   31.000   29.838    0.303 2272.040
   31.250   32.331    0.279 2891.710
   31.500   32.962    0.269 3239.750
   31.750   29.870    0.251 3787.090
   32.000   20.569    0.246 4958.470
   32.250   26.166    0.245 4620.970
   32.500   21.832    0.248 2622.970
   32.750   24.945    0.286 4494.860
   33.000   25.575    0.283 3958.180
   33.250   30.552    0.255 1489.970
   33.500   33.045    0.216 2154.080
   33.750   20.021    0.191 2248.330
   34.000   10.721    0.219 4502.290
   34.250   17.560    0.229 4195.840
   34.500   17.569    0.223 1189.790
   34.750   14.477    0.216  347.073
   35.000   14.486    0.182  569.995
   35.250   18.841    0.184  247.222
   35.500   28.785    0.210  629.824
   35.750   35.000    0.233  423.758
   36.000   84.042    0.292   22.910
   36.250  149.222    0.402   16.782
   36.500  133.714    0.473   20.469
   36.750  107.660    0.440   24.616
   37.000  130.012    0.429   18.031
   37.250  142.435    0.434   16.805
   37.500  151.755    0.455   16.341
   37.750  146.180    0.467   16.117
   38.000  146.190    0.472   15.672
   38.250  129.443    0.467   15.239
   38.500  118.282    0.451   14.611
   38.750  131.947    0.449   15.910
   39.000  133.198    0.410   21.735
   39.250  106.520    0.351   31.423
   39.500  108.393    0.287   33.266
   39.750  127.643    0.287   24.368
   40.000  145.652    0.302   20.566
   40.250  125.181    0.322   25.443
   40.500  115.263    0.325   36.266
   40.750  111.548    0.330   42.396
   41.000  104.731    0.329   43.629
   41.250   89.225    0.329   53.214
   41.500   86.752    0.329   46.201
   41.750  106.624    0.313   31.085
   42.000  115.944    0.308   30.228
   42.250   97.334    0.326   26.998
   42.500  115.346    0.326   30.248
   42.750  114.734    0.336   24.122
   43.000  134.605    0.397   18.437
   43.250  152.615    0.453   17.182
   43.500  151.383    0.440   16.945
   43.750  138.981    0.389   18.195
   44.000  129.060    0.322   24.506
   44.250  118.522    0.304   27.456
   44.500  111.704    0.296   27.081
   44.750   79.440    0.291   35.454
   45.000   64.554    0.288   46.419
   45.250   47.807    0.314   78.424
   45.500   36.025    0.290  136.308
   45.750   35.414    0.280   95.688
   46.000   39.770    0.298  113.454
   46.250   44.124    0.290   78.531
   46.500   48.481    0.277   72.156
   46.750   54.076    0.290  214.828
   47.000   67.120    0.287  110.435
   47.250   86.991    0.310   55.972
   47.500   57.210    0.310   82.075
   47.750   43.565    0.307   84.461
   48.000   44.196    0.312  134.836
   48.250   44.206    0.317  107.528
   48.500   42.356    0.312  134.930
   48.750   38.644    0.270  255.315
   49.000   45.480    0.265   87.035
   49.250   43.628    0.288  115.582
   49.500   39.914    0.298  140.974
   49.750   40.545    0.277  174.404
   50.000   41.797    0.270  215.762
   50.250   50.498    0.269  137.172
   50.500   52.991    0.279   99.065
   50.750   48.036    0.274  145.270
   51.000   47.425    0.292  151.633
   51.250   37.504    0.310  158.267
   51.500   40.620    0.310  167.549
   51.750   33.180    0.297  187.707
   52.000   32.571    0.296  345.258
   52.250   34.443    0.289  386.812
   52.500   29.489    0.276  229.104
   52.750   30.120    0.278  219.654
   53.000   25.165    0.285  256.774
   53.250   27.037    0.260  355.780
   53.500   30.771    0.272  392.995
   53.750   36.366    0.298  366.245
   54.000   33.277    0.293  260.781
