~VERSION INFORMATION
 VERS.                 2.0:   CWLS LOG ASCII STANDARD -VERSION 2.0
 WRAP.                  NO:   ONE LINE PER DEPTH STEP
~WELL INFORMATION BLOCK
#MNEM.UNIT           DATA                    DESCRIPTION OF MNEMONIC
#---------    -------------------            -------------------------------
# Generated from Intellog Unique Number	CW_82_90/WELL/3443
WELL.         CDN SUP MINK OV                : Well_name    - WELL
LOC .         AA/10-31-088-19W4/0            : Location     - LOCATION
UWI .         AA/10-31-088-19W400            : Uwi          - UNIQUE WELL ID
ENTR.         MAX                            : Entered      - ENTERED BY
SRVC.         SCHLUMBERGER                   : Scn          - SERVICE COMPANY
STRT.M        76.2                           : top_depth    - START DEPTH
STOP.M        269.45                         : bot_depth    - STOP DEPTH
STEP.M        0.25                           : increment    - STEP LENGTH
 NULL. -999.2500:NULL Value
~CURVE INFORMATION BLOCK
#MNEM UNIT       ERCB CURVE CODE    CURVE DESCRIPTION
#-----------   ------------------   ----------------------------------
DEPT.M        00 001 00 00         : DEPTH        - DEPTH
ILD .OHMM     00 120 00 00         : RESD         - DEEP RESISTIVITY (DIL)
NPHI.V/V      00 330 00 00         : PHIN         - NEUTRON POROSITY (SANDSTONE)
DPHI.V/V      00 890 00 00         : PHID         - DENSITY POROSITY (SANDSTONE)
CALI.MM       00 280 01 00         : CAL          - CALIPER
GR  .API      00 310 00 00         : GR           - GAMMA RAY
~PARAMETER INFORMATION
#MNEM.UNIT           DATA             DESCRIPTION OF MNEMONIC
#---------         -----------     ------------------------------
GL  .M        514.198              : gl           - GROUND LEVEL ELEVATION
EREF.M        518.465              : kb           - ELEVATION OF DEPTH REFERENCE
DATM.M        514.198              : datum        - DATUM ELEVATION
TDD .M        271.272              : tdd          - TOTAL DEPTH DRILLER
RUN .         ONE                  : Run          - RUN NUMBER
ENG .         BILL                 : Engineer     - RECORDING ENGINEER
WIT .         JIM                  : Witness      - WITNESSED BY
MUD .         GEL                  : Mud_type     - MUD TYPE
MATR.         SANDSTONE            : Logunit      - NEUTRON MATRIX
TMAX.C        23.8889              : BHT          - MAXIMUM RECORDED TEMPERATURE
BHTD.M        271.272              : BHTDEP       - MAXIMUM RECORDED TEMPERATURE
MATR.         1                    : LOGUNIT      - NEUTRON MATRIX
RMT .C        17.7778              : MDTP         - TEMPERATURE OF MUD
NEUT.         1                    : NEUTRON      - NEUTRON TYPE
RESI.         0                    : RESIST       - RESISTIVITY TYPE
RMC .OHMM     4.51                 : RMC          - RESISTIVITY OF MUD CAKE
RMF .OHMM     4.51                 : RMF          - RESISTIVITY OF MUD FILTRATE
SUFT.C        -15                  : SUFT         - SURFACE TEMPERATURE
~A  DEPTH     RESD     PHIN     PHID      CAL       GR
   76.200   18.313    0.487    0.336  241.010   60.176
   76.450   23.616    0.477    0.348  242.539   55.127
   76.700   28.068    0.469    0.373  248.615   50.672
   76.950   31.031    0.465    0.344  253.179   46.514
   77.200   31.906    0.459    0.355  258.246   48.315
   77.450   33.102    0.452    0.364  261.796   51.603
   77.700   34.345    0.446    0.367  265.349   49.531
   77.950   34.995    0.436    0.370  269.412   53.416
   78.200   34.702    0.439    0.364  272.458   54.621
   78.450   34.724    0.455    0.399  277.020   55.231
   78.700   34.746    0.466    0.414  284.609   55.541
   78.950   35.090    0.460    0.437  276.560   57.939
   79.200   35.110    0.496    0.437  248.335   62.716
   79.450   35.132    0.539    0.378  230.702   60.649
   79.700   35.155    0.504    0.363  226.185   57.384
   79.950   37.148    0.473    0.366  229.236   52.629
   80.200   38.192    0.451    0.382  230.265   50.857
   80.450   38.561    0.454    0.448  226.759   52.657
   80.700   38.592    0.490    0.422  223.250   55.052
   80.950   38.610    0.497    0.374  222.261   55.066
   81.200   38.986    0.478    0.382  221.781   55.376
   81.450   39.366    0.456    0.380  218.275   55.091
   81.700   39.753    0.482    0.384  219.306   53.318
   81.950   40.137    0.491    0.357  220.332   53.331
   82.200   40.163    0.483    0.360  222.374   55.431
   82.450   40.554    0.480    0.373  224.411   56.037
   82.700   40.214    0.487    0.375  225.445   56.348
   82.950   39.517    0.477    0.368  225.470   56.361
   83.200   37.451    0.457    0.360  227.510   57.569
   83.450   35.173    0.482    0.381  227.532   57.584
   83.700   30.173    0.499    0.374  224.531   59.086
   83.950   35.220    0.490    0.362  222.031   59.397
   84.200   34.298    0.473    0.369  222.047   60.003
   84.450   34.016    0.481    0.411  222.574   59.122
   84.700   34.032    0.513    0.380  222.596   56.157
   84.950   34.364    0.511    0.362  221.113   52.895
   85.200   34.701    0.498    0.362  220.121   52.012
   85.450   34.724    0.495    0.374  219.636   52.026
   85.700   34.432    0.492    0.366  219.664   51.742
   85.950   34.144    0.488    0.372  220.689   51.754
   86.200   33.855    0.480    0.372  220.712   52.068
   86.450   33.879    0.467    0.357  221.238   52.674
   86.700   33.898    0.484    0.350  222.776   53.283
   86.950   34.231    0.498    0.348  221.793   56.576
   87.200   33.941    0.517    0.372  224.337   57.484
   87.450   33.676    0.516    0.360  225.368   57.196
   87.700   33.686    0.479    0.351  224.883   55.423
   87.950   33.700    0.447    0.346  223.392   53.946
   88.200   33.721    0.470    0.356  222.915   52.471
   88.450   33.745    0.485    0.363  222.932   51.291
   88.700   33.767    0.498    0.368  222.957   50.412
   88.950   33.786    0.509    0.348  222.472   49.531
   89.200   33.810    0.514    0.329  220.984   49.246
   89.450   33.527    0.489    0.322  222.516   49.258
   89.700   33.248    0.473    0.332  221.530   50.762
   89.950   32.967    0.472    0.320  221.053   51.669
   90.200   32.988    0.482    0.292  221.070   50.787
   90.450   32.714    0.488    0.313  220.086   51.397
   90.700   32.437    0.492    0.339  218.096   52.304
   90.950   32.460    0.485    0.333  218.115   50.232
   91.200   33.075    0.477    0.324  218.135   51.734
   91.450   34.005    0.462    0.320  218.664   51.450
   91.700   34.336    0.458    0.332  219.191   51.464
   91.950   34.361    0.451    0.331  219.714   52.669
   92.200   35.011    0.452    0.321  219.232   54.468
   92.450   33.784    0.464    0.319  219.254   56.864
   92.700   22.086    0.473    0.333  218.270   61.941
   92.950   16.243    0.483    0.313  216.779   67.912
   93.200   15.396    0.493    0.292  218.312   77.459
   93.450   16.713    0.495    0.273  219.343   77.472
   93.700   20.782    0.486    0.289  218.356   70.038
   93.950   23.183    0.478    0.306  218.883   61.115
   94.200   22.374    0.469    0.320  215.377   53.978
   94.450   15.443    0.472    0.326  214.898   62.332
   94.700   11.776    0.481    0.291  214.418   71.282
   94.950   10.287    0.490    0.265  213.432   79.338
   95.200   10.481    0.496    0.253  213.448   89.479
   95.450   11.175    0.501    0.241  212.972   90.983
   95.700   12.579    0.503    0.247  212.487   86.826
   95.950   16.818    0.500    0.260  212.002   76.413
   96.200   19.989    0.494    0.282  211.018   66.892
   96.450   19.118    0.486    0.306  211.037   57.671
   96.700   16.548    0.464    0.306  211.564   60.368
   96.950   12.967    0.454    0.197  211.081   65.442
   97.200   12.178    0.456    0.146  210.602   72.606
   97.450   12.187    0.457    0.158  210.621   81.556
   97.700   12.529    0.472    0.231  210.644   81.569
   97.950   13.359    0.486    0.285  209.663   78.603
   98.200   14.113    0.499    0.273  208.169   74.746
   98.450   15.185    0.506    0.279  206.680   75.354
   98.700   16.337    0.507    0.284  206.703   71.493
   98.950   18.060    0.499    0.293  207.229   64.655
   99.200   19.081    0.479    0.305  206.744   55.732
   99.450   19.093    0.484    0.317  207.274   56.639
   99.700   18.258    0.497    0.312  208.305   63.503
   99.950   16.538    0.510    0.302  208.324   62.326
  100.200   15.116    0.512    0.297  209.860   59.658
  100.450   13.940    0.484    0.311  210.389   61.457
  100.700   13.211    0.489    0.290  210.411   71.600
  100.950   13.463    0.515    0.264  210.938   77.870
  101.200   14.353    0.545    0.250  211.462   75.202
  101.450   14.231    0.555    0.237  211.991   71.341
  101.700   13.007    0.522    0.236  212.013   71.056
  101.950   10.958    0.501    0.271  211.534   75.240
  102.200    9.659    0.491    0.302  211.553   87.466
  102.450    8.990    0.500    0.273  210.569   90.160
  102.700    9.243    0.514    0.282  211.600   91.665
  102.950    9.855    0.530    0.276  212.124   89.593
  103.200   10.894    0.537    0.255  212.149   85.733
  103.450   12.601    0.552    0.240  211.670   76.810
  103.700   14.057    0.557    0.281  211.182   67.885
  103.950   14.325    0.529    0.261  211.204   62.837
  104.200   13.575    0.499    0.224  211.226   65.230
  104.450   11.858    0.472    0.260  210.747   79.841
  104.700   10.740    0.487    0.280  210.267   88.195
  104.950   11.043    0.497    0.302  210.289   88.804
  105.200   12.889    0.511    0.320  210.306   74.221
  105.450   29.145    0.516    0.333  211.340   66.191
  105.700   33.109    0.487    0.349  212.875   53.693
  105.950   38.993    0.461    0.360  212.898   44.471
  106.200   46.348    0.444    0.362  212.421   42.997
  106.450   50.321    0.452    0.355  211.936   44.200
  106.700   50.811    0.448    0.350  212.463   50.170
  106.950   50.835    0.429    0.345  212.482   54.950
  107.200   49.070    0.426    0.364  212.507   58.537
  107.450   46.493    0.435    0.391  212.532   58.850
  107.700   41.355    0.449    0.399  213.557   57.074
  107.950   34.839    0.463    0.383  213.580   53.514
  108.200   30.715    0.484    0.365  212.088   52.930
  108.450   30.180    0.463    0.354  211.612   52.945
  108.700   30.199    0.431    0.356  212.136   52.066
  108.950   30.219    0.450    0.347  212.158   54.462
  109.200   29.693    0.467    0.329  212.180   53.581
  109.450   28.140    0.468    0.345  213.718   52.999
  109.700   27.909    0.447    0.359  213.236   53.904
  109.950   27.672    0.466    0.343  212.252   55.706
  110.200   27.445    0.487    0.333  212.269   57.209
  110.450   26.967    0.496    0.344  212.291   58.114
  110.700   26.739    0.470    0.337  212.313   56.340
  110.950   26.280    0.456    0.322  211.834   54.567
  111.200   25.823    0.451    0.312  211.853   54.282
  111.450   25.373    0.472    0.307  211.371   53.997
  111.700   24.938    0.486    0.322  212.906   54.605
  111.950   24.725    0.495    0.353  212.934   56.405
  112.200   24.298    0.479    0.346  212.449   57.016
  112.450   24.095    0.482    0.347  212.474   58.819
