~VERSION INFORMATION
 VERS.                 2.0:   CWLS LOG ASCII STANDARD -VERSION 2.0
 WRAP.                  NO:   ONE LINE PER DEPTH STEP
~WELL INFORMATION BLOCK
#MNEM.UNIT           DATA                    DESCRIPTION OF MNEMONIC
#---------    -------------------            -------------------------------
# Generated from Intellog Unique Number	CC_84_87/WELL/2304
NULL.         -999.25                        : NULL_VALUE
WELL.         PEX PCEJ MCMURRAY OV           : Well_name    - WELL
LOC .         10-11-087-16W4                 : Location     - LOCATION          
UWI .         AA/10-11-087-16W400            : Uwi          - UNIQUE WELL ID    
ENTR.         JOHN                           : Entered      - ENTERED BY        
SRVC.         SCHLUMBERGER                   : Scn          - SERVICE COMPANY   
DATE.         03 MAR 79                      : Date         - LOG DATE
STRT.M        78                             : top_depth    - START DEPTH       
STOP.M        260.102                        : bot_depth    - STOP DEPTH        
STEP.M        0.3                            : increment    - STEP LENGTH       
~CURVE INFORMATION BLOCK
#MNEM UNIT       ERCB CURVE CODE    CURVE DESCRIPTION
#-----------   ------------------   ----------------------------------
DEPT.M        00 001 00 00         : DEPTH        - DEPTH                       
DPHI.V/V      00 890 00 00         : PHID         - DENSITY POROSITY (LIMESTONE)
NPHI.V/V      00 330 00 00         : PHIN         - NEUTRON POROSITY (LIMESTONE)
GR  .API      00 310 00 00         : GR           - GAMMA RAY                   
ILD .OHMM     00 120 00 00         : RESD         - DEEP RESISTIVITY (DIL)      
~PARAMETER INFORMATION       
#MNEM.UNIT           DATA             DESCRIPTION OF MNEMONIC
#---------         -----------     ------------------------------
GL  .M        499.67               : gl           - GROUND LEVEL ELEVATION      
EREF.M        503.32               : kb           - ELEVATION OF DEPTH REFERENCE
DATM.M        503.32               : datum        - DATUM ELEVATION             
TDD .M        267.5                : tdd          - TOTAL DEPTH DRILLER         
RUN .         ONE                  : Run          - RUN NUMBER                  
ENG .         BILL                 : Engineer     - RECORDING ENGINEER          
WIT .         JIM                  : Witness      - WITNESSED BY                
MUD .         GEL                  : Mud_type     - MUD TYPE                    
MATR.         LIMESTONE            : Logunit      - NEUTRON MATRIX              
TMAX.C        60                   : BHT          - MAXIMUM RECORDED TEMPERATURE
BHTD.M        267.5                : BHTDEP       - MAXIMUM RECORDED TEMPERATURE
MATR.         1                    : LOGUNIT      - NEUTRON MATRIX              
RMT .C        25                   : MDTP         - TEMPERATURE OF MUD          
NEUT.         1                    : NEUTRON      - NEUTRON TYPE                
RESI.         0                    : RESIST       - RESISTIVITY TYPE            
RMC .OHMM     0.25                 : RMC          - RESISTIVITY OF MUD CAKE     
RMF .OHMM     0.25                 : RMF          - RESISTIVITY OF MUD FILTRATE 
SUFT.C        15                   : SUFT         - SURFACE TEMPERATURE         
~A  DEPTH     PHID     PHIN       GR     RESD
# ...
  182.401    0.180    0.450   96.740    9.143
  182.701    0.240    0.469  104.094    8.482
  183.001    0.235    0.512  111.449    7.437
  183.301    0.224    0.496  113.292    6.899
  183.601    0.218    0.461  115.135    7.032
  183.901    0.212    0.474  113.307    7.304
  184.201    0.201    0.483  110.252    7.877
  184.501    0.161    0.446  108.422    7.588
  184.801    0.163    0.430  117.001    6.779
  185.101    0.209    0.468  125.579    6.531
  185.401    0.208    0.479  129.873    6.532
  185.701    0.217    0.471  126.818    6.784
  186.001    0.216    0.480  120.704    7.316
  186.301    0.198    0.456  114.587    8.349
  186.601    0.219    0.442  109.696    9.527
  186.901    0.214    0.440  104.192   10.871
  187.201    0.169    0.447  102.364   11.948
  187.501    0.161    0.443  109.104   11.951
  187.801    0.202    0.435  115.234   11.731
  188.101    0.240    0.429  114.019   10.883
  188.401    0.213    0.431  111.576   10.096
  188.701    0.220    0.437  109.134    9.910
  189.001    0.224    0.445  107.303   10.101
  189.301    0.229    0.448  105.473   10.491
  189.601    0.232    0.437  101.807   11.314
  189.901    0.227    0.436   98.753   12.201
  190.201    0.164    0.398   93.249   13.664
  190.501    0.126    0.356   90.807   14.736
  190.801    0.100    0.357   96.324   14.465
  191.101    0.198    0.389  102.454   12.683
  191.401    0.231    0.433  101.239   12.216
  191.701    0.220    0.456   98.183   12.689
  192.001    0.219    0.459   92.067   13.685
  192.301    0.136    0.317   89.013   14.758
  192.601    0.116    0.312   89.020   15.619
  192.901    0.107    0.319   89.028   15.623
  193.201    0.130    0.332   90.259   15.335
  193.501    0.179    0.373   89.654   15.053
  193.801    0.168    0.372   90.886   14.501
  194.101    0.122    0.329   93.341   13.708
  194.401    0.129    0.343  102.531   12.479
  194.701    0.220    0.390  104.988   11.361
  195.001    0.214    0.405  104.384   10.540
  195.301    0.217    0.414  106.226   10.543
  195.601    0.217    0.425  104.397   10.746
  195.901    0.201    0.430  100.118   11.373
  196.201    0.183    0.432   97.676   11.591
  196.501    0.103    0.433   97.683   10.553
  196.801    0.120    0.438  108.098    9.252
  197.101    0.210    0.465  117.903    7.812
  197.401    0.226    0.490  120.970    6.004
  197.701    0.218    0.519  123.427    5.070
  198.001    0.222    0.506  119.147    4.362
  198.301    0.228    0.504  109.358    3.824
  198.601    0.237    0.515   95.283    4.283
  198.901    0.256    0.514   68.962    6.481
  199.201    0.266    0.391   60.398   11.841
  199.501    0.240    0.390   62.854   18.607
  199.801    0.252    0.388   62.249   20.449
  200.101    0.285    0.382   59.195   20.843
  200.401    0.282    0.404   54.915   20.848
  200.701    0.287    0.416   51.251   21.250
  201.001    0.302    0.412   50.031   22.490
  201.301    0.305    0.420   50.650   24.253
  201.601    0.299    0.434   50.050   28.202
  201.901    0.308    0.447   49.442   43.494
  202.201    0.325    0.440   50.059   51.535
  202.501    0.329    0.443   51.905   55.580
  202.801    0.312    0.442   53.135   53.540
  203.101    0.310    0.456   54.366   49.669
  203.401    0.318    0.459   56.824   46.075
  203.701    0.305    0.426   57.442   41.949
  204.001    0.302    0.417   56.837   38.190
  204.301    0.308    0.433   58.069   34.120
  204.601    0.278    0.444   60.525   32.254
  204.901    0.289    0.445   62.981   29.923
  205.201    0.284    0.438   62.376   28.824
  205.501    0.286    0.439   63.607   27.247
  205.801    0.300    0.435   62.390   25.758
  206.101    0.303    0.418   66.071   22.584
  206.401    0.288    0.427   69.138   20.560
  206.701    0.288    0.449   71.595   19.805
  207.001    0.281    0.464   69.766   21.360
  207.301    0.282    0.462   64.874   20.575
  207.601    0.263    0.452   65.493   17.049
  207.901    0.135    0.353   71.011   11.485
  208.201    0.135    0.364   92.446    5.834
  208.501    0.241    0.430  106.536    4.158
  208.801    0.279    0.500  116.339    3.136
  209.101    0.284    0.531  112.063    2.910
  209.401    0.295    0.593  111.457    2.966
  209.701    0.267    0.560  110.851    3.023
  210.001    0.258    0.549  111.470    3.139
  210.301    0.262    0.560  112.088    3.450
  210.601    0.230    0.555  107.810    3.864
  210.901    0.163    0.548   98.633    4.493
  211.201    0.128    0.418  102.315    4.247
  211.501    0.256    0.442  107.831    3.723
  211.801    0.278    0.514  118.247    3.725
  212.101    0.250    0.531  119.479    3.796
  212.401    0.246    0.523  116.424    4.172
  212.701    0.150    0.500   95.614    5.037
  213.001    0.160    0.452   82.763    7.481
  213.301    0.236    0.442   63.790   12.675
  213.601    0.305    0.430   47.266   17.134
  213.901    0.318    0.404   41.150   22.729
  214.201    0.321    0.393   41.771   27.965
  214.501    0.316    0.401   44.225   30.732
  214.801    0.296    0.412   55.867   32.528
  215.101    0.298    0.421   62.608   33.152
  215.401    0.283    0.412   65.065   33.160
  215.701    0.291    0.399   66.907   33.169
  216.001    0.283    0.387   76.711   30.197
  216.301    0.268    0.380   89.576   25.021
  216.601    0.241    0.381   95.093   20.734
  216.901    0.239    0.388   98.161   17.839
  217.201    0.218    0.396   99.393   13.710
  217.501    0.218    0.413  102.461   13.459
  217.801    0.221    0.430  104.306   13.718
  218.101    0.245    0.407  104.925   14.247
  218.401    0.229    0.397  104.320   15.365
  218.701    0.226    0.399  102.489   16.571
  219.001    0.210    0.400  100.047   17.537
  219.301    0.234    0.400   95.769   19.273
  219.601    0.236    0.387   95.164   20.785
  219.901    0.220    0.375   97.619   22.417
  220.201    0.238    0.386   89.055   24.174
  220.501    0.274    0.403   79.265   27.072
  220.801    0.307    0.405   79.273   31.481
  221.101    0.286    0.395   88.463   29.759
  221.401    0.270    0.382   94.593   28.131
  221.701    0.259    0.389   93.376   25.611
  222.001    0.265    0.404   86.648   25.140
  222.301    0.259    0.392   79.308   24.677
  222.601    0.275    0.405   71.357   26.118
  222.901    0.294    0.414   71.362   29.802
  223.201    0.282    0.416   73.820   33.373
  223.501    0.265    0.413   76.275   30.961
  223.801    0.255    0.387   80.567   27.146
  224.101    0.260    0.371   84.860   23.801
  224.401    0.252    0.383   79.357   20.478
  224.701    0.247    0.401   75.078   17.955
  225.001    0.241    0.395   68.351   16.346
  225.301    0.251    0.378   67.745   15.746
  225.602    0.266    0.347   76.324   16.050
  225.902    0.215    0.334   87.352   16.360
  226.202    0.209    0.354   91.645   16.990
  226.502    0.185    0.399   83.080   18.323
  226.802    0.247    0.436   81.863   20.519
  227.102    0.284    0.394   85.543   21.716
  227.402    0.260    0.377   85.551   22.135
  227.702    0.254    0.392   92.904   21.322
  228.002    0.247    0.398  100.871   18.346
  228.302    0.245    0.407  105.164   15.490
  228.602    0.242    0.409  111.906   13.080
  228.902    0.217    0.423  113.750   12.365
  229.202    0.218    0.445  113.145   12.842
  229.502    0.231    0.436  102.743   15.505
  229.802    0.264    0.385  104.587   16.722
  230.102    0.256    0.395  108.269   17.698
  230.402    0.261    0.413  102.152   19.450
  230.702    0.248    0.383   96.037   20.976
  231.002    0.264    0.389   97.269   21.380
  231.302    0.261    0.407   94.213   22.205
  231.602    0.282    0.416   94.222   24.404
  231.902    0.250    0.409   92.391   26.317
  232.202    0.256    0.386   93.011   26.825
  232.502    0.260    0.389   99.140   26.332
  232.802    0.240    0.408  105.883   25.365
  233.102    0.244    0.406  111.400   23.530
  233.402    0.212    0.368  117.529   20.247
  233.702    0.205    0.359  119.372   17.752
  234.002    0.202    0.372  113.869   16.161
  234.302    0.208    0.386  108.978   14.992
