~VERSION INFORMATION
 VERS.                 2.0:   CWLS LOG ASCII STANDARD -VERSION 2.0
 WRAP.                  NO:   ONE LINE PER DEPTH STEP
~WELL INFORMATION BLOCK
#MNEM.UNIT           DATA                    DESCRIPTION OF MNEMONIC
#---------    -------------------            -------------------------------
# Generated from Intellog Unique Number	CN_94_101/WELL/5059
WELL.         16-18-099-10W4                 : Well_name    - WELL
LOC .         AA/16-18-099-10W4/0            : Location     - LOCATION
UWI .         AA/16-18-099-10W400            : Uwi          - UNIQUE WELL ID
ENTR.         T                              : Entered      - ENTERED BY
SRVC.         SCHLUMBERGER                   : Scn          - SERVICE COMPANY
DATE.         08/13/92                       : Date         - LOG DATE
STRT.M        27.432                         : top_depth    - START DEPTH
STOP.M        91.432                         : bot_depth    - STOP DEPTH
STEP.M        0.25                           : increment    - STEP LENGTH
 NULL. -999.2500:NULL Value
~CURVE INFORMATION BLOCK
#MNEM UNIT       ERCB CURVE CODE    CURVE DESCRIPTION
#-----------   ------------------   ----------------------------------
DEPT.M        00 001 00 00         : DEPTH        - DEPTH
ILD .OHMM     00 120 00 00         : RESD         - DEEP RESISTIVITY (DIL)
NPHI.V/V      00 330 00 00         : PHIN         - NEUTRON POROSITY (SANDSTONE)
GR  .API      00 310 00 00         : GR           - GAMMA RAY
~PARAMETER INFORMATION
#MNEM.UNIT           DATA             DESCRIPTION OF MNEMONIC
#---------         -----------     ------------------------------
GL  .M        291.694              : gl           - GROUND LEVEL ELEVATION
EREF.M        291.694              : kb           - ELEVATION OF DEPTH REFERENCE
DATM.M        291.694              : datum        - DATUM ELEVATION
TDD .M        90.8304              : tdd          - TOTAL DEPTH DRILLER
RUN .         ONE                  : Run          - RUN NUMBER
ENG .         BILL                 : Engineer     - RECORDING ENGINEER
WIT .         JIM                  : Witness      - WITNESSED BY
MUD .         GEL                  : Mud_type     - MUD TYPE
MATR.         SANDSTONE            : Logunit      - NEUTRON MATRIX
TMAX.C        4.44444              : BHT          - MAXIMUM RECORDED TEMPERATURE
BHTD.M        90.8304              : BHTDEP       - MAXIMUM RECORDED TEMPERATURE
RMT .C        10                   : MDTP         - TEMPERATURE OF MUD
MUDD.KG/M     1090                 : MWT          - MUD DENSITY
NEUT.         1                    : NEUTRON      - NEUTRON TYPE
RESI.         0                    : RESIST       - RESISTIVITY TYPE
RM  .OHMM     9.8                  : RM           - RESISTIVITY OF MUD
RMC .OHMM     8.7                  : RMC          - RESISTIVITY OF MUD CAKE
RMF .OHMM     9.2                  : RMF          - RESISTIVITY OF MUD FILTRATE
SUFT.C        4                    : SUFT         - SURFACE TEMPERATURE
~A  DEPTH     RESD     PHIN       GR
   27.432   23.682    0.412  114.286
   27.682   23.036    0.409  110.895
   27.932   23.067    0.405  103.745
   28.182   22.422    0.404  105.482
   28.432   21.777    0.406  101.415
   28.682   21.815    0.413  103.828
   28.932   21.162    0.423  105.565
   29.182   21.193    0.432  103.207
   29.432   20.555    0.488  101.518
   29.682   20.579    0.520   73.170
   29.932   19.933    0.563   63.962
   30.182   19.964    0.605   52.710
   30.432   19.987    0.602   52.738
   30.682   19.350    0.416   76.015
   30.932   18.704    0.404   95.197
   31.182   20.088    0.409   95.566
   31.432   22.139    0.414   93.885
   31.682   22.846    0.412   94.596
   31.932   23.553    0.410  101.460
   32.182   25.613    0.404  105.596
   32.432   26.996    0.397  100.155
   32.682   27.035    0.395   98.124
   32.932   27.066    0.391  105.002
   33.182   27.089    0.392  105.030
   33.432   27.120    0.394  103.690
   33.682   27.151    0.399  101.660
   33.932   27.858    0.399   98.953
   34.182   27.888    0.392   99.664
   34.432   27.919    0.383   98.674
   34.682   32.015    0.376   97.676
   34.932   35.427    0.363   97.362
   35.182   38.846    0.349   95.673
   35.432   40.898    0.347   92.966
   35.682   43.633    0.354   90.267
   35.932   42.988    0.359   91.654
   36.182   41.674    0.355   92.031
   36.432   40.353    0.356   91.717
   36.682   39.708    0.364   91.075
   36.932   38.378    0.371   90.746
   37.182   37.741    0.373   90.774
   37.432   39.792    0.348   92.169
   37.682   45.909    0.343   94.247
   37.932   58.111    0.329   94.617
   38.182  171.079    0.321   92.600
   38.432  154.881    0.328   90.236
   38.682  139.368    0.336   87.180
   38.932  157.656    0.326   87.549
   39.182  160.383    0.322   91.002
   39.432  351.119    0.328   86.586
   39.682  381.586    0.330   83.873
   39.932  313.991    0.324   83.217
   40.182  254.511    0.316   81.535
   40.432  262.656    0.307   79.170
   40.682  276.886    0.304   71.343
   40.932  300.591    0.331   68.288
   41.182  295.889    0.336   62.505
   41.432  287.798    0.355   58.089
   41.682   59.258    0.356   60.168
   41.932   66.727    0.331   62.588
   42.182   91.776    0.318   62.622
   42.432  164.166    0.323   61.276
   42.682  208.832    0.350   58.911
   42.932  250.793    0.351   55.869
   43.182  303.574    0.345   55.206
   43.432  358.383    0.347   56.943
   43.682  381.404    0.353   61.079
   43.932  361.825    0.350   66.234
   44.182  336.830    0.347   76.180
   44.432  333.488    0.343   78.601
   44.682  332.842    0.327   69.748
   44.932  330.845    0.327   67.035
   45.182  324.782    0.329   62.270
   45.432  317.375    0.335   65.039
   45.682   86.123    0.341   71.219
   45.932   92.916    0.344   64.069
   46.182  136.229    0.340   64.097
   46.432  174.134    0.337   65.491
   46.682  203.917    0.333   62.791
   46.932  247.907    0.332   63.510
   47.182  268.223    0.333   64.207
   47.432  291.251    0.335   66.292
   47.682  318.329    0.342   69.745
   47.932  333.920    0.352   72.158
   48.182  333.951    0.358   71.502
   48.432  332.629    0.353   67.093
   48.682  323.194    0.344   65.070
   48.932  118.312    0.335   67.142
   49.182  128.486    0.333   66.144
   49.432  130.545    0.335   64.804
   49.682  135.986    0.341   64.148
   49.932  142.110    0.348   61.783
   50.182  160.397    0.353   60.451
   50.432  169.219    0.357   61.846
   50.682  178.040    0.353   63.240
   50.932  188.213    0.337   66.009
   51.182  211.242    0.329   66.030
   51.432  190.980    0.326   65.723
   51.682  132.175    0.326   64.034
   51.932  126.128    0.326   60.302
   52.182  123.447    0.326   61.697
   52.432  113.335    0.327   62.757
   52.682  111.338    0.327   62.101
   52.932  109.355    0.327   62.122
   53.182  110.047    0.332   64.549
   53.432  131.723    0.341   65.944
   53.682  152.039    0.344   64.262
   53.932  181.822    0.330   65.315
   54.182  327.930    0.324   64.666
   54.432  396.939    0.327   61.959
   54.682  398.998    0.336   60.613
   54.932  399.029    0.345   62.691
   55.182  399.060    0.357   62.035
   55.432  397.062    0.365   61.038
   55.682  388.979    0.374   60.724
   55.932  305.156    0.379   61.783
   56.182  224.038    0.371   63.862
   56.432   52.289    0.396   59.788
   56.682   36.784    0.403   56.404
   56.932   36.799    0.401   56.432
   57.182   36.838    0.398   55.441
   57.432   36.192    0.393   55.120
   57.682   34.863    0.391   56.508
   57.932   32.189    0.388   60.979
   58.182   27.495    0.388   67.508
   58.432   24.829    0.393   70.612
   58.682   23.499    0.400   74.399
   58.932   22.186    0.414   84.687
   59.182   22.201    0.434   90.532
   59.432   21.564    0.457   93.636
   59.682   21.602    0.478   98.449
   59.932   21.625    0.492  115.239
   60.182   21.648    0.492  113.892
   60.432   21.003    0.498  110.509
   60.682   19.689    0.506  109.853
   60.932   18.368    0.495  109.552
   61.182   17.046    0.500  108.883
   61.432   15.733    0.509  107.208
   61.682   15.748    0.522  105.868
   61.932   15.779    0.531  106.580
   62.182   15.818    0.546  108.993
   62.432   15.165    0.564  112.097
   62.682   13.843    0.568  119.309
   62.932   12.529    0.572  125.831
   63.182   11.200    0.576  125.859
   63.432   10.555    0.582  124.861
   63.682    9.241    0.585  129.339
   63.932    9.264    0.588  137.911
   64.182    9.318    0.589  139.997
   64.432    9.326    0.587  138.657
   64.682    9.372    0.582  136.634
   64.932    8.719    0.568  136.320
   65.182    8.074    0.533  136.689
   65.432    7.429    0.497  139.116
   65.682    6.107    0.489  141.885
   65.932    6.130    0.429  141.215
   66.182    5.485    0.384  139.883
   66.432    5.524    0.333  142.303
   66.682    5.547    0.356  144.046
   66.932    5.578    0.362  142.700
   67.182    5.616    0.360  141.709
   67.432    6.316    0.365  141.046
   67.682    8.383    0.377  140.390
   67.932   12.478    0.386  142.469
   68.182   15.206    0.385  139.078
   68.432   19.970    0.384  133.979
   68.682   23.382    0.386  125.461
   68.932   27.470    0.371  103.258
   69.182   30.890    0.379   62.598
   69.432   31.597    0.389   54.771
   69.682   31.620    0.400   55.818
   69.932   30.974    0.403   60.630
   70.182   30.337    0.404   74.337
   70.432   29.023    0.402   77.447
   70.682   28.370    0.394   79.184
   70.932   27.056    0.393   81.946
   71.182   27.072    0.398   82.657
   71.432   25.758    0.400   75.507
   71.682   25.781    0.395   74.168
   71.932   25.136    0.394   70.094
   72.182   25.167    0.396   67.387
   72.432   25.198    0.399   69.465
   72.682   25.229    0.403   75.303
   72.932   25.259    0.406   79.098
   73.182   25.966    0.402   80.841
   73.432   26.005    0.368   80.185
   73.682   26.712    0.351   79.529
   73.932   28.095    0.339   78.531
   74.182   28.795    0.364   77.185
   74.432   30.178    0.379   75.162
   74.682   32.913    0.390   75.196
   74.932   39.714    0.395   71.799
   75.182   58.001    0.386   66.700
   75.432   62.766    0.391   67.076
   75.682   45.216    0.393   69.831
   75.932   30.371    0.392   73.960
   76.182   27.697    0.378   80.147
   76.432   41.251    0.368   79.833
   76.682   69.682    0.358   75.076
   76.932   76.482    0.358   63.475
   77.182   70.420    0.361   57.350
   77.432   50.841    0.362   53.283
   77.682   65.748    0.357   52.962
   77.932   73.893    0.354   55.041
   78.182   77.989    0.351   58.151
   78.432   78.020    0.356   57.489
   78.682   71.957    0.363   54.098
   78.932   30.741    0.367   52.759
   79.182   28.067    0.383   56.553
   79.432   26.070    0.401   56.936
   79.682   24.080    0.420   55.583
   79.932   23.427    0.444   53.566
   80.182   22.105    0.463   54.961
   80.432   21.460    0.467   56.356
   80.682   20.815    0.444   56.384
   80.932   20.169    0.425   55.721
   81.182   20.200    0.416   54.046
   81.432   19.555    0.412   53.049
