~VERSION INFORMATION
 VERS.                 2.0:   CWLS LOG ASCII STANDARD -VERSION 2.0
 WRAP.                  NO:   ONE LINE PER DEPTH STEP
~WELL INFORMATION BLOCK
#MNEM.UNIT           DATA                    DESCRIPTION OF MNEMONIC
#---------    -------------------            -------------------------------
# Generated from Intellog Unique Number	CN_91_93/WELL/3694
WELL.         10-12-093-08W4                 : Well_name    - WELL
LOC .         AA/10-12-093-08W4/0            : Location     - LOCATION
UWI .         AA/10-12-093-08W400            : Uwi          - UNIQUE WELL ID
ENTR.         JOETTE                         : Entered      - ENTERED BY
SRVC.         SCHLUMBERGER                   : Scn          - SERVICE COMPANY
DATE.         03/22/92                       : Date         - LOG DATE
STRT.M        75                             : top_depth    - START DEPTH
STOP.M        225                            : bot_depth    - STOP DEPTH
STEP.M        0.25                           : increment    - STEP LENGTH
 NULL. -999.2500:NULL Value
~CURVE INFORMATION BLOCK
#MNEM UNIT       ERCB CURVE CODE    CURVE DESCRIPTION
#-----------   ------------------   ----------------------------------
DEPT.M        00 001 00 00         : DEPTH        - DEPTH
CALI.MM       00 280 01 00         : CAL          - CALIPER
GR  .API      00 310 00 00         : GR           - GAMMA RAY
NPHI.V/V      00 330 00 00         : PHIN         - NEUTRON POROSITY (SANDSTONE)
DPHI.V/V      00 890 00 00         : PHID         - DENSITY POROSITY (SANDSTONE)
ILD .OHMM     00 120 00 00         : RESD         - DEEP RESISTIVITY (DIL)
~PARAMETER INFORMATION
#MNEM.UNIT           DATA             DESCRIPTION OF MNEMONIC
#---------         -----------     ------------------------------
GL  .M        475.8                : gl           - GROUND LEVEL ELEVATION
EREF.M        475.8                : kb           - ELEVATION OF DEPTH REFERENCE
DATM.M        475.8                : datum        - DATUM ELEVATION
TDD .M        256.7                : tdd          - TOTAL DEPTH DRILLER
RUN .         ONE                  : Run          - RUN NUMBER
ENG .         BILL                 : Engineer     - RECORDING ENGINEER
WIT .         JIM                  : Witness      - WITNESSED BY
MUD .         GEL                  : Mud_type     - MUD TYPE
MATR.         SANDSTONE            : Logunit      - NEUTRON MATRIX
TMAX.C        16                   : BHT          - MAXIMUM RECORDED TEMPERATURE
BHTD.M        256.7                : BHTDEP       - MAXIMUM RECORDED TEMPERATURE
RMT .C        14                   : MDTP         - TEMPERATURE OF MUD
MUDD.KG/M     1070                 : MWT          - MUD DENSITY
NEUT.         1                    : NEUTRON      - NEUTRON TYPE
RESI.         0                    : RESIST       - RESISTIVITY TYPE
RM  .OHMM     4.5                  : RM           - RESISTIVITY OF MUD
RMC .OHMM     4.5                  : RMC          - RESISTIVITY OF MUD CAKE
RMF .OHMM     4.5                  : RMF          - RESISTIVITY OF MUD FILTRATE
SUFT.C        4                    : SUFT         - SURFACE TEMPERATURE
~A  DEPTH      CAL       GR     PHIN     PHID     RESD
# ...
  148.000  131.512   98.820    0.415    0.279   73.362
  148.250  131.544   95.880    0.399    0.288   76.570
  148.500  131.623   89.368    0.408    0.277   77.670
  148.750  130.694   78.100    0.417    0.264   81.041
  149.000  130.757   84.084    0.374    0.235   84.557
  149.250  130.820   87.099    0.395    0.189   88.241
  149.500  130.899   84.755    0.399    0.207   92.070
  149.750  131.971   81.220    0.382    0.230   98.783
  150.000  132.002   69.952    0.336    0.311  107.456
  150.250  132.081   71.172    0.327    0.289  121.905
  150.500  132.129   68.828    0.345    0.273  168.144
  150.750  131.231   70.652    0.356    0.281  198.904
  151.000  131.263   51.038    0.365    0.294  216.403
  151.250  130.333   56.435    0.360    0.292  213.576
  151.500  130.397   67.193    0.320    0.298  196.525
  151.750  129.483   70.804    0.330    0.310  173.453
  152.000  129.562   69.660    0.353    0.305  159.631
  152.250  129.594   72.666    0.380    0.292  142.869
  152.500  128.712   70.322    0.381    0.284  127.867
  152.750  128.759   52.494    0.381    0.253  119.331
  153.000  128.807   48.959    0.379    0.282  119.407
  153.250  128.901   43.637    0.350    0.293  155.737
  153.500  127.941   40.707    0.329    0.312  206.006
  153.750  128.035   40.745    0.359    0.305  250.585
  154.000  128.067   44.942    0.372    0.301  304.811
  154.250  128.146   51.540    0.387    0.307  322.557
  154.500  128.209   56.938    0.372    0.314  318.242
  154.750  128.273   56.380    0.365    0.323  292.929
  155.000  128.336   51.654    0.356    0.323  301.359
  155.250  128.383   46.937    0.351    0.302  346.683
  155.500  128.462   45.179    0.359    0.292  452.234
  155.750  128.510   44.026    0.365    0.310  427.969
  156.000  128.620   65.503    0.378    0.282  383.030
  156.250  128.652   56.608    0.378    0.310  347.626
  156.500  127.707   46.522    0.357    0.287  383.582
  156.750  127.802   37.627    0.384    0.238  453.681
  157.000  127.849   36.474    0.394    0.221  608.451
  157.250  127.944   37.712    0.388    0.224  804.719
  157.500  128.968   37.145    0.378    0.228  925.895
  157.750  129.047   37.183    0.381    0.219 1007.350
  158.000  130.103   35.444    0.384    0.243 1066.000
  158.250  131.143   38.469    0.357    0.291 1112.260
  158.500  134.184   39.679    0.341    0.322 1128.780
  158.750  137.225   40.322    0.341    0.336 1129.140
  159.000  139.289   37.978    0.344    0.340 1114.210
  159.250  140.329   35.624    0.348    0.339 1025.420
  159.500  141.416   33.289    0.351    0.332  970.405
  159.750  141.464   33.932    0.341    0.327 1012.680
  160.000  142.535   33.961    0.332    0.324 1071.460
  160.250  142.598   34.008    0.322    0.314 1149.760
  160.500  142.662   34.027    0.332    0.320 1199.470
  160.750  142.725   37.052    0.338    0.327 1234.380
  161.000  142.772   38.877    0.339    0.322 1184.560
  161.250  142.835   44.284    0.342    0.326 1089.990
  161.500  141.922   47.886    0.346    0.327 1031.500
  161.750  141.969   46.137    0.360    0.328  976.158
  162.000  142.080   47.375    0.339    0.332  885.928
  162.250  142.112   47.404    0.344    0.334  770.968
  162.500  142.159   48.047    0.355    0.324  600.188
  162.750  142.222   53.445    0.364    0.307  467.238
  163.000  140.316   55.865    0.372    0.301  418.176
  163.250  138.410   49.947    0.379    0.312  369.141
  163.500  137.449   42.234    0.380    0.320  334.967
  163.750  134.582   47.045    0.381    0.325  299.794
  164.000  133.605   51.252    0.391    0.316  260.975
  164.250  131.684   51.290    0.388    0.324  230.337
  164.500  129.762   57.283    0.387    0.334  203.263
  164.750  128.832   69.232    0.371    0.337  156.046
  165.000  126.958   66.888    0.402    0.310  128.449
  165.250  126.990   59.184    0.424    0.310  132.167
  165.500  127.100   53.862    0.425    0.334  174.800
  165.750  127.116   49.136    0.412    0.341  221.712
  166.000  127.211   46.801    0.409    0.351  248.040
  166.250  127.243   45.062    0.404    0.356  228.274
  166.500  128.298   43.304    0.395    0.351  195.933
  166.750  128.362   43.928    0.384    0.355  163.547
  167.000  129.433   60.650    0.388    0.364  118.743
  167.250  130.489   58.306    0.423    0.351   91.160
  167.500  130.536   67.872    0.434    0.319   79.343
  167.750  130.631   76.843    0.447    0.279   74.046
  168.000  130.694   93.565    0.462    0.251   73.079
  168.250  130.742   81.693    0.476    0.311   87.648
  168.500  130.805   61.473    0.474    0.328  135.141
  168.750  130.884   44.240    0.436    0.358  260.505
  169.000  130.932   37.737    0.426    0.386  275.627
  169.250  131.026   37.766    0.397    0.386  243.268
  169.500  131.058   39.590    0.385    0.379  217.724
  169.750  131.121   44.988    0.390    0.369  186.877
  170.000  131.184   55.150    0.395    0.327  158.179
  170.250  130.271   54.592    0.400    0.328  137.676
  170.500  130.334   43.911    0.404    0.343  114.919
  170.750  130.397   38.589    0.395    0.346  463.921
  171.000  129.484   35.658    0.375    0.346  588.425
  171.250  129.515   34.505    0.368    0.346  725.812
  171.500  129.595   33.948    0.365    0.344  800.758
  171.750  129.658   34.591    0.371    0.343  835.506
  172.000  129.737   34.619    0.374    0.342  824.724
  172.250  129.768   34.062    0.377    0.347  769.541
  172.500  129.832   36.482    0.378    0.359  708.105
  172.750  129.895   35.328    0.382    0.365  607.782
  173.000  129.974   35.962    0.390    0.363  514.447
  173.250  129.045   40.169    0.395    0.356  435.446
  173.500  129.108   46.757    0.405    0.356  338.989
  173.750  129.171   43.222    0.417    0.361  299.191
  174.000  129.234   42.674    0.390    0.367  316.610
  174.250  129.298   48.072    0.399    0.379  339.693
  174.500  129.361   52.269    0.416    0.389  303.976
  174.750  129.440   49.925    0.429    0.363  208.726
  175.000  129.503   45.199    0.419    0.351  227.089
  175.250  129.566   36.899    0.409    0.376  247.068
  175.500  129.629   34.564    0.433    0.408  167.300
  175.750  129.693   37.570    0.459    0.405  139.647
  176.000  129.740   37.013    0.518    0.388  145.707
  176.250  129.835   34.669    0.497    0.372  221.549
  176.500  129.882   34.111    0.442    0.375  254.869
  176.750  129.930   38.923    0.414    0.379  234.597
  177.000  130.025   37.770    0.420    0.381  248.215
  177.250  130.072   37.221    0.443    0.371  337.567
  177.500  130.167   36.664    0.439    0.346  440.413
  177.750  130.214   36.097    0.419    0.342  446.741
  178.000  130.262   37.931    0.415    0.341  466.128
  178.250  130.357   36.778    0.390    0.340  551.400
  178.500  130.388   35.029    0.380    0.338 1005.230
  178.750  130.467   35.067    0.375    0.335 1093.670
  179.000  130.531   38.073    0.355    0.331 1157.340
  179.250  130.594   39.312    0.341    0.326 1174.160
  179.500  130.657   37.563    0.342    0.323 1208.140
  179.750  130.704   38.792    0.342    0.326 1208.920
  180.000  131.760   37.639    0.350    0.320 1176.410
  180.250  131.839   38.868    0.349    0.316 1052.880
  180.500  131.902   36.514    0.333    0.322  982.591
  180.750  131.966   37.157    0.340    0.321  831.698
  181.000  132.029   38.386    0.379    0.327  629.655
  181.250  133.132   39.020    0.416    0.347  414.638
  181.500  133.164   35.484    0.406    0.356  397.901
  181.750  133.211   31.354    0.396    0.344  451.405
  182.000  133.274   31.391    0.401    0.335  427.184
  182.250  133.338   35.598    0.407    0.348  356.576
  182.500  132.440   39.209    0.423    0.358  293.515
  182.750  132.487   35.684    0.409    0.328  310.553
  183.000  132.535   35.712    0.372    0.326  324.081
  183.250  132.598   36.345    0.399    0.336  290.005
  183.500  132.677   32.810    0.389    0.339  302.590
  183.750  131.732   34.039    0.375    0.332  307.085
  184.000  131.795   46.007    0.368    0.327  115.719
  184.250  128.881   45.459    0.373    0.322  109.528
