~VERSION INFORMATION
 VERS.                 2.0:   CWLS LOG ASCII STANDARD -VERSION 2.0
 WRAP.                  NO:   ONE LINE PER DEPTH STEP
~WELL INFORMATION BLOCK
#MNEM.UNIT           DATA                    DESCRIPTION OF MNEMONIC
#---------    -------------------            -------------------------------
# Generated from Intellog Unique Number	CC_80_83/WELL/2370
COMP.         PETRO CANADA                   : COMPANY
WELL.         PEX PCEJ CHARD OV              : Well_name    - WELL
LOC .         10-26-080-07W4                 : Location     - LOCATION
UWI .         AA/10-26-080-07W400            : Uwi          - UNIQUE WELL ID
ENTR.         DW                             : Entered      - ENTERED BY
SRVC.         SCHLUMBERGER                   : Scn          - SERVICE COMPANY
STRT.M        145                            : top_depth    - START DEPTH
STOP.M        394.895                        : bot_depth    - STOP DEPTH
STEP.M        0.3                            : increment    - STEP LENGTH
 NULL. -999.2500:NULL Value
~CURVE INFORMATION BLOCK
#MNEM UNIT       ERCB CURVE CODE    CURVE DESCRIPTION
#-----------   ------------------   ----------------------------------
DEPT.M        00 001 00 00         : DEPTH        - DEPTH
DPHI.V/V      00 890 00 00         : PHID         - DENSITY POROSITY (LIMESTONE)
NPHI.V/V      00 330 00 00         : PHIN         - NEUTRON POROSITY (LIMESTONE)
GR  .API      00 310 00 00         : GR           - GAMMA RAY
ILD .OHMM     00 120 00 00         : RESD         - DEEP RESISTIVITY (DIL)
~PARAMETER INFORMATION
#MNEM.UNIT           DATA             DESCRIPTION OF MNEMONIC
#---------         -----------     ------------------------------
GL  .M        581.1                : gl           - GROUND LEVEL ELEVATION
EREF.M        584.75               : kb           - ELEVATION OF DEPTH REFERENCE
DATM.M        584.75               : datum        - DATUM ELEVATION
TDD .M        400                  : tdd          - TOTAL DEPTH DRILLER
RUN .         ONE                  : Run          - RUN NUMBER
ENG .         BILL                 : Engineer     - RECORDING ENGINEER
WIT .         JIM                  : Witness      - WITNESSED BY
MUD .         GEL                  : Mud_type     - MUD TYPE
MATR.         LIMESTONE            : Logunit      - NEUTRON MATRIX
TMAX.C        16                   : BHT          - MAXIMUM RECORDED TEMPERATURE
BHTD.M        400                  : BHTDEP       - MAXIMUM RECORDED TEMPERATURE
MATR.         1                    : LOGUNIT      - NEUTRON MATRIX
RMT .C        25                   : MDTP         - TEMPERATURE OF MUD
NEUT.         1                    : NEUTRON      - NEUTRON TYPE
RESI.         0                    : RESIST       - RESISTIVITY TYPE
RMC .OHMM     0.25                 : RMC          - RESISTIVITY OF MUD CAKE
RMF .OHMM     0.25                 : RMF          - RESISTIVITY OF MUD FILTRATE
SUFT.C        4                    : SUFT         - SURFACE TEMPERATURE
~A  DEPTH     PHID     PHIN       GR     RESD
# ...
  301.599    0.254    0.384   89.107    9.727
  301.899    0.275    0.414   92.223    7.887
  302.199    0.286    0.443   97.211    6.901
  302.499    0.310    0.467  102.197    5.922
  302.799    0.362    0.512   97.183    5.278
  303.099    0.433    0.523   97.797    5.172
  303.399    0.481    0.589   98.410    5.362
  303.699    0.364    0.575   96.522    5.773
  303.999    0.338    0.562   96.511    5.991
  304.299    0.323    0.533   98.372    6.452
  304.599    0.322    0.528  100.857    6.691
  304.899    0.400    0.521   99.597    6.680
  305.199    0.413    0.495  103.959    6.670
  305.499    0.421    0.470  107.698    6.789
  305.799    0.308    0.476  112.685    7.311
  306.099    0.244    0.454  117.672    8.176
  306.399    0.237    0.450  115.158    8.643
  306.699    0.220    0.464  107.647    9.136
  306.999    0.223    0.473  109.510    8.618
  307.299    0.236    0.475  112.621    7.680
  307.599    0.247    0.494  115.111    6.468
  307.899    0.276    0.537  111.972    5.345
  308.199    0.326    0.586  101.335    4.095
  308.499    0.372    0.591   90.072    3.258
  308.799    0.483    0.600   86.935    2.797
  309.099    0.462    0.587   87.548    2.400
  309.399    0.422    0.592   88.785    2.222
  309.699    0.447    0.595   91.273    2.136
  309.999    0.416    0.600   95.636    2.258
  310.299    0.344    0.600   91.246    2.478
  310.599    0.336    0.581   95.611    2.773
  310.899    0.336    0.537  101.223    3.282
  311.199    0.378    0.521   99.958    3.960
  311.499    0.409    0.515   99.320    5.153
  311.799    0.345    0.506   99.931    6.581
  312.099    0.248    0.448  101.798    7.643
  312.399    0.235    0.463  105.532    8.079
  312.699    0.237    0.460  108.649    8.068
  312.999    0.287    0.458  111.760    6.794
  313.299    0.322    0.479  109.873    5.615
  313.599    0.318    0.552  109.236    4.727
  313.899    0.321    0.540  108.597    4.135
  314.199    0.356    0.534  105.461    3.687
  314.499    0.362    0.548  100.449    3.477
  314.799    0.402    0.557   95.436    3.344
  315.099    0.355    0.560   95.424    3.275
  315.399    0.295    0.561  107.910    3.209
  315.699    0.296    0.571  104.773    3.264
  315.999    0.307    0.515  103.509    3.262
  316.299    0.318    0.512  107.874    3.446
  316.599    0.301    0.542  108.486    3.574
  316.899    0.302    0.534  107.223    3.707
  317.199    0.336    0.543  110.958    3.845
  317.499    0.364    0.572  106.574    4.064
  317.799    0.401    0.589   97.186    4.545
  318.099    0.456    0.517   98.424    5.381
  318.399    0.411    0.482   95.911    6.250
  318.699    0.251    0.458   99.649    6.606
  318.999    0.337    0.447   99.637    6.723
  319.299    0.331    0.434   96.498    7.103
  319.599    0.186    0.385   86.485    7.509
  319.899    0.221    0.349   78.349    8.400
  320.199    0.258    0.364   77.087    8.875
  320.499    0.258    0.360   82.073    8.697
  320.798    0.253    0.363   81.435    8.362
  321.098    0.244    0.377   82.673    7.739
  321.398    0.239    0.386   88.911    7.167
  321.698    0.245    0.393   97.023    6.150
  321.998    0.269    0.416  101.386    5.180
  322.298    0.289    0.454   95.749    3.750
  322.598    0.297    0.469   92.610    2.927
  322.898    0.304    0.464   90.099    2.979
  323.198    0.310    0.462   80.711    4.426
  323.498    0.309    0.431   65.699   34.761
  323.798    0.308    0.385   61.310  355.801
  324.098    0.308    0.378   56.298  311.221
  324.398    0.308    0.369   53.161  238.434
  324.698    0.309    0.366   48.149  186.154
  324.998    0.284    0.380   51.648   45.678
  325.298    0.292    0.373   58.472   30.076
  325.598    0.277    0.392   60.937   23.479
  325.898    0.252    0.401   69.624   18.329
  326.198    0.252    0.402   81.425   14.857
  326.498    0.254    0.406   91.357   13.242
  326.798    0.255    0.431   98.180   12.261
  327.098    0.262    0.427  105.622   10.722
  327.398    0.265    0.428   96.265    9.028
  327.698    0.233    0.433   99.974    8.677
  327.998    0.235    0.442  114.264    9.169
  328.298    0.245    0.408  127.305   10.854
  328.598    0.245    0.397  129.151   14.127
  328.898    0.247    0.404  126.637   21.386
  329.198    0.263    0.387  106.701   22.599
  329.498    0.285    0.373   85.519   21.723
  329.798    0.280    0.360   73.049   19.734
  330.098    0.263    0.356   63.068   15.999
  330.398    0.173    0.376   56.822   12.971
  330.698    0.179    0.392   62.398   10.719
  330.998    0.197    0.368  117.759    9.554
  331.298    0.202    0.366  127.692   10.285
  331.598    0.207    0.384  118.333   11.951
  331.898    0.236    0.395  120.799   15.551
  332.198    0.276    0.397  125.751   22.240
  332.498    0.290    0.400  102.083   36.310
  332.798    0.300    0.400   81.523   58.176
  333.098    0.303    0.397   75.897   63.833
  333.398    0.302    0.394   74.626   61.375
  333.698    0.287    0.389   70.873   48.837
  333.998    0.280    0.388   64.000   29.256
  334.298    0.247    0.389   60.865   20.007
  334.598    0.192    0.404   69.555   15.325
  334.898    0.178    0.451   87.579   13.404
  335.198    0.179    0.456   98.757   13.382
  335.498    0.220    0.418   99.977   15.542
  335.798    0.263    0.399   78.795   20.224
  336.098    0.281    0.415   65.082   25.338
  336.398    0.312    0.424   65.057   28.879
  336.698    0.315    0.433   70.629   32.300
  336.998    0.310    0.402   65.633   36.814
  337.298    0.309    0.404   45.694   42.744
  337.598    0.315    0.432   41.937   46.047
  337.898    0.321    0.413   51.246   53.493
  338.198    0.323    0.412   43.755   65.719
  338.498    0.316    0.415   43.111   70.817
  338.798    0.310    0.408   37.486   76.255
  339.098    0.315    0.426   51.774   85.285
  339.398    0.318    0.404   48.018   91.825
  339.698    0.307    0.422   54.838   91.685
  339.998    0.305    0.421   56.059   83.288
  340.298    0.307    0.391   53.546   66.251
  340.598    0.302    0.369   59.745   48.869
  340.898    0.285    0.368   43.542   29.839
  341.198    0.271    0.381   46.008   22.426
  341.498    0.259    0.399   78.343   20.760
  341.798    0.232    0.403   87.653   19.956
  342.098    0.135    0.359   77.673   18.825
  342.398    0.151    0.334   59.601   17.098
  342.698    0.215    0.324   65.802   14.949
  342.998    0.268    0.345   78.847   13.077
  343.298    0.264    0.406   96.247   11.223
  343.598    0.246    0.396   96.223    9.815
  343.898    0.237    0.407   89.354    8.912
  344.198    0.239    0.424  112.355    8.249
  344.498    0.220    0.413  106.731    7.782
  344.798    0.207    0.402  111.685    7.342
  345.098    0.203    0.400  121.617    6.798
  345.397    0.215    0.423  111.014    6.784
  345.697    0.219    0.431  115.344    7.169
  345.997    0.213    0.411  119.679    7.868
  346.297    0.191    0.389  124.634    8.965
  346.597    0.171    0.378  130.211    9.301
  346.897    0.167    0.372  128.942    9.463
  347.197    0.168    0.371  111.494    9.271
  347.497    0.175    0.372  105.870    9.078
  347.797    0.177    0.376  101.486    8.895
  348.097    0.175    0.413  107.066    8.879
  348.397    0.174    0.408  108.285    9.210
  348.697    0.177    0.414  109.508    9.550
  348.997    0.182    0.408  111.974    9.528
  349.297    0.185    0.397  110.705    9.519
  349.597    0.193    0.393  116.282    9.326
  349.897    0.198    0.390  108.169    8.794
  350.197    0.195    0.382   97.566    8.455
  350.497    0.183    0.379   98.785    8.440
  350.797    0.171    0.386  108.719    8.425
  351.097    0.171    0.373  110.562    8.579
  351.397    0.182    0.375  108.049    8.890
  351.697    0.195    0.383  110.515    9.051
  351.997    0.198    0.377  114.223    9.384
  352.297    0.196    0.390  106.733    9.188
  352.597    0.182    0.398   99.243    9.001
  352.897    0.174    0.377   92.996    8.823
  353.197    0.167    0.369  114.130    8.482
  353.497    0.169    0.382  110.367    8.631
