~VERSION INFORMATION
 VERS.                 2.0:   CWLS LOG ASCII STANDARD -VERSION 2.0
 WRAP.                  NO:   ONE LINE PER DEPTH STEP
~WELL INFORMATION BLOCK
#MNEM.UNIT           DATA                    DESCRIPTION OF MNEMONIC
#---------    -------------------            -------------------------------
# Generated from Intellog Unique Number	CC_80_83/WELL/2335
NULL.         -999.25                        : NULL_VALUE
WELL.         PEX PCEJ CHARD OV              : Well_name    - WELL
LOC .         10-05-081-07W4                 : Location     - LOCATION          
UWI .         AA/10-05-081-07W4/0            : Uwi          - UNIQUE WELL ID    
ENTR.         DW                             : Entered      - ENTERED BY        
SRVC.         SCHLUMBERGER                   : Scn          - SERVICE COMPANY   
DATE.         21 JAN 80                      : Date         - LOG DATE
STRT.M        200                            : top_depth    - START DEPTH       
STOP.M        434.893                        : bot_depth    - STOP DEPTH        
STEP.M        0.3                            : increment    - STEP LENGTH       
~CURVE INFORMATION BLOCK
#MNEM UNIT       ERCB CURVE CODE    CURVE DESCRIPTION
#-----------   ------------------   ----------------------------------
DEPT.M        00 001 00 00         : DEPTH        - DEPTH                       
DPHI.V/V      00 890 00 00         : PHID         - DENSITY POROSITY (LIMESTONE)
NPHI.V/V      00 330 00 00         : PHIN         - NEUTRON POROSITY (LIMESTONE)
GR  .API      00 310 00 00         : GR           - GAMMA RAY                   
ILD .OHMM     00 120 00 00         : RESD         - DEEP RESISTIVITY (DIL)      
~PARAMETER INFORMATION       
#MNEM.UNIT           DATA             DESCRIPTION OF MNEMONIC
#---------         -----------     ------------------------------
GL  .M        604.88               : gl           - GROUND LEVEL ELEVATION      
EREF.M        608.48               : kb           - ELEVATION OF DEPTH REFERENCE
DATM.M        608.48               : datum        - DATUM ELEVATION             
TDD .M        436                  : tdd          - TOTAL DEPTH DRILLER         
RUN .         ONE                  : Run          - RUN NUMBER                  
ENG .         BILL                 : Engineer     - RECORDING ENGINEER          
WIT .         JIM                  : Witness      - WITNESSED BY                
MUD .         GEL                  : Mud_type     - MUD TYPE                    
MATR.         LIMESTONE            : Logunit      - NEUTRON MATRIX              
TMAX.C        19                   : BHT          - MAXIMUM RECORDED TEMPERATURE
BHTD.M        436                  : BHTDEP       - MAXIMUM RECORDED TEMPERATURE
MATR.         1                    : LOGUNIT      - NEUTRON MATRIX              
RMT .C        25                   : MDTP         - TEMPERATURE OF MUD          
NEUT.         1                    : NEUTRON      - NEUTRON TYPE                
RESI.         0                    : RESIST       - RESISTIVITY TYPE            
RMC .OHMM     0.25                 : RMC          - RESISTIVITY OF MUD CAKE     
RMF .OHMM     0.25                 : RMF          - RESISTIVITY OF MUD FILTRATE 
SUFT.C        15                   : SUFT         - SURFACE TEMPERATURE         
~A  DEPTH     PHID     PHIN       GR     RESD
  200.000    0.284    0.567  124.609    2.890
  200.300    0.314    0.559  122.767    2.889
  200.600    0.324    0.550  118.460    2.889
  200.900    0.295    0.512  122.789    2.835
  201.200    0.265    0.509  115.399    2.835
  201.500    0.251    0.516  115.410    2.887
  201.800    0.255    0.522  119.740    2.887
  202.100    0.256    0.549  129.620    2.941
  202.400    0.252    0.562  124.080    2.995
  202.700    0.238    0.561  123.476    3.051
  203.000    0.240    0.539  112.382    3.051
  203.300    0.247    0.528  114.862    3.107
  203.600    0.253    0.539  121.040    3.107
  203.900    0.249    0.500  118.585    3.224
  204.200    0.230    0.510  124.764    3.346
  204.500    0.216    0.522  104.421    3.408
  204.800    0.178    0.519  116.769    3.472
  205.100    0.206    0.540  126.651    3.537
  205.400    0.227    0.523  135.300    3.739
  205.700    0.230    0.470  133.458    3.953
  206.000    0.223    0.495  119.279    4.179
  206.300    0.217    0.501  121.143    4.337
  206.600    0.219    0.476  127.938    4.418
  206.900    0.220    0.459  116.847    4.256
  207.200    0.218    0.480  117.475    4.177
  207.500    0.215    0.456  114.402    4.023
  207.800    0.213    0.468  116.880    3.949
  208.100    0.215    0.529  125.527    3.875
  208.400    0.215    0.500  128.623    4.021
  208.700    0.215    0.488  118.764    4.413
  209.000    0.210    0.460  109.524    5.121
  209.300    0.202    0.452  118.171    5.314
  209.600    0.162    0.447  131.754    5.413
  209.900    0.128    0.374  125.594    5.312
  210.200    0.123    0.336   77.491    5.411
  210.500    0.169    0.359   89.838    5.410
  210.800    0.201    0.411  113.292    5.310
  211.100    0.227    0.461  117.620    5.021
  211.400    0.233    0.417   94.808    4.659
  211.700    0.232    0.411   90.501    4.573
  212.000    0.211    0.430  118.887    4.572
  212.300    0.209    0.442  121.369    4.744
  212.600    0.208    0.411  113.359    5.609
  212.900    0.210    0.395  119.538   13.206
  213.200    0.224    0.287   83.155   15.324
  213.500    0.270    0.281   74.531   15.322
  213.800    0.272    0.300   70.223   13.447
  214.100    0.241    0.367   92.442   11.371
  214.400    0.211    0.398  103.556    8.925
  214.700    0.199    0.414  101.718    7.689
  215.000    0.194    0.437  109.750    7.004
  215.300    0.199    0.445  113.460    6.747
  215.600    0.222    0.420  114.706    6.873
  215.900    0.232    0.417  122.117    7.828
  216.200    0.237    0.401  114.727   11.571
  216.500    0.266    0.395  110.422   14.737
  216.800    0.276    0.389  110.432   15.872
  217.100    0.262    0.367   94.404   16.472
  217.400    0.254    0.367   87.630   17.095
  217.700    0.250    0.347   90.729   17.739
  218.000    0.246    0.346   91.970   17.737
  218.300    0.240    0.347   87.047   16.770
  218.600    0.233    0.356   79.659   16.459
  218.900    0.230    0.360   95.706   15.854
  219.200    0.229    0.369   93.868   16.149
  219.500    0.223    0.358   89.561   16.147
  219.800    0.222    0.374   92.656   15.848
  220.100    0.232    0.392  106.237   14.436
  220.400    0.232    0.400  122.286   12.908
  220.700    0.228    0.411  130.317   12.205
  221.000    0.222    0.414  125.398   10.711
  221.300    0.218    0.402  124.171   10.513
  221.600    0.218    0.399  142.689   10.910
  221.900    0.231    0.411  136.530   12.897
  222.200    0.244    0.380   89.661   15.534
  222.500    0.250    0.365   77.335   18.025
  222.800    0.252    0.343   73.644   20.152
  223.100    0.240    0.329   86.610   20.527
  223.400    0.231    0.361   92.791   19.774
  223.700    0.230    0.378   90.335   19.049
  224.000    0.230    0.364   84.794   18.349
  224.300    0.249    0.365   87.888   19.041
  224.600    0.256    0.376   89.751   19.762
  224.900    0.258    0.381   79.275   20.892
  225.200    0.260    0.366   75.584   21.283
  225.500    0.263    0.361   74.362   20.886
  225.800    0.266    0.383   65.120   19.748
  226.100    0.320    0.395   52.794   17.658
  226.400    0.304    0.375   71.312   15.790
  226.700    0.248    0.348   86.128   14.654
  227.000    0.248    0.351   98.475   14.651
  227.300    0.254    0.378  104.040   17.646
  227.600    0.274    0.399   83.078   20.099
  227.900    0.287    0.365   80.007   21.650
  228.200    0.289    0.367   76.933   23.320
  228.500    0.288    0.389   76.943   23.753
  228.800    0.284    0.393   86.207   22.045
  229.100    0.283    0.378   70.181   21.237
  229.400    0.281    0.361   70.806   21.233
  229.700    0.275    0.374   86.240   21.230
  230.000    0.271    0.358   76.999   21.622
  230.300    0.270    0.371   83.179   21.221
  230.600    0.276    0.386   91.826   21.218
  230.900    0.283    0.403  101.091   20.439
  231.200    0.285    0.363  101.101   19.689
  231.500    0.287    0.377   96.795   18.966
  231.800    0.285    0.406   93.105   18.270
  232.100    0.277    0.370   87.565   17.600
  232.400    0.265    0.397   94.361   16.640
  232.700    0.254    0.412  100.541   15.733
  233.000    0.249    0.423  106.721   15.441
  233.300    0.242    0.397  111.049   15.153
  233.600    0.232    0.368  116.612   15.436
  233.900    0.229    0.370  132.664   16.020
  234.200    0.242    0.351  133.291   17.579
  234.500    0.257    0.344  103.692   20.782
  234.800    0.277    0.356   74.712   23.670
  235.100    0.288    0.357   68.553   24.565
  235.400    0.294    0.371   72.268   25.972
  235.700    0.296    0.391   71.662   26.454
  236.000    0.296    0.399   93.879   26.451
  236.300    0.300    0.410  104.995   25.958
  236.600    0.302    0.413  108.706   25.476
  236.900    0.295    0.382  101.931   23.644
  237.200    0.283    0.383   88.371   21.944
  237.500    0.279    0.391  100.721   20.366
  237.800    0.278    0.399  102.583   18.899
  238.100    0.273    0.399   99.511   17.540
  238.400    0.267    0.414   95.204   16.280
  238.700    0.259    0.403   94.598   13.766
  239.000    0.262    0.395   93.990   12.309
  239.300    0.281    0.416   92.151   13.258
  239.600    0.281    0.389   68.721   14.823
  239.900    0.274    0.344   52.696   19.963
  240.200    0.276    0.333   47.153   19.959
  240.500    0.274    0.332   67.522   18.181
  240.800    0.258    0.358   66.915   17.515
  241.100    0.250    0.372   79.885   17.841
  241.400    0.251    0.360   81.744   19.579
  241.700    0.251    0.352   77.436   21.888
  242.000    0.242    0.361   64.496   23.576
  242.300    0.246    0.338   62.038   24.015
  242.600    0.257    0.331   57.732   24.012
  242.900    0.268    0.326   50.341   23.563
  243.200    0.260    0.333   55.287   23.559
  243.500    0.220    0.345   60.234   23.122
  243.800    0.248    0.362   59.627   22.691
  244.100    0.317    0.370   44.833   21.859
  244.400    0.311    0.385   61.499   21.453
  244.700    0.267    0.404   99.138   20.665
  245.000    0.264    0.380  104.702   19.907
  245.300    0.266    0.417   87.442   17.800
  245.600    0.267    0.421   86.219   15.622
  245.900    0.256    0.412   95.485   11.596
  246.200    0.231    0.435  107.831    7.013
  246.500    0.185    0.465  134.984    6.389
  246.800    0.164    0.486  128.210    6.755
  247.100    0.180    0.433  139.943    7.838
  247.400    0.204    0.439  133.784    9.267
  247.700    0.221    0.431  143.665   13.697
  248.000    0.268    0.418  144.294   19.506
  248.300    0.282    0.390  112.845   22.219
  248.600    0.283    0.403   96.817   23.491
  248.900    0.281    0.377   89.428   23.055
  249.201    0.273    0.383   94.990   19.133
  249.501    0.262    0.387  106.724   18.092
  249.801    0.246    0.392  109.819   16.178
  250.101    0.237    0.398  115.996   13.936
  250.401    0.234    0.401  121.561   12.696
  250.701    0.234    0.385  125.888   12.229
  251.001    0.238    0.386  120.349   13.172
  251.301    0.255    0.378   95.685   15.004
  251.601    0.274    0.365   83.359   19.109
  251.901    0.280    0.354   67.949   21.765
