~VERSION INFORMATION
 VERS.                 2.0:   CWLS LOG ASCII STANDARD -VERSION 2.0
 WRAP.                  NO:   ONE LINE PER DEPTH STEP
~WELL INFORMATION BLOCK
#MNEM.UNIT           DATA                    DESCRIPTION OF MNEMONIC
#---------    -------------------            -------------------------------
# Generated from Intellog Unique Number	CC_84_87/WELL/2324
NULL.         -999.25                        : NULL_VALUE
WELL.         PEX PCEJ HANGST OV             : Well_name    - WELL
LOC .         11-07-084-08W4                 : Location     - LOCATION          
UWI .         AA/11-07-084-08W4/0            : Uwi          - UNIQUE WELL ID    
ENTR.         RJA                            : Entered      - ENTERED BY        
SRVC.         DRESSER ATLAS                  : Scn          - SERVICE COMPANY   
DATE.         30 JAN 80                      : Date         - LOG DATE
STRT.M        250                            : top_depth    - START DEPTH       
STOP.M        537.089                        : bot_depth    - STOP DEPTH        
STEP.M        0.3                            : increment    - STEP LENGTH       
~CURVE INFORMATION BLOCK
#MNEM UNIT       ERCB CURVE CODE    CURVE DESCRIPTION
#-----------   ------------------   ----------------------------------
DEPT.M        00 001 00 00         : DEPTH        - DEPTH                       
DPHI.V/V      00 890 00 00         : PHID         - DENSITY POROSITY (LIMESTONE)
NPHI.V/V      00 330 00 00         : PHIN         - NEUTRON POROSITY (LIMESTONE)
GR  .API      00 310 00 00         : GR           - GAMMA RAY                   
ILD .OHMM     00 120 00 00         : RESD         - DEEP RESISTIVITY (DIL)      
~PARAMETER INFORMATION       
#MNEM.UNIT           DATA             DESCRIPTION OF MNEMONIC
#---------         -----------     ------------------------------
GL  .M        272.32               : gl           - GROUND LEVEL ELEVATION      
EREF.M        730.92               : kb           - ELEVATION OF DEPTH REFERENCE
DATM.M        730.92               : datum        - DATUM ELEVATION             
TDD .M        541                  : tdd          - TOTAL DEPTH DRILLER         
RUN .         ONE                  : Run          - RUN NUMBER                  
ENG .         BILL                 : Engineer     - RECORDING ENGINEER          
WIT .         JIM                  : Witness      - WITNESSED BY                
MUD .         GEL                  : Mud_type     - MUD TYPE                    
MATR.         LIMESTONE            : Logunit      - NEUTRON MATRIX              
TMAX.C        20                   : BHT          - MAXIMUM RECORDED TEMPERATURE
BHTD.M        541                  : BHTDEP       - MAXIMUM RECORDED TEMPERATURE
MATR.         1                    : LOGUNIT      - NEUTRON MATRIX              
RMT .C        25                   : MDTP         - TEMPERATURE OF MUD          
NEUT.         1                    : NEUTRON      - NEUTRON TYPE                
RESI.         0                    : RESIST       - RESISTIVITY TYPE            
RMC .OHMM     0.25                 : RMC          - RESISTIVITY OF MUD CAKE     
RMF .OHMM     0.25                 : RMF          - RESISTIVITY OF MUD FILTRATE 
SUFT.C        15                   : SUFT         - SURFACE TEMPERATURE         
~A  DEPTH     PHID     PHIN       GR     RESD
# ...
  302.198    0.282    0.379   80.452   39.819
  302.498    0.294    0.365   63.590   60.233
  302.798    0.299    0.364   51.430   55.731
  303.098    0.296    0.361   54.222   50.715
  303.398    0.300    0.352   59.886   43.904
  303.698    0.302    0.350   56.268   38.788
  303.998    0.298    0.368   52.531   37.586
  304.298    0.300    0.369   55.324   36.759
  304.598    0.296    0.353   55.065   33.637
  304.898    0.288    0.372   55.541   29.663
  305.198    0.284    0.388   77.929   23.630
  305.498    0.289    0.396   97.204   20.008
  305.798    0.318    0.397  109.460   17.514
  306.098    0.287    0.394   99.921   15.106
  306.398    0.176    0.387   99.907   13.797
  306.698    0.182    0.394  108.440   13.419
  306.998    0.220    0.424  128.143   16.201
  307.298    0.259    0.413  126.540   17.967
  307.598    0.280    0.414  116.210   33.181
  307.898    0.286    0.413  107.772   38.750
  308.198    0.283    0.411  115.083   40.729
  308.498    0.280    0.402  123.676   39.686
  308.798    0.291    0.387  120.609   38.885
  309.098    0.296    0.372   99.657   37.749
  309.398    0.295    0.347   93.781   35.448
  309.698    0.290    0.359   88.396   32.557
  309.998    0.284    0.389   86.489   29.192
  310.298    0.272    0.381   97.889   24.947
  310.598    0.263    0.398  103.735   19.947
  310.898    0.252    0.386  111.228   18.018
  311.198    0.239    0.377  115.059   17.785
  311.498    0.243    0.393  122.066   18.149
  311.798    0.248    0.416  115.214   18.114
  312.098    0.255    0.395  115.017   17.423
  312.398    0.264    0.380  134.721   16.181
  312.698    0.264    0.394  136.109   15.621
  312.998    0.250    0.416  120.957   16.756
  313.298    0.237    0.374  103.850   18.377
  313.598    0.244    0.386   91.809   18.684
  313.898    0.279    0.401   79.038   17.708
  314.198    0.295    0.390  105.638   14.211
  314.498    0.252    0.397  111.666   11.747
  314.798    0.217    0.412  116.596   10.950
  315.098    0.215    0.419  117.315   10.929
  315.398    0.219    0.421  121.697   11.445
  315.698    0.228    0.433  117.408   11.297
  315.998    0.237    0.455  135.708   10.886
  316.298    0.248    0.445  131.909   10.054
  316.598    0.193    0.438  143.126    9.476
  316.898    0.183    0.459  155.687    8.915
  317.198    0.198    0.473  154.696    8.559
  317.498    0.201    0.469  137.894    8.448
  317.798    0.186    0.444  140.872    8.605
  318.098    0.211    0.439  150.131    9.061
  318.398    0.215    0.454  139.192    9.901
  318.698    0.214    0.435  131.182   10.198
  318.997    0.224    0.419  128.788   10.899
  319.297    0.252    0.407  123.523   11.477
  319.597    0.276    0.415  113.071   12.587
  319.897    0.329    0.458  125.387   12.940
  320.197    0.270    0.456  138.070   12.772
  320.497    0.276    0.434  131.890   12.195
  320.797    0.289    0.449  122.901   11.904
  321.097    0.336    0.445  130.091   12.443
  321.397    0.423    0.464  123.545   11.881
  321.697    0.442    0.477  112.115   11.749
  321.997    0.406    0.432  112.831   12.909
  322.297    0.264    0.398  112.087   14.395
  322.597    0.264    0.412  122.876   16.052
  322.897    0.272    0.409  116.390   16.934
  323.197    0.279    0.408  107.159   17.377
  323.497    0.265    0.392  115.751   17.312
  323.797    0.260    0.383  113.663   18.742
  324.097    0.266    0.373  103.028   21.527
  324.397    0.302    0.390   77.067   30.019
  324.697    0.315    0.402   71.132   35.384
  324.997    0.316    0.411   67.945   41.400
  325.297    0.315    0.394   69.271   49.615
  325.597    0.311    0.399   72.250   59.133
  325.897    0.310    0.399   62.772   54.209
  326.197    0.311    0.392   61.050   55.730
  326.497    0.313    0.392   67.933   52.817
  326.797    0.311    0.377   74.390   52.328
  327.097    0.311    0.374   70.040   52.228
  327.397    0.312    0.384   67.097   53.100
  327.697    0.313    0.385   64.395   52.705
  327.997    0.313    0.386   58.766   52.312
  328.297    0.310    0.371   64.490   52.503
  328.597    0.298    0.367   66.550   55.185
  328.897    0.199    0.354   65.559   57.898
  329.197    0.235    0.310   70.609   56.310
  329.497    0.298    0.369   79.205   53.864
  329.797    0.298    0.409   80.533   49.744
  330.097    0.294    0.404   70.810   46.798
  330.397    0.305    0.391   80.870   43.622
  330.697    0.312    0.387   72.006   41.115
  330.997    0.312    0.400   74.005   39.111
  331.297    0.307    0.383   73.564   38.179
  331.597    0.304    0.392   71.045   37.755
  331.897    0.302    0.380   67.370   37.267
  332.197    0.301    0.384   67.598   37.266
  332.497    0.302    0.396   72.953   37.470
  332.797    0.302    0.380   70.073   38.236
  333.097    0.306    0.371   69.693   40.263
  333.397    0.307    0.390   61.498   42.009
  333.697    0.306    0.412   63.314   44.238
  333.997    0.306    0.405   60.859   46.843
  334.297    0.308    0.388   67.132   49.145
  334.597    0.311    0.412   69.987   49.505
  334.897    0.314    0.404   69.118   49.319
  335.197    0.315    0.411   68.186   48.502
  335.497    0.317    0.417   63.656   48.053
  335.797    0.316    0.415   65.165   47.256
  336.097    0.313    0.417   63.379   47.079
  336.397    0.309    0.431   60.989   46.729
  336.697    0.306    0.435   60.906   46.640
  336.997    0.307    0.423   62.054   46.637
  337.297    0.310    0.415   61.065   46.375
  337.597    0.311    0.407   64.715   46.629
  337.897    0.311    0.402   60.426   46.540
  338.197    0.313    0.412   58.092   46.623
  338.497    0.314    0.390   56.063   46.706
  338.797    0.313    0.379   60.384   46.875
  339.097    0.312    0.381   59.452   47.482
  339.397    0.309    0.386   62.614   47.566
  339.697    0.303    0.393   65.405   47.563
  339.997    0.301    0.383   62.280   47.473
  340.297    0.303    0.395   65.379   47.293
  340.597    0.305    0.400   63.105   46.166
  340.897    0.307    0.375   67.791   48.614
  341.197    0.308    0.377   61.857   48.881
  341.497    0.310    0.391   61.170   49.058
  341.797    0.307    0.402   69.210   48.785
  342.097    0.304    0.399   71.459   47.978
  342.397    0.303    0.393   69.429   47.270
  342.697    0.305    0.385   66.179   47.092
  342.997    0.304    0.400   72.331   46.482
  343.297    0.302    0.413   68.103   46.395
  343.596    0.296    0.414   58.872   45.458
  343.896    0.294    0.419   66.244   44.048
  344.196    0.293    0.415   65.192   43.239
  344.496    0.296    0.425   69.205   41.821
  344.796    0.293    0.406   72.366   40.226
  345.096    0.290    0.410   76.930   39.414
  345.396    0.293    0.406   78.197   38.761
  345.696    0.293    0.409   75.067   38.190
  345.996    0.299    0.411   70.538   38.117
  346.296    0.299    0.398   78.948   39.113
  346.596    0.295    0.390   82.596   40.658
  346.896    0.291    0.387   83.009   41.490
  347.196    0.287    0.380   83.117   40.727
  347.496    0.278    0.374   76.327   37.614
  347.796    0.177    0.371   65.201   31.613
  348.096    0.231    0.336   70.194   29.305
  348.396    0.265    0.393   78.481   28.187
  348.696    0.276    0.426   75.720   27.465
  348.996    0.285    0.439   79.856   26.663
  349.296    0.278    0.444   83.565   19.618
  349.596    0.288    0.465   89.839   13.332
  349.896    0.418    0.583  107.109    6.351
  350.196    0.379    0.576   95.251    8.094
  350.496    0.396    0.548   91.477    9.488
  350.796    0.436    0.541   99.239   10.250
  351.096    0.460    0.571  101.510   10.808
  351.396    0.306    0.534   93.417   11.004
  351.696    0.280    0.481  102.718   12.383
  351.996    0.278    0.488  101.045   12.747
  352.296    0.291    0.475  100.847   11.998
  352.596    0.304    0.470   99.294   12.633
  352.896    0.287    0.450  102.059   15.199
  353.196    0.266    0.416   94.335   14.908
  353.496    0.261    0.403   81.306   13.425
  353.796    0.268    0.420   96.472   12.023
  354.096    0.272    0.413  103.679   11.239
