~VERSION INFORMATION
 VERS.                 2.0:   CWLS LOG ASCII STANDARD -VERSION 2.0
 WRAP.                  NO:   ONE LINE PER DEPTH STEP
~WELL INFORMATION BLOCK
#MNEM.UNIT           DATA                    DESCRIPTION OF MNEMONIC
#---------    -------------------            -------------------------------
# Generated from Intellog Unique Number	CN_94_101/WELL/2668
WELL.         10-08-094-14W4                 : Well_name    - WELL
LOC .         AA/10-08-094-14W4/0            : Location     - LOCATION
UWI .         AA/10-08-094-14W400            : Uwi          - UNIQUE WELL ID
ENTR.         JOETTE                         : Entered      - ENTERED BY
SRVC.         SCHLUMBERGER                   : Scn          - SERVICE COMPANY
DATE.         06/18/92                       : Date         - LOG DATE
STRT.M        50                             : top_depth    - START DEPTH
STOP.M        160                            : bot_depth    - STOP DEPTH
STEP.M        0.25                           : increment    - STEP LENGTH
 NULL. -999.2500:NULL Value
~CURVE INFORMATION BLOCK
#MNEM UNIT       ERCB CURVE CODE    CURVE DESCRIPTION
#-----------   ------------------   ----------------------------------
DEPT.M        00 001 00 00         : DEPTH        - DEPTH
CALI.MM       00 280 01 00         : CAL          - CALIPER
GR  .API      00 310 00 00         : GR           - GAMMA RAY
NPHI.V/V      00 330 00 00         : PHIN         - NEUTRON POROSITY (SANDSTONE)
DPHI.V/V      00 890 00 00         : PHID         - DENSITY POROSITY (SANDSTONE)
ILD .OHMM     00 120 00 00         : RESD         - DEEP RESISTIVITY (DIL)
~PARAMETER INFORMATION
#MNEM.UNIT           DATA             DESCRIPTION OF MNEMONIC
#---------         -----------     ------------------------------
GL  .M        428.8                : gl           - GROUND LEVEL ELEVATION
EREF.M        434.05               : kb           - ELEVATION OF DEPTH REFERENCE
DATM.M        434.05               : datum        - DATUM ELEVATION
TDD .M        201.5                : tdd          - TOTAL DEPTH DRILLER
RUN .         ONE                  : Run          - RUN NUMBER
ENG .         BILL                 : Engineer     - RECORDING ENGINEER
WIT .         JIM                  : Witness      - WITNESSED BY
MUD .         GEL                  : Mud_type     - MUD TYPE
MATR.         SANDSTONE            : Logunit      - NEUTRON MATRIX
TMAX.C        19                   : BHT          - MAXIMUM RECORDED TEMPERATURE
BHTD.M        201.5                : BHTDEP       - MAXIMUM RECORDED TEMPERATURE
RMT .C        19                   : MDTP         - TEMPERATURE OF MUD
MUDD.KG/M     1120                 : MWT          - MUD DENSITY
NEUT.         1                    : NEUTRON      - NEUTRON TYPE
RESI.         0                    : RESIST       - RESISTIVITY TYPE
RM  .OHMM     3.15                 : RM           - RESISTIVITY OF MUD
RMC .OHMM     3.15                 : RMC          - RESISTIVITY OF MUD CAKE
RMF .OHMM     3.15                 : RMF          - RESISTIVITY OF MUD FILTRATE
SUFT.C        4                    : SUFT         - SURFACE TEMPERATURE
~A  DEPTH      CAL       GR     PHIN     PHID     RESD
   50.000  160.824   39.353    0.554    0.285   11.159
   50.250  159.939   43.054    0.546    0.278    8.478
   50.500  160.082   44.287    0.543    0.277    8.037
   50.750  159.233   47.944    0.539    0.291    7.339
   51.000  159.411   52.240    0.572    0.352    6.462
   51.250  159.589   55.302    0.593    0.347    6.125
   51.500  159.696   57.152    0.606    0.322    6.854
   51.750  157.855   60.257    0.612    0.323    7.677
   52.000  156.013   59.704    0.601    0.330    8.128
   52.250  157.113   54.432    0.591    0.335    8.298
   52.500  162.287   54.561    0.582    0.267    8.306
   52.750  163.351   55.794    0.560    0.218    8.172
   53.000  174.443   58.856    0.528    0.246    7.747
   53.250  187.484   62.535    0.509    0.340    7.074
   53.500  216.470   66.831    0.492    0.430    4.904
   53.750  225.506   67.469    0.491    0.443    4.731
   54.000  230.681   66.959    0.501    0.451    4.015
   54.250  229.832   65.876    0.518    0.464    4.251
   54.500  236.920   65.344    0.526    0.463    5.125
   54.750  241.987   65.473    0.522    0.461    4.682
   55.000  243.122   66.132    0.525    0.382    4.359
   55.250  241.281   66.197    0.516    0.370    4.285
   55.500  244.400   66.282    0.512    0.359    4.537
   55.750  251.523   66.389    0.539    0.373    4.718
   56.000  256.627   66.454    0.556    0.360    4.636
   56.250  261.766   67.730    0.548    0.375    4.319
   56.500  265.877   69.665    0.516    0.343    4.168
   56.750  268.961   70.877    0.515    0.335    4.099
   57.000  271.088   74.004    0.517    0.320    4.259
   57.250  273.251   74.047    0.507    0.339    4.683
   57.500  273.393   72.942    0.456    0.344    4.774
   57.750  272.579   69.456    0.449    0.350    4.876
   58.000  270.667   68.924    0.475    0.304    4.708
   58.250  269.817   69.605    0.510    0.255    4.380
   58.500  270.031   72.710    0.533    0.210    3.999
   58.750  272.123   75.772    0.547    0.192    3.654
   59.000  274.250   78.218    0.557    0.228    3.219
   59.250  277.404   80.685    0.568    0.264    2.942
   59.500  277.511   82.578    0.575    0.275    2.891
   59.750  278.682   83.832    0.572    0.285    2.845
   60.000  278.789   86.342    0.570    0.279    2.848
   60.250  278.967   87.001    0.568    0.269    2.854
   60.500  278.154   88.320    0.575    0.264    2.859
   60.750  278.225   88.385    0.583    0.267    2.812
   61.000  276.383   85.494    0.581    0.276    2.765
   61.250  274.542   83.772    0.569    0.265    2.772
   61.500  271.744   83.263    0.560    0.255    2.726
   61.750  269.867   83.965    0.567    0.228    2.782
   62.000  267.033   84.051    0.576    0.223    2.891
   62.250  264.199   84.115    0.546    0.193    3.176
   62.500  262.358   82.436    0.536    0.219    3.554
   62.750  261.508   81.310    0.552    0.193    4.205
   63.000  260.659   79.631    0.540    0.191    5.658
   63.250  258.853   80.312    0.496    0.252    5.991
   63.500  257.968   80.397    0.474    0.265    6.458
   63.750  257.118   79.271    0.462    0.274    7.367
   64.000  256.305   76.975    0.491    0.268    7.518
   64.250  254.463   75.871    0.486    0.259    7.394
   64.500  253.614   75.956    0.478    0.262    7.408
   64.750  252.693   74.873    0.474    0.264    7.559
   65.000  248.938   74.320    0.479    0.261    8.156
   65.250  247.025   72.641    0.471    0.259    8.478
   65.500  243.235   70.963    0.465    0.263    8.478
   65.750  241.429   71.005    0.466    0.269    9.861
   66.000  240.580   69.922    0.457    0.268    9.689
   66.250  240.651   70.624    0.431    0.241    9.360
   66.500  240.794   71.284    0.430    0.238    9.033
   66.750  241.964   71.965    0.460    0.228    8.257
   67.000  243.064   72.624    0.493    0.233    7.826
   67.250  244.234   75.176    0.509    0.236    7.841
   67.500  244.377   75.198    0.488    0.233    7.997
   67.750  244.484   74.710    0.483    0.255    8.165
   68.000  241.686   74.178    0.481    0.237    8.176
   68.250  237.860   72.500    0.488    0.214    8.194
   68.500  235.026   70.778    0.502    0.228    8.213
   68.750  238.181   73.862    0.502    0.236    8.224
   69.000  235.276   78.688    0.478    0.238    8.882
   69.250  227.482   84.748    0.453    0.252    9.224
   69.500  216.711   78.859    0.426    0.249    9.583
   69.750  210.865   72.397    0.434    0.208    9.966
   70.000  204.062   68.911    0.416    0.165    9.627
   70.250  198.252   64.808    0.385    0.196    9.287
   70.500  193.434   59.536    0.386    0.303    8.492
   70.750  191.628   57.836    0.442    0.305    8.196
   71.000  192.727   60.919    0.425    0.261    7.769
   71.250  197.902   65.150    0.446    0.258    7.644
   71.500  199.994   73.039    0.460    0.250    7.654
   71.750  203.077   73.677    0.455    0.245    8.108
   72.000  206.303   73.210    0.450    0.245    8.270
   72.250  207.403   73.253    0.444    0.240    8.439
   72.500  209.494   72.148    0.446    0.234    8.300
   72.750  211.621   71.660    0.457    0.241    8.315
   73.000  214.740   71.150    0.465    0.233    8.489
   73.250  218.887   71.853    0.464    0.192    8.342
   73.500  220.978   72.491    0.459    0.164    7.345
   73.750  226.082   74.957    0.456    0.222    5.898
   74.000  230.193   76.829    0.450    0.241    5.388
   74.250  238.345   79.339    0.465    0.252    5.705
   74.500  244.440   77.617    0.463    0.246    6.747
   74.750  250.536   75.895    0.439    0.243    7.983
   75.000  255.639   70.645    0.434    0.263    8.146
   75.250  261.735   67.754    0.433    0.268    7.581
   75.500  267.831   66.075    0.443    0.263    6.799
   75.750  272.934   66.118    0.463    0.251    6.324
   76.000  278.037   67.416    0.494    0.246    5.783
   76.250  284.204   69.287    0.506    0.266    5.788
   76.500  288.280   71.180    0.497    0.266    5.799
   76.750  292.391   71.223    0.489    0.256    6.033
   77.000  295.511   71.308    0.491    0.256    6.154
   77.250  297.638   71.394    0.483    0.257    6.643
   77.500  298.808   70.884    0.484    0.259    6.902
   77.750  299.943   69.801    0.498    0.260    6.911
   78.000  300.086   69.886    0.524    0.256    6.434
   78.250  301.221   69.377    0.520    0.231    5.771
   78.500  301.328   68.846    0.505    0.222    5.174
   78.750  300.478   68.336    0.510    0.202    4.645
   79.000  299.629   67.274    0.534    0.254    4.651
   79.250  299.772   67.317    0.535    0.277    4.657
   79.500  298.922   68.019    0.526    0.290    4.580
   79.750  299.065   67.510    0.521    0.262    3.745
   80.000  297.295   65.235    0.515    0.265    2.502
   80.250  295.417   64.683    0.510    0.276    1.971
   80.500  290.564   67.171    0.517    0.276    2.012
   80.750  285.746   78.567    0.544    0.284    2.170
   81.000  279.015   79.291    0.580    0.294    2.428
   81.250  276.110   79.334    0.601    0.311    3.787
   81.500  270.299   76.443    0.610    0.313    5.489
   81.750  264.453   72.957    0.619    0.326    5.702
   82.000  256.659   73.064    0.589    0.244    6.387
   82.250  250.849   74.914    0.554    0.217    6.281
   82.500  243.054   79.188    0.522    0.224    5.952
   82.750  237.280   82.824    0.509    0.234    5.644
   83.000  232.390   88.905    0.499    0.241    5.864
   83.250  224.596   87.205    0.487    0.236    7.329
   83.500  216.837   83.698    0.477    0.221   10.432
   83.750  210.991   79.595    0.459    0.181   11.246
   84.000  205.145   72.537    0.456    0.157   13.062
   84.250  190.406   63.693    0.459    0.133   13.836
   84.500  175.631   61.993    0.452    0.098   13.348
   84.750  167.836   62.653    0.384    0.048   11.753
   85.000  163.054   66.353    0.241    0.062    9.613
   85.250  167.130   68.798    0.293    0.211    8.461
   85.500  176.237   82.597    0.412    0.246    8.321
   85.750  196.259   84.468    0.420    0.217    9.324
   86.000  198.350   83.959    0.416    0.206    9.683
   86.250  205.509   80.515    0.409    0.221    9.890
