~VERSION INFORMATION
 VERS.                 2.0:   CWLS LOG ASCII STANDARD -VERSION 2.0
 WRAP.                  NO:   ONE LINE PER DEPTH STEP
~WELL INFORMATION BLOCK
#MNEM.UNIT           DATA                    DESCRIPTION OF MNEMONIC
#---------    -------------------            -------------------------------
# Generated from Intellog Unique Number	CC_80_83/WELL/2418
NULL.         -999.25                        : NULL_VALUE
WELL.         PEX PCEJ CHARD OV              : Well_name    - WELL              
LOC .         11-30-080-06W4                 : Location     - LOCATION          
UWI .         00/11-30-080-06W400            : Uwi          - UNIQUE WELL ID    
ENTR.         DW                             : Entered      - ENTERED BY        
SRVC.         SCHLUMBERGER                   : Scn          - SERVICE COMPANY   
DATE.         01 JAN 93                      : Date         - LOG DATE
STRT.M        85                             : top_depth    - START DEPTH       
STOP.M        315.099                        : bot_depth    - STOP DEPTH        
STEP.M        0.3                            : increment    - STEP LENGTH       
~CURVE INFORMATION BLOCK
#MNEM UNIT       ERCB CURVE CODE    CURVE DESCRIPTION
#-----------   ------------------   ----------------------------------
DEPT.M        00 001 00 00         : DEPTH        - DEPTH                       
DPHI.V/V      00 890 00 00         : PHID         - DENSITY POROSITY (LIMESTONE)
NPHI.V/V      00 330 00 00         : PHIN         - NEUTRON POROSITY (LIMESTONE)
GR  .API      00 310 00 00         : GR           - GAMMA RAY                   
ILD .OHMM     00 120 00 00         : RESD         - DEEP RESISTIVITY (DIL)      
~PARAMETER INFORMATION       
#MNEM.UNIT           DATA             DESCRIPTION OF MNEMONIC
#---------         -----------     ------------------------------
GL  .M        515.67               : gl           - GROUND LEVEL ELEVATION      
EREF.M        519.32               : kb           - ELEVATION OF DEPTH REFERENCE
DATM.M        519.32               : datum        - DATUM ELEVATION             
TDD .M        325                  : tdd          - TOTAL DEPTH DRILLER         
RUN .         ONE                  : Run          - RUN NUMBER                  
ENG .         BILL                 : Engineer     - RECORDING ENGINEER          
WIT .         JIM                  : Witness      - WITNESSED BY                
MUD .         GEL                  : Mud_type     - MUD TYPE                    
MATR.         LIMESTONE            : Logunit      - NEUTRON MATRIX              
TMAX.C        16                   : BHT          - MAXIMUM RECORDED TEMPERATURE
BHTD.M        322                  : BHTDEP       - MAXIMUM RECORDED TEMPERATURE
MATR.         1                    : LOGUNIT      - NEUTRON MATRIX              
RMT .C        25                   : MDTP         - TEMPERATURE OF MUD          
NEUT.         1                    : NEUTRON      - NEUTRON TYPE                
RESI.         0                    : RESIST       - RESISTIVITY TYPE            
RMC .OHMM     0.25                 : RMC          - RESISTIVITY OF MUD CAKE     
RMF .OHMM     0.25                 : RMF          - RESISTIVITY OF MUD FILTRATE 
SUFT.C        4                    : SUFT         - SURFACE TEMPERATURE         
~A  DEPTH     PHID     PHIN       GR     RESD
# ...
  241.602    0.349    0.539  107.219    3.877
  241.902    0.346    0.529  112.236    4.184
  242.202    0.337    0.552  114.767    4.348
  242.502    0.349    0.529  110.444    4.435
  242.802    0.353    0.533  107.370    4.610
  243.102    0.364    0.540  106.168    4.881
  243.402    0.385    0.493  103.712    5.471
  243.702    0.456    0.461  106.240    6.017
  244.002    0.391    0.429  109.384    6.493
  244.302    0.245    0.402  111.910    6.624
  244.602    0.328    0.441  105.731    6.883
  244.902    0.320    0.419  107.635    7.428
  245.202    0.250    0.376   86.506    8.485
  245.502    0.179    0.326   84.677   10.064
  245.802    0.275    0.297   90.314   11.278
  246.102    0.294    0.309   87.863   12.643
  246.402    0.277    0.316   79.812   12.653
  246.702    0.263    0.346   89.185   11.309
  247.002    0.256    0.362   84.863   10.691
  247.302    0.252    0.365   86.764    9.377
  247.602    0.253    0.395  100.498    8.223
  247.902    0.259    0.424   88.705    7.210
  248.202    0.381    0.528   93.725    4.020
  248.502    0.342    0.559  101.228    3.089
  248.802    0.303    0.535   98.157    2.813
  249.102    0.330    0.457  103.795    2.711
  249.402    0.308    0.438  116.902    2.981
  249.702    0.280    0.392  107.602    3.886
  250.002    0.253    0.317   93.153   16.968
  250.302    0.243    0.324   84.373   16.346
  250.602    0.239    0.340   86.848   15.165
  250.902    0.234    0.332   92.441   14.335
  251.202    0.239    0.358   96.791   13.552
  251.502    0.262    0.329  108.642   12.812
  251.802    0.280    0.299   88.607   12.578
  252.102    0.288    0.297   85.453   13.070
  252.402    0.282    0.330   84.172   13.836
  252.702    0.252    0.321   82.894   14.646
  253.002    0.245    0.304   91.619   16.105
  253.302    0.277    0.293   99.089   17.048
  253.602    0.272    0.282   83.428   18.743
  253.902    0.283    0.279   80.276   20.609
  254.202    0.293    0.294   75.871   19.855
  254.502    0.279    0.313   67.714   18.418
  254.802    0.273    0.305   80.188   17.085
  255.102    0.260    0.330   91.413   15.849
  255.402    0.256    0.317   99.514   15.562
  255.702    0.277    0.292   87.605   16.790
  256.002    0.281    0.270   83.200   18.808
  256.302    0.279    0.282   92.548   22.303
  256.602    0.279    0.303   86.267   22.314
  256.902    0.276    0.293   94.988   22.319
  257.202    0.271    0.287   90.586   21.101
  257.502    0.274    0.314   84.301   19.575
  257.802    0.280    0.297   86.779   17.819
  258.102    0.281    0.297   66.741   15.918
  258.402    0.276    0.316   68.583   14.219
  258.702    0.270    0.336   74.813   12.003
  259.002    0.247    0.398   68.529    9.944
  259.302    0.243    0.440  100.390    9.399
  259.602    0.257    0.424  115.991    9.058
  259.902    0.271    0.344  102.206    9.234
  260.202    0.274    0.324   86.546    9.777
  260.502    0.260    0.332   71.513   10.348
  260.802    0.257    0.390   97.116   10.956
  261.102    0.281    0.361   95.211   10.757
  261.402    0.255    0.328   77.679   10.559
  261.702    0.243    0.334   67.647   11.178
  262.001    0.261    0.352   83.247   12.763
  262.301    0.261    0.372   86.971   13.769
  262.601    0.260    0.371   90.066   14.579
  262.901    0.260    0.370   88.159   14.586
  263.201    0.270    0.392   91.884   14.590
  263.501    0.274    0.372   79.975   15.158
  263.801    0.289    0.386   79.947   16.666
  264.101    0.301    0.391   78.668   19.029
  264.401    0.307    0.367   74.262   23.428
  264.701    0.301    0.317   69.233   29.957
  265.001    0.285    0.321   52.323   31.125
  265.301    0.242    0.333   61.672   29.422
  265.601    0.249    0.342   79.775   24.374
  265.901    0.275    0.337   81.619   23.041
  266.201    0.291    0.349   62.836   23.490
  266.501    0.275    0.352   57.803   26.818
  266.801    0.284    0.352   75.281   36.292
  267.101    0.315    0.374   82.130   35.632
  267.401    0.311    0.368   45.836   38.439
  267.701    0.304    0.385   50.184   44.723
  268.001    0.305    0.400   54.533   46.465
  268.301    0.302    0.377   61.381   43.104
  268.601    0.292    0.362   48.849   38.506
  268.901    0.282    0.386   53.196   42.334
  269.201    0.282    0.383   61.921   42.352
  269.501    0.299    0.378   75.022   37.831
  269.801    0.330    0.393   56.858   33.798
  270.101    0.316    0.394   46.201   30.766
  270.401    0.297    0.380   68.683   25.974
  270.701    0.291    0.396   66.151   24.553
  271.001    0.271    0.393   71.750   23.654
  271.301    0.280    0.374   77.346   25.521
  271.601    0.304    0.370   66.689   28.059
  271.901    0.295    0.387   66.659   30.270
  272.201    0.293    0.394   76.012   29.716
  272.501    0.294    0.381   75.357   27.570
  272.801    0.295    0.371   65.948   25.574
  273.101    0.285    0.364   60.913   23.279
  273.401    0.251    0.363   65.267   18.224
  273.701    0.205    0.363   85.869   16.906
  274.001    0.207    0.351   81.464   16.290
  274.301    0.260    0.362   92.689   16.921
  274.601    0.283    0.353   72.652   19.687
  274.901    0.283    0.348   63.245   23.341
  275.201    0.270    0.355   70.083   26.648
  275.501    0.272    0.355   72.561   30.425
  275.801    0.281    0.376   76.915   33.453
  276.101    0.318    0.363   64.381   35.420
  276.401    0.302    0.357   39.968   35.429
  276.701    0.274    0.346   53.066   37.510
  277.001    0.287    0.341   71.798   39.714
  277.301    0.302    0.342   46.134   42.051
  277.601    0.303    0.334   44.856   42.061
  277.901    0.294    0.328   48.577   36.185
  278.201    0.276    0.339   52.918   28.323
  278.501    0.274    0.344   67.273   23.024
  278.801    0.268    0.353   75.376   20.569
  279.101    0.267    0.373   79.722   20.578
  279.401    0.309    0.347   67.190   22.626
  279.701    0.299    0.333   49.654   23.949
  280.001    0.274    0.362   73.383   28.398
  280.301    0.295    0.359   55.847   33.039
  280.601    0.321    0.351   48.939   43.050
  280.901    0.316    0.351   57.042   59.362
  281.201    0.314    0.359   55.128   69.066
  281.501    0.327    0.385   59.479   66.537
  281.801    0.325    0.380   54.452   57.239
  282.101    0.301    0.377   47.545   46.530
  282.401    0.289    0.354   53.769   40.028
  282.701    0.285    0.371   69.998   35.757
  283.001    0.293    0.395   84.344   32.547
  283.301    0.297    0.383   71.816   35.116
  283.601    0.300    0.375   72.406   40.091
  283.901    0.307    0.403   70.504   54.250
  284.201    0.313    0.390   65.474   79.161
  284.501    0.311    0.351   53.567  109.164
  284.801    0.300    0.361   44.781  117.784
  285.101    0.290    0.365   43.499   97.561
  285.401    0.284    0.359   49.104   63.229
  285.701    0.288    0.362   64.704   40.213
  286.001    0.298    0.373   77.804   32.689
  286.301    0.295    0.375   70.274   26.074
  286.600    0.272    0.407   75.246   22.432
  286.900    0.263    0.388   79.596   21.607
  287.200    0.285    0.375   76.441   24.670
  287.500    0.332    0.358   50.778   32.758
  287.800    0.332    0.356   40.119   40.333
  288.100    0.340    0.359   37.588   64.681
  288.400    0.339    0.378   41.309   79.650
  288.700    0.328    0.384   39.405   79.677
  289.000    0.317    0.361   46.253   73.933
  289.300    0.317    0.357   35.598   75.356
  289.600    0.320    0.372   34.319   86.034
  289.900    0.319    0.377   38.666   84.465
  290.200    0.304    0.375   42.388   71.298
  290.500    0.296    0.376   64.868   56.870
  290.800    0.296    0.380   64.208   50.804
  291.100    0.291    0.386   64.184   42.884
  291.400    0.291    0.386   70.401   36.200
  291.700    0.299    0.392   81.632   35.540
  292.000    0.316    0.416   70.351   36.233
  292.300    0.325    0.414   47.814   47.210
  292.600    0.326    0.378   39.655   78.623
  292.900    0.325    0.371   38.375  123.739
  293.200    0.325    0.360   40.850  126.153
  293.500    0.324    0.354   38.946  114.836
