~VERSION INFORMATION
 VERS.                 2.0:   CWLS LOG ASCII STANDARD -VERSION 2.0
 WRAP.                  NO:   ONE LINE PER DEPTH STEP
~WELL INFORMATION BLOCK
#MNEM.UNIT           DATA                    DESCRIPTION OF MNEMONIC
#---------    -------------------            -------------------------------
# Generated from Intellog Unique Number	CN_91_93/WELL/2788
WELL.         PETRO CANADA                   : Well_name    - WELL
LOC .         AA/10-29-093-17W4/0            : Location     - LOCATION
UWI .         AA/10-29-093-17W400            : Uwi          - UNIQUE WELL ID
ENTR.         JOETTE                         : Entered      - ENTERED BY
SRVC.         SCHLUMBERGER                   : Scn          - SERVICE COMPANY
DATE.         03/24/92                       : Date         - LOG DATE
STRT.F        200                            : top_depth    - START DEPTH
STOP.F        860.269                        : bot_depth    - STOP DEPTH
STEP.F        0.82                           : increment    - STEP LENGTH
 NULL. -999.2500:NULL Value
~CURVE INFORMATION BLOCK
#MNEM UNIT       ERCB CURVE CODE    CURVE DESCRIPTION
#-----------   ------------------   ----------------------------------
DEPT.F        00 001 00 00         : DEPTH        - DEPTH
GR  .API      00 310 00 00         : GR           - GAMMA RAY
NPHI.V/V      00 330 00 00         : PHIN         - NEUTRON POROSITY (SANDSTONE)
DPHI.V/V      00 890 00 00         : PHID         - DENSITY POROSITY (SANDSTONE)
ILD .OHMM     00 120 00 00         : RESD         - DEEP RESISTIVITY (DIL)
~PARAMETER INFORMATION
#MNEM.UNIT           DATA             DESCRIPTION OF MNEMONIC
#---------         -----------     ------------------------------
GL  .F        1673.9               : gl           - GROUND LEVEL ELEVATION
EREF.F        1684.9               : kb           - ELEVATION OF DEPTH REFERENCE
DATM.F        1684.9               : datum        - DATUM ELEVATION
TDD .F        897                  : tdd          - TOTAL DEPTH DRILLER
RUN .         ONE                  : Run          - RUN NUMBER
ENG .         BILL                 : Engineer     - RECORDING ENGINEER
WIT .         JIM                  : Witness      - WITNESSED BY
MUD .         GEL                  : Mud_type     - MUD TYPE
MATR.         SANDSTONE            : Logunit      - NEUTRON MATRIX
TMAX.F        70                   : BHT          - MAXIMUM RECORDED TEMPERATURE
BHTD.F        897                  : BHTDEP       - MAXIMUM RECORDED TEMPERATURE
RMT .F        69                   : MDTP         - TEMPERATURE OF MUD
MUDD.LB/G     8.6                  : MWT          - MUD DENSITY
NEUT.         1                    : NEUTRON      - NEUTRON TYPE
RESI.         0                    : RESIST       - RESISTIVITY TYPE
RM  .OHMM     0.49                 : RM           - RESISTIVITY OF MUD
RMC .OHMM     0.49                 : RMC          - RESISTIVITY OF MUD CAKE
RMF .OHMM     0.49                 : RMF          - RESISTIVITY OF MUD FILTRATE
SUFT.F        39.2                 : SUFT         - SURFACE TEMPERATURE
~A  DEPTH       GR     PHIN     PHID     RESD
# ...
  342.717   59.115    0.408    0.179   14.642
  343.537   57.499    0.425    0.175   14.142
  344.357   57.563    0.438    0.175   13.649
  345.177   58.929    0.455    0.184   12.703
  345.997   60.231    0.459    0.191   12.029
  346.818   62.803    0.452    0.196   10.796
  347.638   66.581    0.450    0.200   10.411
  348.458   70.294    0.459    0.209    9.674
  349.278   73.469    0.458    0.213    8.834
  350.098   77.215    0.457    0.219    8.366
  350.919   80.993    0.462    0.229    7.490
  351.739   82.897    0.470    0.225    6.701
  352.559   93.307    0.484    0.216    5.776
  353.379   94.673    0.496    0.208    5.172
  354.199   92.993    0.504    0.218    5.184
  355.020   91.344    0.513    0.229    6.057
  355.840   89.029    0.521    0.253    7.923
  356.660   86.078    0.517    0.260    9.075
  357.480   81.383    0.513    0.274   10.603
  358.301   77.894    0.503    0.282   11.703
  359.121   73.199    0.491    0.290   12.907
  359.941   62.475    0.484    0.298   15.950
  360.761   62.539    0.477    0.303   18.299
  361.581   60.287    0.468    0.306   18.329
  362.402   59.178    0.463    0.297   18.401
  363.222   55.656    0.462    0.285   18.099
  364.042   50.961    0.460    0.279   16.858
  364.862   49.884    0.460    0.273   16.256
  365.682   50.679    0.458    0.281   15.419
  366.503   50.743    0.459    0.292   15.165
  367.323   50.300    0.462    0.300   14.940
  368.143   50.396    0.468    0.302   14.729
  368.963   49.319    0.471    0.303   14.464
  369.783   50.082    0.477    0.301   13.719
  370.604   50.178    0.486    0.298   13.240
  371.424   51.544    0.492    0.296   12.072
  372.244   52.846    0.489    0.297   10.406
  373.064   56.656    0.485    0.298    8.630
  373.885   59.164    0.500    0.302    7.300
  374.705   62.909    0.517    0.290    7.191
  375.525   66.655    0.531    0.285    7.776
  376.345   70.433    0.526    0.282    9.988
  377.165   72.940    0.497    0.283   11.670
  377.986   76.750    0.488    0.289   12.392
  378.806   78.052    0.476    0.293   12.659
  379.626   73.421    0.462    0.301   12.236
  380.446   72.247    0.453    0.309   12.035
  381.266   68.187    0.450    0.312   10.982
  382.087   66.539    0.456    0.307    9.832
  382.907   68.412    0.455    0.295    8.965
  383.727   73.363    0.449    0.291    7.734
  384.547   79.552    0.459    0.287    7.052
  385.367   86.313    0.473    0.286    6.200
  386.188   93.105    0.493    0.280    5.761
  387.008   97.453    0.513    0.252    5.456
  387.828  104.278    0.523    0.244    4.896
  388.648  108.055    0.536    0.244    4.637
  389.469  109.928    0.543    0.247    4.475
  390.289  113.135    0.552    0.241    4.319
  391.109  113.866    0.558    0.220    4.258
  391.929  115.200    0.564    0.213    4.265
  392.749  115.931    0.565    0.213    4.367
  393.570  116.630    0.567    0.214    4.374
  394.390  116.758    0.569    0.195    4.388
  395.210  116.887    0.569    0.197    4.322
  396.030  117.618    0.569    0.204    4.258
  396.850  117.746    0.569    0.230    4.188
  397.671  117.874    0.568    0.233    4.122
  398.491  118.002    0.566    0.239    4.058
  399.311  118.131    0.560    0.248    4.068
  400.131  117.688    0.554    0.255    4.087
  400.951  116.578    0.547    0.261    4.093
  401.772  114.866    0.543    0.265    4.188
  402.592  112.011    0.544    0.257    4.282
  403.412  110.902    0.552    0.233    4.378
  404.232  109.221    0.555    0.228    4.561
  405.052  108.746    0.560    0.220    4.749
  405.873  110.080    0.570    0.214    5.043
  406.693  118.713    0.577    0.210    5.359
  407.513  118.842    0.578    0.231    5.475
  408.333  117.700    0.577    0.234    5.709
  409.154  115.449    0.575    0.224    6.067
  409.974  113.768    0.570    0.209    6.192
  410.794  112.658    0.566    0.199    6.586
  411.614  109.836    0.558    0.202    6.862
  412.434  108.726    0.546    0.207    7.293
  413.255  107.014    0.540    0.217    7.450
  414.075  107.014    0.537    0.229    7.467
  414.895  105.494    0.537    0.234    7.088
  415.715  106.796    0.537    0.218    6.841
  416.535  106.353    0.538    0.207    6.125
  417.356  105.814    0.541    0.191    5.796
  418.176  104.736    0.545    0.189    5.092
  418.996  103.056    0.552    0.198    4.735
  419.816  101.375    0.559    0.205    4.321
  420.636  100.901    0.556    0.216    4.018
  421.457  103.473    0.545    0.224    3.878
  422.277  106.583    0.548    0.248    3.748
  423.097  110.932    0.561    0.256    3.623
  423.917  115.312    0.575    0.241    3.635
  424.738  118.455    0.593    0.227    3.581
  425.558  120.392    0.610    0.228    3.589
  426.378  121.123    0.612    0.239    3.530
  427.198  121.854    0.610    0.254    3.478
  428.018  122.585    0.605    0.278    3.356
  428.839  122.714    0.609    0.310    3.239
  429.659  121.636    0.622    0.386    3.017
  430.479  120.558    0.608    0.414    2.970
  431.299  118.307    0.598    0.398    2.871
  432.119  115.453    0.587    0.359    2.877
  432.940  114.311    0.596    0.346    2.884
  433.760  111.457    0.612    0.330    2.946
  434.580  110.315    0.624    0.322    3.072
  435.400  108.634    0.624    0.312    3.199
  436.220  106.383    0.614    0.304    3.528
  437.041  104.702    0.604    0.298    4.363
  437.861  104.164    0.596    0.291    5.391
  438.681  102.483    0.582    0.280    6.925
  439.501  100.803    0.573    0.267    9.779
  440.322   99.122    0.558    0.246   10.785
  441.142   96.236    0.542    0.247   11.904
  441.962   93.920    0.509    0.252   12.641
  442.782   89.225    0.491    0.246   12.199
  443.602   85.736    0.474    0.216   10.718
  444.423   84.055    0.460    0.234    9.232
  445.243   83.581    0.457    0.206    6.344
  446.063   82.503    0.457    0.078    6.008
  446.883   80.823    0.462    0.092    5.379
  447.703   80.951    0.470    0.139    5.191
  448.524   84.664    0.480    0.171    4.924
  449.344   92.694    0.489    0.157    4.847
  450.164   95.837    0.499    0.190    4.858
  450.984   97.139    0.509    0.239    4.874
  451.804  100.981    0.512    0.259    5.384
  452.625  101.648    0.512    0.272    5.495
  453.445  100.031    0.507    0.273    6.182
  454.265   98.890    0.504    0.270    6.823
  455.085   95.971    0.500    0.261    7.384
  455.906   93.688    0.496    0.259    7.991
  456.726   90.802    0.495    0.249    8.820
  457.546   87.915    0.492    0.259    9.183
  458.366   85.632    0.488    0.275    9.560
  459.186   82.713    0.487    0.270    9.782
  460.007   78.621    0.479    0.261    9.621
  460.827   75.132    0.473    0.252    8.947
  461.647   72.817    0.470    0.220    7.292
  462.467   72.945    0.463    0.206    6.654
  463.287   77.293    0.458    0.204    6.301
  464.108   82.277    0.460    0.243    5.967
  464.928   88.466    0.464    0.252    5.453
  465.748   92.212    0.462    0.263    5.364
  466.568   94.751    0.472    0.236    5.275
  467.388   97.291    0.488    0.228    5.398
  468.209  100.466    0.505    0.213    5.519
  469.029  103.609    0.517    0.205    5.745
  469.849  104.911    0.531    0.197    5.764
  470.669  106.309    0.540    0.195    5.787
  471.490  106.405    0.541    0.188    5.696
  472.310  106.533    0.534    0.167    5.602
  473.130  106.694    0.522    0.165    5.218
  473.950  106.155    0.518    0.172    5.128
  474.770  105.680    0.509    0.180    5.056
  475.591  105.237    0.505    0.181    5.064
  476.411  104.731    0.495    0.174    5.185
  477.231  100.036    0.490    0.167    5.394
  478.051   83.821    0.488    0.160    5.838
  478.871   78.555    0.479    0.166    6.826
  479.692   80.460    0.469    0.172    7.242
  480.512   84.809    0.464    0.180    7.690
  481.332   94.615    0.455    0.185    8.013
  482.152  105.628    0.455    0.187    8.509
  482.972  103.345    0.461    0.185    8.872
  483.793   99.855    0.456    0.177    9.071
  484.613   96.937    0.443    0.166    9.274
