~VERSION INFORMATION
 VERS.                 2.0:   CWLS LOG ASCII STANDARD -VERSION 2.0
 WRAP.                  NO:   ONE LINE PER DEPTH STEP
~WELL INFORMATION BLOCK
#MNEM.UNIT           DATA                    DESCRIPTION OF MNEMONIC
#---------    -------------------            -------------------------------
# Generated from Intellog Unique Number	CC_80_83/WELL/2385
NULL.         -999.25                        : NULL_VALUE
COMP.         PETRO CANADA                   : COMPANY
WELL.         PEX PCEJU HOUSE OV             : Well_name    - WELL              
LOC .         10-29-081-13W4                 : Location     - LOCATION          
UWI .         AA/10-29-081-13W400            : Uwi          - UNIQUE WELL ID    
ENTR.         RJA                            : Entered      - ENTERED BY        
SRVC.         SCHLUMBERGER                   : Scn          - SERVICE COMPANY   
DATE.         04 FEB 81                      : Date         - LOG DATE
STRT.M        175                            : top_depth    - START DEPTH       
STOP.M        454.893                        : bot_depth    - STOP DEPTH        
STEP.M        0.3                            : increment    - STEP LENGTH       
~CURVE INFORMATION BLOCK
#MNEM UNIT       ERCB CURVE CODE    CURVE DESCRIPTION
#-----------   ------------------   ----------------------------------
DEPT.M        00 001 00 00         : DEPTH        - DEPTH                       
DPHI.V/V      00 890 00 00         : PHID         - DENSITY POROSITY (LIMESTONE)
NPHI.V/V      00 330 00 00         : PHIN         - NEUTRON POROSITY (LIMESTONE)
GR  .API      00 310 00 00         : GR           - GAMMA RAY                   
ILD .OHMM     00 120 00 00         : RESD         - DEEP RESISTIVITY (DIL)      
~PARAMETER INFORMATION       
#MNEM.UNIT           DATA             DESCRIPTION OF MNEMONIC
#---------         -----------     ------------------------------
GL  .M        656.2                : gl           - GROUND LEVEL ELEVATION      
EREF.M        659.1                : kb           - ELEVATION OF DEPTH REFERENCE
DATM.M        659.1                : datum        - DATUM ELEVATION             
TDD .M        460.2                : tdd          - TOTAL DEPTH DRILLER         
RUN .         ONE                  : Run          - RUN NUMBER                  
ENG .         BILL                 : Engineer     - RECORDING ENGINEER          
WIT .         JIM                  : Witness      - WITNESSED BY                
MUD .         GEL                  : Mud_type     - MUD TYPE                    
MATR.         LIMESTONE            : Logunit      - NEUTRON MATRIX              
TMAX.C        23                   : BHT          - MAXIMUM RECORDED TEMPERATURE
BHTD.M        460.2                : BHTDEP       - MAXIMUM RECORDED TEMPERATURE
MATR.         1                    : LOGUNIT      - NEUTRON MATRIX              
RMT .C        25                   : MDTP         - TEMPERATURE OF MUD          
NEUT.         1                    : NEUTRON      - NEUTRON TYPE                
RESI.         0                    : RESIST       - RESISTIVITY TYPE            
RMC .OHMM     0.25                 : RMC          - RESISTIVITY OF MUD CAKE     
RMF .OHMM     0.25                 : RMF          - RESISTIVITY OF MUD FILTRATE 
SUFT.C        4                    : SUFT         - SURFACE TEMPERATURE         
~A  DEPTH     PHID     PHIN       GR     RESD
# ...
  227.201    0.282    0.516   64.697    2.639
  227.501    0.287    0.503   64.033    2.688
  227.801    0.288    0.515   63.359    2.737
  228.101    0.290    0.513   57.703    2.843
  228.401    0.307    0.503   52.667    2.952
  228.701    0.280    0.509   55.122    3.125
  229.001    0.272    0.513   55.707    3.570
  229.301    0.329    0.502   63.781    3.781
  229.601    0.299    0.494   56.875    4.578
  229.901    0.311    0.464   48.070    6.718
  230.201    0.347    0.459   43.035    8.954
  230.501    0.349    0.452   36.119   10.637
  230.801    0.238    0.413   32.341   11.261
  231.101    0.295    0.400   36.678   11.470
  231.401    0.306    0.460   46.628   11.238
  231.701    0.314    0.465   47.218   11.232
  232.001    0.338    0.472   40.916   10.796
  232.301    0.355    0.461   37.134   11.000
  232.601    0.360    0.461   35.846   10.985
  232.901    0.362    0.470   40.794   10.979
  233.201    0.360    0.464   40.763   10.156
  233.501    0.353    0.474   40.092    9.216
  233.801    0.328    0.482   46.291    8.864
  234.101    0.291    0.470   51.872    7.890
  234.401    0.300    0.455   57.452    7.301
  234.701    0.315    0.454   53.672    6.755
  235.001    0.314    0.469   48.010    6.370
  235.301    0.313    0.486   60.469    6.365
  235.601    0.356    0.486   55.412    7.002
  235.901    0.370    0.477   51.015    8.313
  236.201    0.378    0.462   42.852    8.800
  236.501    0.299    0.456   44.035    9.496
  236.801    0.320    0.443   47.138    9.861
  237.101    0.351    0.444   42.725    9.855
  237.401    0.346    0.427   34.556    9.115
  237.701    0.345    0.425   28.899    8.273
  238.001    0.297    0.438   30.105    7.227
  238.301    0.309    0.455   40.062    5.514
  238.601    0.316    0.468   44.396    5.104
  238.901    0.301    0.486   47.468    4.289
  239.201    0.289    0.494   53.682    3.746
  239.501    0.286    0.501   58.640    3.335
  239.801    0.299    0.515   66.080    2.857
  240.101    0.292    0.529   68.557    2.593
  240.401    0.303    0.525   68.512    2.445
  240.701    0.309    0.550   62.840    2.539
  241.001    0.293    0.540   61.563    2.792
  241.301    0.247    0.526   67.141    2.900
  241.601    0.281    0.530   72.728    3.069
  241.901    0.287    0.528   67.680    3.127
  242.201    0.309    0.517   67.647    3.308
  242.501    0.250    0.526   71.355    3.435
  242.801    0.242    0.518   73.170    3.499
  243.101    0.264    0.523   75.018    3.564
  243.401    0.256    0.530   72.472    3.562
  243.701    0.252    0.515   64.930    3.558
  244.001    0.265    0.518   63.012    3.555
  244.301    0.284    0.525   72.357    3.621
  244.601    0.277    0.517   77.298    3.758
  244.901    0.260    0.526   72.889    3.756
  245.201    0.245    0.530   70.352    4.051
  245.501    0.237    0.513   70.937    4.208
  245.801    0.251    0.499   70.903    4.369
  246.101    0.308    0.508   64.602    4.625
  246.401    0.292    0.514   67.059    4.895
  246.701    0.273    0.489   68.896    5.180
  247.001    0.289    0.487   63.862    5.278
  247.301    0.322    0.487   64.445    5.172
  247.601    0.333    0.480   63.153    5.169
  247.901    0.283    0.483   61.243    4.874
  248.201    0.255    0.489   62.432    4.778
  248.501    0.234    0.478   60.527    4.592
  248.801    0.235    0.468   61.728    4.502
  249.101    0.248    0.481   63.565    4.328
  249.401    0.239    0.486   66.661    4.241
  249.701    0.239    0.477   68.485    4.157
  250.001    0.242    0.494   70.323    4.155
  250.301    0.239    0.518   72.775    4.232
  250.601    0.219    0.490   68.358    4.654
  250.901    0.226    0.489   65.811    4.833
  251.201    0.248    0.493   63.910    5.315
  251.501    0.256    0.471   59.501    5.520
  251.801    0.248    0.466   58.830    5.513
  252.101    0.249    0.477   61.908    5.405
  252.401    0.259    0.492   59.365    5.400
  252.701    0.255    0.492   61.195    5.500
  253.001    0.246    0.481   63.659    5.601
  253.301    0.246    0.457   59.858    5.705
  253.601    0.256    0.461   59.210    5.702
  253.901    0.264    0.456   60.402    5.587
  254.201    0.270    0.444   62.874    5.582
  254.501    0.274    0.455   65.957    5.579
  254.801    0.267    0.477   69.044    5.680
  255.101    0.283    0.489   64.608    5.567
  255.401    0.288    0.494   62.081    5.457
  255.701    0.287    0.489   61.425    5.452
  256.001    0.299    0.474   63.257    5.449
  256.301    0.317    0.477   66.966    5.444
  256.601    0.315    0.474   66.910    5.438
  256.901    0.256    0.480   63.743    5.330
  257.201    0.247    0.488   62.446    5.431
  257.501    0.234    0.493   63.045    5.423
  257.801    0.240    0.478   66.751    5.421
  258.101    0.229    0.456   72.338    5.416
  258.401    0.226    0.458   69.799    5.207
  258.701    0.234    0.467   63.507    5.202
  259.001    0.232    0.471   65.964    5.098
  259.301    0.237    0.472   64.665    5.095
  259.601    0.247    0.466   65.259    5.091
  259.901    0.272    0.470   67.719    5.492
  260.201    0.292    0.475   59.558    5.704
  260.501    0.307    0.469   57.010    5.698
  260.801    0.287    0.464   63.845    5.694
  261.101    0.272    0.477   73.170    6.026
  261.401    0.305    0.489   65.634    6.757
  261.701    0.315    0.479   64.972    8.022
  262.001    0.280    0.479   65.555    8.493
  262.301    0.290    0.463   63.641    9.164
  262.601    0.297    0.464   64.832    8.984
  262.901    0.310    0.476   64.811    8.473
  263.201    0.293    0.475   59.146    8.304
  263.501    0.296    0.465   54.105    8.298
  263.801    0.288    0.430   52.819    8.616
  264.100    0.253    0.445   52.776    9.294
  264.400    0.189    0.436   44.609    9.467
  264.700    0.238    0.425   45.185    9.103
  265.000    0.291    0.429   48.281    8.422
  265.300    0.314    0.437   49.485    7.941
  265.600    0.304    0.439   48.186    7.785
  265.900    0.301    0.440   50.653    7.486
  266.200    0.305    0.450   50.600    7.194
  266.500    0.299    0.444   48.075    7.191
  266.800    0.304    0.461   48.026    6.913
  267.100    0.290    0.468   54.223    6.647
  267.400    0.283    0.456   56.695    6.148
  267.700    0.272    0.444   56.004    5.914
  268.000    0.306    0.442   57.226    5.684
  268.300    0.323    0.456   62.822    5.573
  268.600    0.331    0.471   76.518    5.897
  268.900    0.338    0.485   67.738    6.486
  269.200    0.331    0.474   50.813    6.864
  269.500    0.271    0.461   57.660    6.994
  269.800    0.267    0.483   60.738    6.853
  270.100    0.276    0.492   55.692    6.716
  270.400    0.271    0.483   56.267    6.459
  270.700    0.277    0.492   57.492    6.211
  271.000    0.270    0.493   58.705    6.086
  271.300    0.273    0.481   56.771    6.080
  271.600    0.289    0.481   57.997    6.076
  271.900    0.313    0.481   60.443    5.841
  272.200    0.297    0.478   61.035    5.837
  272.500    0.303    0.490   66.619    6.297
  272.800    0.303    0.495   57.826    6.666
  273.100    0.289    0.495   58.405    7.057
  273.400    0.320    0.476   55.247    7.327
  273.700    0.344    0.476   50.835    7.755
  274.000    0.308    0.464   50.787    7.898
  274.300    0.327    0.451   56.990    7.892
  274.600    0.344    0.461   61.954    7.161
  274.900    0.336    0.472   54.404    6.753
  275.200    0.310    0.470   51.875    6.621
  275.500    0.333    0.460   54.956    6.744
  275.800    0.383    0.448   56.787    7.001
  276.100    0.391    0.468   46.135    8.981
  276.400    0.327    0.443   31.722   10.877
  276.700    0.352    0.432   23.559   11.963
  277.000    0.366    0.432   24.136   12.661
  277.300    0.371    0.432   26.593   12.412
  277.600    0.376    0.446   24.062   11.701
  277.900    0.371    0.459   30.270   11.253
  278.200    0.376    0.465   30.226   10.816
  278.500    0.376    0.454   27.050   10.810
  278.800    0.379    0.465   30.765   10.802
  279.100    0.373    0.461   31.344   10.792
