~VERSION INFORMATION
 VERS.                 2.0:   CWLS LOG ASCII STANDARD -VERSION 2.0
 WRAP.                  NO:   ONE LINE PER DEPTH STEP
~WELL INFORMATION BLOCK
#MNEM.UNIT           DATA                    DESCRIPTION OF MNEMONIC
#---------    -------------------            -------------------------------
# Generated from Intellog Unique Number	CW_79_81/WELL/2480
WELL.         11-02-081-22W4                 : Well_name    - WELL
LOC .         AA/11-02-081-22W4/0            : Location     - LOCATION
UWI .         AA/11-02-081-22W4/0            : Uwi          - UNIQUE WELL ID
ENTR.         MAX                            : Entered      - ENTERED BY
SRVC.         SCHLUMBERGER                   : Scn          - SERVICE COMPANY
STRT.M        190                            : top_depth    - START DEPTH
STOP.M        430                            : bot_depth    - STOP DEPTH
STEP.M        0.25                           : increment    - STEP LENGTH
 NULL. -999.2500:NULL Value
~CURVE INFORMATION BLOCK
#MNEM UNIT       ERCB CURVE CODE    CURVE DESCRIPTION
#-----------   ------------------   ----------------------------------
DEPT.M        00 001 00 00         : DEPTH        - DEPTH
ILD .OHMM     00 120 00 00         : RESD         - DEEP RESISTIVITY (DIL)
NPHI.V/V      00 330 00 00         : PHIN         - NEUTRON POROSITY (SANDSTONE)
DPHI.V/V      00 890 00 00         : PHID         - DENSITY POROSITY (SANDSTONE)
GR  .API      00 310 00 00         : GR           - GAMMA RAY
CALI.MM       00 280 01 00         : CAL          - CALIPER
~PARAMETER INFORMATION
#MNEM.UNIT           DATA             DESCRIPTION OF MNEMONIC
#---------         -----------     ------------------------------
GL  .M        607                  : gl           - GROUND LEVEL ELEVATION
EREF.M        610.7                : kb           - ELEVATION OF DEPTH REFERENCE
DATM.M        607                  : datum        - DATUM ELEVATION
TDD .M        435                  : tdd          - TOTAL DEPTH DRILLER
RUN .         ONE                  : Run          - RUN NUMBER
ENG .         BILL                 : Engineer     - RECORDING ENGINEER
WIT .         JIM                  : Witness      - WITNESSED BY
MUD .         GEL                  : Mud_type     - MUD TYPE
MATR.         SANDSTONE            : Logunit      - NEUTRON MATRIX
TMAX.C        29                   : BHT          - MAXIMUM RECORDED TEMPERATURE
BHTD.M        435                  : BHTDEP       - MAXIMUM RECORDED TEMPERATURE
MATR.         1                    : LOGUNIT      - NEUTRON MATRIX
RMT .C        20                   : MDTP         - TEMPERATURE OF MUD
NEUT.         1                    : NEUTRON      - NEUTRON TYPE
RESI.         0                    : RESIST       - RESISTIVITY TYPE
RMC .OHMM     1.22                 : RMC          - RESISTIVITY OF MUD CAKE
RMF .OHMM     2.93                 : RMF          - RESISTIVITY OF MUD FILTRATE
SUFT.C        -20                  : SUFT         - SURFACE TEMPERATURE
~A  DEPTH     RESD     PHIN     PHID       GR      CAL
# ...
  336.000    7.593    0.451    0.254   85.711  204.145
  336.250    7.348    0.447    0.249   84.548  206.641
  336.500    7.099    0.446    0.247   84.137  207.980
  336.750    6.854    0.439    0.255   85.913  205.623
  337.000    6.649    0.432    0.268   89.039  201.596
  337.250    6.458    0.453    0.267   89.959  203.125
  337.500    6.376    0.480    0.270   89.317  202.924
  337.750    6.422    0.498    0.274   87.923  201.373
  338.000    6.598    0.501    0.276   86.992  199.532
  338.250    6.924    0.481    0.274   87.899  199.696
  338.500    7.083    0.459    0.262   86.689  202.497
  338.750    7.134    0.439    0.260   88.764  204.413
  339.000    7.107    0.436    0.261   88.237  203.727
  339.250    7.056    0.447    0.261   86.497  202.560
  339.500    7.017    0.459    0.259   84.698  202.069
  339.750    7.016    0.459    0.252   83.525  202.443
  340.000    7.016    0.463    0.247   82.312  202.431
  340.250    6.964    0.465    0.255   83.232  202.423
  340.500    6.913    0.466    0.257   85.018  202.123
  340.750    6.888    0.463    0.257   86.515  202.112
  341.000    6.875    0.458    0.257   87.318  202.681
  341.250    6.814    0.453    0.260   87.968  204.067
  341.500    6.762    0.456    0.260   88.926  205.261
  341.750    6.762    0.460    0.259   90.307  206.022
  342.000    6.762    0.458    0.260   89.260  203.891
  342.250    6.761    0.452    0.264   86.826  201.760
  342.500    6.785    0.442    0.269   83.408  200.785
  342.750    6.995    0.434    0.274   78.244  200.307
  343.000    7.607    0.459    0.264   75.587  199.897
  343.250    9.399    0.438    0.223   72.806  199.887
  343.500   12.844    0.396    0.197   67.595  200.165
  343.750   18.176    0.350    0.187   62.036  200.347
  344.000   24.711    0.318    0.190   58.618  200.338
  344.250   34.645    0.317    0.192   60.278  200.405
  344.500   45.086    0.314    0.183   60.513  200.795
  344.750   47.760    0.298    0.160   62.589  201.172
  345.000   46.900    0.266    0.095   66.747  201.258
  345.250   43.881    0.236    0.064   70.558  201.440
  345.500   38.295    0.228    0.091   73.327  201.718
  345.750   27.032    0.283    0.165   76.240  201.867
  346.000   18.174    0.378    0.217   76.956  202.660
  346.250   14.755    0.403    0.240   80.651  202.650
  346.500   12.957    0.423    0.249   83.651  201.772
  346.750   11.891    0.434    0.253   84.802  200.991
  347.000   11.226    0.434    0.255   84.391  200.788
  347.250   10.777    0.420    0.250   84.008  201.160
  347.500   10.534    0.415    0.233   83.279  201.150
  347.750   10.688    0.401    0.218   80.960  199.212
  348.000   11.079    0.372    0.218   80.376  197.274
  348.250   11.531    0.364    0.231   81.642  196.107
  348.500   11.698    0.382    0.249   83.718  195.617
  348.750   10.911    0.400    0.258   85.127  195.075
  349.000    9.971    0.414    0.256   88.735  196.269
  349.250    9.198    0.440    0.253   88.034  200.113
  349.500    8.777    0.448    0.244   88.895  201.934
  349.750    8.590    0.449    0.231   90.162  202.695
  350.000    8.558    0.449    0.220   90.850  202.877
  350.250    8.646    0.448    0.229   89.330  202.720
  350.500    8.777    0.441    0.235   85.227  203.913
  350.750    9.298    0.437    0.227   83.370  204.676
  351.000    9.851    0.436    0.222   81.687  203.703
  351.250   10.367    0.432    0.226   80.756  201.379
  351.500   10.636    0.423    0.240   81.560  198.862
  351.750   10.220    0.415    0.255   85.629  198.400
  352.000    9.695    0.403    0.258   86.345  199.996
  352.250    9.416    0.414    0.245   87.496  201.527
  352.500    9.450    0.428    0.241   88.647  201.903
  352.750    9.484    0.436    0.241   89.103  202.278
  353.000    9.327    0.437    0.242   88.635  203.232
  353.250    8.876    0.440    0.237   87.904  205.243
  353.500    8.612    0.447    0.230   90.067  207.642
  353.750    8.302    0.447    0.232   91.217  208.791
  354.000    8.005    0.444    0.239   92.367  209.937
  354.250    7.776    0.442    0.244   94.096  210.890
  354.500    7.594    0.442    0.244   95.073  211.555
  354.750    7.410    0.447    0.242   91.479  211.286
  355.000    7.580    0.454    0.255   88.581  208.061
  355.250    7.859    0.448    0.261   85.337  203.809
  355.500    8.587    0.457    0.244   81.573  202.161
  355.750   10.077    0.454    0.188   76.709  201.574
  356.000   12.823    0.416    0.120   69.939  201.274
  356.250   18.010    0.315    0.102   60.071  201.342
  356.500   22.531    0.279    0.090   59.341  201.732
  356.750   24.908    0.255    0.145   67.430  201.723
  357.000   24.613    0.294    0.188   75.521  202.581
  357.250   22.053    0.347    0.194   78.753  203.342
  357.500   19.213    0.375    0.170   75.914  203.620
  357.750   17.704    0.334    0.146   69.285  203.609
  358.000   18.110    0.292    0.127   68.555  203.596
  358.250   18.911    0.298    0.186   75.025  203.587
  358.500   19.018    0.349    0.216   77.507  203.288
  358.750   18.463    0.394    0.232   78.888  203.085
  359.000   17.379    0.410    0.246   80.327  203.075
  359.250   15.795    0.405    0.264   80.861  202.901
  359.500   15.096    0.406    0.267   78.926  202.088
  359.750   14.877    0.407    0.265   79.614  201.308
  360.000   14.741    0.420    0.264   81.516  200.815
  360.250   14.527    0.435    0.265   84.286  200.612
  360.500   14.186    0.443    0.266   87.286  200.602
  360.750   13.674    0.435    0.260   89.158  200.590
  361.000   13.168    0.430    0.242   86.985  200.576
  361.250   12.976    0.419    0.213   82.584  200.568
  361.500   13.354    0.386    0.200   80.784  200.558
  361.750   13.652    0.358    0.207   81.240  200.740
  362.000   13.525    0.357    0.225   83.143  201.116
  362.250   12.984    0.397    0.237   85.072  201.491
  362.500   12.692    0.402    0.227   84.343  201.480
  362.750   12.691    0.386    0.215   83.875  201.470
  363.000   12.899    0.377    0.212   84.100  202.037
  363.250   13.229    0.377    0.210   83.632  202.412
  363.500   13.619    0.387    0.208   81.718  202.306
  363.750   14.084    0.400    0.207   77.517  201.908
  364.000   14.407    0.376    0.203   73.897  201.897
  364.250   15.044    0.365    0.199   73.890  201.888
  364.500   15.795    0.354    0.181   73.364  201.588
  364.750   16.209    0.326    0.156   73.821  200.999
  365.000   15.998    0.297    0.152   76.532  200.219
  365.250   14.897    0.328    0.218   83.262  199.034
  365.500   13.514    0.401    0.235   86.869  197.014
  365.750   12.191    0.407    0.247   87.326  197.004
  366.000   11.066    0.429    0.251   89.518  196.416
  366.250   10.224    0.444    0.252   90.437  197.563
  366.500    9.742    0.444    0.250   89.910  199.962
  366.750    9.800    0.434    0.240   90.645  200.332
  367.000   10.101    0.445    0.243   90.880  200.323
  367.250   10.624    0.431    0.253   92.261  199.540
  367.500   10.880    0.418    0.250   93.817  199.340
  367.750   10.919    0.413    0.246   95.661  199.525
  368.000   10.800    0.414    0.242   97.274  199.900
  368.250   10.566    0.406    0.228   97.161  200.433
  368.500   10.565    0.395    0.216   95.468  201.225
  368.750   10.488    0.398    0.211   94.537  202.757
  369.000   10.469    0.412    0.217   94.126  202.554
  369.250   10.582    0.416    0.223   94.120  201.966
  369.500   10.815    0.410    0.224   94.749  201.666
  369.750   11.151    0.415    0.225   95.822  201.653
  370.000   11.671    0.431    0.230   91.961  201.641
  370.250   11.670    0.427    0.228   89.641  201.246
  370.500   11.733    0.417    0.228   93.567  200.563
  370.750   11.817    0.403    0.231   97.609  199.782
  371.000   11.881    0.393    0.236   98.181  199.193
  371.250   11.880    0.394    0.241   93.663  198.941
  371.500   11.879    0.409    0.242   90.765  197.724
  371.750   11.878    0.419    0.238   92.148  197.715
  372.000   11.877    0.417    0.228   93.009  198.861
  372.250   11.920    0.416    0.220   94.044  199.621
