~VERSION INFORMATION
 VERS.                 2.0:   CWLS LOG ASCII STANDARD -VERSION 2.0
 WRAP.                  NO:   ONE LINE PER DEPTH STEP
~WELL INFORMATION BLOCK
#MNEM.UNIT           DATA                    DESCRIPTION OF MNEMONIC
#---------    -------------------            -------------------------------
# Generated from Intellog Unique Number	CC_88_90/WELL/2299
WELL.         10-29-090-16W4                 : Well_name    - WELL
LOC .         AA/10-29-090-16W4/0            : Location     - LOCATION
UWI .         AA/10-29-090-16W400            : Uwi          - UNIQUE WELL ID
ENTR.         DW                             : Entered      - ENTERED BY
SRVC.         SCHLUMBERGER                   : Scn          - SERVICE COMPANY
STRT.M        75                             : top_depth    - START DEPTH
STOP.M        234.75                         : bot_depth    - STOP DEPTH
STEP.M        0.25                           : increment    - STEP LENGTH
 NULL. -999.2500:NULL Value
~CURVE INFORMATION BLOCK
#MNEM UNIT       ERCB CURVE CODE    CURVE DESCRIPTION
#-----------   ------------------   ----------------------------------
DEPT.M        00 001 00 00         : DEPTH        - DEPTH
GR  .API      00 310 00 00         : GR           - GAMMA RAY
DPHI.V/V      00 890 00 00         : PHID         - DENSITY POROSITY (SANDSTONE)
NPHI.V/V      00 330 00 00         : PHIN         - NEUTRON POROSITY (SANDSTONE)
ILD .OHMM     00 120 00 00         : RESD         - DEEP RESISTIVITY (DIL)
~PARAMETER INFORMATION
#MNEM.UNIT           DATA             DESCRIPTION OF MNEMONIC
#---------         -----------     ------------------------------
GL  .M        485.33               : gl           - GROUND LEVEL ELEVATION
EREF.M        488.62               : kb           - ELEVATION OF DEPTH REFERENCE
DATM.M        488.62               : datum        - DATUM ELEVATION
TDD .M        244                  : tdd          - TOTAL DEPTH DRILLER
RUN .         ONE                  : Run          - RUN NUMBER
ENG .         BILL                 : Engineer     - RECORDING ENGINEER
WIT .         JIM                  : Witness      - WITNESSED BY
MUD .         GEL                  : Mud_type     - MUD TYPE
MATR.         SANDSTONE            : Logunit      - NEUTRON MATRIX
TMAX.C        27                   : BHT          - MAXIMUM RECORDED TEMPERATURE
BHTD.M        244                  : BHTDEP       - MAXIMUM RECORDED TEMPERATURE
MATR.         1                    : LOGUNIT      - NEUTRON MATRIX
RMT .C        25                   : MDTP         - TEMPERATURE OF MUD
NEUT.         1                    : NEUTRON      - NEUTRON TYPE
RESI.         0                    : RESIST       - RESISTIVITY TYPE
RMC .OHMM     0.25                 : RMC          - RESISTIVITY OF MUD CAKE
RMF .OHMM     0.25                 : RMF          - RESISTIVITY OF MUD FILTRATE
SUFT.C        15                   : SUFT         - SURFACE TEMPERATURE
~A  DEPTH       GR     PHID     PHIN     RESD
# ...
  162.000  135.027    0.174    0.400   14.879
  162.250  127.088    0.154    0.374   14.921
  162.500  130.804    0.137    0.364   14.672
  162.750  137.614    0.137    0.383   14.524
  163.000  138.772    0.172    0.418   14.002
  163.250  137.862    0.212    0.433   12.742
  163.500  137.480    0.206    0.424   11.407
  163.750  139.903    0.195    0.449   10.650
  164.000  142.137    0.191    0.468   10.398
  164.250  136.961    0.197    0.456   10.343
  164.500  133.124    0.194    0.430   10.422
  164.750  138.947    0.177    0.426   10.903
  165.000  144.865    0.178    0.458   10.766
  165.250  144.357    0.202    0.495    7.837
  165.500  139.929    0.215    0.527    6.972
  165.750  133.481    0.195    0.540    7.016
  166.000  127.440    0.162    0.530    7.492
  166.250  127.194    0.142    0.480    8.724
  166.500  135.024    0.147    0.408    9.060
  166.750  142.685    0.200    0.421    9.430
  167.000  145.140    0.224    0.452    8.847
  167.250  143.895    0.203    0.475    8.427
  167.500  139.808    0.188    0.504    8.262
  167.750  135.022    0.161    0.513    7.890
  168.000  135.674    0.109    0.478    7.925
  168.250  142.582    0.186    0.466    8.016
  168.500  144.785    0.218    0.472    8.489
  168.750  143.528    0.209    0.481    8.915
  169.000  141.478    0.204    0.461    9.113
  169.250  140.023    0.173    0.419    9.215
  169.500  143.673    0.144    0.415    9.038
  169.750  152.147    0.213    0.436    8.592
  170.000  156.110    0.221    0.433    8.563
  170.250  157.342    0.191    0.428    8.983
  170.500  154.512    0.182    0.430    9.689
  170.750  144.435    0.148    0.404   10.741
  171.000  135.736    0.086    0.354   12.207
  171.250  140.108    0.133    0.344   13.884
  171.500  142.742    0.173    0.387   15.159
  171.750  142.126    0.144    0.395   15.001
  172.000  141.816    0.143    0.362   13.528
  172.250  142.944    0.193    0.377   11.938
  172.500  143.747    0.192    0.439   11.097
  172.750  138.652    0.196    0.417   11.007
  173.000  140.964    0.165    0.387   11.739
  173.250  144.841    0.161    0.388   12.871
  173.500  146.103    0.184    0.397   13.548
  173.750  144.754    0.204    0.401   13.271
  174.000  130.946    0.244    0.410   12.889
  174.250  101.182    0.262    0.413   14.078
  174.500   88.157    0.291    0.403   15.915
  174.750   80.431    0.327    0.375   18.486
  175.000   74.941    0.319    0.363   24.395
  175.250   77.935    0.284    0.378   31.033
  175.500   79.231    0.288    0.383   37.790
  175.750   80.262    0.295    0.384   57.947
  176.000   81.029    0.300    0.389   73.361
  176.250   80.768    0.302    0.391   96.444
  176.500   78.928    0.299    0.395  116.047
  176.750   76.336    0.294    0.403  124.881
  177.000   74.952    0.296    0.403  144.720
  177.250   75.335    0.299    0.401  158.166
  177.500   76.547    0.319    0.407  157.668
  177.750   76.609    0.333    0.420  155.850
  178.000   76.068    0.327    0.432  163.043
  178.250   76.263    0.321    0.435  172.735
  178.500   76.200    0.329    0.434  174.716
  178.750   75.041    0.327    0.441  174.897
  179.000   75.727    0.334    0.445  172.631
  179.250   76.387    0.341    0.453  169.618
  179.500   76.100    0.348    0.475  167.032
  179.750   76.337    0.348    0.503  164.338
  180.000   77.437    0.322    0.522  161.752
  180.250   78.903    0.312    0.525  159.335
  180.500   80.847    0.329    0.523  155.073
  180.750   80.459    0.341    0.506  148.806
  181.000   78.803    0.329    0.477  141.019
  181.250   78.819    0.313    0.470  131.783
  181.500   79.915    0.317    0.509  119.399
  181.750   81.246    0.325    0.544  101.937
  182.000   84.905    0.332    0.516   89.252
  182.250   88.808    0.320    0.509   77.368
  182.500   89.572    0.297    0.544   66.656
  182.750   89.444    0.298    0.541   58.489
  183.000   92.829    0.315    0.471   49.003
  183.250   95.983    0.301    0.423   44.435
  183.500   98.056    0.280    0.401   39.952
  183.750   95.544    0.244    0.401   33.764
  184.000   91.870    0.189    0.389   29.121
  184.250   92.783    0.181    0.360   27.525
  184.500   97.752    0.255    0.365   26.205
  184.750  105.277    0.279    0.394   23.033
  185.000  113.785    0.267    0.448   17.450
  185.250  120.304    0.259    0.494    9.997
  185.500  122.863    0.266    0.524    5.114
  185.750  120.079    0.288    0.573    4.183
  186.000  111.361    0.329    0.650    3.089
  186.250  100.755    0.386    0.682    2.444
  186.500   94.763    0.398    0.614    2.979
  186.750   92.061    0.293    0.466    3.821
  187.000   92.480    0.197    0.378    6.572
  187.250  103.989    0.221    0.414   10.499
  187.500  126.017    0.260    0.455   10.544
  187.750  134.833    0.248    0.458    7.180
  188.000  135.572    0.242    0.492    5.361
  188.250  132.084    0.214    0.506    4.845
  188.500  124.525    0.184    0.474    5.389
  188.750  115.059    0.184    0.450    6.945
  189.000  107.076    0.204    0.454    8.067
  189.250  102.195    0.294    0.428   10.313
  189.500   99.464    0.325    0.415   15.418
  189.750   96.822    0.270    0.410   19.954
  190.000   96.440    0.215    0.416   26.692
  190.250   99.872    0.233    0.434   33.111
  190.500  103.373    0.276    0.436   30.323
  190.750  104.505    0.216    0.429   27.802
  191.000  104.934    0.157    0.411   27.157
  191.250  103.129    0.181    0.405   26.804
  191.500   99.505    0.188    0.415   27.735
  191.750   97.901    0.157    0.428   31.029
  192.000   99.095    0.212    0.445   35.191
  192.250   97.430    0.276    0.455   40.670
  192.500   92.995    0.275    0.443   54.519
  192.750   91.533    0.269    0.425   83.226
  193.000   92.774    0.285    0.434   99.567
  193.250   92.870    0.300    0.461   74.268
  193.500   92.353    0.307    0.451   29.785
  193.750   94.323    0.283    0.398   15.996
  194.000  102.271    0.269    0.390   11.545
  194.250  112.336    0.267    0.420    8.034
  194.500  117.203    0.259    0.445    6.744
  194.750  112.982    0.248    0.447    5.914
  195.000  103.468    0.255    0.437    5.709
  195.250   96.701    0.257    0.446    6.403
  195.500   89.894    0.253    0.463    7.457
  195.750   82.450    0.277    0.432   17.006
  196.000   77.326    0.291    0.387   52.710
  196.250   75.605    0.275    0.381   96.256
  196.500   75.787    0.291    0.386  105.072
  196.750   78.905    0.315    0.394   91.627
  197.000   86.433    0.328    0.403   51.496
  197.250   94.450    0.337    0.407   28.262
  197.500   99.499    0.323    0.415   25.337
  197.750  100.066    0.290    0.421   20.367
  198.000   98.546    0.286    0.407   19.119
  198.250  104.086    0.282    0.387   17.119
  198.500  114.180    0.271    0.380   15.948
  198.750  125.764    0.247    0.397   15.702
  199.000  132.816    0.240    0.418   16.065
  199.250  128.710    0.260    0.446   17.893
  199.500  116.438    0.281    0.486   21.366
  199.750  107.383    0.271    0.447   26.198
  200.000   96.586    0.134    0.396   36.601
  200.250   98.568    0.136    0.353   44.112
  200.500  103.915    0.228    0.338   46.041
  200.750  102.622    0.227    0.359   46.320
  201.000  107.790    0.235    0.374   45.506
  201.250  109.533    0.238    0.387   45.305
  201.500  110.356    0.264    0.404   47.074
  201.750  109.078    0.271    0.392   49.644
  202.000  107.656    0.262    0.359   51.526
  202.250  108.666    0.267    0.356   50.197
  202.500  110.880    0.272    0.385   44.611
  202.750  116.821    0.282    0.403   39.965
  203.000  123.952    0.283    0.410   35.045
  203.250  131.130    0.275    0.403   29.889
  203.500  135.137    0.263    0.388   24.552
  203.750  134.636    0.240    0.380   20.368
  204.000  132.440    0.209    0.382   18.314
  204.250  127.614    0.205    0.385   17.106
  204.500  119.732    0.219    0.397   32.198
  204.750  107.476    0.243    0.419   46.750
  205.000  102.453    0.211    0.401   50.594
  205.250  110.298    0.134    0.370   49.214
