~VERSION INFORMATION
 VERS.                 2.0:   CWLS LOG ASCII STANDARD -VERSION 2.0
 WRAP.                  NO:   ONE LINE PER DEPTH STEP
~WELL INFORMATION BLOCK
#MNEM.UNIT           DATA                    DESCRIPTION OF MNEMONIC
#---------    -------------------            -------------------------------
# Generated from Intellog Unique Number	CC_84_87/WELL/2337
NULL.         -999.25                        : NULL_VALUE
WELL.         SUN CHEECHAM CH 26             : Well_name    - WELL              
LOC .         11-36-086-07W4                 : Location     - LOCATION          
UWI .         AA/11-36-086-07W400            : Uwi          - UNIQUE WELL ID    
ENTR.         DW                             : Entered      - ENTERED BY        
SRVC.         SCHLUMBERGER                   : Scn          - SERVICE COMPANY   
DATE.         13 MAR 80                      : Date         - LOG DATE
STRT.M        55                             : top_depth    - START DEPTH       
STOP.M        238.902                        : bot_depth    - STOP DEPTH        
STEP.M        0.3                            : increment    - STEP LENGTH       
~CURVE INFORMATION BLOCK
#MNEM UNIT       ERCB CURVE CODE    CURVE DESCRIPTION
#-----------   ------------------   ----------------------------------
DEPT.M        00 001 00 00         : DEPTH        - DEPTH                       
DPHI.V/V      00 890 00 00         : PHID         - DENSITY POROSITY (LIMESTONE)
NPHI.V/V      00 330 00 00         : PHIN         - NEUTRON POROSITY (LIMESTONE)
GR  .API      00 310 00 00         : GR           - GAMMA RAY                   
ILD .OHMM     00 120 00 00         : RESD         - DEEP RESISTIVITY (DIL)      
~PARAMETER INFORMATION       
#MNEM.UNIT           DATA             DESCRIPTION OF MNEMONIC
#---------         -----------     ------------------------------
GL  .M        459                  : gl           - GROUND LEVEL ELEVATION      
EREF.M        461.06               : kb           - ELEVATION OF DEPTH REFERENCE
DATM.M        461.06               : datum        - DATUM ELEVATION             
TDD .M        239                  : tdd          - TOTAL DEPTH DRILLER         
RUN .         ONE                  : Run          - RUN NUMBER                  
ENG .         BILL                 : Engineer     - RECORDING ENGINEER          
WIT .         JIM                  : Witness      - WITNESSED BY                
MUD .         GEL                  : Mud_type     - MUD TYPE                    
MATR.         LIMESTONE            : Logunit      - NEUTRON MATRIX              
TMAX.C        20                   : BHT          - MAXIMUM RECORDED TEMPERATURE
BHTD.M        245                  : BHTDEP       - MAXIMUM RECORDED TEMPERATURE
MATR.         1                    : LOGUNIT      - NEUTRON MATRIX              
RMT .C        25                   : MDTP         - TEMPERATURE OF MUD          
NEUT.         1                    : NEUTRON      - NEUTRON TYPE                
RESI.         0                    : RESIST       - RESISTIVITY TYPE            
RMC .OHMM     0.25                 : RMC          - RESISTIVITY OF MUD CAKE     
RMF .OHMM     0.25                 : RMF          - RESISTIVITY OF MUD FILTRATE 
SUFT.C        4                    : SUFT         - SURFACE TEMPERATURE         
~A  DEPTH     PHID     PHIN       GR     RESD
   55.000    0.390    0.399   48.795   22.674
   55.300    0.420    0.405   49.374   22.652
   55.600    0.456    0.439   49.938   23.061
   55.900    0.486    0.485   48.653   23.930
   56.200    0.446    0.456   46.141   25.304
   56.500    0.404    0.423   43.008   25.758
   56.800    0.427    0.429   42.959   25.729
   57.100    0.462    0.459   46.621   25.701
   57.400    0.492    0.483   45.339   24.709
   57.700    0.410    0.499   47.758   24.685
   58.000    0.405    0.518   52.039   26.099
   58.300    0.436    0.541   54.459   28.663
   58.600    0.470    0.550   51.935   30.327
   58.900    0.395    0.499   47.561   33.320
   59.200    0.385    0.444   45.052   36.608
   59.500    0.388    0.426   44.388   41.760
   59.800    0.372    0.425   47.428   41.714
   60.100    0.351    0.428   47.373   40.115
   60.400    0.351    0.429   48.565   37.849
   60.700    0.366    0.440   49.760   35.038
   61.000    0.369    0.459   49.701   32.426
   61.300    0.374    0.472   47.812   30.585
   61.600    0.376    0.473   46.525   30.548
   61.900    0.364    0.460   48.951   31.112
   62.200    0.374    0.452   49.507   32.885
   62.500    0.390    0.436   47.606   34.139
   62.800    0.379    0.430   45.092   36.103
   63.100    0.375    0.433   45.672   37.445
   63.400    0.357    0.443   49.327   36.014
   63.700    0.357    0.440   52.365   32.707
   64.000    0.381    0.444   52.934   27.014
   64.300    0.390    0.454   51.028   20.279
   64.600    0.400    0.485   49.758   18.072
   64.900    0.390    0.478   49.077   18.393
   65.200    0.364    0.457   49.651   19.452
   65.500    0.365    0.454   50.844   19.803
   65.800    0.389    0.481   51.422   19.782
   66.100    0.400    0.504   53.224   20.526
   66.400    0.390    0.530   53.172   23.423
   66.700    0.377    0.501   51.270   25.738
   67.000    0.376    0.475   51.847   27.740
   67.300    0.362    0.482   54.876   26.166
   67.600    0.361    0.484   57.307   20.407
   67.900    0.352    0.474   60.358   16.535
   68.200    0.346    0.474   62.158   14.733
   68.500    0.344    0.464   62.734   14.713
   68.800    0.352    0.436   58.361   15.559
   69.100    0.358    0.430   57.074   16.144
   69.400    0.358    0.453   61.355   16.129
   69.700    0.363    0.471   66.861   15.508
   70.000    0.380    0.470   66.819   14.631
   70.300    0.357    0.463   65.534   13.803
   70.600    0.352    0.480   64.256   12.774
   70.900    0.346    0.461   63.578   12.518
   71.200    0.353    0.446   64.146   12.505
   71.500    0.360    0.435   65.341   13.740
   71.800    0.363    0.439   67.151   15.381
   72.100    0.354    0.447   70.191   15.963
   72.400    0.324    0.450   72.609   15.645
   72.700    0.308    0.470   72.566   14.481
   73.000    0.330    0.475   63.874   13.152
   73.300    0.342    0.474   56.413   12.889
   73.600    0.357    0.486   54.502   14.432
   73.900    0.378    0.502   55.695   15.853
   74.200    0.382    0.527   58.734   16.769
   74.500    0.353    0.523   63.021   16.745
   74.800    0.322    0.464   68.530   15.796
   75.100    0.315    0.465   72.189   15.189
   75.400    0.316    0.479   77.694   14.334
   75.700    0.315    0.505   83.834   12.064
   76.000    0.311    0.496   85.636   10.346
   76.300    0.314    0.491   85.584    9.220
   76.600    0.328    0.513   85.545    8.216
   76.900    0.322    0.513   86.719    7.320
   77.200    0.313    0.519   89.143    6.906
   77.500    0.311    0.525   90.341    6.515
   77.800    0.309    0.529   92.764    6.264
   78.100    0.302    0.529   95.185    6.023
   78.400    0.297    0.527   97.602    5.790
   78.700    0.292    0.508   98.186    5.675
   79.000    0.291    0.510   98.139    5.561
   79.300    0.285    0.535   96.227    5.662
   79.600    0.280    0.543   96.791    5.655
   79.900    0.285    0.538   98.592    5.649
   80.200    0.278    0.531   99.184    5.537
   80.500    0.287    0.532   99.754    5.223
   80.800    0.287    0.562   96.622    5.024
   81.100    0.296    0.560   89.151    5.017
   81.400    0.286    0.528   88.492    5.307
   81.700    0.290    0.520   92.759    6.789
   82.000    0.270    0.523   97.046    7.315
   82.300    0.267    0.541  101.942    7.034
   82.600    0.285    0.555  103.127    6.150
   82.900    0.292    0.569  101.221    4.796
   83.200    0.288    0.568   97.474    3.885
   83.500    0.309    0.553   87.533    3.666
   83.800    0.306    0.515   82.544    3.951
   84.100    0.314    0.505   78.794    4.775
   84.400    0.310    0.490   78.752    6.109
   84.700    0.297    0.484   84.254    7.104
   85.000    0.292    0.490   86.068    7.232
   85.300    0.306    0.472   86.018    7.648
   85.600    0.319    0.470   82.258    7.935
   85.900    0.324    0.491   81.591    8.079
   86.200    0.313    0.493   82.159    7.919
   86.500    0.337    0.492   82.114    7.612
   86.800    0.355    0.512   82.075    7.182
   87.100    0.352    0.525   84.503    6.777
   87.400    0.341    0.540   88.151    5.387
   87.700    0.357    0.562   87.484    4.364
   88.000    0.371    0.581   86.202    3.603
   88.300    0.360    0.575   88.020    3.271
   88.600    0.319    0.574   90.433    3.268
   88.900    0.304    0.590   90.386    3.391
   89.200    0.322    0.607   89.724    3.453
   89.500    0.342    0.592   88.446    3.651
   89.800    0.347    0.578   86.542    4.088
   90.100    0.322    0.560   85.871    4.579
   90.400    0.311    0.523   85.197    5.639
   90.700    0.319    0.517   83.926    6.813
   91.000    0.337    0.509   75.850    7.924
   91.300    0.345    0.497   75.187    8.064
   91.600    0.330    0.485   81.929    7.608
   91.900    0.290    0.505   81.878    6.912
   92.200    0.292    0.513   79.363    6.042
   92.500    0.301    0.495   76.847    6.511
   92.800    0.316    0.464   76.181    7.432
   93.100    0.329    0.457   76.755    8.644
   93.400    0.321    0.460   81.650    9.141
   93.700    0.315    0.486   87.775    8.463
   94.000    0.341    0.536   90.201    7.399
   94.300    0.320    0.529   90.770    5.880
   94.600    0.336    0.543   88.254    5.239
   94.900    0.316    0.537   87.582    5.334
   95.200    0.311    0.531   83.834    5.533
   95.500    0.318    0.542   78.229    5.743
   95.800    0.334    0.535   78.171    6.309
   96.100    0.343    0.520   78.123    6.800
   96.400    0.343    0.498   73.131    8.063
   96.700    0.338    0.468   71.850    9.379
   97.000    0.334    0.474   71.799   10.703
   97.300    0.329    0.458   71.751   11.318
   97.600    0.321    0.476   74.175   11.519
   97.900    0.313    0.487   75.992   11.076
   98.200    0.282    0.477   77.184   10.651
   98.500    0.254    0.460   72.810   10.636
   98.800    0.146    0.412   69.672   10.630
   99.100    0.112    0.351   62.211   12.362
   99.400    0.165    0.301   54.130   16.428
   99.700    0.298    0.362   59.022   21.420
  100.000    0.339    0.427   70.098   20.990
  100.300    0.338    0.457   74.985   18.701
  100.600    0.327    0.457   74.320   16.351
  100.900    0.312    0.453   72.429   14.851
  101.200    0.290    0.440   70.513   14.552
  101.500    0.246    0.418   69.845   15.098
  101.800    0.272    0.425   69.813   15.371
  102.100    0.327    0.451   71.608   15.356
  102.400    0.336    0.469   72.180   14.486
  102.700    0.316    0.459   72.761   13.667
  103.000    0.319    0.468   74.564   12.652
  103.300    0.337    0.459   77.609   12.162
  103.600    0.334    0.452   81.888   12.381
  103.900    0.330    0.457   83.694   12.606
  104.200    0.327    0.461   74.364   12.832
  104.500    0.324    0.476   72.475   13.069
  104.800    0.323    0.477   69.341   13.302
  105.100    0.322    0.471   69.286   13.541
  105.400    0.313    0.485   71.093   13.271
  105.700    0.218    0.465   74.139   12.520
  106.000    0.218    0.465   78.411   11.155
  106.300    0.286    0.489   82.689    9.754
  106.600    0.315    0.491   85.114    8.055
  106.900    0.329    0.485   83.829    6.907
