~VERSION INFORMATION
 VERS.                 2.0:   CWLS LOG ASCII STANDARD -VERSION 2.0
 WRAP.                  NO:   ONE LINE PER DEPTH STEP
~WELL INFORMATION BLOCK
#MNEM.UNIT           DATA                    DESCRIPTION OF MNEMONIC
#---------    -------------------            -------------------------------
# Generated from Intellog Unique Number	CS_77_79/WELL/933
WELL.         LEISMER OV                     : Well_name    - WELL
LOC .         AA/10-08-079-08W4/0            : Location     - LOCATION
UWI .         AA/10-08-079-08W4/0            : Uwi          - UNIQUE WELL ID
ENTR.         JHS                            : Entered      - ENTERED BY
SRVC.         SCHLUMBERGER                   : Scn          - SERVICE COMPANY
STRT.M        145                            : top_depth    - START DEPTH
STOP.M        400                            : bot_depth    - STOP DEPTH
STEP.M        0.25                           : increment    - STEP LENGTH
 NULL. -999.2500:NULL Value
~CURVE INFORMATION BLOCK
#MNEM UNIT       ERCB CURVE CODE    CURVE DESCRIPTION
#-----------   ------------------   ----------------------------------
DEPT.M        00 001 00 00         : DEPTH        - DEPTH
DPHI.V/V      00 890 00 00         : PHID         - DENSITY POROSITY (LIMESTONE)
NPHI.V/V      00 330 00 00         : PHIN         - NEUTRON POROSITY (LIMESTONE)
GR  .API      00 310 00 00         : GR           - GAMMA RAY
ILD .OHMM     00 120 00 00         : RESD         - DEEP RESISTIVITY (DIL)
RHOB.KG/M3    00 350 00 00         : DENS         - BULK DENSITY
~PARAMETER INFORMATION
#MNEM.UNIT           DATA             DESCRIPTION OF MNEMONIC
#---------         -----------     ------------------------------
GL  .M        611.36               : gl           - GROUND LEVEL ELEVATION
EREF.M        614.94               : kb           - ELEVATION OF DEPTH REFERENCE
DATM.M        614.94               : datum        - DATUM ELEVATION
TDD .M        407                  : tdd          - TOTAL DEPTH DRILLER
RUN .         ONE                  : Run          - RUN NUMBER
ENG .         BILL                 : Engineer     - RECORDING ENGINEER
WIT .         JIM                  : Witness      - WITNESSED BY
MUD .         GEL                  : Mud_type     - MUD TYPE
MATR.         LIMESTONE            : Logunit      - NEUTRON MATRIX
TMAX.C        17                   : BHT          - MAXIMUM RECORDED TEMPERATURE
BHTD.M        407                  : BHTDEP       - MAXIMUM RECORDED TEMPERATURE
MATR.         1                    : LOGUNIT      - NEUTRON MATRIX
RMT .C        25                   : MDTP         - TEMPERATURE OF MUD
NEUT.         1                    : NEUTRON      - NEUTRON TYPE
RESI.         0                    : RESIST       - RESISTIVITY TYPE
RMC .OHMM     0.25                 : RMC          - RESISTIVITY OF MUD CAKE
RMF .OHMM     0.25                 : RMF          - RESISTIVITY OF MUD FILTRATE
SUFT.C        15                   : SUFT         - SURFACE TEMPERATURE
~A  DEPTH     PHID     PHIN       GR     RESD     DENS
# ...
  218.000    0.237    0.359  122.812   10.658    0.000
  218.250    0.227    0.351  120.373    9.714    0.000
  218.500    0.223    0.355  121.614    9.719    0.000
  218.750    0.225    0.359  124.073    9.908    0.000
  219.000    0.231    0.353  125.925   10.685    0.000
  219.250    0.238    0.338  121.041   11.309    0.000
  219.500    0.244    0.330  116.159   11.972    0.000
  219.750    0.243    0.331  116.785   12.204    0.000
  220.000    0.238    0.327  117.407   11.986    0.000
  220.250    0.228    0.323  111.301   11.993    0.000
  220.500    0.216    0.330  105.804   12.226    0.000
  220.750    0.209    0.341  100.306   12.702    0.000
  221.000    0.211    0.328   96.649   12.706    0.000
  221.250    0.227    0.327   92.377   12.249    0.000
  221.500    0.250    0.338   93.613   11.371    0.000
  221.750    0.241    0.347   98.524   10.557    0.000
  222.000    0.221    0.354  106.501    9.619    0.000
  222.250    0.200    0.356  112.638    8.602    0.000
  222.500    0.185    0.357  115.709    7.987    0.000
  222.750    0.186    0.360  116.334    7.843    0.000
  223.000    0.191    0.355  117.573    7.703    0.000
  223.250    0.202    0.350  121.874    7.565    0.000
  223.500    0.211    0.359  121.278    7.428    0.000
  223.750    0.198    0.372  124.964    7.433    0.000
  224.000    0.194    0.381  127.429    7.438    0.000
  224.250    0.192    0.379  127.438    7.443    0.000
  224.500    0.193    0.371  123.167    7.447    0.000
  224.750    0.198    0.365  121.344    7.314    0.000
  225.000    0.200    0.361  123.810    7.317    0.000
  225.250    0.197    0.358  124.434    7.744    0.000
  225.500    0.199    0.358  121.389    8.510    0.000
  225.750    0.208    0.355  118.951    9.005    0.000
  226.000    0.213    0.352  115.906   10.084    0.000
  226.250    0.213    0.352  114.693    9.901    0.000
  226.500    0.214    0.353  115.317    9.366    0.000
  226.750    0.220    0.357  117.782    8.069    0.000
  227.000    0.224    0.372  119.020    7.632    0.000
  227.250    0.216    0.383  122.705    7.783    0.000
  227.500    0.209    0.392  128.232    8.084    0.000
  227.750    0.209    0.395  130.699    8.882    0.000
  228.000    0.209    0.401  127.034   10.131    0.000
  228.250    0.204    0.406  114.802   10.925    0.000
  228.500    0.192    0.374  108.696   11.138    0.000
  228.750    0.156    0.362  105.646   10.342    0.000
  229.000    0.159    0.386  103.826    9.424    0.000
  229.250    0.211    0.407  107.513    9.082    0.000
  229.500    0.226    0.409  110.585    8.754    0.000
  229.750    0.227    0.407  113.047    8.759    0.000
  230.000    0.228    0.392  118.572    8.929    0.000
  230.250    0.237    0.386  119.201    9.277    0.000
  230.500    0.245    0.382  117.377    9.819    0.000
  230.750    0.256    0.381  114.940   10.200    0.000
  231.000    0.256    0.376  113.117   10.205    0.000
  231.250    0.240    0.370  113.133    9.654    0.000
  231.500    0.236    0.371  113.758    9.131    0.000
  231.750    0.234    0.382  114.383    8.479    0.000
  232.000    0.237    0.398  117.457    8.020    0.000
  232.250    0.240    0.400  121.148    7.876    0.000
  232.500    0.249    0.404  121.771    7.592    0.000
  232.750    0.255    0.400  121.173    7.456    0.000
  233.000    0.270    0.391  118.740    7.186    0.000
  233.250    0.271    0.381  116.303    6.796    0.000
  233.500    0.272    0.377  111.423    6.311    0.000
  233.750    0.277    0.375  107.761    6.198    0.000
  234.000    0.272    0.375  104.100    6.087    0.000
  234.250    0.273    0.373   99.826    6.205    0.000
  234.500    0.285    0.366   96.778    6.691    0.000
  234.750    0.299    0.365   93.733    7.632    0.000
  235.000    0.317    0.370   90.072    8.706    0.000
  235.250    0.340    0.383   85.187   10.704    0.000
  235.500    0.362    0.388   81.531   12.439    0.000
  235.750    0.377    0.378   87.054   15.293    0.000
  236.000    0.318    0.352   95.026   18.802    0.000
  236.250    0.241    0.333  101.773   20.277    0.000
  236.500    0.237    0.343  104.850   20.672    0.000
  236.750    0.244    0.357  105.477   21.473    0.000
  237.000    0.252    0.362  107.326   21.893    0.000
  237.250    0.253    0.357  111.012   22.323    0.000
  237.500    0.232    0.360  118.373   22.759    0.000
  237.750    0.221    0.356  125.123   23.198    0.000
  238.000    0.215    0.352  123.911   23.212    0.000
  238.250    0.214    0.364  113.519   23.666    0.000
  238.500    0.212    0.372  111.084   24.131    0.000
  238.750    0.208    0.374  115.383   24.605    0.000
  239.000    0.210    0.379  122.743   25.079    0.000
  239.250    0.221    0.389  123.372   25.567    0.000
  239.500    0.241    0.395  120.322   25.583    0.000
  239.750    0.249    0.395  115.436   25.599    0.000
  240.000    0.253    0.374  105.656   25.141    0.000
  240.250    0.255    0.359   96.487   25.159    0.000
  240.500    0.259    0.352   89.766   25.173    0.000
  240.750    0.272    0.347   82.430   25.184    0.000
  241.000    0.279    0.345   72.650   25.198    0.000
  241.250    0.287    0.345   69.600   25.691    0.000
  241.500    0.291    0.342   68.391   25.705    0.000
  241.750    0.293    0.338   67.794   25.731    0.000
  242.000    0.296    0.332   65.356   25.739    0.000
  242.250    0.296    0.330   67.209   26.240    0.000
  242.500    0.293    0.335   69.672   25.773    0.000
  242.750    0.295    0.352   69.684   25.785    0.000
  243.000    0.302    0.347   68.472   25.323    0.000
  243.250    0.309    0.341   67.875   25.335    0.000
  243.500    0.314    0.350   65.439   24.884    0.000
  243.750    0.313    0.354   63.004   24.433    0.000
  244.000    0.305    0.343   64.242   23.998    0.000
  244.250    0.297    0.339   66.706   23.570    0.000
  244.500    0.297    0.338   67.943   23.578    0.000
  244.750    0.300    0.342   66.738   23.594    0.000
  245.000    0.296    0.336   66.137   23.616    0.000
  245.250    0.293    0.336   66.761   23.629    0.000
  245.500    0.288    0.336   67.389   23.200    0.000
  245.750    0.284    0.336   68.013   23.221    0.000
  246.000    0.283    0.331   68.028   22.797    0.000
  246.250    0.282    0.324   69.267   22.813    0.000
  246.500    0.282    0.323   68.668   22.399    0.000
  246.750    0.279    0.326   69.907   22.419    0.000
  247.000    0.283    0.333   71.146   22.430    0.000
  247.250    0.289    0.332   70.547   22.023    0.000
  247.500    0.289    0.329   69.944   22.038    0.000
  247.750    0.289    0.329   68.125   22.055    0.000
  248.000    0.288    0.338   67.524   22.064    0.000
  248.250    0.288    0.346   71.827   21.668    0.000
  248.500    0.290    0.349   75.512   20.890    0.000
  248.750    0.296    0.341   77.365   20.897    0.000
  249.000    0.295    0.345   77.991   20.521    0.000
  249.250    0.291    0.356   78.001   20.535    0.000
  249.500    0.291    0.364   78.629   20.943    0.000
  249.750    0.294    0.369   77.416   20.947    0.000
  250.000    0.294    0.372   80.493   20.960    0.000
  250.250    0.298    0.364   79.893   20.972    0.000
  250.500    0.307    0.352   75.008   20.601    0.000
  250.750    0.307    0.346   73.801   20.610    0.000
  251.000    0.303    0.341   71.362   20.241    0.000
  251.250    0.297    0.335   73.830   20.250    0.000
  251.500    0.293    0.335   75.677   19.888    0.000
  251.750    0.296    0.345   74.466   19.531    0.000
  252.000    0.301    0.348   72.643   19.541    0.000
  252.250    0.303    0.343   73.882   19.195    0.000
  252.500    0.305    0.331   75.123   18.846    0.000
  252.750    0.313    0.332   71.463   18.512    0.000
  253.000    0.314    0.343   70.248   18.518    0.000
  253.250    0.313    0.346   70.876   18.186    0.000
  253.500    0.316    0.341   72.725   17.862    0.000
  253.750    0.318    0.346   75.189   17.543    0.000
  254.000    0.313    0.355   72.144   17.553    0.000
  254.250    0.305    0.351   69.707   17.564    0.000
