~VERSION INFORMATION
 VERS.                 2.0:   CWLS LOG ASCII STANDARD -VERSION 2.0
 WRAP.                  NO:   ONE LINE PER DEPTH STEP
~WELL INFORMATION BLOCK
#MNEM.UNIT           DATA                    DESCRIPTION OF MNEMONIC
#---------    -------------------            -------------------------------
# Generated from Intellog Unique Number	CN_94_101/WELL/1068
WELL.         10-17-094-06W4                 : Well_name    - WELL
LOC .         AA/10-17-094-06W4/0            : Location     - LOCATION
UWI .         AA/10-17-094-06W400            : Uwi          - UNIQUE WELL ID
ENTR.         JOETTE                         : Entered      - ENTERED BY
SRVC.         SCHLUMBERGER                   : Scn          - SERVICE COMPANY
DATE.         04/10/92                       : Date         - LOG DATE
STRT.M        80                             : top_depth    - START DEPTH
STOP.M        285                            : bot_depth    - STOP DEPTH
STEP.M        0.25                           : increment    - STEP LENGTH
 NULL. -999.2500:NULL Value
~CURVE INFORMATION BLOCK
#MNEM UNIT       ERCB CURVE CODE    CURVE DESCRIPTION
#-----------   ------------------   ----------------------------------
DEPT.M        00 001 00 00         : DEPTH        - DEPTH
ILD .OHMM     00 120 00 00         : RESD         - DEEP RESISTIVITY (DIL)
DPHI.V/V      00 890 00 00         : PHID         - DENSITY POROSITY (SANDSTONE)
NPHI.V/V      00 330 00 00         : PHIN         - NEUTRON POROSITY (SANDSTONE)
GR  .API      00 310 00 00         : GR           - GAMMA RAY
CALI.MM       00 280 01 00         : CAL          - CALIPER
~PARAMETER INFORMATION
#MNEM.UNIT           DATA             DESCRIPTION OF MNEMONIC
#---------         -----------     ------------------------------
GL  .M        564.2                : gl           - GROUND LEVEL ELEVATION
EREF.M        566.9                : kb           - ELEVATION OF DEPTH REFERENCE
DATM.M        566.9                : datum        - DATUM ELEVATION
TDD .M        287                  : tdd          - TOTAL DEPTH DRILLER
RUN .         ONE                  : Run          - RUN NUMBER
ENG .         BILL                 : Engineer     - RECORDING ENGINEER
WIT .         JIM                  : Witness      - WITNESSED BY
MUD .         GEL                  : Mud_type     - MUD TYPE
MATR.         SANDSTONE            : Logunit      - NEUTRON MATRIX
TMAX.C        18                   : BHT          - MAXIMUM RECORDED TEMPERATURE
BHTD.M        287                  : BHTDEP       - MAXIMUM RECORDED TEMPERATURE
RMT .C        5                    : MDTP         - TEMPERATURE OF MUD
MUDD.KG/M     1                    : MWT          - MUD DENSITY
NEUT.         1                    : NEUTRON      - NEUTRON TYPE
RESI.         0                    : RESIST       - RESISTIVITY TYPE
RM  .OHMM     11.4                 : RM           - RESISTIVITY OF MUD
RMC .OHMM     11.4                 : RMC          - RESISTIVITY OF MUD CAKE
RMF .OHMM     11.4                 : RMF          - RESISTIVITY OF MUD FILTRATE
SUFT.C        4                    : SUFT         - SURFACE TEMPERATURE
~A  DEPTH     RESD     PHID     PHIN       GR      CAL
# ...
  262.500   23.671    0.228    0.397   77.149  164.932
  262.750   23.217    0.268    0.411   74.086  162.887
  263.000   23.196    0.283    0.438   76.526  163.895
  263.250   23.628    0.273    0.439   74.685  166.944
  263.500   26.957    0.279    0.439   68.567  173.046
  263.750   33.797    0.302    0.430   57.557  171.001
  264.000   50.228    0.321    0.396   49.604  163.857
  264.250   78.989    0.324    0.399   45.318  159.775
  264.500  110.938    0.326    0.414   43.478  162.820
  264.750  126.550    0.314    0.391   42.251  164.850
  265.000  199.042    0.302    0.365   39.798  166.879
  265.250  541.507    0.291    0.355   37.960  169.926
  265.500  531.052    0.283    0.350   36.119  170.936
  265.750  511.051    0.279    0.335   34.278  170.924
  266.000  491.802    0.283    0.320   33.661  166.839
  266.250  447.197    0.276    0.325   33.045  163.771
  266.500  324.143    0.268    0.327   33.040  162.745
  266.750  283.813    0.252    0.311   34.255  162.733
  267.000  253.242    0.253    0.307   36.084  163.745
  267.250  183.557    0.245    0.319   36.688  164.747
  267.500   89.457    0.264    0.354   36.073  164.743
  267.750   53.678    0.268    0.360   35.456  164.733
  268.000   50.689    0.273    0.374   35.452  164.726
  268.250   52.594    0.280    0.399   37.280  165.734
  268.500   52.570    0.264    0.403   42.165  165.722
  268.750   50.598    0.251    0.383   48.885  165.717
  269.000   45.147    0.263    0.350   56.215  164.689
  269.250   40.284    0.241    0.323   67.214  163.661
  269.500   33.959    0.217    0.350   75.767  162.632
  269.750   37.301    0.223    0.372   76.372  163.642
  270.000   43.362    0.243    0.386   73.311  164.647
  270.250   50.400    0.256    0.388   65.357  164.637
  270.500   58.581    0.257    0.388   61.072  164.628
  270.750   59.680    0.260    0.388   61.675  164.619
  271.000   57.433    0.250    0.393   63.502  164.607
  271.250   50.272    0.232    0.390   63.499  163.583
  271.500   47.487    0.234    0.383   64.104  163.574
  271.750   44.837    0.231    0.381   64.100  161.522
  272.000   42.334    0.233    0.373   63.483  160.496
  272.250   41.510    0.235    0.371   61.640  160.487
  272.500   43.911    0.245    0.372   60.415  159.459
  272.750   45.582    0.259    0.377   57.351  159.449
  273.000   50.068    0.270    0.386   55.513  159.440
  273.250   56.053    0.284    0.414   51.839  159.433
  273.500   80.215    0.304    0.407   48.165  159.419
  273.750  121.487    0.308    0.402   44.490  159.414
  274.000  152.291    0.318    0.401   41.428  159.405
  274.250  158.061    0.329    0.400   38.976  159.393
  274.500  157.943    0.323    0.392   36.525  160.403
  274.750  160.907    0.321    0.386   33.463  161.412
  275.000  183.551    0.329    0.386   32.845  162.419
  275.250  234.517    0.317    0.386   33.450  164.448
  275.500  299.634    0.306    0.385   32.832  167.495
  275.750  305.166    0.293    0.382   32.218  166.467
  276.000  277.447    0.304    0.384   33.435  164.422
  276.250  247.561    0.319    0.389   34.651  165.432
  276.500  233.778    0.327    0.417   34.034  169.496
  276.750  242.636    0.326    0.409   33.417  169.486
  277.000  266.556    0.308    0.399   33.412  167.441
  277.250  292.791    0.302    0.389   32.795  164.373
  277.500  315.589    0.278    0.379   34.624  166.404
  277.750  298.018    0.279    0.371   38.898  169.451
  278.000  165.754    0.269    0.376   48.674  170.456
  278.250   97.611    0.268    0.365   61.507  170.451
  278.500   41.684    0.267    0.334   73.115  167.385
  278.750   29.644    0.219    0.318   75.557  163.293
  279.000   23.616    0.172    0.321   74.940  162.267
  279.250   18.461    0.131    0.337   59.647  160.218
  279.500   17.766    0.141    0.360   54.141  160.213
  279.750   19.887    0.134    0.383   49.244  161.222
  280.000   24.008    0.126    0.329   41.903  164.268
  280.250   27.909    0.105    0.295   37.006  165.275
  280.500   33.063    0.068    0.266   40.669  165.270
  280.750   34.960    0.078    0.263   48.611  164.239
  281.000   35.616    0.088    0.273   63.278  164.232
  281.250   42.193    0.059    0.271   81.001  164.223
  281.500   67.628    0.065    0.243   91.389  164.214
  281.750   80.116    0.079    0.204   91.382  164.202
  282.000   88.001    0.049    0.191   91.377  164.195
  282.250   89.612    0.039    0.189   91.369  164.186
  282.500   84.623    0.050    0.180   91.366  167.231
  282.750   79.912    0.070    0.186   91.359  168.243
  283.000   79.864    0.054    0.205   91.352  169.247
  283.250   82.890    0.057    0.236   91.349  170.257
  283.500   91.061    0.067    0.243   91.341  170.248
  283.750  101.932    0.053    0.236   91.338  170.238
  284.000  109.868    0.039    0.228   91.331  170.229
  284.250  114.031    0.039    0.226   91.324  169.201
  284.500  107.666    0.030    0.238   91.320  169.194
  284.750   90.788    0.018    0.246   91.311  168.163
  285.000   73.673    0.008    0.250   91.311  168.151
