~VERSION INFORMATION
 VERS.                 2.0:   CWLS LOG ASCII STANDARD -VERSION 2.0
 WRAP.                  NO:   ONE LINE PER DEPTH STEP
~WELL INFORMATION BLOCK
#MNEM.UNIT           DATA                    DESCRIPTION OF MNEMONIC
#---------    -------------------            -------------------------------
# Generated from Intellog Unique Number	CN_94_101/WELL/5057
WELL.         ATLANTIC BIT                   : Well_name    - WELL
LOC .         AA/16-16-099-11W4/0            : Location     - LOCATION
UWI .         AA/16-16-099-11W400            : Uwi          - UNIQUE WELL ID
ENTR.         T                              : Entered      - ENTERED BY
SRVC.         SCHLUMBERGER                   : Scn          - SERVICE COMPANY
DATE.         08/13/92                       : Date         - LOG DATE
STRT.M        15.24                          : top_depth    - START DEPTH
STOP.M        86.49                          : bot_depth    - STOP DEPTH
STEP.M        0.25                           : increment    - STEP LENGTH
 NULL. -999.2500:NULL Value
~CURVE INFORMATION BLOCK
#MNEM UNIT       ERCB CURVE CODE    CURVE DESCRIPTION
#-----------   ------------------   ----------------------------------
DEPT.M        00 001 00 00         : DEPTH        - DEPTH
GR  .API      00 310 00 00         : GR           - GAMMA RAY
NPHI.V/V      00 330 00 00         : PHIN         - NEUTRON POROSITY (SANDSTONE)
ILD .OHMM     00 120 00 00         : RESD         - DEEP RESISTIVITY (DIL)
~PARAMETER INFORMATION
#MNEM.UNIT           DATA             DESCRIPTION OF MNEMONIC
#---------         -----------     ------------------------------
GL  .M        329.794              : gl           - GROUND LEVEL ELEVATION
EREF.M        329.794              : kb           - ELEVATION OF DEPTH REFERENCE
DATM.M        329.794              : datum        - DATUM ELEVATION
TDD .M        88.0872              : tdd          - TOTAL DEPTH DRILLER
RUN .         ONE                  : Run          - RUN NUMBER
ENG .         BILL                 : Engineer     - RECORDING ENGINEER
WIT .         JIM                  : Witness      - WITNESSED BY
MUD .         GEL                  : Mud_type     - MUD TYPE
MATR.         SANDSTONE            : Logunit      - NEUTRON MATRIX
TMAX.C        5.55556              : BHT          - MAXIMUM RECORDED TEMPERATURE
BHTD.M        88.0872              : BHTDEP       - MAXIMUM RECORDED TEMPERATURE
RMT .C        10                   : MDTP         - TEMPERATURE OF MUD
MUDD.KG/M     1090                 : MWT          - MUD DENSITY
NEUT.         1                    : NEUTRON      - NEUTRON TYPE
RESI.         0                    : RESIST       - RESISTIVITY TYPE
RM  .OHMM     9.8                  : RM           - RESISTIVITY OF MUD
RMC .OHMM     8.7                  : RMC          - RESISTIVITY OF MUD CAKE
RMF .OHMM     9.2                  : RMF          - RESISTIVITY OF MUD FILTRATE
SUFT.C        4                    : SUFT         - SURFACE TEMPERATURE
~A  DEPTH       GR     PHIN     RESD
   15.240  109.310    0.498   34.206
   15.490  103.898    0.504   36.794
   15.740   96.478    0.501   38.059
   15.990  100.114    0.500   37.965
   16.240  106.105    0.506   37.257
   16.490  108.391    0.502   35.803
   16.740  105.345    0.488   35.057
   16.990  104.284    0.476   34.331
   17.240  104.238    0.467   32.915
   17.490  103.524    0.464   32.150
   17.740  103.143    0.475   32.094
   17.990  101.759    0.479   32.018
   18.240   98.690    0.472   32.594
   18.490   96.302    0.465   33.189
   18.740  100.619    0.456   33.784
   18.990  104.255    0.452   33.709
   19.240  102.871    0.455   34.304
   19.490   99.802    0.456   34.229
   19.740  101.765    0.453   34.135
   19.990   99.376    0.444   34.730
   20.240   96.653    0.435   34.654
   20.490   92.234    0.438   34.598
   20.740   91.531    0.443   33.852
   20.990   86.454    0.448   31.058
   21.240   87.401    0.448   30.964
   21.490   88.694    0.445   30.256
   21.740   90.010    0.441   30.180
   21.990   93.981    0.435   29.416
   22.240   97.618    0.430   29.340
   22.490   99.569    0.426   29.954
   22.740   99.200    0.425   29.879
   22.990   98.809    0.426   29.747
   23.240   97.101    0.425   29.709
   23.490   89.000    0.430   30.304
   23.740   89.959    0.439   30.899
   23.990   90.929    0.438   32.165
   24.240   93.550    0.429   32.760
   24.490   95.189    0.426   33.336
   24.740   97.152    0.432   33.242
   24.990   95.433    0.439   33.185
   25.240   92.041    0.430   33.780
   25.490   88.972    0.418   33.724
   25.740   89.250    0.420   34.952
   25.990   91.213    0.418   35.528
   26.240   93.187    0.415   35.490
   26.490   95.496    0.412   34.055
   26.740   96.789    0.423   33.328
   26.990   97.748    0.434   33.253
   27.240   96.017    0.443   33.159
   27.490   93.618    0.446   33.065
   27.740   92.245    0.442   33.027
   27.990   89.522    0.433   33.584
   28.240   85.449    0.421   33.509
   28.490   84.399    0.408   32.763
   28.740   83.684    0.414   32.018
   28.990   93.680    0.437   31.272
   29.240   96.658    0.441   30.526
   29.490  100.629    0.445   28.440
   29.740  104.946    0.453   25.683
   29.990  109.587    0.462   21.586
   30.240  112.888    0.472   19.499
   30.490  109.831    0.488   17.394
   30.740  111.113    0.510   16.630
   30.990  112.071    0.506   15.865
   31.240  113.030    0.498   15.828
   31.490  113.654    0.480   15.082
   31.740  114.278    0.475   15.007
   31.990  112.571    0.471   14.931
   32.240  110.829    0.475   14.856
   32.490  111.453    0.478   14.110
   32.740  113.092    0.481   14.016
   32.990  114.374    0.484   12.581
   33.240  115.333    0.494   12.525
   33.490  115.957    0.501   11.760
   33.740  113.580    0.513   11.014
   33.990  101.809    0.522   10.250
   34.240   80.320    0.512   10.212
   34.490   64.521    0.476   12.818
   34.740   52.750    0.399   18.776
   34.990   51.354    0.315   24.734
   35.240   51.978    0.280   30.021
   35.490   51.263    0.283   34.638
   35.740   53.226    0.297   37.226
   35.990   53.493    0.307   37.150
   36.240   52.801    0.306   37.094
   36.490   51.751    0.297   37.000
   36.740   52.029    0.292   37.595
   36.990   52.653    0.293   38.841
   37.240   52.619    0.296   40.125
   37.490   52.574    0.300   44.091
   37.740   52.194    0.301   50.719
   37.990   51.813    0.302   62.710
   38.240   51.768    0.302   76.731
   38.490   53.061    0.306   95.444
   38.740   55.013    0.312  114.138
   38.990   54.967    0.317  142.236
   39.240   54.253    0.316  199.867
   39.490   56.215    0.312  231.968
   39.740   57.174    0.305  303.025
   39.990   54.786    0.300  347.900
   40.240   52.063    0.296  373.298
   40.490   51.683    0.294  398.715
   40.740   52.965    0.292  409.384
   40.990   53.923    0.298  413.330
   41.240   53.197    0.305  412.585
   41.490   51.824    0.303  407.798
   41.740   52.460    0.298  396.997
   41.990   58.104    0.325  375.452
   42.240   62.410    0.356  357.259
   42.490   65.053    0.376  350.461
   42.740   67.674    0.392  378.578
   42.990   67.294    0.397  391.909
   43.240   65.910    0.391  400.549
   43.490   61.848    0.382  408.536
   43.740   59.460    0.375  423.879
   43.990   60.084    0.372  430.507
   44.240   61.712    0.381  440.468
   44.490   64.344    0.388  443.112
   44.740   67.646    0.387  442.328
   44.990   69.597    0.379  441.601
   45.240   69.898    0.373  442.196
   45.490   70.187    0.378  446.124
   45.740   70.811    0.402  444.057
   45.990   71.747    0.411  423.182
   46.240   72.394    0.410   80.297
   46.490   76.354    0.410   57.411
   46.740   77.658    0.413   44.580
   46.990   78.282    0.413   41.153
   47.240   78.572    0.404   37.669
   47.490   78.192    0.397   36.961
   47.740   75.469    0.391   36.197
   47.990   73.058    0.401   35.470
   48.240   75.032    0.422   34.724
   48.490   76.325    0.434   32.581
   48.740   75.622    0.445   31.184
   48.990   76.915    0.449   29.787
   49.240   78.208    0.444   27.701
   49.490   80.160    0.435   26.266
   49.740   79.456    0.425   26.209
   49.990   78.742    0.417   26.134
   50.240   81.374    0.422   26.021
   50.490   83.995    0.431   25.965
   50.740   83.280    0.440   25.200
   50.990   84.919    0.450   23.095
   51.240   89.560    0.446   23.038
   51.490   93.207    0.440   22.274
   51.740   95.828    0.443   22.907
   51.990  101.149    0.438   24.153
   52.240  104.797    0.434   24.748
   52.490  109.772    0.449   25.343
   52.740  112.404    0.468   25.957
   52.990  110.016    0.456   26.552
   53.240  109.971    0.455   27.761
   53.490  114.611    0.468   27.704
   53.740  118.917    0.484   28.280
   53.990  123.903    0.480   28.243
   54.240  126.201    0.472   28.838
   54.490  123.466    0.468   29.414
   54.740  120.743    0.464   30.028
   54.990  119.024    0.458   30.585
   55.240  116.959    0.456   30.547
   55.490  115.921    0.449   30.472
   55.740  114.191    0.442   29.018
   55.990  113.476    0.437   30.935
   56.240  111.746    0.431   32.909
   56.490  110.708    0.426   36.185
   56.740  107.304    0.427   37.450
   56.990  104.916    0.430   37.375
   57.240  106.878    0.434   35.959
   57.490  107.502    0.437   34.524
   57.740  108.461    0.439   32.438
   57.990  111.093    0.442   31.711
   58.240  112.052    0.450   29.606
   58.490  109.664    0.467   28.860
   58.740  108.949    0.442   28.766
   58.990  109.238    0.433   31.353
   59.240  111.201    0.439   32.637
   59.490  115.172    0.442   33.922
   59.740  118.820    0.438   35.838
   59.990  118.105    0.432   35.782
   60.240  114.701    0.425   35.017
   60.490  113.294    0.431   34.291
   60.740  112.602    0.433   33.545
   60.990  110.537    0.432   32.743
   61.240  107.479    0.432   32.705
   61.490  105.091    0.432   34.622
   61.740  100.683    0.433   37.880
   61.990   96.621    0.438   39.182
   62.240   98.238    0.441   42.459
   62.490   99.543    0.443   46.406
   62.740   99.498    0.442   51.693
   62.990   97.779    0.441   56.329
   63.240   92.701    0.437   58.916
   63.490   93.325    0.432   60.182
   63.740   93.280    0.429   77.554
   63.990   85.191    0.428   88.204
   64.240   84.141    0.427   94.181
   64.490   86.762    0.426  104.161
   64.740   85.378    0.427   99.393
   64.990   83.313    0.427   83.210
   65.240   81.940    0.421   83.805
   65.490   79.886    0.417  102.500
   65.740   73.805    0.408  132.609
   65.990   65.046    0.384  157.355
   66.240   60.315    0.367  208.953
   66.490   57.915    0.361  273.939
   66.740   56.865    0.391  273.863
   66.990   55.147    0.388  257.681
   67.240   53.416    0.380  213.325
   67.490   52.355    0.366  201.854
   67.740   51.641    0.357  188.353
   67.990   51.261    0.364  185.577
   68.240   51.215    0.374  188.202
   68.490   51.839    0.373  194.830
   68.740   52.786    0.370  203.469
   68.990   54.091    0.371  213.468
   69.240   55.050    0.380  254.973
