~VERSION INFORMATION
 VERS.                 2.0:   CWLS LOG ASCII STANDARD -VERSION 2.0
 WRAP.                  NO:   ONE LINE PER DEPTH STEP
~WELL INFORMATION BLOCK
#MNEM.UNIT           DATA                    DESCRIPTION OF MNEMONIC
#---------    -------------------            -------------------------------
# Generated from Intellog Unique Number	CN_91_93/WELL/3023
WELL.         PETRO-CANADA                   : Well_name    - WELL
LOC .         AA/10-26-092-16W4/0            : Location     - LOCATION
UWI .         AA/10-26-092-16W400            : Uwi          - UNIQUE WELL ID
ENTR.         JOETTE                         : Entered      - ENTERED BY
SRVC.         SCHLUMBERGER                   : Scn          - SERVICE COMPANY
DATE.         04/09/92                       : Date         - LOG DATE
STRT.F        250                            : top_depth    - START DEPTH
STOP.F        710.138                        : bot_depth    - STOP DEPTH
STEP.F        0.82                           : increment    - STEP LENGTH
 NULL. -999.2500:NULL Value
~CURVE INFORMATION BLOCK
#MNEM UNIT       ERCB CURVE CODE    CURVE DESCRIPTION
#-----------   ------------------   ----------------------------------
DEPT.F        00 001 00 00         : DEPTH        - DEPTH
CALI.IN       00 280 01 00         : CAL          - CALIPER
GR  .API      00 310 00 00         : GR           - GAMMA RAY
NPHI.V/V      00 330 00 00         : PHIN         - NEUTRON POROSITY (SANDSTONE)
DPHI.V/V      00 890 00 00         : PHID         - DENSITY POROSITY (SANDSTONE)
ILD .OHMM     00 120 00 00         : RESD         - DEEP RESISTIVITY (DIL)
~PARAMETER INFORMATION
#MNEM.UNIT           DATA             DESCRIPTION OF MNEMONIC
#---------         -----------     ------------------------------
GL  .F        1562                 : gl           - GROUND LEVEL ELEVATION
EREF.F        1570                 : kb           - ELEVATION OF DEPTH REFERENCE
DATM.F        1570                 : datum        - DATUM ELEVATION
TDD .F        741                  : tdd          - TOTAL DEPTH DRILLER
RUN .         ONE                  : Run          - RUN NUMBER
ENG .         BILL                 : Engineer     - RECORDING ENGINEER
WIT .         JIM                  : Witness      - WITNESSED BY
MUD .         GEL                  : Mud_type     - MUD TYPE
MATR.         SANDSTONE            : Logunit      - NEUTRON MATRIX
TMAX.F        62                   : BHT          - MAXIMUM RECORDED TEMPERATURE
BHTD.F        741                  : BHTDEP       - MAXIMUM RECORDED TEMPERATURE
RMT .F        58                   : MDTP         - TEMPERATURE OF MUD
MUDD.LB/G     8.6                  : MWT          - MUD DENSITY
NEUT.         1                    : NEUTRON      - NEUTRON TYPE
RESI.         0                    : RESIST       - RESISTIVITY TYPE
RM  .OHMM     0.61                 : RM           - RESISTIVITY OF MUD
RMC .OHMM     0.61                 : RMC          - RESISTIVITY OF MUD CAKE
RMF .OHMM     0.61                 : RMF          - RESISTIVITY OF MUD FILTRATE
SUFT.F        39.2                 : SUFT         - SURFACE TEMPERATURE
~A  DEPTH      CAL       GR     PHIN     PHID     RESD
# ...
  369.751    6.996  125.199    0.512    0.233    3.407
  370.571    7.122  120.192    0.514    0.233    3.410
  371.391    7.288  115.210    0.521    0.235    3.415
  372.211    7.256  111.710    0.523    0.202    3.450
  373.031    7.202  114.515    0.528    0.174    3.584
  373.852    6.990  118.815    0.533    0.222    3.791
  374.672    7.136  114.119    0.531    0.251    4.046
  375.492    6.844  107.929    0.510    0.245    4.439
  376.312    6.831  103.557    0.496    0.250    5.287
  377.133    6.817  101.254    0.487    0.246    5.854
  377.953    6.765   97.455    0.478    0.245    7.299
  378.773    6.671   95.775    0.454    0.240    8.008
  379.593    6.558   97.072    0.427    0.233    8.629
  380.413    6.505   96.563    0.435    0.243    8.718
  381.234    6.573   93.076    0.443    0.243    8.808
  382.054    6.638   83.297    0.364    0.243   10.684
  382.874    6.565   73.805    0.326    0.007   16.738
  383.694    6.493   70.019    0.346    0.030   25.748
  384.514    6.639   86.304    0.362    0.074   22.896
  385.335    6.546   93.283    0.396    0.120   16.201
  386.155    6.735   99.078    0.433    0.200   12.564
  386.975    6.940  100.674    0.443    0.187   10.575
  387.795    7.026   99.293    0.446    0.186    9.490
  388.615    7.073   97.288    0.429    0.223    9.416
  389.436    7.100  103.382    0.425    0.224    9.428
  390.256    7.087  104.991    0.440    0.193    9.187
  391.076    7.054  102.987    0.439    0.186    9.284
  391.896    7.020  101.020    0.425    0.203    9.380
  392.717    6.988  101.395    0.441    0.205    9.225
  393.537    7.054   99.104    0.445    0.198    9.409
  394.357    7.141   95.006    0.440    0.172    9.858
  395.177    7.148   85.838    0.420    0.138   11.114
  395.997    6.176   78.140    0.344    0.068   15.185
  396.818    6.364   79.437    0.358    0.091   19.276
  397.638    6.470   83.139    0.379    0.241   16.681
  398.458    6.435   85.047    0.394    0.272   13.415
  399.278    6.384   88.437    0.410    0.276   11.819
  400.098    6.409   96.923    0.415    0.285    9.859
  400.919    6.497   95.555    0.418    0.257    9.096
  401.739    6.544   93.849    0.416    0.240    9.105
  402.559    6.570   92.754    0.414    0.239    9.286
  403.379    6.577   93.752    0.414    0.263    9.467
  404.199    6.563   95.349    0.415    0.248    9.743
  405.020    6.571   96.359    0.417    0.262    9.938
  405.840    6.677   95.850    0.418    0.267    9.950
  406.660    6.603   93.247    0.417    0.264    9.784
  407.480    6.451   90.982    0.418    0.269    9.531
  408.301    6.438   91.681    0.421    0.277    9.371
  409.121    6.485   93.576    0.422    0.252    9.301
  409.941    6.571   95.459    0.421    0.232    9.311
  410.761    6.640   94.975    0.424    0.236    9.495
  411.581    6.626   95.076    0.421    0.249    9.495
  412.402    6.592   97.855    0.419    0.209   10.066
  413.222    6.558  100.959    0.416    0.201   10.254
  414.042    6.546   98.968    0.416    0.186   11.045
  414.862    6.513   93.973    0.418    0.178   11.471
  415.682    6.459   92.891    0.422    0.195   11.278
  416.503    7.005  101.364    0.436    0.236   10.029
  417.323    7.332  104.792    0.439    0.223    8.758
  418.143    7.479  102.788    0.442    0.232    8.228
  418.963    7.425  101.381    0.439    0.254    8.014
  419.783    7.454  100.286    0.442    0.254    7.666
  420.604    7.639  100.400    0.453    0.279    6.880
  421.424    7.766  100.514    0.461    0.304    6.173
  422.244    7.753  100.590    0.464    0.291    5.491
  423.064    7.599   99.196    0.469    0.294    5.598
  423.885    7.566   95.397    0.472    0.256    6.791
  424.705    7.073   88.023    0.469    0.285    7.248
  425.525    7.320   81.833    0.454    0.228    7.327
  426.345    6.967   94.505    0.441    0.135    6.755
  427.165    7.114  101.808    0.466    0.161    5.143
  427.986    7.760  104.600    0.480    0.283    4.289
  428.806    7.648  107.093    0.498    0.277    2.575
  429.626    7.734  104.516    0.511    0.257    2.354
  430.446    7.800  102.238    0.534    0.260    3.556
  431.266    7.687  100.844    0.550    0.234    4.046
  432.087    7.376   98.839    0.498    0.239    4.907
  432.907    7.161  100.722    0.466    0.181    5.846
  433.727    7.029  105.919    0.449    0.172    7.157
  434.547    6.897  107.241    0.450    0.201    7.232
  435.367    6.982  107.317    0.452    0.216    7.111
  436.188    6.989  111.343    0.445    0.210    6.802
  437.008    6.936  111.718    0.441    0.183    6.626
  437.828    6.804  112.716    0.447    0.175    6.820
  438.648    6.750  110.725    0.449    0.188    7.689
  439.469    6.678  103.338    0.422    0.108   11.403
  440.289    6.624   95.079    0.397    0.144   11.954
  441.109    6.611  101.460    0.407    0.200   11.968
  441.929    6.638  102.445    0.418    0.218   11.553
  442.749    6.664  100.778    0.418    0.224   11.258
  443.570    6.711  100.854    0.407    0.237   11.271
  444.390    6.718  101.852    0.404    0.223   11.389
  445.210    6.646  102.277    0.403    0.217   11.723
  446.030    6.572  101.481    0.404    0.222   11.953
  446.850    6.519   98.879    0.404    0.230   12.193
  447.671    6.485   99.864    0.405    0.239   12.098
  448.491    6.472   97.873    0.407    0.246   11.893
  449.311    6.481   97.986    0.407    0.240   11.481
  450.131    6.467   98.997    0.408    0.253   11.185
  450.951    6.454  100.892    0.409    0.258   10.998
  451.772    6.441  100.097    0.410    0.254   11.113
  452.592    6.467   98.404    0.412    0.239   11.437
  453.412    6.555   99.987    0.414    0.228   11.987
  454.232    6.560   97.709    0.414    0.159   12.449
  455.052    6.587   95.393    0.411    0.172   12.695
  455.873    6.716   96.715    0.408    0.214   12.716
  456.693    6.642   92.904    0.403    0.210   12.845
  457.513    6.549   87.025    0.392    0.191   14.621
  458.333    6.555   82.329    0.377    0.141   21.681
  459.154    6.562   78.232    0.316    0.093   28.819
  459.974    6.548   74.459    0.272    0.029   37.952
  460.794    6.555   73.949    0.245    0.028   55.766
  461.614    6.522   74.362    0.273    0.026   72.783
  462.434    6.510   73.553    0.296    0.052   67.128
  463.255    6.516   73.667    0.322    0.070   46.224
  464.075    6.523   76.758    0.337    0.091   34.867
  464.895    6.570   79.850    0.358    0.148   31.866
  465.715    6.576   82.655    0.372    0.187   26.096
  466.535    6.585   82.756    0.384    0.227   22.994
  467.356    6.550   83.767    0.397    0.244   17.830
  468.176    6.537   86.845    0.405    0.247   16.295
  468.996    6.545   85.750    0.415    0.255   15.164
  469.816    6.552   81.964    0.422    0.260   15.184
  470.636    6.557   77.593    0.426    0.268   16.216
  471.457    6.566   75.290    0.422    0.261   19.663
  472.277    6.572   75.690    0.414    0.198   20.609
  473.097    6.578   77.598    0.391    0.137   21.600
  473.917    6.564   80.701    0.357    0.153   21.436
  474.738    6.552   83.780    0.392    0.243   19.233
  475.558    6.558   88.067    0.411    0.244   15.050
  476.378    6.585   90.274    0.413    0.227   13.634
  477.198    6.632   90.974    0.410    0.214   13.400
  478.018    6.758   91.984    0.414    0.229   13.175
  478.839    6.765   91.475    0.419    0.234   13.192
  479.659    6.634   88.898    0.420    0.224   13.210
  480.479    6.600   89.584    0.418    0.217   13.594
  481.299    6.586   92.713    0.420    0.207   16.644
  482.119    6.613   93.387    0.424    0.163   17.766
  482.940    6.619   90.797    0.375    0.051   16.234
  483.760    6.666   87.609    0.356    0.060   11.180
  484.580    6.753   96.993    0.386    0.144   10.033
  485.400    6.880  108.768    0.421    0.195    9.509
  486.220    6.988  113.068    0.439    0.208    9.263
  487.041    7.013  108.970    0.444    0.229    9.276
  487.861    7.001  105.483    0.441    0.235    9.289
  488.681    6.987  107.378    0.445    0.218    9.219
