~VERSION INFORMATION
 VERS.                 2.0:   CWLS LOG ASCII STANDARD -VERSION 2.0
 WRAP.                  NO:   ONE LINE PER DEPTH STEP
~WELL INFORMATION BLOCK
#MNEM.UNIT           DATA                    DESCRIPTION OF MNEMONIC
#---------    -------------------            -------------------------------
# Generated from Intellog Unique Number	CC_80_83/WELL/2427
NULL.         -999.25                        : NULL_VALUE
WELL.         ARCO ACI McMURRAY              : Well_name    - WELL              
LOC .         12-08-083-12W4                 : Location     - LOCATION          
UWI .         AA/12-08-083-12W400            : Uwi          - UNIQUE WELL ID    
ENTR.         DW                             : Entered      - ENTERED BY        
SRVC.         SCHLUMBERGER                   : Scn          - SERVICE COMPANY   
DATE.         06 MAR 74                      : Date         - LOG DATE
STRT.M        121.92                         : top_depth    - START DEPTH       
STOP.M        384.05                         : bot_depth    - STOP DEPTH        
STEP.M        0.305                          : increment    - STEP LENGTH       
~CURVE INFORMATION BLOCK
#MNEM UNIT       ERCB CURVE CODE    CURVE DESCRIPTION
#-----------   ------------------   ----------------------------------
DEPT.M        00 001 00 00         : DEPTH        - DEPTH                       
DPHI.V/V      00 890 00 00         : PHID         - DENSITY POROSITY (LIMESTONE)
GR  .API      00 310 00 00         : GR           - GAMMA RAY                   
NPHI.V/V      00 330 00 00         : PHIN         - NEUTRON POROSITY (LIMESTONE)
ILD .OHMM     00 120 00 00         : RESD         - DEEP RESISTIVITY (DIL)      
~PARAMETER INFORMATION       
#MNEM.UNIT           DATA             DESCRIPTION OF MNEMONIC
#---------         -----------     ------------------------------
GL  .M        611.734              : gl           - GROUND LEVEL ELEVATION      
EREF.M        613.41               : kb           - ELEVATION OF DEPTH REFERENCE
DATM.M        613.41               : datum        - DATUM ELEVATION             
TDD .M        384.658              : tdd          - TOTAL DEPTH DRILLER         
RUN .         ONE                  : Run          - RUN NUMBER                  
ENG .         BILL                 : Engineer     - RECORDING ENGINEER          
WIT .         JIM                  : Witness      - WITNESSED BY                
MUD .         GEL                  : Mud_type     - MUD TYPE                    
MATR.         LIMESTONE            : Logunit      - NEUTRON MATRIX              
TMAX.C        21.1111              : BHT          - MAXIMUM RECORDED TEMPERATURE
BHTD.M        384.658              : BHTDEP       - MAXIMUM RECORDED TEMPERATURE
MATR.         1                    : LOGUNIT      - NEUTRON MATRIX              
RMT .C        25                   : MDTP         - TEMPERATURE OF MUD          
NEUT.         0                    : NEUTRON      - NEUTRON TYPE                
RESI.         0                    : RESIST       - RESISTIVITY TYPE            
RMC .OHMM     0.25                 : RMC          - RESISTIVITY OF MUD CAKE     
RMF .OHMM     0.25                 : RMF          - RESISTIVITY OF MUD FILTRATE 
SUFT.C        4                    : SUFT         - SURFACE TEMPERATURE         
~A  DEPTH     PHID       GR     PHIN     RESD
# ...
  174.954    0.289   70.082    0.299   13.753
  175.259    0.288   60.359    0.299   13.253
  175.564    0.272   49.421    0.284   13.255
  175.869    0.338   52.248    0.299   15.962
  176.174    0.311   63.173    0.305   17.195
  176.478    0.249   73.286    0.325   17.519
  176.783    0.257   74.495    0.330   15.385
  177.088    0.274   73.273    0.313   12.779
  177.393    0.225   76.505    0.298   11.433
  177.698    0.257   83.381    0.303   10.815
  178.002    0.253   84.992    0.328    9.857
  178.307    0.247   84.582    0.324    9.499
  178.612    0.293   78.908    0.333    9.679
  178.917    0.299   71.612    0.337   10.426
  179.221    0.279   71.607    0.317   11.231
  179.526    0.284   71.600    0.286   11.877
  179.831    0.278   71.188    0.302   11.659
  180.136    0.267   74.420    0.302   11.446
  180.441    0.282   70.770    0.310   11.448
  180.745    0.292   67.119    0.319   11.663
  181.050    0.313   59.420    0.324   13.040
  181.355    0.326   61.438    0.308   14.852
  181.660    0.320   61.837    0.316   16.299
  181.965    0.335   65.474    0.326   18.222
  182.269    0.335   62.633    0.344   19.269
  182.574    0.330   63.840    0.357   20.001
  182.879    0.328   67.073    0.330   20.002
  183.184    0.311   71.924    0.308   20.004
  183.489    0.324   73.132    0.333   19.278
  183.793    0.318   77.983    0.324   18.577
  184.098    0.336   73.928    0.326   18.928
  184.403    0.342   71.493    0.347   19.647
  184.708    0.348   63.388    0.319   20.393
  185.013    0.343   64.191    0.318   20.777
  185.317    0.342   68.233    0.315   20.779
  185.622    0.351   64.988    0.332   20.400
  185.927    0.352   67.409    0.322   19.659
  186.232    0.311   70.642    0.311   18.944
  186.537    0.322   73.065    0.328   18.598
  186.841    0.328   69.010    0.330   18.259
  187.146    0.330   71.837    0.332   17.924
  187.451    0.329   74.664    0.321   17.596
  187.756    0.315   81.135    0.325   16.645
  188.061    0.270   86.796    0.311   15.745
  188.365    0.295   74.239    0.279   14.620
  188.670    0.293   62.085    0.293   13.575
  188.975    0.309   59.651    0.314   12.841
  189.280    0.316   62.883    0.328   12.374
  189.584    0.231   96.074    0.343   11.705
  189.889    0.184   95.257    0.367   10.280
  190.194    0.191  100.919    0.367    9.197
  190.499    0.181   97.268    0.363    7.499
  190.804    0.207   93.212    0.351    6.114
  191.108    0.205   89.158    0.341    5.572
  191.413    0.182   89.151    0.324    5.471
  191.718    0.192   95.216    0.306    5.574
  192.023    0.212   95.616    0.309    5.786
  192.328    0.210   96.012    0.344    6.005
  192.632    0.244  100.055    0.382    5.895
  192.937    0.266  103.692    0.401    5.373
  193.242    0.280   99.635    0.422    4.807
  193.547    0.305   94.770    0.404    3.847
  193.852    0.325   91.931    0.405    3.442
  194.156    0.360   76.540    0.403    3.507
  194.461    0.376   76.938    0.365    4.383
  194.766    0.311   77.337    0.304    5.900
  195.071    0.292   81.378    0.302   10.691
  195.376    0.288   84.205    0.306   12.874
  195.680    0.301   78.530    0.309   13.614
  195.985    0.332   75.690    0.314   13.365
  196.290    0.312   74.063    0.315   12.642
  196.595    0.292   82.154    0.319   12.182
  196.900    0.265   90.245    0.327   12.184
  197.204    0.274   99.549    0.352   11.961
  197.509    0.270   93.470    0.297    9.573
  197.814    0.296   78.079    0.273    8.407
  198.119    0.292   79.691    0.287    7.953
  198.424    0.293   84.948    0.301    8.567
  198.728    0.289   84.131    0.303    9.578
  199.033    0.292   79.267    0.306   11.750
  199.338    0.298   77.640    0.299   12.657
  199.643    0.295   80.466    0.281   12.659
  199.947    0.285   79.650    0.279   12.199
  200.252    0.274   72.357    0.310   11.539
  200.557    0.297   67.491    0.314   10.916
  200.862    0.291   63.842    0.300   11.122
  201.167    0.283   54.928    0.305   11.331
  201.471    0.285   51.278    0.322   12.207
  201.776    0.316   55.319    0.349   13.149
  202.081    0.328   56.930    0.354   14.701
  202.386    0.334   56.521    0.368   15.545
  202.691    0.337   57.728    0.350   17.060
  202.995    0.331   62.175    0.330   16.440
  203.300    0.322   68.242    0.348   13.911
  203.605    0.306   61.757    0.326   12.679
  203.910    0.312   57.701    0.330   11.773
  204.215    0.298   66.602    0.352   11.137
  204.519    0.311   76.311    0.347   10.732
  204.824    0.268   79.543    0.344   10.536
  205.129    0.261   85.609    0.364   10.153
  205.434    0.283   90.056    0.344    9.427
  205.739    0.249   98.955    0.321    8.434
  206.043    0.256   99.758    0.325    7.687
  206.348    0.256   96.918    0.333    7.007
  206.653    0.266   99.746    0.365    6.506
  206.958    0.284   93.666    0.391    6.041
  207.263    0.314   84.347    0.412    5.506
  207.567    0.332   84.341    0.424    5.208
  207.872    0.297   83.524    0.391    5.209
  208.177    0.314   81.089    0.398    5.406
  208.482    0.321   79.057    0.334    5.824
  208.787    0.286   79.860    0.328    6.511
  209.091    0.294   82.687    0.339    7.146
  209.396    0.274   88.754    0.353    7.556
  209.701    0.295   80.245    0.326    7.843
  210.006    0.309   76.189    0.328    7.991
  210.311    0.292   76.183    0.325    8.142
  210.615    0.293   81.035    0.321    8.295
  210.920    0.321   79.814    0.315    8.772
  211.225    0.308   75.759    0.314    9.104
  211.530    0.294   69.273    0.323    9.808
  211.834    0.303   59.956    0.339   10.181
  212.139    0.336   55.495    0.346   10.372
  212.444    0.345   54.679    0.352   10.766
  212.749    0.344   54.268    0.359   11.175
  213.054    0.339   48.998    0.360   12.264
  213.358    0.341   49.800    0.366   13.211
  213.663    0.354   61.130    0.359   14.231
  213.968    0.357   55.050    0.357   14.233
  214.273    0.364   51.804    0.348   14.236
  214.578    0.367   51.798    0.351   13.975
  214.882    0.370   54.220    0.342   13.977
  215.187    0.371   51.784    0.353   13.979
  215.492    0.369   50.562    0.356   13.980
  215.797    0.361   51.366    0.379   14.511
  216.102    0.359   50.144    0.378   14.785
  216.406    0.362   54.995    0.377   14.514
  216.711    0.359   60.252    0.386   13.986
  217.016    0.335   68.748    0.380   12.748
  217.321    0.274   72.385    0.375   11.196
  217.626    0.307   65.090    0.359    9.474
  217.930    0.271   63.059    0.310    6.783
  218.235    0.307   59.409    0.329    6.784
  218.540    0.336   55.759    0.353    7.307
  218.845    0.358   50.489    0.358    8.800
  219.150    0.353   46.433    0.377   10.402
  219.454    0.348   44.402    0.362   12.296
  219.759    0.347   43.991    0.350   13.245
  220.064    0.353   43.173    0.365   13.247
  220.369    0.376   41.547    0.377   13.497
  220.674    0.381   42.350    0.391   13.251
  220.978    0.384   40.321    0.377   13.008
  221.283    0.393   42.742    0.363   12.770
  221.588    0.383   44.761    0.380   12.772
  221.893    0.366   43.944    0.391   12.774
  222.197    0.375   41.103    0.388   12.775
  222.502    0.372   42.715    0.350   13.017
  222.807    0.375   39.470    0.357   13.018
  223.112    0.377   36.630    0.395   13.264
  223.417    0.373   39.455    0.406   13.514
  223.721    0.369   41.475    0.392   13.516
  224.026    0.371   41.873    0.360   13.770
  224.331    0.378   41.866    0.363   13.772
  224.636    0.383   43.479    0.382   13.774
  224.941    0.376   45.495    0.372   13.776
  225.245    0.361   38.202    0.370   13.777
  225.550    0.361   38.194    0.373   13.779
  225.855    0.357   41.426    0.369   13.781
  226.160    0.355   42.231    0.373   14.040
  226.465    0.361   39.390    0.387   14.042
  226.769    0.361   39.382    0.393   14.307
  227.074    0.359   40.996    0.389   14.046
  227.379    0.364   40.584    0.374   14.047
  227.684    0.365   41.386    0.364   14.050
