~VERSION INFORMATION
 VERS.                 2.0:   CWLS LOG ASCII STANDARD -VERSION 2.0
 WRAP.                  NO:   ONE LINE PER DEPTH STEP
~WELL INFORMATION BLOCK
#MNEM.UNIT           DATA                    DESCRIPTION OF MNEMONIC
#---------    -------------------            -------------------------------
# Generated from Intellog Unique Number	CS_77_79/WELL/3300
WELL.         10-11-078-08W4                 : Well_name    - WELL
LOC .         AA/10-11-078-08W4/0            : Location     - LOCATION
UWI .         AA/10-11-078-08W4/0            : Uwi          - UNIQUE WELL ID
ENTR.         JOETTE                         : Entered      - ENTERED BY
SRVC.         WESTERN ATLAS                  : Scn          - SERVICE COMPANY
DATE.         08/26/92                       : Date         - LOG DATE
STRT.M        140                            : top_depth    - START DEPTH
STOP.M        370                            : bot_depth    - STOP DEPTH
STEP.M        0.25                           : increment    - STEP LENGTH
 NULL. -999.2500:NULL Value
~CURVE INFORMATION BLOCK
#MNEM UNIT       ERCB CURVE CODE    CURVE DESCRIPTION
#-----------   ------------------   ----------------------------------
DEPT.M        00 001 00 00         : DEPTH        - DEPTH
GR  .API      00 310 00 00         : GR           - GAMMA RAY
NPHI.V/V      00 330 00 00         : PHIN         - NEUTRON POROSITY (SANDSTONE)
DPHI.V/V      00 890 00 00         : PHID         - DENSITY POROSITY (SANDSTONE)
ILD .OHMM     00 120 00 00         : RESD         - DEEP RESISTIVITY (DIL)
~PARAMETER INFORMATION
#MNEM.UNIT           DATA             DESCRIPTION OF MNEMONIC
#---------         -----------     ------------------------------
GL  .M        563.4                : gl           - GROUND LEVEL ELEVATION
EREF.M        566.9                : kb           - ELEVATION OF DEPTH REFERENCE
DATM.M        566.9                : datum        - DATUM ELEVATION
TDD .M        378                  : tdd          - TOTAL DEPTH DRILLER
RUN .         ONE                  : Run          - RUN NUMBER
ENG .         BILL                 : Engineer     - RECORDING ENGINEER
WIT .         JIM                  : Witness      - WITNESSED BY
MUD .         GEL                  : Mud_type     - MUD TYPE
MATR.         SANDSTONE            : Logunit      - NEUTRON MATRIX
TMAX.C        16                   : BHT          - MAXIMUM RECORDED TEMPERATURE
BHTD.M        378                  : BHTDEP       - MAXIMUM RECORDED TEMPERATURE
MATR.         1                    : LOGUNIT      - NEUTRON MATRIX
RMT .C        15                   : MDTP         - TEMPERATURE OF MUD
NEUT.         1                    : NEUTRON      - NEUTRON TYPE
RESI.         0                    : RESIST       - RESISTIVITY TYPE
RMC .OHMM     3.8                  : RMC          - RESISTIVITY OF MUD CAKE
RMF .OHMM     3.8                  : RMF          - RESISTIVITY OF MUD FILTRATE
SUFT.C        15                   : SUFT         - SURFACE TEMPERATURE
~A  DEPTH       GR     PHIN     PHID     RESD
  140.000   85.688    0.411    0.216    3.025
  140.250   89.822    0.411    0.218    3.026
  140.500   91.028    0.428    0.222    3.026
  140.750   88.119    0.425    0.218    3.027
  141.000   88.145    0.435    0.215    3.028
  141.250   92.865    0.409    0.220    3.084
  141.500   94.072    0.417    0.226    3.200
  141.750   92.917    0.450    0.225    3.319
  142.000   89.422    0.449    0.216    3.381
  142.250   85.927    0.419    0.210    3.507
  142.500   80.085    0.411    0.210    3.508
  142.750   78.350    0.403    0.240    3.322
  143.000   79.550    0.429    0.264    3.204
  143.250   83.690    0.434    0.272    3.147
  143.500   85.483    0.431    0.253    3.090
  143.750   84.335    0.413    0.209    3.148
  144.000   82.007    0.383    0.197    3.326
  144.250   93.769    0.396    0.220    3.450
  144.500   90.274    0.409    0.224    3.780
  144.750   65.654    0.412    0.221    3.994
  145.000   50.416    0.382    0.221    4.297
  145.250   86.244    0.383    0.219    4.708
  145.500   86.857    0.404    0.216    5.065
  145.750   89.830    0.378    0.226    5.351
  146.000   81.040    0.370    0.257    5.971
  146.250   89.288    0.379    0.255    6.542
  146.500   87.560    0.397    0.244    7.434
  146.750   87.579    0.404    0.232    8.145
  147.000   77.049    0.412    0.256    8.924
  147.250   75.895    0.417    0.292   11.109
  147.500   63.011    0.428    0.386   12.856
  147.750   67.731    0.413    0.295   12.175
  148.000   55.434    0.365    0.291   11.321
  148.250   74.238    0.341    0.292   10.337
  148.500   84.246    0.345    0.290    9.789
  148.750   89.553    0.342    0.281   10.726
  149.000   93.100    0.348    0.259   11.540
  149.250   94.306    0.356    0.240   11.971
  149.500   91.391    0.357    0.236   12.879
  149.750   79.094    0.352    0.233   13.361
  150.000   70.318    0.344    0.236   13.860
  150.250   65.062    0.340    0.242   14.377
  150.500   63.914    0.346    0.253   14.646
  150.750   75.090    0.350    0.258   14.648
  151.000   73.362    0.346    0.260   14.923
  151.250   68.100    0.351    0.270   14.926
  151.500   65.198    0.356    0.284   14.928
  151.750   59.936    0.360    0.289   14.931
  152.000   71.118    0.354    0.290   14.401
  152.250   76.425    0.342    0.296   13.889
  152.500   77.044    0.334    0.303   13.639
  152.750   71.195    0.355    0.272   12.917
  153.000   74.742    0.368    0.271   12.921
  153.250   73.594    0.372    0.272   13.160
  153.500   72.447    0.363    0.273   13.902
  153.750   63.670    0.353    0.278   14.688
  154.000   52.547    0.354    0.286   14.691
  154.250   53.746    0.360    0.293   13.912
  154.500   56.712    0.367    0.260   12.475
  154.750   60.846    0.341    0.246   12.030
  155.000   73.782    0.335    0.247   11.602
  155.250   74.994    0.335    0.269   11.819
  155.500   73.247    0.344    0.285   12.259
  155.750   67.404    0.352    0.296   13.434
  156.000   60.975    0.362    0.295   13.682
  156.250   58.654    0.359    0.293   14.722
  156.500   58.686    0.350    0.289   14.724
  156.750   62.820    0.354    0.282   14.728
  157.000   72.235    0.369    0.271   14.464
  157.250   74.608    0.360    0.280   13.950
  157.500   74.634    0.348    0.290   13.453
  157.750   78.180    0.346    0.285   12.975
  158.000   84.661    0.332    0.263   12.977
  158.250   88.808    0.337    0.261   13.462
  158.500   88.834    0.354    0.261   14.484
  158.750   83.572    0.352    0.260   15.300
  159.000   67.754    0.329    0.253   17.074
  159.250   51.929    0.303    0.252   18.707
  159.500   27.309    0.292    0.258   20.127
  159.750   13.844    0.275    0.271   20.880
  160.000   15.044    0.284    0.279   19.065
  160.250   17.997    0.310    0.291   17.727
  160.500   25.065    0.324    0.298   15.607
  160.750   54.438    0.323    0.253   13.993
  161.000   66.787    0.327    0.245   13.012
  161.250   67.986    0.332    0.253   12.100
  161.500   50.408    0.352    0.277   12.102
  161.750   53.955    0.360    0.281   11.886
  162.000   65.730    0.372    0.283   11.257
  162.250   68.683    0.378    0.256   10.468
  162.500   81.032    0.370    0.250    9.557
  162.750   86.926    0.376    0.240    8.414
  163.000   87.552    0.380    0.220    7.407
  163.250   84.644    0.370    0.208    6.521
  163.500   83.489    0.366    0.207    5.536
  163.750   91.144    0.394    0.197    4.874
  164.000  105.853    0.414    0.181    4.137
  164.250  105.872    0.420    0.196    3.642
  164.500  105.311    0.413    0.171    3.326
  164.750   97.702    0.401    0.160    3.266
  165.000  108.304    0.408    0.171    3.327
  165.250  105.389    0.419    0.169    3.713
  165.500  108.349    0.415    0.180    4.143
  165.750   77.267    0.364    0.206    5.348
  166.000   52.647    0.350    0.254    8.752
  166.250   43.870    0.338    0.272   10.697
  166.500   43.309    0.324    0.274   15.406
  166.750   41.575    0.314    0.279   18.492
  167.000   35.733    0.305    0.281   20.262
  167.250   29.897    0.292    0.282   21.405
  167.500   32.850    0.295    0.283   21.804
  167.750   35.823    0.306    0.283   21.416
  168.000   34.682    0.315    0.281   20.652
  168.250   34.108    0.313    0.276   18.858
  168.500   33.547    0.307    0.271   17.535
  168.750   35.920    0.310    0.251   15.437
  169.000   35.359    0.312    0.246   13.841
  169.250   62.385    0.306    0.239   13.108
  169.500   68.285    0.304    0.240   12.875
  169.750   50.114    0.309    0.266   13.851
  170.000   44.858    0.321    0.283   15.176
  170.250   39.016    0.317    0.292   17.886
  170.500   34.934    0.307    0.290   20.326
  170.750   32.619    0.312    0.291   21.084
  171.000   32.051    0.323    0.297   21.090
  171.250   30.910    0.327    0.294   21.094
  171.500   30.343    0.325    0.294   19.615
  171.750   30.962    0.327    0.295   17.585
  172.000   32.161    0.325    0.299    8.960
  172.250   34.528    0.326    0.300    5.893
  172.500   45.710    0.370    0.268    5.188
  172.750   73.903    0.408    0.235    4.824
  173.000  104.450    0.396    0.208    4.247
  173.250  106.829    0.372    0.194    4.171
  173.500  104.501    0.372    0.177    4.327
  173.750   99.252    0.397    0.162    4.489
  174.000   98.105    0.400    0.106    4.918
  174.250  101.058    0.399    0.143    5.196
  174.500  105.785    0.393    0.191    5.693
  174.750  107.571    0.393    0.210    6.469
  175.000  105.256    0.367    0.229    8.352
  175.250  101.755    0.355    0.245    9.844
  175.500   93.565    0.364    0.259   10.591
  175.750   95.938    0.356    0.264   11.189
  176.000   88.336    0.352    0.264   10.595
  176.250   90.709    0.360    0.223    8.994
  176.500   96.022    0.367    0.223    8.363
  176.750   92.521    0.363    0.233    8.519
  177.000   89.032    0.365    0.231    9.507
  177.250   91.399    0.379    0.224    9.861
  177.500   84.970    0.334    0.224   10.805
  177.750   77.954    0.331    0.230   11.415
  178.000   70.351    0.325    0.242   12.059
  178.250   62.761    0.325    0.262   12.509
  178.500   64.535    0.329    0.272   12.514
  178.750   62.807    0.326    0.281   11.849
  179.000   56.977    0.330    0.289   10.623
  179.250   68.153    0.340    0.282   10.246
  179.500   71.100    0.332    0.258   10.437
  179.750   75.233    0.324    0.233   11.026
  180.000   68.217    0.318    0.225   11.649
  180.250   68.250    0.314    0.223   11.866
  180.500   68.269    0.314    0.228   12.086
  180.750   65.948    0.319    0.233   12.089
  181.000   64.213    0.330    0.235   11.873
  181.250   68.940    0.331    0.233   11.450
  181.500   77.181    0.328    0.227   10.266
  181.750   80.141    0.317    0.218    9.204
  182.000   76.059    0.321    0.222    8.253
  182.250   74.325    0.340    0.217    7.399
  182.500   79.632    0.330    0.205    6.514
  182.750   76.137    0.339    0.209    5.841
  183.000   85.558    0.385    0.205    5.531
  183.250   93.219    0.398    0.187    5.334
