~VERSION INFORMATION
 VERS.                 2.0:   CWLS LOG ASCII STANDARD -VERSION 2.0
 WRAP.                  NO:   ONE LINE PER DEPTH STEP
~WELL INFORMATION BLOCK
#MNEM.UNIT           DATA                    DESCRIPTION OF MNEMONIC
#---------    -------------------            -------------------------------
# Generated from Intellog Unique Number	CN_94_101/WELL/3636
WELL.         10-27-096-13W4                 : Well_name    - WELL
LOC .         AA/10-27-096-13W4/0            : Location     - LOCATION
UWI .         AA/10-27-096-13W400            : Uwi          - UNIQUE WELL ID
ENTR.         J                              : Entered      - ENTERED BY
SRVC.         SCHLUMBERGER                   : Scn          - SERVICE COMPANY
DATE.         08/05/92                       : Date         - LOG DATE
STRT.F        100                            : top_depth    - START DEPTH
STOP.F        799.639                        : bot_depth    - STOP DEPTH
STEP.F        0.82                           : increment    - STEP LENGTH
 NULL. -999.2500:NULL Value
~CURVE INFORMATION BLOCK
#MNEM UNIT       ERCB CURVE CODE    CURVE DESCRIPTION
#-----------   ------------------   ----------------------------------
DEPT.F        00 001 00 00         : DEPTH        - DEPTH
ILD .OHMM     00 120 00 00         : RESD         - DEEP RESISTIVITY (DIL)
GR  .API      00 310 00 00         : GR           - GAMMA RAY
NPHI.V/V      00 330 00 00         : PHIN         - NEUTRON POROSITY (SANDSTONE)
~PARAMETER INFORMATION
#MNEM.UNIT           DATA             DESCRIPTION OF MNEMONIC
#---------         -----------     ------------------------------
GL  .M        430.012              : gl           - GROUND LEVEL ELEVATION
EREF.M        431.536              : kb           - ELEVATION OF DEPTH REFERENCE
DATM.M        431.536              : datum        - DATUM ELEVATION
TDD .M        248.107              : tdd          - TOTAL DEPTH DRILLER
RUN .         ONE                  : Run          - RUN NUMBER
ENG .         BILL                 : Engineer     - RECORDING ENGINEER
WIT .         JIM                  : Witness      - WITNESSED BY
MUD .         GEL                  : Mud_type     - MUD TYPE
MATR.         SANDSTONE            : Logunit      - NEUTRON MATRIX
TMAX.F        40                   : BHT          - MAXIMUM RECORDED TEMPERATURE
BHTD.F        814                  : BHTDEP       - MAXIMUM RECORDED TEMPERATURE
RMT .F        40                   : MDTP         - TEMPERATURE OF MUD
MUDD.LB/G     11.2                 : MWT          - MUD DENSITY
NEUT.         1                    : NEUTRON      - NEUTRON TYPE
RESI.         0                    : RESIST       - RESISTIVITY TYPE
RM  .OHMM     7.7                  : RM           - RESISTIVITY OF MUD
RMC .OHMM     7.7                  : RMC          - RESISTIVITY OF MUD CAKE
RMF .OHMM     7.7                  : RMF          - RESISTIVITY OF MUD FILTRATE
SUFT.F        39.2                 : SUFT         - SURFACE TEMPERATURE
~A  DEPTH     RESD       GR     PHIN
# ...
  455.971   13.739   73.301    0.358
  456.791    7.923   75.780    0.378
  457.612    7.110   79.073    0.407
  458.432    6.739   85.228    0.435
  459.252    6.385   90.161    0.450
  460.072    5.730   91.009    0.464
  460.892    5.232   89.013    0.478
  461.713    4.360   87.416    0.490
  462.533    4.367   85.403    0.503
  463.353    5.562   84.213    0.507
  464.173    8.053   86.700    0.517
  464.993    8.844   88.771    0.510
  465.814    9.709   89.212    0.505
  466.634   10.865   87.208    0.464
  467.454   11.710   85.203    0.432
  468.274    9.234   86.051    0.411
  469.094    8.286   83.232    0.408
  469.915    9.099   81.227    0.439
  470.735   10.179   84.928    0.467
  471.555   10.578   89.861    0.434
  472.375   10.407   93.154    0.401
  473.196    9.508   90.335    0.383
  474.016    9.524   86.700    0.367
  474.836   13.286   85.510    0.317
  475.656   11.277   76.993    0.273
  476.476    9.229   79.056    0.313
  477.297   10.516   83.165    0.386
  478.117   11.338   87.689    0.405
  478.937   11.357   89.769    0.410
  479.757   10.376   88.571    0.416
  480.577    9.141   87.789    0.406
  481.398    8.989   89.453    0.399
  482.218   10.242   91.124    0.425
  483.038   11.253   93.195    0.433
  483.858   10.276   94.859    0.441
  484.678    9.392   94.077    0.433
  485.499    8.581   90.850    0.437
  486.319    7.843   87.215    0.452
  487.139    7.572   87.248    0.460
  487.959    8.164   90.151    0.454
  488.780    8.799   90.176    0.460
  489.600    9.144   87.772    0.462
  490.420    7.912   89.028    0.468
  491.240    8.372   91.091    0.463
  492.060   10.271   91.540    0.450
  492.881    8.876   87.497    0.445
  493.701    6.268   83.463    0.415
  494.521    5.223   81.459    0.421
  495.341    5.329   83.929    0.447
  496.161    7.301   85.193    0.477
  496.982    8.791   83.180    0.453
  497.802    4.800   81.583    0.446
  498.622    5.175   79.579    0.428
  499.442    5.577   79.612    0.424
  500.262    5.589   82.515    0.463
  501.083    5.498   81.317    0.481
  501.903    5.714   80.552    0.484
  502.723    6.046   80.976    0.490
  503.543    7.017   82.639    0.458
  504.364    9.267   82.282    0.446
  505.184   10.759   82.722    0.437
  506.004    5.065   84.386    0.423
  506.824    2.520   86.457    0.437
  507.644    2.303   88.112    0.437
  508.465    2.484   82.855    0.451
  509.285    2.630   77.582    0.487
  510.105    2.733   70.687    0.526
  510.925    3.000   67.867    0.531
  511.745    3.890   69.123    0.543
  512.566    7.562   69.156    0.557
  513.386    9.982   70.828    0.424
  514.206   12.707   62.294    0.397
  515.026   11.614   53.769    0.362
  515.846   12.289   46.058    0.366
  516.667   14.533   46.508    0.374
  517.487    3.795   48.570    0.385
  518.307    3.872   51.872    0.378
  519.127    4.498   53.136    0.387
  519.948    4.589   55.199    0.419
  520.768    4.429   58.085    0.468
  521.588    4.775   71.984    0.477
  522.408    5.246   72.832    0.457
  523.228    5.357   74.920    0.462
  524.049    5.878   76.991    0.461
  524.869    6.825   79.461    0.461
  525.689    7.921   82.763    0.461
  526.509    9.028   83.204    0.458
  527.329    5.920   82.023    0.465
  528.150    5.616   75.934    0.463
  528.970    5.626   67.400    0.407
  529.790    5.740   69.072    0.401
  530.610    5.856   72.366    0.470
  531.430    5.548   76.882    0.458
  532.251    4.711   78.970    0.459
  533.071    4.896   77.365    0.477
  533.891    5.277   75.768    0.472
  534.711    6.356   76.616    0.445
  535.531    7.653   78.279    0.442
  536.352   10.295   80.350    0.439
  537.172   11.521   82.022    0.428
  537.992   10.329   83.686    0.390
  538.812   10.735   76.383    0.363
  539.633   12.936   62.143    0.324
  540.453   14.201   44.643    0.293
  541.273   17.423   35.303    0.302
  542.093   15.349   36.966    0.336
  542.913   16.850   38.230    0.361
  543.734   18.856   35.011    0.373
  544.554   14.863   32.591    0.380
  545.374    7.963   31.002    0.388
  546.194    7.834   33.073    0.385
  547.014    8.600   35.951    0.382
  547.835    9.803   41.291    0.384
  548.655    8.960   45.400    0.391
  549.475    8.807   49.101    0.380
  550.295    6.452   52.819    0.372
  551.115    7.913   52.844    0.386
  551.936   10.842   54.507    0.385
  552.756   11.062   54.948    0.398
  553.576    8.885   57.842    0.401
  554.396    8.741   57.476    0.396
  555.217   14.930   55.879    0.394
  556.037   42.712   55.089    0.367
  556.857   47.798   58.383    0.355
  557.677   78.693   55.156    0.312
  558.497   93.062   47.853    0.275
  559.318   45.458   45.033    0.261
  560.138   28.218   44.659    0.289
  560.958   57.962   45.507    0.299
  561.778   93.725   49.624    0.292
  562.598  104.842   52.918    0.269
  563.419  133.402   54.997    0.259
  564.239   46.788   52.577    0.247
  565.059   38.988   50.572    0.233
  565.879   34.333   45.715    0.236
  566.699   47.042   47.794    0.246
  567.520   47.996   50.689    0.260
  568.340   20.994   53.159    0.287
  569.160   17.494   55.638    0.301
  569.980   21.464   59.355    0.357
  570.801   25.844   58.158    0.365
  571.621   26.368   59.821    0.345
  572.441   21.982   63.930    0.334
  573.261   23.700   70.085    0.333
  574.081   27.505   73.794    0.334
  574.902   37.000   77.912    0.335
  575.722   23.385   76.306    0.334
  576.542   23.424   68.180    0.341
  577.362   26.224   49.058    0.353
  578.182   27.759   47.469    0.355
  579.003   29.929   49.124    0.350
  579.823   26.834   52.826    0.348
  580.643   28.944   62.657    0.337
  581.463   38.210   65.127    0.331
  582.283   53.327   68.837    0.331
  583.104   65.429   73.353    0.336
  583.924   54.499   77.054    0.345
  584.744   47.117   80.356    0.335
  585.564   40.751   82.835    0.335
  586.385   43.154   86.944    0.350
  587.205   46.529   67.822    0.365
  588.025   36.674   57.658    0.368
  588.845   30.560   50.762    0.350
  589.665   28.967   43.460    0.345
  590.486   32.403   41.463    0.350
  591.306   45.223   43.127    0.352
  592.126   71.792   41.530    0.348
  592.946   83.319   41.147    0.353
  593.766   81.936   49.340    0.346
  594.587   85.186   53.449    0.338
  595.407   37.260   50.629    0.344
  596.227   34.674   44.956    0.361
  597.047   37.385   33.578    0.366
  597.867   29.479   28.729    0.352
  598.688   29.529   30.808    0.353
  599.508   74.263   32.455    0.357
  600.328  111.609   45.131    0.362
  601.148  101.925   48.840    0.363
  601.969   60.984   46.420    0.365
  602.789   85.111   40.340    0.362
  603.609   85.253   33.445    0.349
  604.429   72.361   30.625    0.343
  605.249   59.173   27.805    0.351
  606.070   57.154   27.448    0.360
  606.890   95.844   27.880    0.365
  607.710   82.861   28.728    0.370
  608.530   70.330   28.762    0.382
  609.350   94.608   29.610    0.364
  610.171  155.823   30.051    0.354
  610.991  150.443   29.269    0.353
  611.811  139.999   27.264    0.346
  612.631  142.838   28.113    0.349
  613.451  151.261   23.255    0.356
  614.272   66.162   24.519    0.356
  615.092   51.220   25.376    0.362
  615.912   65.172   25.817    0.371
  616.732  129.031   26.665    0.361
  617.552  269.961   29.543    0.351
  618.373  233.392   32.030    0.407
  619.193   91.413   29.210    0.403
  620.013   72.083   23.538    0.376
  620.833   76.334   23.987    0.367
  621.654   85.388   25.650    0.353
  622.474   88.737   27.314    0.334
  623.294   56.107   28.570    0.328
  624.114   42.644   29.019    0.356
  624.934   47.702   29.867    0.381
  625.755   59.590   31.123    0.405
  626.575  136.748   31.555    0.385
  627.395   44.539   30.773    0.391
  628.215   24.768   31.223    0.401
  629.035   27.189   33.302    0.407
  629.856   33.979   33.335    0.397
  630.676   40.913   34.999    0.406
  631.496   33.471   37.061    0.422
  632.316  185.804   37.918    0.409
  633.136  232.302   37.136    0.389
