~VERSION INFORMATION
 VERS.                 2.0:   CWLS LOG ASCII STANDARD -VERSION 2.0
 WRAP.                  NO:   ONE LINE PER DEPTH STEP
~WELL INFORMATION BLOCK
#MNEM.UNIT           DATA                    DESCRIPTION OF MNEMONIC
#---------    -------------------            -------------------------------
# Generated from Intellog Unique Number	CN_94_101/WELL/4474
WELL.         11-27-096-14W4                 : Well_name    - WELL
LOC .         AA/11-27-096-14W4/0            : Location     - LOCATION
UWI .         AA/11-27-096-14W400            : Uwi          - UNIQUE WELL ID
ENTR.         JOETTE                         : Entered      - ENTERED BY
SRVC.         SCHLUMBERGER                   : Scn          - SERVICE COMPANY
DATE.         07/08/92                       : Date         - LOG DATE
STRT.M        75                             : top_depth    - START DEPTH
STOP.M        350                            : bot_depth    - STOP DEPTH
STEP.M        0.25                           : increment    - STEP LENGTH
 NULL. -999.2500:NULL Value
~CURVE INFORMATION BLOCK
#MNEM UNIT       ERCB CURVE CODE    CURVE DESCRIPTION
#-----------   ------------------   ----------------------------------
DEPT.M        00 001 00 00         : DEPTH        - DEPTH
GR  .API      00 310 00 00         : GR           - GAMMA RAY
ILD .OHMM     00 120 00 00         : RESD         - DEEP RESISTIVITY (DIL)
NPHI.V/V      00 330 00 00         : PHIN         - NEUTRON POROSITY (SANDSTONE)
DPHI.V/V      00 890 00 00         : PHID         - DENSITY POROSITY (SANDSTONE)
~PARAMETER INFORMATION
#MNEM.UNIT           DATA             DESCRIPTION OF MNEMONIC
#---------         -----------     ------------------------------
GL  .M        598                  : gl           - GROUND LEVEL ELEVATION
EREF.M        601                  : kb           - ELEVATION OF DEPTH REFERENCE
DATM.M        601                  : datum        - DATUM ELEVATION
TDD .M        354                  : tdd          - TOTAL DEPTH DRILLER
RUN .         ONE                  : Run          - RUN NUMBER
ENG .         BILL                 : Engineer     - RECORDING ENGINEER
WIT .         JIM                  : Witness      - WITNESSED BY
MUD .         GEL                  : Mud_type     - MUD TYPE
MATR.         SANDSTONE            : Logunit      - NEUTRON MATRIX
TMAX.C        25                   : BHT          - MAXIMUM RECORDED TEMPERATURE
BHTD.M        354                  : BHTDEP       - MAXIMUM RECORDED TEMPERATURE
RMT .C        14                   : MDTP         - TEMPERATURE OF MUD
MUDD.KG/M     1155                 : MWT          - MUD DENSITY
NEUT.         1                    : NEUTRON      - NEUTRON TYPE
RESI.         0                    : RESIST       - RESISTIVITY TYPE
RM  .OHMM     0.2                  : RM           - RESISTIVITY OF MUD
RMC .OHMM     0.2                  : RMC          - RESISTIVITY OF MUD CAKE
RMF .OHMM     0.2                  : RMF          - RESISTIVITY OF MUD FILTRATE
SUFT.C        4                    : SUFT         - SURFACE TEMPERATURE
~A  DEPTH       GR     RESD     PHIN     PHID
# ...
  118.500   46.134   32.627    0.373    0.376
  118.750   45.514   32.611    0.371    0.376
  119.000   44.898   32.602    0.371    0.376
  119.250   44.280   32.589    0.362    0.377
  119.500   44.276   32.576    0.354    0.372
  119.750   43.044   33.178    0.351    0.376
  120.000   43.040   33.794    0.351    0.378
  120.250   42.422   35.068    0.347    0.376
  120.500   42.419   35.709    0.340    0.375
  120.750   43.030   35.695    0.335    0.372
  121.000   43.641   35.685    0.333    0.370
  121.250   43.637   35.014    0.335    0.370
  121.500   43.636   35.003    0.341    0.370
  121.750   43.632   34.342    0.354    0.370
  122.000   43.629   33.690    0.351    0.367
  122.250   44.240   33.056    0.339    0.369
  122.500   44.851   33.043    0.335    0.369
  122.750   46.077   33.030    0.357    0.362
  123.000   47.303   32.403    0.374    0.359
  123.250   47.914   32.387    0.377    0.361
  123.500   48.525   32.378    0.381    0.369
  123.750   48.522   32.368    0.377    0.377
  124.000   49.133   31.754    0.372    0.380
  124.250   49.744   31.157    0.370    0.374
  124.500   49.741   30.565    0.371    0.367
  124.750   49.737   30.553    0.372    0.370
  125.000   50.350   27.816    0.370    0.374
  125.250   50.961   25.805    0.366    0.381
  125.500   51.572   23.058    0.367    0.384
  125.750   52.184   22.622    0.365    0.382
  126.000   54.024   23.470    0.358    0.379
  126.250   54.636   24.357    0.359    0.376
  126.500   56.476   24.809    0.361    0.375
  126.750   58.317   25.745    0.365    0.371
  127.000   62.616   24.790    0.369    0.366
  127.250   68.759   22.572    0.365    0.351
  127.500   76.746   17.695    0.360    0.325
  127.750   85.963   13.616    0.376    0.279
  128.000   93.335    9.192    0.406    0.225
  128.250   97.020    6.813    0.435    0.175
  128.500   99.475    6.088    0.447    0.176
  128.750  101.316    5.541    0.454    0.194
  129.000  104.386    5.438    0.457    0.224
  129.250  105.611    5.236    0.452    0.248
  129.500  106.222    5.136    0.446    0.257
  129.750  106.220    5.040    0.440    0.261
  130.000  106.831    5.038    0.438    0.262
  130.250  108.057    4.942    0.440    0.265
  130.500  109.283    4.849    0.440    0.268
  130.750  110.508    4.848    0.441    0.270
  131.000  110.505    4.846    0.441    0.266
  131.250  109.887    4.753    0.445    0.258
  131.500  109.269    4.752    0.451    0.244
  131.750  108.651    4.751    0.463    0.240
  132.000  108.648    4.749    0.474    0.244
  132.250  108.029    4.837    0.468    0.250
  132.500  108.026    4.835    0.466    0.252
  132.750  108.639    4.924    0.466    0.254
  133.000  109.865    4.921    0.462    0.256
  133.250  111.091    5.013    0.456    0.259
  133.500  111.088    5.011    0.445    0.261
  133.750  111.697    4.916    0.440    0.261
  134.000  111.695    4.823    0.446    0.256
  134.250  111.692    4.732    0.458    0.249
  134.500  110.459    4.472    0.486    0.245
  134.750  107.382    4.388    0.455    0.247
  135.000  106.765    4.225    0.443    0.249
  135.250  104.917    3.918    0.451    0.251
  135.500  103.070    3.845    0.458    0.252
  135.750  100.608    3.772    0.465    0.255
  136.000   99.375    3.772    0.460    0.259
  136.250   99.987    3.700    0.462    0.261
  136.500  101.825    3.699    0.472    0.262
  136.750  101.824    3.697    0.480    0.262
  137.000  102.435    3.696    0.487    0.266
  137.250  102.433    3.764    0.492    0.267
  137.500  101.200    3.763    0.458    0.270
  137.750   99.967    3.832    0.445    0.274
  138.000   99.349    3.903    0.447    0.276
  138.250   98.731    3.901    0.449    0.280
  138.500   98.113    3.973    0.452    0.282
  138.750   97.495    3.972    0.456    0.285
  139.000   97.490    3.970    0.455    0.286
  139.250   97.488    4.044    0.447    0.286
  139.500   98.713    4.043    0.441    0.290
  139.750   99.940    4.041    0.442    0.294
  140.000  101.166    4.039    0.449    0.295
  140.250  101.776    4.038    0.456    0.300
  140.500  101.159    3.961    0.455    0.303
  140.750  100.541    3.887    0.454    0.301
  141.000   98.694    3.814    0.455    0.296
  141.250   96.847    3.812    0.462    0.277
  141.500   94.385    3.811    0.460    0.192
  141.750   91.923    3.881    0.433    0.163
  142.000   90.075    3.952    0.414    0.173
  142.250   91.301    4.026    0.402    0.208
  142.500   94.371    4.177    0.428    0.259
  142.750   97.441    4.334    0.431    0.280
  143.000   99.281    4.582    0.457    0.275
  143.250   98.664    4.755    0.467    0.209
  143.500   96.202    4.843    0.483    0.173
  143.750   94.969    5.026    0.481    0.136
  144.000   94.965    5.120    0.452    0.135
  144.250   95.576    5.214    0.438    0.170
  144.500   96.189    5.311    0.440    0.234
  144.750   96.800    5.308    0.440    0.263
  145.000   97.411    5.306    0.434    0.278
  145.250   97.408    5.304    0.426    0.291
  145.500   98.634    5.302    0.419    0.290
  145.750  100.474    5.399    0.422    0.286
  146.000  101.700    5.499    0.430    0.283
  146.250  101.697    5.602    0.443    0.281
  146.500   98.620    5.599    0.453    0.285
  146.750   98.003    5.392    0.450    0.286
  147.000   95.540    5.001    0.441    0.294
  147.250   94.308    4.639    0.454    0.299
  147.500   93.076    4.223    0.469    0.299
  147.750   93.072    3.992    0.484    0.301
  148.000   93.684    3.634    0.485    0.309
  148.250   91.835    3.371    0.485    0.316
  148.500   89.989    3.307    0.485    0.325
  148.750   87.527    3.245    0.477    0.332
  149.000   84.449    3.305    0.373    0.331
  149.250   82.603    4.058    0.337    0.248
  149.500   79.526    5.370    0.320    0.203
  149.750   75.835    7.239    0.304    0.221
  150.000   72.145    8.095    0.316    0.269
  150.250   72.141    8.720    0.310    0.310
  150.500   72.138    9.219    0.268    0.383
  150.750   69.060    9.215    0.241    0.389
  151.000   66.599    8.873    0.212    0.387
  151.250   62.908    9.382    0.202    0.389
  151.500   61.674   14.967    0.205    0.406
  151.750   61.670   20.555    0.220    0.411
  152.000   61.669   18.369    0.252    0.399
  152.250   61.665   15.812    0.273    0.388
  152.500   61.661   13.866    0.285    0.376
  152.750   61.658   12.862    0.301    0.366
  153.000   62.268   12.619    0.318    0.337
  153.250   62.881   12.853    0.341    0.330
  153.500   62.877   13.337    0.361    0.335
  153.750   62.872   13.330    0.356    0.334
  154.000   62.871   13.327    0.352    0.331
  154.250   62.867   13.074    0.359    0.333
  154.500   63.479   12.828    0.361    0.325
  154.750   64.090   12.584    0.364    0.329
  155.000   64.700   12.347    0.339    0.326
  155.250   64.699   12.113    0.329    0.316
  155.500   64.081   12.110    0.319    0.302
  155.750   63.462   11.660    0.293    0.287
  156.000   61.614   11.657    0.283    0.217
  156.250   59.153   11.873    0.288    0.246
  156.500   59.763   13.781    0.343    0.287
  156.750   60.376   14.847    0.355    0.325
  157.000   61.601   18.924    0.359    0.350
  157.250   60.369   21.965    0.361    0.352
  157.500   58.522   20.375    0.367    0.354
  157.750   55.444   18.901    0.369    0.356
  158.000   54.212   18.201    0.370    0.359
  158.250   52.979   18.537    0.369    0.360
  158.500   53.592   18.880    0.362    0.362
  158.750   51.744   18.870    0.360    0.361
  159.000   54.813   17.833    0.362    0.356
  159.250   58.498   17.501    0.367    0.340
  159.500   60.954   17.822    0.370    0.327
  159.750   59.721   18.153    0.361    0.330
  160.000   56.645   19.191    0.356    0.336
  160.250   53.567   19.914    0.351    0.341
  160.500   52.335   20.665    0.348    0.344
  160.750   49.872   21.442    0.346    0.340
  161.000   48.640   21.842    0.345    0.338
  161.250   48.023   21.834    0.345    0.332
  161.500   47.404   21.825    0.345    0.322
  161.750   47.400   21.413    0.348    0.324
