~VERSION INFORMATION
 VERS.                 2.0:   CWLS LOG ASCII STANDARD -VERSION 2.0
 WRAP.                  NO:   ONE LINE PER DEPTH STEP
~WELL INFORMATION BLOCK
#MNEM.UNIT           DATA                    DESCRIPTION OF MNEMONIC
#---------    -------------------            -------------------------------
# Generated from Intellog Unique Number	CN_94_101/WELL/1068
WELL.         10-17-094-06W4                 : Well_name    - WELL
LOC .         AA/10-17-094-06W4/0            : Location     - LOCATION
UWI .         AA/10-17-094-06W400            : Uwi          - UNIQUE WELL ID
ENTR.         JOETTE                         : Entered      - ENTERED BY
SRVC.         SCHLUMBERGER                   : Scn          - SERVICE COMPANY
DATE.         04/10/92                       : Date         - LOG DATE
STRT.M        80                             : top_depth    - START DEPTH
STOP.M        285                            : bot_depth    - STOP DEPTH
STEP.M        0.25                           : increment    - STEP LENGTH
 NULL. -999.2500:NULL Value
~CURVE INFORMATION BLOCK
#MNEM UNIT       ERCB CURVE CODE    CURVE DESCRIPTION
#-----------   ------------------   ----------------------------------
DEPT.M        00 001 00 00         : DEPTH        - DEPTH
ILD .OHMM     00 120 00 00         : RESD         - DEEP RESISTIVITY (DIL)
DPHI.V/V      00 890 00 00         : PHID         - DENSITY POROSITY (SANDSTONE)
NPHI.V/V      00 330 00 00         : PHIN         - NEUTRON POROSITY (SANDSTONE)
GR  .API      00 310 00 00         : GR           - GAMMA RAY
CALI.MM       00 280 01 00         : CAL          - CALIPER
~PARAMETER INFORMATION
#MNEM.UNIT           DATA             DESCRIPTION OF MNEMONIC
#---------         -----------     ------------------------------
GL  .M        564.2                : gl           - GROUND LEVEL ELEVATION
EREF.M        566.9                : kb           - ELEVATION OF DEPTH REFERENCE
DATM.M        566.9                : datum        - DATUM ELEVATION
TDD .M        287                  : tdd          - TOTAL DEPTH DRILLER
RUN .         ONE                  : Run          - RUN NUMBER
ENG .         BILL                 : Engineer     - RECORDING ENGINEER
WIT .         JIM                  : Witness      - WITNESSED BY
MUD .         GEL                  : Mud_type     - MUD TYPE
MATR.         SANDSTONE            : Logunit      - NEUTRON MATRIX
TMAX.C        18                   : BHT          - MAXIMUM RECORDED TEMPERATURE
BHTD.M        287                  : BHTDEP       - MAXIMUM RECORDED TEMPERATURE
RMT .C        5                    : MDTP         - TEMPERATURE OF MUD
MUDD.KG/M     1                    : MWT          - MUD DENSITY
NEUT.         1                    : NEUTRON      - NEUTRON TYPE
RESI.         0                    : RESIST       - RESISTIVITY TYPE
RM  .OHMM     11.4                 : RM           - RESISTIVITY OF MUD
RMC .OHMM     11.4                 : RMC          - RESISTIVITY OF MUD CAKE
RMF .OHMM     11.4                 : RMF          - RESISTIVITY OF MUD FILTRATE
SUFT.C        4                    : SUFT         - SURFACE TEMPERATURE
~A  DEPTH     RESD     PHID     PHIN       GR      CAL
   80.000   22.598    0.225    0.426   56.245  216.703
   80.250   20.937    0.227    0.393   58.684  211.599
   80.500   20.924    0.249    0.381   62.346  203.438
   80.750   24.792    0.244    0.362   61.117  192.219
   81.000   31.083    0.224    0.326   58.666  189.150
   81.250   38.241    0.199    0.352   57.436  191.181
   81.500   47.040    0.198    0.362   54.376  188.115
   81.750   53.667    0.222    0.339   50.702  184.027
   82.000   60.065    0.195    0.305   53.142  185.035
   82.250   57.803    0.168    0.275   56.804  186.049
   82.500   55.634    0.185    0.266   59.244  188.075
   82.750   49.641    0.194    0.272   59.850  191.122
   83.000   43.459    0.164    0.282   61.677  194.167
   83.250   38.772    0.148    0.284   62.895  193.139
   83.500   35.933    0.163    0.286   62.278  191.097
   83.750   32.674    0.187    0.295   62.273  190.068
   84.000   30.277    0.254    0.341   66.545  194.135
   84.250   28.587    0.251    0.368   67.762  201.258
   84.500   27.511    0.240    0.352   65.922  205.324
   84.750   28.549    0.232    0.341   64.083  204.296
   85.000   28.536    0.204    0.323   61.632  199.190
   85.250   29.617    0.138    0.312   59.792  202.237
   85.500   31.923    0.149    0.312   57.951  204.265
   85.750   34.408    0.145    0.312   56.111  203.237
   86.000   37.088    0.160    0.303   53.660  194.057
   86.250   39.227    0.198    0.292   51.821  184.875
   86.500   40.713    0.188    0.284   53.649  178.750
   86.750   43.890    0.176    0.292   57.924  180.783
   87.000   55.019    0.193    0.313   62.198  185.869
   87.250   51.964    0.240    0.336   63.414  181.784
   87.500   49.991    0.244    0.346   58.519  177.699
   87.750   57.035    0.263    0.350   55.455  174.628
   88.000   65.071    0.299    0.383   55.449  174.623
   88.250   61.439    0.323    0.408   57.278  172.569
   88.500   58.009    0.322    0.402   58.495  172.562
   88.750   57.983    0.315    0.402   59.101  171.538
   89.000   56.855    0.299    0.400   59.096  171.524
   89.250   55.749    0.318    0.402   58.479  171.517
   89.500   55.732    0.317    0.398   57.862  170.484
   89.750   54.640    0.321    0.389   59.078  170.472
   90.000   53.585    0.329    0.383   59.684  170.465
   90.250   53.569    0.321    0.387   57.233  171.480
   90.500   56.642    0.317    0.385   54.170  172.484
   90.750   57.697    0.324    0.378   51.107  173.496
   91.000   57.662    0.336    0.378   48.044  174.508
   91.250   57.627    0.338    0.382   45.593  176.534
   91.500   59.802    0.335    0.389   43.754  177.546
   91.750   60.924    0.335    0.399   44.971  178.556
   92.000   63.223    0.329    0.397   46.799  178.544
   92.250   63.185    0.312    0.399   46.793  178.537
   92.500   63.157    0.335    0.396   44.341  178.523
   92.750   64.303    0.331    0.389   43.727  177.500
   93.000   65.500    0.310    0.381   42.498  176.469
   93.250   66.700    0.301    0.358   41.269  175.438
   93.500   67.941    0.301    0.350   40.652  175.431
   93.750   69.195    0.297    0.344   41.256  176.438
   94.000   71.817    0.301    0.338   42.473  176.427
   94.250   73.143    0.300    0.339   43.080  176.420
   94.500   77.351    0.303    0.347   44.297  176.413
   94.750   77.305    0.303    0.366   44.902  175.382
   95.000   73.001    0.328    0.372   47.342  175.375
   95.250   65.147    0.308    0.364   51.005  175.366
   95.500   53.898    0.237    0.351   57.113  177.394
   95.750   44.591    0.248    0.328   64.444  186.555
   96.000   36.892    0.243    0.334   70.552  193.676
   96.250   28.296    0.225    0.332   74.215  192.648
   96.500   23.853    0.208    0.332   74.820  194.676
   96.750   23.392    0.231    0.344   74.202  197.726
   97.000   23.382    0.245    0.344   71.751  196.698
   97.250   24.268    0.259    0.343   70.522  202.799
   97.500   25.660    0.273    0.353   72.351  203.809
   97.750   26.636    0.285    0.367   74.178  200.740
   98.000   27.128    0.211    0.353   72.953  196.658
   98.250   28.688    0.189    0.328   70.501  192.573
   98.500   29.784    0.207    0.308   72.329  188.488
   98.750   30.334    0.187    0.302   75.380  195.611
   99.000   28.105    0.166    0.311   75.985  206.810
   99.250   24.151    0.173    0.336   75.368  206.800
   99.500   21.550    0.188    0.338   71.695  204.753
   99.750   22.360    0.204    0.342   74.744  202.703
  100.000   22.776    0.214    0.332   74.127  205.751
  100.250   23.635    0.185    0.315   69.231  210.838
  100.500   23.617    0.195    0.307   69.838  214.902
  100.750   23.168    0.241    0.315   71.665  214.893
  101.000   22.296    0.245    0.310   74.105  212.848
  101.250   22.282    0.255    0.312   75.323  209.782
  101.500   23.123    0.238    0.316   75.929  205.695
  101.750   23.550    0.231    0.316   75.312  203.647
  102.000   23.985    0.190    0.313   74.082  201.600
  102.250   23.522    0.168    0.326   72.243  203.629
  102.500   23.071    0.191    0.343   69.792  201.582
  102.750   22.626    0.224    0.338   67.339  210.740
  103.000   22.612    0.218    0.334   66.110  212.769
  103.250   23.026    0.209    0.330   66.717  213.776
  103.500   23.451    0.203    0.328   68.545  212.752
  103.750   23.437    0.224    0.326   70.985  206.629
  104.000   23.870    0.239    0.339   72.813  200.504
  104.250   23.859    0.236    0.341   72.809  205.589
  104.500   23.395    0.217    0.336   70.969  209.658
  104.750   22.510    0.198    0.336   66.684  210.668
  105.000   21.257    0.238    0.353   62.398  207.599
  105.250   22.483    0.234    0.363   59.336  203.514
  105.500   25.647    0.215    0.362   56.886  192.299
  105.750   31.558    0.248    0.354   53.822  183.119
  106.000   38.826    0.272    0.342   56.262  176.996
  106.250   45.127    0.292    0.363   56.868  173.930
  106.500   51.478    0.316    0.386   56.249  173.916
  106.750   56.536    0.343    0.401   55.634  174.926
  107.000   59.806    0.341    0.402   55.015  174.919
  107.250   62.082    0.346    0.411   54.398  174.907
  107.500   63.218    0.344    0.416   54.393  174.900
  107.750   62.007    0.334    0.411   54.387  174.888
  108.000   55.320    0.319    0.407   56.215  173.862
  108.250   49.353    0.308    0.407   61.102  172.834
  108.500   46.620    0.298    0.411   60.484  172.825
  108.750   43.200    0.280    0.400   56.199  172.813
  109.000   43.991    0.256    0.381   52.526  172.804
  109.250   47.416    0.201    0.355   50.074  172.794
  109.500   49.213    0.186    0.327   51.291  173.804
  109.750   47.366    0.208    0.337   52.508  178.891
  110.000   42.264    0.191    0.350   52.502  186.014
  110.250   33.665    0.149    0.362   52.498  192.119
  110.500   27.330    0.210    0.365   56.158  203.317
  110.750   26.297    0.179    0.352   58.599  203.308
  111.000   26.787    0.202    0.350   59.816  207.372
  111.250   27.797    0.217    0.356   60.422  210.417
  111.500   27.265    0.207    0.351   60.416  208.370
  111.750   26.238    0.226    0.336   61.022  201.228
  112.000   26.222    0.177    0.308   61.626  188.994
  112.250   33.503    0.158    0.281   61.010  175.739
  112.500   41.998    0.153    0.259   59.171  169.616
  112.750   46.139    0.159    0.252   59.164  171.644
  113.000   46.977    0.172    0.258   59.769  173.673
  113.250   46.076    0.162    0.263   60.377  174.682
  113.500   46.049    0.170    0.273   60.370  174.673
  113.750   45.160    0.189    0.291   59.753  174.663
  114.000   44.281    0.214    0.296   58.525  174.652
  114.250   43.439    0.235    0.329   58.519  174.642
  114.500   43.407    0.262    0.361   57.292  172.598
  114.750   47.672    0.335    0.380   53.007  169.529
  115.000   52.364    0.353    0.389   50.556  169.520
  115.250   58.605    0.339    0.389   46.880  171.546
  115.500   60.844    0.315    0.387   45.651  174.591
  115.750   63.150    0.294    0.377   43.810  175.603
  116.000   59.634    0.267    0.357   42.583  177.631
  116.250   57.370    0.247    0.344   40.132  178.641
