~VERSION INFORMATION
 VERS.                 2.0:   CWLS LOG ASCII STANDARD -VERSION 2.0
 WRAP.                  NO:   ONE LINE PER DEPTH STEP
~WELL INFORMATION BLOCK
#MNEM.UNIT           DATA                    DESCRIPTION OF MNEMONIC
#---------    -------------------            -------------------------------
# Generated from Intellog Unique Number	CC_84_87/WELL/2297
NULL.         -999.25                        : NULL_VALUE
WELL.         PEX PECJ HANGST OV             : Well_name    - WELL              
LOC .         10-08-086-09W4                 : Location     - LOCATION          
UWI .         AA/10-08-086-09W400            : Uwi          - UNIQUE WELL ID    
ENTR.         DW                             : Entered      - ENTERED BY        
SRVC.         DRESSER ATLAS                  : Scn          - SERVICE COMPANY   
DATE.         26 JAN 81                      : Date         - LOG DATE
STRT.M        65                             : top_depth    - START DEPTH       
STOP.M        239.902                        : bot_depth    - STOP DEPTH        
STEP.M        0.3                            : increment    - STEP LENGTH       
~CURVE INFORMATION BLOCK
#MNEM UNIT       ERCB CURVE CODE    CURVE DESCRIPTION
#-----------   ------------------   ----------------------------------
DEPT.M        00 001 00 00         : DEPTH        - DEPTH                       
DPHI.V/V      00 890 00 00         : PHID         - DENSITY POROSITY (LIMESTONE)
NPHI.V/V      00 330 00 00         : PHIN         - NEUTRON POROSITY (LIMESTONE)
GR  .API      00 310 00 00         : GR           - GAMMA RAY                   
ILD .OHMM     00 120 00 00         : RESD         - DEEP RESISTIVITY (DIL)      
~PARAMETER INFORMATION       
#MNEM.UNIT           DATA             DESCRIPTION OF MNEMONIC
#---------         -----------     ------------------------------
GL  .M        478.9                : gl           - GROUND LEVEL ELEVATION      
EREF.M        484                  : kb           - ELEVATION OF DEPTH REFERENCE
DATM.M        484                  : datum        - DATUM ELEVATION             
TDD .M        250                  : tdd          - TOTAL DEPTH DRILLER         
RUN .         ONE                  : Run          - RUN NUMBER                  
ENG .         BILL                 : Engineer     - RECORDING ENGINEER          
WIT .         JIM                  : Witness      - WITNESSED BY                
MUD .         GEL                  : Mud_type     - MUD TYPE                    
MATR.         LIMESTONE            : Logunit      - NEUTRON MATRIX              
TMAX.C        18                   : BHT          - MAXIMUM RECORDED TEMPERATURE
BHTD.M        250                  : BHTDEP       - MAXIMUM RECORDED TEMPERATURE
MATR.         1                    : LOGUNIT      - NEUTRON MATRIX              
RMT .C        25                   : MDTP         - TEMPERATURE OF MUD          
NEUT.         1                    : NEUTRON      - NEUTRON TYPE                
RESI.         0                    : RESIST       - RESISTIVITY TYPE            
RMC .OHMM     0.25                 : RMC          - RESISTIVITY OF MUD CAKE     
RMF .OHMM     0.25                 : RMF          - RESISTIVITY OF MUD FILTRATE 
SUFT.C        4                    : SUFT         - SURFACE TEMPERATURE         
~A  DEPTH     PHID     PHIN       GR     RESD
# ...
  117.201    0.269    0.533  101.173    7.105
  117.501    0.330    0.518   97.941    6.558
  117.801    0.404    0.521   94.054    6.300
  118.101    0.448    0.545   93.349    5.926
  118.401    0.316    0.571  108.252    6.140
  118.701    0.317    0.581  112.533    7.843
  119.001    0.345    0.552  102.412    9.459
  119.301    0.272    0.526  101.052    9.987
  119.601    0.259    0.486   92.808   10.336
  119.901    0.198    0.481   92.716   10.105
  120.201    0.213    0.510   87.602    9.343
  120.501    0.284    0.481   84.378    7.993
  120.801    0.330    0.499  101.155    7.379
  121.101    0.289    0.532  107.911    7.207
  121.401    0.293    0.559  112.211    7.334
  121.701    0.279    0.526  123.993    7.895
  122.001    0.272    0.503  119.507    8.171
  122.301    0.308    0.507  106.253    7.406
  122.601    0.335    0.543  107.407    6.337
  122.901    0.386    0.586  111.683    5.530
  123.201    0.418    0.595  113.459    4.466
  123.501    0.424    0.589  116.477    3.896
  123.801    0.423    0.581  105.114    3.531
  124.101    0.436    0.570  107.500    3.454
  124.401    0.473    0.560  109.893    3.852
  124.701    0.472    0.568  109.164    4.146
  125.001    0.287    0.592  110.949    4.466
  125.301    0.301    0.589  112.718    4.900
  125.601    0.326    0.562  116.983    5.265
  125.901    0.271    0.562  112.503    5.564
  126.201    0.265    0.537  115.530    6.330
  126.501    0.262    0.522  117.304    6.565
  126.801    0.248    0.541  110.939    7.060
  127.101    0.246    0.536  114.582    7.448
  127.401    0.251    0.510  120.111    7.867
  127.701    0.249    0.498  114.997    8.624
  128.001    0.244    0.477   98.628    9.105
  128.301    0.253    0.471   95.393    9.604
  128.601    0.267    0.480   93.400    9.953
  128.901    0.271    0.470   93.942    9.541
  129.201    0.244    0.472   93.829    9.161
  129.501    0.240    0.477  101.241    8.142
  129.801    0.244    0.481  103.010    7.524
  130.101    0.247    0.486  110.411    6.949
  130.401    0.254    0.489  118.440    6.295
  130.701    0.281    0.498  116.454    5.925
  131.001    0.307    0.514  113.849    5.908
  131.301    0.339    0.507  105.605    6.000
  131.601    0.351    0.516  110.500    6.332
  131.901    0.338    0.537  113.527    6.817
  132.201    0.273    0.530  111.545    8.070
  132.501    0.277    0.505  107.684    9.728
  132.801    0.277    0.469   97.566   10.876
  133.101    0.270    0.448   93.069   12.382
  133.401    0.260    0.414   91.115   13.573
  133.701    0.289    0.423   93.508   14.335
  134.001    0.292    0.414   99.028   14.843
  134.301    0.157    0.375   93.921   13.448
  134.601    0.209    0.339   89.426   11.951
  134.901    0.253    0.348   92.466   11.909
  135.201    0.286    0.398   99.850   12.348
  135.501    0.285    0.393  103.507   14.899
  135.801    0.086    0.357   97.155   16.971
  136.101    0.158    0.250   82.032   18.951
  136.401    0.218    0.332   83.171   19.265
  136.701    0.251    0.390  109.967   13.891
  137.001    0.214    0.410  100.476   12.335
  137.301    0.239    0.336   89.719   13.280
  137.601    0.308    0.375  100.902   16.028
  137.901    0.312    0.344   97.024   22.519
  138.201    0.296    0.226  100.044   25.653
  138.501    0.119    0.194   89.323   22.799
  138.801    0.173    0.222   71.707   17.075
  139.101    0.280    0.289   75.341   13.542
  139.401    0.295    0.331   87.758   12.021
  139.701    0.291    0.478   87.633   11.773
  140.001    0.287    0.485   98.177   11.292
  140.301    0.288    0.466   88.691   10.625
  140.601    0.296    0.471   92.333    9.451
  140.901    0.300    0.456   96.613    8.244
  141.201    0.306    0.448  102.137    7.762
  141.501    0.334    0.485   95.764    7.581
  141.801    0.290    0.515   92.546    7.563
  142.101    0.250    0.528   96.172    7.973
  142.401    0.249    0.497  106.723    8.270
  142.701    0.244    0.487  111.620    8.400
  143.001    0.238    0.489  106.506    8.217
  143.301    0.253    0.497  107.643    8.191
  143.601    0.275    0.513  110.042    7.859
  143.901    0.310    0.490  107.444    6.857
  144.201    0.348    0.481  103.572    6.327
  144.501    0.399    0.523  105.335    6.182
  144.801    0.463    0.558  109.626    6.172
  145.101    0.416    0.572  109.529    6.514
  145.401    0.256    0.563  112.550    6.749
  145.701    0.259    0.505  112.440    7.393
  146.001    0.261    0.512  111.707    7.806
  146.301    0.263    0.495  106.600    8.236
  146.601    0.263    0.482  102.112    8.538
  146.901    0.258    0.495  102.004    9.723
  147.201    0.214    0.485   93.126   11.732
  147.501    0.230    0.464   92.419   12.623
  147.801    0.260    0.467   82.938   11.881
  148.101    0.239    0.474   80.306   10.763
  148.401    0.244    0.508   85.227    9.941
  148.701    0.255    0.494   95.754    9.361
  149.001    0.247    0.484  119.421    8.644
  149.301    0.222    0.476  110.550    8.456
  149.601    0.214    0.502  114.187    8.114
  149.901    0.216    0.508  117.220    7.934
  150.201    0.233    0.500  115.853    7.465
  150.501    0.286    0.470  112.010    7.031
  150.801    0.296    0.474  120.011    6.370
  151.101    0.255    0.525  116.163    5.997
  151.401    0.254    0.569  112.313    5.434
  151.701    0.258    0.573  108.459    4.925
  152.001    0.274    0.575  101.469    4.297
  152.301    0.313    0.563   96.368    3.744
  152.601    0.391    0.578   94.384    3.527
  152.901    0.424    0.595  117.422    3.321
  153.201    0.420    0.603  107.938    3.371
  153.501    0.326    0.619  109.075    3.699
  153.801    0.323    0.605  117.106    4.295
  154.101    0.229    0.569  125.754    5.179
  154.401    0.226    0.501  124.406    6.366
  154.701    0.228    0.510  121.162    6.852
  155.001    0.230    0.487  118.551    7.094
  155.301    0.232    0.482  119.692    7.212
  155.601    0.232    0.501  120.217    7.186
  155.901    0.232    0.516  118.255    7.303
  156.201    0.232    0.501  107.505    7.857
  156.501    0.231    0.495  113.031    8.614
  156.801    0.227    0.486  118.563    9.084
  157.101    0.221    0.500  121.585    9.233
  157.401    0.217    0.469  122.731    9.387
  157.701    0.224    0.448  118.875   10.098
  158.001    0.216    0.431  121.875   11.072
  158.301    0.198    0.442  119.255   11.688
  158.601    0.182    0.450  112.925   12.334
  158.901    0.212    0.439  109.690   12.055
  159.201    0.216    0.437  113.318   11.786
  159.501    0.211    0.424  118.858   11.527
  159.801    0.213    0.417  127.519   11.276
  160.101    0.220    0.421  127.414   11.244
  160.401    0.227    0.434  121.055   11.213
  160.701    0.262    0.451  116.571   10.158
  161.001    0.275    0.448  113.339    9.035
  161.301    0.278    0.448  111.352    8.173
  161.601    0.235    0.464  118.751    8.154
  161.901    0.248    0.467  135.542    8.282
  162.201    0.258    0.451  126.682    8.745
  162.501    0.262    0.459  117.815    9.593
  162.801    0.258    0.466  113.934   10.723
  163.101    0.250    0.470  110.725   11.754
  163.401    0.232    0.464  113.122   11.932
  163.701    0.222    0.464  123.028   11.445
  164.001    0.220    0.467  121.040   11.213
  164.301    0.222    0.474  112.794    9.953
  164.601    0.226    0.465   99.554    9.194
  164.901    0.233    0.457   98.209    8.492
  165.201    0.239    0.462  111.220    8.462
  165.501    0.240    0.466  114.868    8.609
  165.801    0.240    0.478  108.525    9.079
  166.101    0.249    0.480  108.424    9.398
  166.401    0.249    0.454  123.951    9.556
  166.701    0.238    0.464  120.720    9.526
  167.001    0.232    0.478  109.356    9.139
  167.301    0.231    0.490  101.118    9.292
  167.601    0.243    0.497   98.507    9.982
  167.901    0.263    0.472  109.033   10.545
  168.201    0.287    0.474  104.558    9.935
  168.501    0.344    0.486  101.323    8.183
  168.801    0.384    0.511   98.707    6.245
  169.101    0.431    0.528  101.743    5.047
