~VERSION INFORMATION
 VERS.                 2.0:   CWLS LOG ASCII STANDARD -VERSION 2.0
 WRAP.                  NO:   ONE LINE PER DEPTH STEP
~WELL INFORMATION BLOCK
#MNEM.UNIT           DATA                    DESCRIPTION OF MNEMONIC
#---------    -------------------            -------------------------------
# Generated from Intellog Unique Number	CN_94_101/WELL/1076
WELL.         11-33-094-06W4                 : Well_name    - WELL
LOC .         AA/11-33-094-06W4/0            : Location     - LOCATION
UWI .         AA/11-33-094-06W400            : Uwi          - UNIQUE WELL ID
ENTR.         JOETTE                         : Entered      - ENTERED BY
SRVC.         SCHLUMBERGER                   : Scn          - SERVICE COMPANY
DATE.         04/14/92                       : Date         - LOG DATE
STRT.M        100                            : top_depth    - START DEPTH
STOP.M        330                            : bot_depth    - STOP DEPTH
STEP.M        0.25                           : increment    - STEP LENGTH
 NULL. -999.2500:NULL Value
~CURVE INFORMATION BLOCK
#MNEM UNIT       ERCB CURVE CODE    CURVE DESCRIPTION
#-----------   ------------------   ----------------------------------
DEPT.M        00 001 00 00         : DEPTH        - DEPTH
ILD .OHMM     00 120 00 00         : RESD         - DEEP RESISTIVITY (DIL)
DPHI.V/V      00 890 00 00         : PHID         - DENSITY POROSITY (SANDSTONE)
NPHI.V/V      00 330 00 00         : PHIN         - NEUTRON POROSITY (SANDSTONE)
GR  .API      00 310 00 00         : GR           - GAMMA RAY
CALI.MM       00 280 01 00         : CAL          - CALIPER
~PARAMETER INFORMATION
#MNEM.UNIT           DATA             DESCRIPTION OF MNEMONIC
#---------         -----------     ------------------------------
GL  .M        597.57               : gl           - GROUND LEVEL ELEVATION
EREF.M        600.27               : kb           - ELEVATION OF DEPTH REFERENCE
DATM.M        600.27               : datum        - DATUM ELEVATION
TDD .M        335                  : tdd          - TOTAL DEPTH DRILLER
RUN .         ONE                  : Run          - RUN NUMBER
ENG .         BILL                 : Engineer     - RECORDING ENGINEER
WIT .         JIM                  : Witness      - WITNESSED BY
MUD .         GEL                  : Mud_type     - MUD TYPE
MATR.         SANDSTONE            : Logunit      - NEUTRON MATRIX
TMAX.C        16                   : BHT          - MAXIMUM RECORDED TEMPERATURE
BHTD.M        335                  : BHTDEP       - MAXIMUM RECORDED TEMPERATURE
RMT .C        19                   : MDTP         - TEMPERATURE OF MUD
MUDD.KG/M     1030                 : MWT          - MUD DENSITY
NEUT.         1                    : NEUTRON      - NEUTRON TYPE
RESI.         0                    : RESIST       - RESISTIVITY TYPE
RM  .OHMM     8.1                  : RM           - RESISTIVITY OF MUD
RMC .OHMM     8.1                  : RMC          - RESISTIVITY OF MUD CAKE
RMF .OHMM     8.1                  : RMF          - RESISTIVITY OF MUD FILTRATE
SUFT.C        4                    : SUFT         - SURFACE TEMPERATURE
~A  DEPTH     RESD     PHID     PHIN       GR      CAL
# ...
  209.500    8.555    0.280    0.488   76.944  187.559
  209.750    8.901    0.277    0.476   75.792  187.629
  210.000    8.418    0.268    0.477   79.408  187.670
  210.250    8.108    0.255    0.492   83.032  187.754
  210.500    7.964    0.255    0.503   84.260  187.796
  210.750    8.289    0.261    0.507   83.704  188.846
  211.000    8.302    0.264    0.514   83.132  188.916
  211.250    8.152    0.262    0.526   82.560  189.939
  211.500    7.562    0.257    0.519   80.213  190.008
  211.750    7.145    0.251    0.521   82.030  190.078
  212.000    7.291    0.258    0.527   86.848  190.106
  212.250    7.733    0.250    0.521   91.061  190.161
  212.500    8.199    0.255    0.530   92.886  190.231
  212.750    8.212    0.271    0.546   95.300  190.273
  213.000    8.061    0.270    0.500   91.750  190.342
  213.250    7.622    0.270    0.473   85.216  190.384
  213.500    7.931    0.270    0.478   86.443  189.458
  213.750    7.645    0.271    0.501   91.262  189.528
  214.000    7.228    0.267    0.495   93.087  188.561
  214.250    6.327    0.260    0.502   92.523  186.654
  214.500    5.868    0.252    0.524   89.571  184.719
  214.750    6.226    0.280    0.518   85.424  181.789
  215.000    6.352    0.278    0.561   84.861  176.855
  215.250    6.482    0.265    0.551   85.491  175.915
  215.500    6.494    0.257    0.477   87.316  179.952
  215.750    6.375    0.263    0.460   90.343  183.021
  216.000    6.029    0.267    0.477   78.426  183.048
  216.250    5.808    0.267    0.510   77.862  183.118
  216.500    5.493    0.268    0.534   82.672  183.160
  216.750    5.294    0.270    0.546   88.080  183.243
  217.000    5.198    0.267    0.541   89.904  183.271
  217.250    5.011    0.258    0.534   89.938  183.354
  217.500    5.016    0.261    0.525   89.382  183.382
  217.750    5.319    0.268    0.526   90.013  183.438
  218.000    5.642    0.278    0.524   93.629  183.521
  218.250    5.980    0.277    0.525   97.253  182.568
  218.500    6.463    0.275    0.533   97.278  182.610
  218.750    7.257    0.269    0.543   93.729  181.684
  219.000    7.997    0.264    0.537   93.762  180.731
  219.250    8.006    0.269    0.524   94.990  178.796
  219.500    7.862    0.282    0.524   92.038  174.871
  219.750    7.154    0.289    0.569   89.086  168.969
  220.000    5.588    0.301    0.565   86.134  168.030
  220.250    3.965    0.299    0.503   83.181  169.081
  220.500    3.474    0.303    0.498   78.446  171.126
  220.750    3.477    0.309    0.497   78.471  175.177
  221.000    3.549    0.295    0.491   82.087  179.213
  221.250    3.764    0.284    0.529   86.898  182.240
  221.500    4.924    0.292    0.541   93.507  184.286
  221.750    5.635    0.304    0.552   97.132  187.341
  222.000    5.864    0.309    0.625   94.768  188.378
  222.250    5.871    0.305    0.610   91.219  187.453
  222.500    5.767    0.296    0.584   91.850  187.522
  222.750    6.353    0.291    0.560   94.869  186.569
  223.000    7.556    0.290    0.547   94.313  185.615
  223.250    8.648    0.284    0.546   91.958  185.671
  223.500    8.993    0.277    0.531   90.200  185.740
  223.750    9.355    0.264    0.521   91.428  184.815
  224.000    9.553    0.250    0.555   93.244  184.856
  224.250    9.378    0.272    0.547   96.263  184.926
  224.500    9.214    0.272    0.522   96.902  184.982
  224.750    8.880    0.268    0.493   94.538  185.037
  225.000    8.078    0.257    0.475   91.595  185.093
  225.250    6.555    0.248    0.455   90.434  185.135
  225.500    6.199    0.256    0.450   91.064  185.218
  225.750    6.326    0.249    0.452   92.897  185.260
  226.000    6.969    0.242    0.432   93.511  185.315
  226.250    7.529    0.241    0.417   93.553  186.366
  226.500    8.454    0.247    0.425   92.989  189.421
  226.750    9.321    0.252    0.463   94.814  190.444
  227.000    9.330    0.254    0.501   98.438  189.505
  227.250    9.162    0.248    0.516   99.666  188.579
  227.500    8.498    0.239    0.477   98.505  187.654
  227.750    9.010    0.237    0.476   97.344  187.709
  228.000   10.312    0.240    0.474   95.586  187.765
  228.250   10.328    0.248    0.460   96.217  187.807
  228.500    9.398    0.246    0.449   99.833  186.881
  228.750    8.552    0.238    0.461   98.663  184.932
  229.000    8.083    0.245    0.484   95.711  179.031
  229.250    7.498    0.257    0.498   90.976  174.111
  229.500    7.652    0.267    0.490   88.016  171.195
  229.750    8.594    0.276    0.475   83.281  171.236
  230.000    9.836    0.286    0.467   74.946  170.297
  230.250   14.993    0.297    0.435   73.794  170.338
  230.500   16.204    0.299    0.410   76.216  171.389
  230.750   19.268    0.264    0.452   79.832  173.435
  231.000   20.436    0.243    0.471   82.842  176.476
  231.250   18.591    0.234    0.477   87.055  177.541
  231.500   14.245    0.221    0.495   87.694  177.597
  231.750   10.708    0.176    0.371   78.165  175.662
  232.000    9.379    0.051    0.239   66.854  172.732
  232.250    9.953   -0.066    0.156   52.557  170.797
  232.500   10.155    0.047    0.265   49.605  169.858
  232.750   10.357    0.081    0.405   54.415  170.909
  233.000    9.981    0.140    0.459   62.808  174.959
  233.250    9.260    0.238    0.492   76.583  178.995
  233.500    8.270    0.261    0.494   86.178  181.027
  233.750    8.118    0.275    0.480   88.003  173.122
  234.000    7.826    0.287    0.486   82.662  169.197
  234.250    7.687    0.282    0.486   82.099  167.262
  234.500    7.266    0.278    0.476   83.326  169.308
  234.750    6.245    0.281    0.462   83.957  171.354
  235.000    5.903    0.286    0.454   83.393  175.404
  235.250    5.800    0.288    0.458   83.426  175.460
  235.500    5.917    0.283    0.466   85.251  174.520
  235.750    6.155    0.274    0.474   87.673  174.576
  236.000    6.526    0.272    0.489   90.692  178.598
  236.250    6.791    0.269    0.550   92.516  184.639
  236.500    6.801    0.277    0.544   94.938  185.689
  236.750    6.304    0.288    0.542   98.562  185.745
  237.000    5.020    0.284    0.551   96.805  183.824
  237.250    4.072    0.274    0.542   94.450  182.885
  237.500    3.433    0.281    0.504   94.475  177.951
  237.750    2.894    0.292    0.485   96.299  175.021
  238.000    2.635    0.281    0.488   90.370  174.095
  238.250    2.588    0.272    0.505   92.186  177.136
  238.500    2.592    0.272    0.538   95.802  181.173
  238.750    2.694    0.275    0.569   96.441  184.228
  239.000    3.143    0.274    0.563   98.266  185.265
  239.250    4.702    0.292    0.593  100.099  186.301
  239.500    5.591    0.304    0.614  103.118  185.362
  239.750    6.779    0.304    0.605  104.345  184.436
  240.000    7.611    0.281    0.581  103.176  183.497
  240.250    7.915    0.268    0.585   95.456  182.557
  240.500    7.930    0.272    0.574   91.898  182.613
  240.750    7.218    0.273    0.507   89.560  182.682
  241.000    6.954    0.271    0.482   90.173  181.715
  241.250    6.831    0.270    0.463   92.603  180.789
  241.500    7.820    0.274    0.457   94.428  179.850
  241.750    8.129    0.272    0.462   90.871  178.924
  242.000    9.131    0.269    0.472   87.321  179.975
  242.250    9.868    0.269    0.484   84.975  180.017
  242.500   10.874    0.275    0.498   86.202  182.077
  242.750   11.304    0.286    0.509   86.833  182.118
  243.000   11.540    0.287    0.506   86.269  177.212
  243.250   11.339    0.272    0.496   86.294  176.273
  243.500   10.714    0.260    0.482   86.925  176.314
  243.750    9.565    0.264    0.469   90.549  176.398
  244.000    8.872    0.264    0.449   92.971  176.439
  244.250    8.552    0.249    0.435   92.407  176.481
  244.500    8.398    0.227    0.436   90.649  177.532
  244.750    8.252    0.258    0.446   91.279  179.578
  245.000    7.954    0.276    0.460   90.733  180.629
  245.250    7.378    0.287    0.477   90.152  183.670
  245.500    6.714    0.286    0.473   88.394  187.748
  245.750    6.348    0.281    0.470   87.839  187.776
