~VERSION INFORMATION
 VERS.                 2.0:   CWLS LOG ASCII STANDARD -VERSION 2.0
 WRAP.                  NO:   ONE LINE PER DEPTH STEP
~WELL INFORMATION BLOCK
#MNEM.UNIT           DATA                    DESCRIPTION OF MNEMONIC
#---------    -------------------            -------------------------------
# Generated from Intellog Unique Number	CN_94_101/WELL/5009
WELL.         10-30-097-07W4                 : Well_name    - WELL
LOC .         AA/10-30-097-07W4/0            : Location     - LOCATION
UWI .         AA/10-30-097-07W400            : Uwi          - UNIQUE WELL ID
ENTR.         T                              : Entered      - ENTERED BY
SRVC.         SCHLUMBERGER                   : Scn          - SERVICE COMPANY
DATE.         08/11/92                       : Date         - LOG DATE
STRT.M        0                              : top_depth    - START DEPTH
STOP.M        110                            : bot_depth    - STOP DEPTH
STEP.M        0.25                           : increment    - STEP LENGTH
 NULL. -999.2500:NULL Value
~CURVE INFORMATION BLOCK
#MNEM UNIT       ERCB CURVE CODE    CURVE DESCRIPTION
#-----------   ------------------   ----------------------------------
DEPT.M        00 001 00 00         : DEPTH        - DEPTH
DPHI.V/V      00 890 00 00         : PHID         - DENSITY POROSITY (SANDSTONE)
NPHI.V/V      00 330 00 00         : PHIN         - NEUTRON POROSITY (SANDSTONE)
ILD .OHMM     00 120 00 00         : RESD         - DEEP RESISTIVITY (DIL)
GR  .API      00 310 00 00         : GR           - GAMMA RAY
~PARAMETER INFORMATION
#MNEM.UNIT           DATA             DESCRIPTION OF MNEMONIC
#---------         -----------     ------------------------------
GL  .M        299.6                : gl           - GROUND LEVEL ELEVATION
EREF.M        299.6                : kb           - ELEVATION OF DEPTH REFERENCE
DATM.M        299.6                : datum        - DATUM ELEVATION
TDD .M        115.2                : tdd          - TOTAL DEPTH DRILLER
RUN .         ONE                  : Run          - RUN NUMBER
ENG .         BILL                 : Engineer     - RECORDING ENGINEER
WIT .         JIM                  : Witness      - WITNESSED BY
MUD .         GEL                  : Mud_type     - MUD TYPE
MATR.         SANDSTONE            : Logunit      - NEUTRON MATRIX
TMAX.C        14.2                 : BHT          - MAXIMUM RECORDED TEMPERATURE
BHTD.M        115                  : BHTDEP       - MAXIMUM RECORDED TEMPERATURE
RMT .C        14.5                 : MDTP         - TEMPERATURE OF MUD
MUDD.KG/M     1022                 : MWT          - MUD DENSITY
NEUT.         1                    : NEUTRON      - NEUTRON TYPE
RESI.         0                    : RESIST       - RESISTIVITY TYPE
RM  .OHMM     14.6                 : RM           - RESISTIVITY OF MUD
RMC .OHMM     7.81                 : RMC          - RESISTIVITY OF MUD CAKE
RMF .OHMM     11.3                 : RMF          - RESISTIVITY OF MUD FILTRATE
SUFT.C        4                    : SUFT         - SURFACE TEMPERATURE
~A  DEPTH     PHID     PHIN     RESD       GR
    0.000    0.099    0.596   16.377  102.158
    0.250    0.093    0.598   15.907   98.958
    0.500    0.085    0.599   15.671   95.758
    0.750    0.079    0.593   15.212   90.627
    1.000    0.073    0.575   15.199   88.714
    1.250    0.057    0.569   14.964   84.261
    1.500    0.049    0.570   14.741   84.192
    1.750    0.045    0.530   14.720   87.864
    2.000    0.039    0.502   14.703   90.944
    2.250    0.038    0.443   14.691   92.754
    2.500    0.031    0.427   14.674   88.928
    2.750    0.028    0.411   14.653   88.215
    3.000    0.025    0.393   14.430   95.680
    3.250    0.022    0.377   14.414   96.220
    3.500    0.020    0.378   14.397   90.532
    3.750    0.019    0.379   14.179   77.919
    4.000    0.020    0.380   14.163   67.830
    4.250    0.022    0.380   13.948   69.013
    4.500    0.023    0.378   13.932   77.087
    4.750    0.022    0.380   13.908   76.392
    5.000    0.020    0.388   13.896   71.939
    5.250    0.021    0.392   13.884   69.365
    5.500    0.022    0.384   13.884   66.774
    5.750    0.021    0.382   14.241   69.227
    6.000    0.010    0.507   14.640   73.526
    6.250    0.008    0.533   15.038   78.485
    6.500    0.009    0.554   15.239   76.537
    6.750    0.015    0.583   15.438   68.326
    7.000    0.018    0.602   15.631   70.136
    7.250    0.019    0.616   15.839   78.836
    7.500    0.022    0.637   16.046   88.162
    7.750    0.022    0.650   16.032   84.962
    8.000    0.017    0.648   16.233   73.619
    8.250    0.016    0.622   16.449   74.160
    8.500    0.017    0.487   16.430   76.596
    8.750    0.005    0.488   16.640   77.797
    9.000   -0.007    0.492   16.626   79.590
    9.250   -0.014    0.506   16.611   80.774
    9.500   -0.012    0.525   16.583   76.338
    9.750   -0.008    0.533   16.564   71.868
   10.000   -0.004    0.542   16.545   68.042
   10.250   -0.000    0.555   16.530   65.451
   10.500    0.005    0.563   16.497   66.635
   10.750    0.007    0.566   16.488   70.967
   11.000    0.010    0.563   16.469   79.041
   11.250    0.014    0.556   16.219   80.868
   11.500   -0.001    0.542   16.205   76.381
   11.750    0.000    0.504   16.182   73.807
   12.000    0.002    0.509   16.163   74.990
   12.250    0.008    0.518   16.140   76.174
   12.500    0.013    0.522   16.121   78.002
   12.750    0.018    0.501   16.107   82.944
   13.000    0.017    0.510   15.868   86.024
   13.250    0.006    0.520   15.840   91.592
   13.500    0.004    0.521   15.827   94.655
   13.750    0.004    0.471   15.813   92.081
   14.000    0.009    0.477   15.790   86.984
   14.250    0.013    0.488   15.772   86.898
   14.500    0.015    0.508   15.749   88.709
   14.750    0.012    0.515   15.736   87.387
   15.000    0.006    0.539   15.718   84.813
   15.250    0.003    0.542   15.700   83.509
   15.500    0.006    0.547   15.677   85.319
   15.750    0.007    0.537   15.882   90.870
   16.000    0.008    0.517   15.864   93.933
   16.250    0.010    0.518   15.850   96.387
   16.500    0.010    0.517   15.827   97.588
   16.750    0.009    0.509   15.804   95.589
   17.000    0.005    0.532   15.791   94.302
   17.250    0.004    0.537   15.773   92.337
   17.500    0.004    0.543   15.754   95.417
   17.750    0.004    0.530   15.736  102.255
   18.000    0.003    0.712   15.718   92.774
   18.250   -0.002    0.776   15.705   72.646
   18.500   -0.002    0.802   15.910   73.830
   18.750   -0.000    0.754   16.347   77.519
   19.000    0.001    0.714   16.560   80.599
   19.250    0.009    0.635   16.777   79.260
   19.500    0.014    0.692   16.996   72.302
   19.750    0.021    0.729   16.976   77.870
   20.000    0.023    0.749   17.193   73.417
   20.250    0.015    0.704   17.173   72.096
   20.500    0.003    0.683   17.398   72.027
   20.750   -0.001    0.665   17.625   75.699
   21.000    0.001    0.660   18.114   81.911
   21.250    0.007    0.672   18.351   84.939
   21.500    0.012    0.706   18.855   84.279
   21.750    0.021    0.710   19.367   80.452
   22.000    0.026    0.688   20.470   74.747
   22.250    0.038    0.637   23.225   90.353
   22.500    0.050    0.608   30.342  107.195
   22.750    0.155    0.493 1456.980  115.285
   23.000    0.193    0.481 1263.200  123.359
   23.250    0.294    0.537 1698.040  140.844
   23.500    0.327    0.556 5033.750  126.353
   23.750    0.339    0.573 5474.320  118.768
   24.000    0.365    0.576 6034.690   94.222
   24.250    0.403    0.545 5777.610   90.412
   24.500    0.302    0.497 5770.960   82.201
   24.750    0.348    0.453 5765.980   77.748
   25.000    0.378    0.434 5759.350   85.195
   25.250    0.400    0.453 5834.570   83.874
   25.500    0.377    0.471 6166.690   82.553
   25.750    0.372    0.452 6426.270   86.225
   26.000    0.398    0.489 6328.830   88.018
   26.250    0.407    0.505 6232.870   88.610
   26.500    0.384    0.529 6050.500   87.271
   26.750    0.297    0.419 6216.740   84.697
   27.000    0.324    0.444 6297.940   84.628
   27.250    0.346    0.452 6290.700   89.587
   27.500    0.368    0.460 6195.310   92.007
   27.750    0.374    0.465 6015.780   91.329
   28.000    0.372    0.437 5843.130   89.364
   28.250    0.267    0.468 5673.810   88.043
   28.500    0.288    0.474 5352.810   88.618
   28.750    0.310    0.480 5346.660   91.680
   29.000    0.319    0.483 5491.980   94.743
   29.250    0.346    0.464 5488.810   99.041
   29.500    0.373    0.482 5107.110  100.852
   29.750    0.381    0.507 4822.350   98.278
   30.000    0.400    0.530 4885.330   97.583
   30.250    0.385    0.513 5090.970  100.019
   30.500    0.379    0.479 4231.920  104.352
   30.750    0.379    0.492 1942.910  110.546
   31.000    0.377    0.506 2053.500  117.384
   31.250    0.254    0.512 2571.380  123.579
   31.500    0.264    0.534 1522.380  109.087
   31.750    0.292    0.539 1023.530  119.040
   32.000    0.339    0.544  759.890  143.415
   32.250    0.355    0.517  697.328  145.868
   32.500    0.310    0.539  885.611  140.772
   32.750    0.275    0.546 1156.960  133.814
   33.000    0.289    0.552 1428.830  126.855
   33.250    0.300    0.543 1764.060  119.863
   33.500    0.310    0.542 1761.530  121.064
   33.750    0.323    0.538 1639.970  129.781
   34.000    0.330    0.516 1570.110  140.969
   34.250    0.323    0.518 1966.070  137.159
   34.500    0.292    0.511 4095.230  129.575
   34.750    0.264    0.518 5426.140  117.589
   35.000    0.282    0.526 5419.900  103.707
   35.250    0.305    0.528 5728.410   99.897
   35.500    0.334    0.477 5884.110   96.070
   35.750    0.358    0.489 5713.590   96.002
   36.000    0.364    0.509 5870.570   98.438
   36.250    0.372    0.512 6204.730  103.363
   36.500    0.369    0.488 5857.080  106.443
   36.750    0.344    0.473 5607.560  110.759
   37.000    0.318    0.472 5763.290  115.091
   37.250    0.330    0.497 5675.900  105.611
   37.500    0.328    0.506 5208.600  114.937
   37.750    0.338    0.528 4090.630  123.653
   38.000    0.368    0.544 3915.240  127.343
   38.250    0.370    0.552 4318.500  109.720
   38.500    0.321    0.570 4761.920   99.630
   38.750    0.352    0.585 5032.980   95.177
   39.000    0.388    0.570 3481.760  100.745
   39.250    0.393    0.550 2407.950  111.324
   39.500    0.405    0.551 2118.000  118.771
   39.750    0.410    0.555 1811.070  135.004
   40.000    0.367    0.558 1548.610  144.330
   40.250    0.329    0.568 1381.120  131.091
   40.500    0.305    0.578 1611.480  127.908
   40.750    0.307    0.590 1727.440  120.289
   41.000    0.314    0.608 1878.630  118.341
   41.250    0.319    0.624 7391.780  115.158
   41.500    0.330    0.599 4969.650   98.788
   41.750    0.361    0.582 3436.960   99.972
   42.000    0.389    0.538 2587.990  112.447
   42.250    0.396    0.521 1948.160  119.877
   42.500    0.398    0.532 1945.920  118.555
   42.750    0.375    0.540 2207.220  116.608
   43.000    0.330    0.550 1134.930  113.407
   43.250    0.327    0.584  830.541  115.235
