~VERSION INFORMATION
 VERS.                 2.0:   CWLS LOG ASCII STANDARD -VERSION 2.0
 WRAP.                  NO:   ONE LINE PER DEPTH STEP
~WELL INFORMATION BLOCK
#MNEM.UNIT           DATA                    DESCRIPTION OF MNEMONIC
#---------    -------------------            -------------------------------
# Generated from Intellog Unique Number	CN_91_93/WELL/3916
WELL.         13-02-092-08W4                 : Well_name    - WELL
LOC .         AA/13-02-092-08W4/0            : Location     - LOCATION
UWI .         AA/13-02-092-08W400            : Uwi          - UNIQUE WELL ID
ENTR.         JOETTE                         : Entered      - ENTERED BY
SRVC.         SCHLUMBERGER                   : Scn          - SERVICE COMPANY
DATE.         01/15/92                       : Date         - LOG DATE
STRT.F        50                             : top_depth    - START DEPTH
STOP.F        650.394                        : bot_depth    - STOP DEPTH
STEP.F        0.8202                         : increment    - STEP LENGTH
 NULL. -999.2500:NULL Value
~CURVE INFORMATION BLOCK
#MNEM UNIT       ERCB CURVE CODE    CURVE DESCRIPTION
#-----------   ------------------   ----------------------------------
DEPT.F        00 001 00 00         : DEPTH        - DEPTH
GR  .API      00 310 00 00         : GR           - GAMMA RAY
CALI.IN       00 280 01 00         : CAL          - CALIPER
NPHI.V/V      00 330 00 00         : PHIN         - NEUTRON POROSITY (SANDSTONE)
ILD .OHMM     00 120 00 00         : RESD         - DEEP RESISTIVITY (DIL)
~PARAMETER INFORMATION
#MNEM.UNIT           DATA             DESCRIPTION OF MNEMONIC
#---------         -----------     ------------------------------
GL  .M        457.505              : gl           - GROUND LEVEL ELEVATION
EREF.M        458.724              : kb           - ELEVATION OF DEPTH REFERENCE
DATM.M        458.724              : datum        - DATUM ELEVATION
TDD .M        202.082              : tdd          - TOTAL DEPTH DRILLER
RUN .         ONE                  : Run          - RUN NUMBER
ENG .         BILL                 : Engineer     - RECORDING ENGINEER
WIT .         JIM                  : Witness      - WITNESSED BY
MUD .         GEL                  : Mud_type     - MUD TYPE
MATR.         SANDSTONE            : Logunit      - NEUTRON MATRIX
TMAX.F        49                   : BHT          - MAXIMUM RECORDED TEMPERATURE
BHTD.F        663                  : BHTDEP       - MAXIMUM RECORDED TEMPERATURE
RMT .F        49                   : MDTP         - TEMPERATURE OF MUD
MUDD.LB/G     9.6                  : MWT          - MUD DENSITY
NEUT.         1                    : NEUTRON      - NEUTRON TYPE
RESI.         0                    : RESIST       - RESISTIVITY TYPE
RM  .OHMM     2.3                  : RM           - RESISTIVITY OF MUD
RMC .OHMM     1.7                  : RMC          - RESISTIVITY OF MUD CAKE
RMF .OHMM     1.7                  : RMF          - RESISTIVITY OF MUD FILTRATE
SUFT.F        39.2                 : SUFT         - SURFACE TEMPERATURE
~A  DEPTH       GR      CAL     PHIN     RESD
   50.000   42.008    8.653    0.402   42.818
   50.820   40.781    8.490    0.336   46.211
   51.640   41.986    8.408    0.343   49.874
   52.461   44.411    8.407    0.346   46.452
   53.281   46.836    8.650    0.339   45.753
   54.101   48.044    9.015    0.309   46.725
   54.921   47.422    9.339    0.291   39.691
   55.742   45.586    9.135    0.279   34.321
   56.562   41.314    8.769    0.296   29.154
   57.382   37.651    8.403    0.357   28.697
   58.202   37.032    8.159    0.408   54.887
   59.022   38.240    8.280    0.411   57.094
   59.843   43.706    8.563    0.298   44.233
   60.663   47.349    9.090    0.285   34.883
   61.483   51.601    9.820    0.285   32.512
   62.303   53.417    9.008    0.280   33.224
   63.123   55.234    8.439    0.275   33.952
   63.944   55.833    8.032    0.267   33.996
   64.764   53.993    7.828    0.256   34.718
   65.584   49.724    7.828    0.253   36.810
   66.404   46.665    7.827    0.248   36.929
   67.224   50.308    7.826    0.241   35.035
   68.045   52.124    7.826    0.232   32.632
   68.865   48.464    7.825    0.226   32.696
   69.685   46.018    7.783    0.232   33.390
   70.505   46.006    7.783    0.241   34.144
   71.326   48.426    7.782    0.253   34.824
   72.146   49.030    7.782    0.256   34.322
   72.966   49.626    7.821    0.253   34.411
   73.786   49.010    7.821    0.257   35.165
   74.606   45.347    7.861    0.256   35.866
   75.427   42.290    7.860    0.252   35.959
   76.247   41.671    7.900    0.251   38.175
   77.067   42.270    7.899    0.250   40.422
   77.887   41.042    7.899    0.247   46.134
   78.707   36.770    7.898    0.245   48.850
   79.528   36.758    7.857    0.241   55.752
   80.348   42.833    7.977    0.236   60.132
   81.168   40.388    8.098    0.230   54.017
   81.988   37.943    8.138    0.225   51.213
   82.808   36.715    8.137    0.229   46.005
   83.629   36.099    8.137    0.234   46.982
   84.449   33.648    8.136    0.245   48.042
   85.269   31.206    8.176    0.257   48.999
   86.089   29.369    8.175    0.274   51.917
   86.909   27.532    8.215    0.295   56.068
   87.730   26.913    8.255    0.313   62.864
   88.550   26.295    8.336    0.313   65.308
   89.370   26.886    8.376    0.313   71.887
   90.190   26.878    8.456    0.313   73.366
   91.010   28.086    8.455    0.317   74.924
   91.831   28.685    8.536    0.314   73.749
   92.651   29.283    8.535    0.312   71.267
   93.471   30.494    8.575    0.303   68.869
   94.291   31.698    8.615    0.296   66.594
   95.112   33.512    8.614    0.279   64.353
   95.932   34.722    8.654    0.262   63.385
   96.752   37.145    8.653    0.245   63.509
   97.572   38.962    8.653    0.240   62.512
   98.392   38.954    8.652    0.241   58.262
   99.213   39.548    8.651    0.242   54.265
  100.033   39.538    8.651    0.246   51.449
  100.853   38.310    8.650    0.251   50.642
  101.673   35.867    8.649    0.252   50.773
  102.493   30.378    8.649    0.256   58.986
  103.314   26.710    8.648    0.262   73.911
  104.134   26.702    8.647    0.273   74.007
  104.954   27.296    8.687    0.281   72.846
  105.774   28.509    8.686    0.295   70.394
  106.594   29.716    8.726    0.302   70.624
  107.415   31.532    8.726    0.303   70.808
  108.235   28.471    8.725    0.306   63.566
  109.055   27.248    8.724    0.309   61.466
  109.875   24.803    8.764    0.307   68.827
  110.696   23.573    8.763    0.286   71.549
  111.516   23.565    8.763    0.287   69.186
  112.336   22.946    8.762    0.293   69.366
  113.156   22.325    8.761    0.300   74.912
  113.976   22.315    8.761    0.303   80.849
  114.797   25.346    8.760    0.306   87.257
  115.617   27.774    8.759    0.308   87.484
  116.437   28.373    8.799    0.314   78.536
  117.257   26.531    8.798    0.330   75.942
  118.077   25.915    8.838    0.330   70.733
  118.898   27.731    8.918    0.317   60.085
  119.718   30.765    8.918    0.320   52.921
  120.538   35.623    8.958    0.324   45.760
  121.358   40.486    8.957    0.330   36.782
  122.178   46.564    8.956    0.334   33.634
  122.999   51.425    8.956    0.329   28.590
  123.819   48.977    8.752    0.322   25.665
  124.639   47.138    8.711    0.311   23.468
  125.459   47.128    8.548    0.301   22.694
  126.280   47.726    8.425    0.306   22.323
  127.100   47.714    8.262    0.317   22.396
  127.920   46.486    8.180    0.303   22.454
  128.740   45.867    8.139    0.291   22.498
  129.560   45.860    8.098    0.291   23.403
  130.381   45.241    8.097    0.289   24.813
  131.201   40.358    8.096    0.286   26.762
  132.021   34.871    8.096    0.291   39.527
  132.841   28.161    8.095    0.302   50.383
  133.661   23.889    8.094    0.314   60.768
  134.482   21.439    8.134    0.329   68.045
  135.302   20.825    8.174    0.340   68.222
  136.122   20.815    8.214    0.344   64.723
  136.942   22.020    8.213    0.348   62.545
  137.762   24.445    8.294    0.358   60.440
  138.583   28.088    8.334    0.367   55.267
  139.403   33.557    8.333    0.363   46.947
  140.223   39.027    8.332    0.306   35.056
  141.043   46.929    8.332    0.298   28.160
  141.864   49.965    8.331    0.290   24.819
  142.684   48.124    8.330    0.289   22.694
  143.504   47.505    8.289    0.290   21.544
  144.324   48.101    8.207    0.291   21.615
  145.144   49.917    8.125    0.295   22.499
  145.965   51.130    8.124    0.296   22.947
  146.785   51.729    8.083    0.299   25.242
  147.605   52.325    8.042    0.297   26.745
  148.425   51.706    8.000    0.288   26.832
  149.245   51.696    8.000    0.289   25.930
  150.066   54.121    7.999    0.297   24.600
  150.886   54.111    7.998    0.302   22.897
  151.706   54.096    7.957    0.309   22.127
  152.526   54.692    7.956    0.292   24.793
  153.346   54.687    7.915    0.280   26.286
  154.167   56.504    7.915    0.277   25.385
  154.987   58.929    7.873    0.272   24.083
  155.807   58.919    7.832    0.260   24.146
  156.627   54.036    7.750    0.250   32.526
  157.448   50.373    7.709    0.247   38.489
  158.268   46.710    7.627    0.255   40.038
  159.088   48.526    7.586    0.275   33.390
  159.908   52.169    7.544    0.302   28.364
  160.728   54.594    7.503    0.352   21.974
  161.549   50.929    7.462    0.364   25.529
  162.369   44.831    7.420    0.351   37.018
  163.189   36.297    7.379    0.340   42.221
  164.009   33.243    7.338    0.359   51.870
  164.829   40.539    7.296    0.378   60.300
  165.650   51.487    7.255    0.408   38.859
  166.470   66.695    7.214    0.436   26.939
  167.290   76.426    7.213    0.467   16.721
  168.110   80.675    7.213    0.484   13.187
  168.930   65.447    7.212    0.501   11.417
  169.751   51.434    7.211    0.495   12.551
  170.571   34.984    7.210    0.446   15.696
  171.391   28.886    7.210    0.409   26.373
  172.211   24.005    7.209    0.372   38.952
  173.031   20.339    7.168    0.342   74.453
  173.852   19.114    7.167    0.345   91.469
  174.672   20.317    7.126    0.358   88.391
  175.492   21.524    7.084    0.366   82.328
  176.312   23.341    7.084    0.372   72.606
  177.133   22.722    7.083    0.375   63.949
  177.953   20.885    7.123    0.374   58.475
  178.773   19.658    7.163    0.369   67.978
  179.593   19.642    7.243    0.367   76.118
  180.413   20.246    7.324    0.363   80.651
  181.234   20.845    7.363    0.358   77.937
  182.054   18.400    7.363    0.353   75.363
  182.874   16.561    7.362    0.349   74.133
  183.694   16.553    7.362    0.344   74.374
  184.514   17.758    7.279    0.341   78.906
  185.335   18.963    7.238    0.340   80.478
  186.155   18.956    7.278    0.347   83.715
  186.975   18.946    7.278    0.356   83.933
  187.795   18.933    7.358    0.366   81.161
  188.615   18.923    7.398    0.363   81.425
  189.436   18.910    7.438    0.360   83.155
  190.256   18.291    7.478    0.350   89.745
  191.076   18.281    7.518    0.338   95.152
  191.896   18.274    7.517    0.332   98.979
