~Version Information Block
VERS .                 2.00:  CWLS LOG ASCII STANDARD - VERSION 2.00
WRAP .                   NO:  One line per depth step
~Well Information Block
#MNEM.UNIT        Data Type   Information
#---------- ----------------  -----------
STRT .M                 6.1           :  START DEPTH
STOP .M                  73           :  STOP DEPTH
STEP .M                 0.3           :  STEP
NULL .              -999.25           :  NULL VALUE
COMP . BPOG OPERATIONS LTD            :  COMPANY
WELL . BPOG ATHABASCA OV WELL #4-73-5C:  WELL
FLD  . TAR SANDS                      :  FIELD
LOC  . 11-18-095-11W4                 :  LOCATION
PROV . ALBERTA                        :  PROVINCE
SRVC . SCHLUMBERGER                   :  SERVICE COMPANY
DATE . 12 FEB 74                      :  LOG DATE
UWI  . AA/11-18-095-11W4/0            :  UNIQUE WELL ID
~Curve Information Block
#MNEM.UNIT         API CODE   Curve Description
#---------- ----------------  -----------------
DEPTH.M                    :  Transferred from LOGMATE/ESP.
DENS .KG/M3                 :  Loaded from 950216.154427
GR   .API                  :  Loaded from 950216.154427
RESD .OHMM                 :  Loaded from 950216.154427
~Parameter Information Block
#MNEM.UNIT            Value   Description
#---------- ----------------  -----------
PROJECT.            MOS_95_11:
SET  .                  RAW:
~A        DEPTH           DENS             GR           RESD
         6.1000      2274.8999        35.0000      -999.2500
         6.4000      2265.2000        34.3500      -999.2500
         6.7000      2209.7000        38.8600      -999.2500
         7.0000      2142.8000        44.3000      -999.2500
         7.3000      2054.5000        48.4500      -999.2500
         7.6000      2018.3000        52.7100      -999.2500
         7.9000      2160.5000        56.7500      -999.2500
         8.2000      2096.8999        62.7000      -999.2500
         8.5000      2128.3000        68.3400      -999.2500
         8.8000      2154.1001        62.9100      -999.2500
         9.1000      2105.1001        64.8600         2.4500
         9.4000      2139.1001        60.2800         3.3300
         9.7000      2119.5000        56.5800         4.2200
        10.0000      2173.3000        53.7300         5.9200
        10.3000      2183.8000        59.1000         6.8300
        10.6000      2210.1001        69.5700         5.9700
        10.9000      2069.5000        79.4600         5.2500
        11.2000      2113.8000        78.2600         5.7400
        11.5000      2062.7000        76.3200         6.0900
        11.8000      2094.2000        74.5800         6.4600
        12.1000      2098.7000        77.5900         6.9000
        12.4000      2113.7000        79.5400         7.1100
        12.7000      2097.7000        77.6000         7.3500
        13.0000      2109.8000        73.2200         7.7200
        13.3000      2148.1001        83.2200         6.7800
        13.6000      2133.2000        78.6900         4.9100
        13.9000      2148.3000        76.9900         4.1700
        14.2000      2145.1001        80.3100         6.0100
        14.5000      2196.1001        77.0000         6.2000
        14.8000      2165.6001        79.1800         4.1700
        15.1000      2100.8000        92.0900         3.0700
        15.4000      2129.3999        90.5800         3.0100
        15.7000      2149.2000        86.7600         3.3400
        16.0000      2172.1001        81.8700         5.0300
        16.3000      2233.7000        77.0200         6.8300
        16.6000      2338.8000        71.9000         8.4000
        16.9000      2259.3000        76.4400         6.9400
        17.2000      2176.8999        79.8500         5.7700
        17.5000      2134.6001        65.7300         6.5900
        17.8000      2111.5000        63.6700         7.5300
        18.1000      2193.0000        59.4600         5.9500
        18.4000      2129.5000        66.1200         4.6400
        18.7000      2076.5000        61.7400         6.0600
        19.0000      2103.6001        51.2800         9.6900
        19.3000      2162.6001        48.9500        13.1000
        19.6000      2166.1001        50.7400        16.5400
        19.9000      2137.5000        44.4400        19.7700
        20.2000      2132.1001        40.1000        22.8000
        20.5000      2129.5000        40.8700        25.4000
        20.8000      2106.6001        38.6200        21.9300
        21.1000      2152.5000        45.7100        18.9600
        21.4000      2114.5000        43.5800        15.8400
        21.7000      2155.3000        49.5300        31.9600
        22.0000      2119.8999        48.1800        46.5500
        22.3000      2089.5000        45.9300        45.0300
        22.6000      2138.2000        48.2300        37.0100
        22.9000      2175.3999        55.5600        20.5000
        23.2000      2171.0000        65.8000        15.7600
        23.5000      2231.5000        72.0700        13.8000
        23.8000      2189.8000        69.8500        24.0000
        24.1000      2209.3000        65.4400        38.6900
        24.4000      2211.3999        61.6100        52.9900
        24.7000      2343.6001        58.2200        18.2700
        25.0000      2437.8000        64.5300        11.2400
        25.3000      2327.8999        72.2900        13.6100
        25.6000      2229.6001        67.6800        22.6600
        25.9000      2181.0000        66.1300        31.4900
        26.2000      2110.1001        68.4000        21.4400
        26.5000      2155.6001        69.9900        14.5700
        26.8000      2167.3999        76.4600        10.9800
        27.1000      2098.1001        83.9900         8.3800
        27.4000      2125.8999        87.0700         7.0400
        27.7000      2060.8000        83.4800        10.0100
        28.0000      2105.1001        69.8800        19.7700
        28.3000      2081.7000        63.1500        29.2700
        28.6000      2112.3000        60.0300        23.4100
        28.9000      2185.1001        64.6500        18.3200
        29.2000      2215.5000        61.5700        22.2700
        29.5000      2151.3000        51.3800        39.1600
        29.8000      2165.0000        40.7200        50.1600
        30.1000      2170.3999        41.7700        53.4100
        30.4000      2150.7000        43.8400        39.5200
        30.7000      2124.1001        43.7000        50.9900
        31.0000      2123.6001        51.8600        63.7900
        31.3000      2136.8999        47.7200        63.7500
        31.6000      2138.2000        49.6700        41.1900
        31.9000      2166.2000        54.5200        35.3600
        32.2000      2166.8999        57.2200        42.6600
        32.5000      2138.8000        51.6200        33.5700
        32.8000      2155.8000        52.8300        23.1100
        33.1000      2205.2000        60.8300        15.5600
        33.4000      2254.5000        60.7300        19.2300
        33.7000      2237.3000        63.6200        28.5700
        34.0000      2204.3999        59.6800        22.8500
        34.3000      2169.2000        63.4000        13.2200
        34.6000      2207.6001        72.8900        12.0900
        34.9000      2174.3000        72.4400        14.1200
        35.2000      2177.6001        70.1100        10.3700
        35.5000      2161.8000        66.7500        11.9800
        35.8000      2102.3000        61.8700        12.7800
        36.1000      2163.0000        62.0900        12.3000
        36.4000      2199.3000        66.3900        10.3300
        36.7000      2178.7000        62.1400        16.2700
        37.0000      2163.1001        50.8100        26.1300
        37.3000      2106.7000        52.5200        47.8100
        37.6000      2135.3000        56.1200        30.7200
        37.9000      2198.3000        60.7400        17.9600
        38.2000      2279.8000        70.3500        20.7100
        38.5000      2233.5000        63.5800        17.5300
        38.8000      2162.3000        80.1400        11.7600
        39.1000      2213.5000        80.7100        11.7600
        39.4000      2125.8000        68.2500        32.2100
        39.7000      2103.7000        55.3100        50.5300
        40.0000      2119.7000        44.4100        68.9500
        40.3000      2116.5000        46.8300        88.6400
        40.6000      2098.5000        46.6600        62.0100
        40.9000      2094.1001        53.2800        34.8500
        41.2000      2133.0000        57.6700        28.1800
        41.5000      2175.1001        61.3100        30.1200
        41.8000      2190.2000        57.1300        34.1700
        42.1000      2169.8999        53.1100        24.7900
        42.4000      2183.0000        58.1200        19.1600
        42.7000      2243.6001        65.0600        17.2100
        43.0000      2256.3000        66.1800        20.9500
        43.3000      2211.6001        58.0400        16.5200
        43.6000      2227.5000        64.5000        12.2000
        43.9000      2267.7000        73.4400        11.5500
        44.2000      2280.3999        74.1300        13.4600
        44.5000      2310.0000        68.9700        14.3600
        44.8000      2285.5000        62.4800        12.4400
        45.1000      2271.1001        65.0200        14.8200
        45.4000      2259.3999        65.0800        14.2300
