~VERSION INFORMATION
 VERS.                 2.0:   CWLS LOG ASCII STANDARD -VERSION 2.0
 WRAP.                  NO:   ONE LINE PER DEPTH STEP
~WELL INFORMATION BLOCK
#MNEM.UNIT           DATA                    DESCRIPTION OF MNEMONIC
#---------    -------------------            -------------------------------
# Generated from Intellog Unique Number	CX_WELLS/WELL/3897
WELL.         PEX POEJ MCMURRAY              : Well_name    - WELL
LOC .         AA/10-08-088-16W4/0            : Location     - LOCATION
UWI .         AA/10-08-088-16W400            : Uwi          - UNIQUE WELL ID
ENTR.         TIM                            : Entered      - ENTERED BY
SRVC.         SCHLUMBERGER                   : Scn          - SERVICE COMPANY
STRT.M        75                             : top_depth    - START DEPTH
STOP.M        270                            : bot_depth    - STOP DEPTH
STEP.M        0.25                           : increment    - STEP LENGTH
 NULL. -999.2500:NULL Value
~CURVE INFORMATION BLOCK
#MNEM UNIT       ERCB CURVE CODE    CURVE DESCRIPTION
#-----------   ------------------   ----------------------------------
DEPT.M        00 001 00 00         : DEPTH        - DEPTH
GR  .API      00 310 00 00         : GR           - GAMMA RAY
NPHI.V/V      00 330 00 00         : PHIN         - NEUTRON POROSITY (SANDSTONE)
DPHI.V/V      00 890 00 00         : PHID         - DENSITY POROSITY (SANDSTONE)
ILD .OHMM     00 120 00 00         : RESD         - DEEP RESISTIVITY (DIL)
~PARAMETER INFORMATION
#MNEM.UNIT           DATA             DESCRIPTION OF MNEMONIC
#---------         -----------     ------------------------------
GL  .M        539                  : gl           - GROUND LEVEL ELEVATION
EREF.M        542.8                : kb           - ELEVATION OF DEPTH REFERENCE
DATM.M        542.8                : datum        - DATUM ELEVATION
TDD .M        279                  : tdd          - TOTAL DEPTH DRILLER
RUN .         ONE                  : Run          - RUN NUMBER
ENG .         BILL                 : Engineer     - RECORDING ENGINEER
WIT .         JIM                  : Witness      - WITNESSED BY
MUD .         GEL                  : Mud_type     - MUD TYPE
MATR.         SANDSTONE            : Logunit      - NEUTRON MATRIX
TMAX.C        13.9                 : BHT          - MAXIMUM RECORDED TEMPERATURE
BHTD.M        278                  : BHTDEP       - MAXIMUM RECORDED TEMPERATURE
MATR.         1                    : LOGUNIT      - NEUTRON MATRIX
RMT .C        9                    : MDTP         - TEMPERATURE OF MUD
NEUT.         1                    : NEUTRON      - NEUTRON TYPE
RESI.         6.98                 : RESIST       - RESISTIVITY TYPE
RMC .OHMM     8.86                 : RMC          - RESISTIVITY OF MUD CAKE
RMF .OHMM     7.09                 : RMF          - RESISTIVITY OF MUD FILTRATE
SUFT.C        4                    : SUFT         - SURFACE TEMPERATURE
~A  DEPTH       GR     PHIN     PHID     RESD
   75.000   40.719    0.317    0.317   36.203
   75.250   38.408    0.325    0.260   45.194
   75.500   37.851    0.322    0.204   61.870
   75.750   37.307    0.325    0.217   65.447
   76.000   37.349    0.327    0.235   64.350
   76.250   37.417    0.310    0.262   63.208
   76.500   38.085    0.303    0.281   59.902
   76.750   39.337    0.353    0.273   58.854
   77.000   40.588    0.405    0.219   56.770
   77.250   42.438    0.382    0.166   52.807
   77.500   44.275    0.326    0.155   50.033
   77.750   47.349    0.329    0.191   49.145
   78.000   50.995    0.396    0.245   46.575
   78.250   54.028    0.427    0.255   44.937
   78.500   58.272    0.444    0.266   43.356
   78.750   61.319    0.461    0.305   42.608
   79.000   65.591    0.460    0.329   41.873
   79.250   67.441    0.457    0.314   41.161
   79.500   69.277    0.456    0.293   41.181
   79.750   68.734    0.452    0.282   40.481
   80.000   67.619    0.451    0.276   39.792
   80.250   67.647    0.447    0.294   39.812
   80.500   67.702    0.443    0.318   39.852
   80.750   67.757    0.437    0.321   39.174
   81.000   67.227    0.437    0.320   39.961
   81.250   66.698    0.438    0.320   39.991
   81.500   65.556    0.440    0.322   40.031
   81.750   64.414    0.446    0.332   40.815
   82.000   63.857    0.453    0.339   40.866
   82.250   62.715    0.456    0.342   40.896
   82.500   62.784    0.458    0.344   41.708
   82.750   62.240    0.466    0.343   41.739
   83.000   61.683    0.481    0.347   42.567
   83.250   61.738    0.470    0.348   44.218
   83.500   61.807    0.447    0.344   44.240
   83.750   61.848    0.429    0.339   45.979
   84.000   61.332    0.427    0.330   46.868
   84.250   61.373    0.457    0.324   46.903
   84.500   60.245    0.497    0.329   47.810
   84.750   59.090    0.521    0.356   47.869
   85.000   56.153    0.491    0.362   47.905
   85.250   53.243    0.459    0.369   47.953
   85.500   53.271    0.462    0.372   48.904
   85.750   53.340    0.469    0.360   48.953
   86.000   53.979    0.469    0.355   49.912
   86.250   55.245    0.473    0.353   49.974
   86.500   56.497    0.480    0.355   50.024
   86.750   55.967    0.486    0.356   50.061
   87.000   56.022    0.485    0.360   49.210
   87.250   56.063    0.481    0.367   49.259
   87.500   56.730    0.476    0.364   49.308
   87.750   56.772    0.472    0.368   48.457
   88.000   56.840    0.451    0.374   48.506
   88.250   58.078    0.435    0.374   48.554
   88.500   60.527    0.435    0.363   48.614
   88.750   62.405    0.442    0.355   47.776
   89.000   61.249    0.446    0.349   47.823
   89.250   60.733    0.446    0.348   47.859
   89.500   60.761    0.448    0.354   47.907
   89.750   62.013    0.454    0.350   47.955
   90.000   62.081    0.460    0.354   47.151
   90.250   61.524    0.467    0.353   47.186
   90.500   59.812    0.484    0.350   47.233
   90.750   58.656    0.505    0.351   46.418
   91.000   58.099    0.460    0.352   45.628
   91.250   59.977    0.468    0.352   44.023
   91.500   61.215    0.469    0.351   40.950
   91.750   64.289    0.469    0.342   38.780
   92.000   65.527    0.472    0.325   34.127
   92.250   67.377    0.482    0.309   31.150
   92.500   68.615    0.489    0.273   27.413
   92.750   74.668    0.496    0.251   23.252
   93.000   78.912    0.503    0.200   19.363
   93.250   82.558    0.507    0.145   16.729
   93.500   86.815    0.521    0.224   13.931
   93.750   91.059    0.540    0.262   11.182
   94.000   95.901    0.562    0.258   10.023
   94.250   97.153    0.515    0.258    9.326
   94.500   96.610    0.516    0.261    9.160
   94.750   94.869    0.525    0.267    9.169
   95.000   93.129    0.544    0.282    9.351
   95.250   89.009    0.556    0.290   10.263
   95.500   86.058    0.566    0.301   12.578
   95.750   81.938    0.521    0.281   15.701
   96.000   80.184    0.488    0.146   18.897
   96.250   77.247    0.441    0.163   21.911
   96.500   73.113    0.440    0.254   26.860
   96.750   67.796    0.440    0.294   29.485
   97.000   64.846    0.447    0.316   29.515
   97.250   63.119    0.455    0.330   27.448
   97.500   65.554    0.456    0.332   25.054
   97.750   71.607    0.450    0.319   19.743
   98.000   77.048    0.457    0.295   14.454
   98.250   85.480    0.471    0.201    9.831
   98.500   98.714    0.525    0.219    7.606
   98.750  104.753    0.569    0.251    6.332
   99.000  106.603    0.584    0.262    5.472
   99.250  103.109    0.588    0.260    5.090
   99.500  101.940    0.563    0.264    5.095
   99.750   98.989    0.556    0.269    5.290
  100.000   95.454    0.552    0.277    6.483
  100.250   89.524    0.548    0.285    8.397
  100.500   82.399    0.549    0.292   14.336
  100.750   77.666    0.550    0.294   17.250
  101.000   70.540    0.518    0.275   20.005
  101.250   69.997    0.503    0.298   21.955
  101.500   76.036    0.461    0.314   24.555
  101.750   84.483    0.444    0.287   25.030
  102.000   91.120    0.451    0.283   25.073
  102.250   96.561    0.456    0.300   24.635
  102.500  105.007    0.468    0.299   24.198
  102.750  110.462    0.489    0.289   21.690
  103.000  114.107    0.512    0.272   18.062
  103.250  114.760    0.566    0.262   13.974
  103.500  116.012    0.602    0.255    8.669
  103.750  117.278    0.606    0.244    6.960
  104.000  117.319    0.596    0.228    6.238
  104.250  117.388    0.593    0.202    6.018
  104.500  115.648    0.585    0.203    5.915
  104.750  114.492    0.574    0.210    5.921
  105.000  113.364    0.564    0.222    5.925
  105.250  113.419    0.558    0.232    6.042
  105.500  115.283    0.548    0.236    6.048
  105.750  116.535    0.540    0.241    6.166
  106.000  116.603    0.526    0.241    6.288
  106.250  116.631    0.515    0.237    6.295
  106.500  116.088    0.513    0.232    6.418
  106.750  115.544    0.512    0.225    6.544
  107.000  113.205    0.505    0.209    6.550
  107.250  110.282    0.487    0.205    6.560
  107.500  109.127    0.487    0.207    6.444
  107.750  111.575    0.500    0.204    6.334
  108.000  115.833    0.519    0.220    6.113
  108.250  120.689    0.528    0.231    6.006
  108.500  124.933    0.559    0.234    5.795
  108.750  126.783    0.583    0.213    5.592
  109.000  124.444    0.595    0.220    5.394
  109.250  122.690    0.612    0.233    5.109
  109.500  117.373    0.622    0.248    4.841
  109.750  114.423    0.619    0.269    4.587
  110.000  111.499    0.625    0.288    4.506
  110.250  110.942    0.632    0.286    4.347
  110.500  108.005    0.620    0.292    4.194
  110.750  103.871    0.606    0.300    4.046
  111.000  105.137    0.617    0.304    3.835
  111.250  106.987    0.631    0.303    3.767
  111.500  107.641    0.646    0.302    3.702
  111.750  107.111    0.620    0.301    3.573
  112.000  105.983    0.607    0.300    3.576
  112.250  105.412    0.594    0.302    3.648
  112.500  104.882    0.595    0.299    3.650
  112.750  104.325    0.596    0.281    3.722
  113.000  103.211    0.597    0.267    4.010
  113.250  102.041    0.558    0.269    4.322
  113.500   99.703    0.556    0.276    4.486
  113.750   95.569    0.557    0.283    4.924
  114.000   90.837    0.594    0.281    5.608
  114.250   84.309    0.604    0.274    6.503
  114.500   77.782    0.593    0.260    7.684
  114.750   70.656    0.577    0.220   10.135
  115.000   63.516    0.450    0.223   13.129
  115.250   55.806    0.448    0.290   17.005
  115.500   54.664    0.448    0.317   20.087
  115.750   54.719    0.451    0.339   22.045
  116.000   54.788    0.459    0.334   23.326
  116.250   54.829    0.470    0.328   23.782
  116.500   54.925    0.480    0.320   24.248
  116.750   55.565    0.481    0.320   24.723
  117.000   56.204    0.475    0.326   25.214
  117.250   56.259    0.466    0.333   25.239
  117.500   56.913    0.453    0.341   24.797
  117.750   56.981    0.445    0.339   24.822
  118.000   57.621    0.450    0.337   24.400
  118.250   57.690    0.456    0.334   24.418
