~VERSION INFORMATION
 VERS.                 2.0:   CWLS LOG ASCII STANDARD -VERSION 2.0
 WRAP.                  NO:   ONE LINE PER DEPTH STEP
~WELL INFORMATION BLOCK
#MNEM.UNIT           DATA                    DESCRIPTION OF MNEMONIC
#---------    -------------------            -------------------------------
# Generated from Intellog Unique Number	CN_94_101/WELL/5061
WELL.         16-34-099-13W4                 : Well_name    - WELL
LOC .         AA/16-34-099-13W4/0            : Location     - LOCATION
UWI .         AA/16-34-099-13W400            : Uwi          - UNIQUE WELL ID
ENTR.         TIM                            : Entered      - ENTERED BY
SRVC.         SCHLUMBERGER                   : Scn          - SERVICE COMPANY
DATE.         08/13/92                       : Date         - LOG DATE
STRT.M        344.424                        : top_depth    - START DEPTH
STOP.M        557.674                        : bot_depth    - STOP DEPTH
STEP.M        0.25                           : increment    - STEP LENGTH
 NULL. -999.2500:NULL Value
~CURVE INFORMATION BLOCK
#MNEM UNIT       ERCB CURVE CODE    CURVE DESCRIPTION
#-----------   ------------------   ----------------------------------
DEPT.M        00 001 00 00         : DEPTH        - DEPTH
NPHI.V/V      00 330 00 00         : PHIN         - NEUTRON POROSITY (SANDSTONE)
ILD .OHMM     00 120 00 00         : RESD         - DEEP RESISTIVITY (DIL)
GR  .API      00 310 00 00         : GR           - GAMMA RAY
~PARAMETER INFORMATION
#MNEM.UNIT           DATA             DESCRIPTION OF MNEMONIC
#---------         -----------     ------------------------------
GL  .M        802.081              : gl           - GROUND LEVEL ELEVATION
EREF.M        805.099              : kb           - ELEVATION OF DEPTH REFERENCE
DATM.M        805.099              : datum        - DATUM ELEVATION
TDD .M        560.832              : tdd          - TOTAL DEPTH DRILLER
RUN .         ONE                  : Run          - RUN NUMBER
ENG .         BILL                 : Engineer     - RECORDING ENGINEER
WIT .         JIM                  : Witness      - WITNESSED BY
MUD .         GEL                  : Mud_type     - MUD TYPE
MATR.         SANDSTONE            : Logunit      - NEUTRON MATRIX
TMAX.C        21.1111              : BHT          - MAXIMUM RECORDED TEMPERATURE
BHTD.M        560.832              : BHTDEP       - MAXIMUM RECORDED TEMPERATURE
RMT .C        21.1111              : MDTP         - TEMPERATURE OF MUD
MUDD.KG/M     1090                 : MWT          - MUD DENSITY
NEUT.         1                    : NEUTRON      - NEUTRON TYPE
RESI.         0                    : RESIST       - RESISTIVITY TYPE
RM  .OHMM     6                    : RM           - RESISTIVITY OF MUD
RMC .OHMM     6                    : RMC          - RESISTIVITY OF MUD CAKE
RMF .OHMM     6                    : RMF          - RESISTIVITY OF MUD FILTRATE
SUFT.C        4                    : SUFT         - SURFACE TEMPERATURE
~A  DEPTH     PHIN     RESD       GR
# ...
  398.674    0.402    5.660   61.325
  398.924    0.403    5.773   65.384
  399.174    0.404    5.777   67.829
  399.424    0.399    5.780   68.246
  399.674    0.391    5.783   67.049
  399.924    0.381    5.679   63.823
  400.174    0.370    5.682   60.195
  400.424    0.351    5.685   57.377
  400.674    0.319    5.689   55.772
  400.924    0.238    5.693   55.384
  401.174    0.277    5.588   54.993
  401.424    0.316    5.593   56.624
  401.674    0.339    5.595   57.848
  401.924    0.400    5.600   61.506
  402.174    0.403    5.604   63.947
  402.424    0.406    5.715   64.365
  402.674    0.412    5.718   62.760
  402.924    0.417    5.722   65.201
  403.174    0.423    5.726   68.049
  403.424    0.428    5.839   66.445
  403.674    0.438    5.844   63.225
  403.924    0.445    5.847   61.218
  404.174    0.452    5.853   60.015
  404.424    0.453    5.855   59.216
  404.674    0.453    5.860   58.420
  404.924    0.445    5.863   58.433
  405.174    0.444    5.756   60.473
  405.424    0.446    5.649   69.390
  405.674    0.446    5.339   73.041
  405.924    0.443    4.587   80.337
  406.174    0.452    4.252   85.205
  406.424    0.509    3.653   93.718
  406.674    0.529    3.079   96.972
  406.924    0.538    2.450   95.367
  407.174    0.547    1.950   94.166
  407.424    0.557    1.676   93.775
  407.674    0.563    1.583   93.785
  407.924    0.571    1.554   92.585
  408.174    0.580    1.555   90.177
  408.424    0.583    1.617   90.595
  408.674    0.584    1.649   91.010
  408.924    0.583    1.748   93.050
  409.174    0.578    1.816   94.681
  409.424    0.573    1.925   95.905
  409.674    0.563    2.001   97.537
  409.924    0.560    2.080  101.198
  410.174    0.566    2.081  100.402
  410.424    0.567    1.967   99.606
  410.674    0.569    1.657   98.001
  410.924    0.573    1.397   95.989
  411.174    0.580    1.271   93.575
  411.424    0.586    1.201   90.759
  411.674    0.594    1.157   88.342
  411.924    0.598    1.114   86.740
  412.174    0.611    1.073   87.566
  412.424    0.614    1.053   89.603
  412.674    0.613    1.034   92.040
  412.924    0.610    1.035   95.293
  413.174    0.601    1.036   96.922
  413.424    0.581    1.036   96.935
  413.674    0.579    1.098   97.768
  413.924    0.602    1.142   97.774
  414.174    0.616    1.164   98.192
  414.424    0.622    1.187   98.610
  414.674    0.620    1.234   98.219
  414.924    0.617    1.259   94.187
  415.174    0.617    1.309   90.566
  415.424    0.619    1.361   90.572
  415.674    0.619    1.414   90.994
  415.924    0.610    1.499   91.007
  416.174    0.603    1.557   91.425
  416.424    0.573    1.682   90.228
  416.674    0.546    1.816   87.001
  416.924    0.538    2.077   82.160
  417.174    0.527    2.376   76.914
  417.424    0.509    2.717   75.312
  417.674    0.465    3.227   76.941
  417.924    0.440    3.762   80.595
  418.174    0.424    4.142   84.253
  418.424    0.427    4.144   87.506
  418.674    0.433    3.842   89.138
  418.924    0.450    3.562   88.743
  419.174    0.492    3.179   85.520
  419.424    0.514    2.947   84.323
  419.674    0.515    2.785   85.554
  419.924    0.498    2.683   87.189
  420.174    0.482    2.684   87.603
  420.424    0.481    2.686   88.827
  420.674    0.491    2.688   88.841
  420.924    0.502    2.742   87.644
  421.174    0.510    2.796   86.440
  421.424    0.509    2.963   84.029
  421.674    0.494    3.139   81.612
  421.924    0.466    3.389   77.178
  422.174    0.459    3.804   72.741
  422.424    0.447    4.187   70.327
  422.674    0.432    4.352   71.153
  422.924    0.421    4.699   71.972
  423.174    0.415    4.981   71.585
  423.424    0.409    5.177   69.980
  423.674    0.405    5.279   69.180
  423.924    0.399    5.284   72.430
  424.174    0.392    5.187   78.111
  424.424    0.384    4.996   85.002
  424.674    0.393    4.374   89.871
  424.924    0.422    3.416   92.719
  425.174    0.461    2.771   93.950
  425.424    0.479    2.206   94.364
  425.674    0.501    1.824   90.332
  425.924    0.524    1.628   87.112
  426.174    0.541    1.568   87.935
  426.424    0.546    1.599   88.757
  426.674    0.548    1.662   89.179
  426.924    0.550    1.865   89.185
  427.174    0.552    2.015   89.607
  427.424    0.557    2.094   90.028
  427.674    0.563    2.262   90.854
  427.924    0.569    2.306   91.265
  428.174    0.575    2.264   92.897
  428.424    0.582    2.223   94.528
  428.674    0.566    2.101   91.305
  428.924    0.540    1.985   92.131
  429.174    0.510    1.840   98.618
  429.424    0.498    1.739   99.444
  429.674    0.502    1.643   98.644
  429.924    0.536    1.553   97.447
  430.174    0.541    1.525   96.652
  430.424    0.545    1.555   95.451
  430.674    0.545    1.680   93.445
  430.924    0.534    1.746   91.840
  431.174    0.532    1.886   90.239
  431.424    0.526    1.960   89.035
  431.674    0.518    2.077   88.239
  431.924    0.511    2.118   88.249
  432.174    0.493    2.244   87.865
  432.424    0.484    2.423   87.875
  432.674    0.483    2.668   87.480
  432.924    0.483    2.827   86.283
  433.174    0.483    2.938   84.277
  433.424    0.480    2.997   83.074
  433.674    0.477    2.998   81.071
  433.924    0.467    3.000   82.291
  434.174    0.457    2.945   85.140
  434.424    0.440    2.732   83.940
  434.674    0.462    2.631   81.522
  434.924    0.514    2.633   79.917
  435.174    0.556    2.685   81.964
  435.424    0.510    2.845   82.779
  435.674    0.476    2.901   85.224
  435.924    0.458    2.903   86.855
  436.174    0.454    2.796   88.086
  436.424    0.483    2.593   87.688
  436.674    0.494    2.314   86.899
  436.924    0.507    2.187   86.912
  437.174    0.508    2.106   86.922
  437.424    0.510    2.068   87.347
  437.674    0.512    2.069   87.353
  437.924    0.511    2.070   87.370
  438.174    0.510    2.152   87.384
  438.424    0.507    2.153   86.996
  438.674    0.515    2.197   87.009
  438.924    0.526    2.198   87.019
  439.174    0.524    2.199   88.253
  439.424    0.521    2.200   88.664
  439.674    0.521    2.160   88.678
  439.924    0.521    2.121   86.267
  440.174    0.524    2.043   84.662
  440.424    0.525    2.006   85.485
  440.674    0.517    1.931   88.333
  440.924    0.507    1.861   90.771
  441.174    0.490    1.792   93.616
  441.424    0.495    1.726   96.057
  441.674    0.500    1.694   97.692
  441.924    0.507    1.696   99.324
  442.174    0.514    1.665  101.765
  442.424    0.523    1.666  104.209
  442.674    0.532    1.667  105.840
  442.924    0.538    1.606  107.064
  443.174    0.541    1.606  105.459
  443.424    0.529    1.577   91.313
  443.674    0.491    1.578   89.303
  443.924    0.459    1.609   97.411
  444.174    0.432    1.738  106.730
  444.424    0.436    1.842  111.197
  444.674    0.465    1.879  111.207
  444.924    0.511    1.880  110.411
  445.174    0.540    1.810  109.211
  445.424    0.542    1.744  107.609
  445.674    0.537    1.680  105.199
  445.924    0.528    1.649  103.590
  446.174    0.521    1.682  101.180
  446.424    0.516    1.782   99.575
  446.674    0.501    2.037   99.993
  446.924    0.473    2.375   99.197
  447.174    0.463    2.822   97.589
  447.424    0.454    3.353   95.579
  447.674    0.434    3.620   93.974
  447.924    0.422    3.835   91.159
  448.174    0.414    4.143   89.554
  448.424    0.405    4.307   88.354
  448.674    0.391    4.393   89.180
  448.924    0.422    4.312   90.811
  449.174    0.468    4.314   92.443
  449.424    0.493    4.156   92.456
  449.674    0.510    4.004   91.661
  449.924    0.513    3.855   90.460
  450.174    0.476    3.785   90.069
  450.424    0.426    3.717   89.678
  450.674    0.390    3.791   89.290
  450.924    0.381    3.792   89.300
  451.174    0.375    3.796   88.909
  451.424    0.366    3.798   88.117
  451.674    0.360    3.873   86.916
  451.924    0.370    3.875   85.719
  452.174    0.397    3.878   85.733
  452.424    0.431    3.807   85.749
  452.674    0.409    3.810   85.759
