~VERSION INFORMATION
 VERS.                 2.0:   CWLS LOG ASCII STANDARD -VERSION 2.0
 WRAP.                  NO:   ONE LINE PER DEPTH STEP
~WELL INFORMATION BLOCK
#MNEM.UNIT           DATA                    DESCRIPTION OF MNEMONIC
#---------    -------------------            -------------------------------
# Generated from Intellog Unique Number	CN_91_93/WELL/2773
WELL.         14-17-093-10W4                 : Well_name    - WELL
LOC .         AA/14-17-093-10W4/0            : Location     - LOCATION
UWI .         AA/14-17-093-10W400            : Uwi          - UNIQUE WELL ID
ENTR.         JO                             : Entered      - ENTERED BY
SRVC.         SCHLUMBERGER                   : Scn          - SERVICE COMPANY
DATE.         03/23/92                       : Date         - LOG DATE
STRT.M        0                              : top_depth    - START DEPTH
STOP.M        71                             : bot_depth    - STOP DEPTH
STEP.M        0.25                           : increment    - STEP LENGTH
 NULL. -999.2500:NULL Value
~CURVE INFORMATION BLOCK
#MNEM UNIT       ERCB CURVE CODE    CURVE DESCRIPTION
#-----------   ------------------   ----------------------------------
DEPT.M        00 001 00 00         : DEPTH        - DEPTH
GR  .API      00 310 00 00         : GR           - GAMMA RAY
NPHI.V/V      00 330 00 00         : PHIN         - NEUTRON POROSITY (SANDSTONE)
DPHI.V/V      00 890 00 00         : PHID         - DENSITY POROSITY (SANDSTONE)
ILD .OHMM     00 120 00 00         : RESD         - DEEP RESISTIVITY (DIL)
~PARAMETER INFORMATION
#MNEM.UNIT           DATA             DESCRIPTION OF MNEMONIC
#---------         -----------     ------------------------------
GL  .M        314.7                : gl           - GROUND LEVEL ELEVATION
EREF.M        314.7                : kb           - ELEVATION OF DEPTH REFERENCE
DATM.M        314.7                : datum        - DATUM ELEVATION
TDD .M        73.8                 : tdd          - TOTAL DEPTH DRILLER
RUN .         ONE                  : Run          - RUN NUMBER
ENG .         BILL                 : Engineer     - RECORDING ENGINEER
WIT .         JIM                  : Witness      - WITNESSED BY
MUD .         GEL                  : Mud_type     - MUD TYPE
MATR.         SANDSTONE            : Logunit      - NEUTRON MATRIX
TMAX.C        5                    : BHT          - MAXIMUM RECORDED TEMPERATURE
BHTD.M        73.8                 : BHTDEP       - MAXIMUM RECORDED TEMPERATURE
RMT .C        11                   : MDTP         - TEMPERATURE OF MUD
MUDD.KG/M     1020                 : MWT          - MUD DENSITY
NEUT.         1                    : NEUTRON      - NEUTRON TYPE
RESI.         0                    : RESIST       - RESISTIVITY TYPE
RM  .OHMM     19                   : RM           - RESISTIVITY OF MUD
RMC .OHMM     19                   : RMC          - RESISTIVITY OF MUD CAKE
RMF .OHMM     19                   : RMF          - RESISTIVITY OF MUD FILTRATE
SUFT.C        4                    : SUFT         - SURFACE TEMPERATURE
~A  DEPTH       GR     PHIN     PHID     RESD
# ...
   43.500   58.203    0.463    0.260   69.641
   43.750   66.898    0.467    0.277   74.924
   44.000   73.186    0.489    0.304  301.937
   44.250   74.363    0.570    0.310   76.851
   44.500   68.021    0.411    0.282  151.338
   44.750   91.451    0.423    0.263   54.844
   45.000   51.726    0.370    0.275   88.008
   45.250   55.909    0.461    0.302  631.405
   45.500   52.575    0.461    0.295  100.008
   45.750   48.037    0.472    0.314  606.833
   46.000   48.609    0.461    0.314  373.664
   46.250   61.213    0.504    0.287  104.374
   46.500   73.218    0.463    0.278  172.228
   46.750   49.431    0.480    0.269   55.825
   47.000   38.278    0.472    0.278   93.859
   47.250   29.831    0.510    0.319  242.036
   47.500   26.193    0.386    0.341  422.428
   47.750   23.760    0.428    0.322  350.252
   48.000   23.734    0.477    0.314  337.043
   48.250   29.120    0.452    0.332  561.348
   48.500   36.010    0.423    0.311  681.639
   48.750   34.480    0.441    0.306  592.163
   49.000   47.385    0.385    0.328  569.741
   49.250   47.659    0.426    0.311  182.962
   49.500   43.425    0.446    0.314  176.062
   49.750   30.164    0.472    0.324  196.597
   50.000   34.347    0.477    0.315  551.302
   50.250   39.132    0.442    0.293  229.687
   50.500   46.323    0.409    0.283  131.294
   50.750   40.282    0.448    0.288  320.248
   51.000   34.241    0.502    0.298  564.066
   51.250   27.599    0.480    0.334  590.077
   51.500   45.916    0.446    0.333  567.823
   51.750   44.984    0.433    0.321  521.587
   52.000   44.059    0.417    0.316  259.337
   52.250   67.191    0.408    0.295  598.150
   52.500   60.545    0.456    0.255   65.915
   52.750   57.511    0.500    0.266   96.383
   53.000   51.471    0.542    0.285  186.334
   53.250   62.571    0.478    0.298  184.379
   53.500   72.171    0.484    0.290   72.649
   53.750   81.162    0.419    0.274   64.888
   54.000   72.118    0.469    0.259  173.694
   54.250   57.653    0.558    0.276   89.634
   54.500   72.662    0.531    0.291   89.522
   54.750   54.288    0.465    0.279   72.173
   55.000   51.255    0.531    0.256  169.642
   55.250   47.319    0.514    0.299 1465.820
   55.500   62.332    0.463    0.285  104.329
   55.750   73.131    0.484    0.280  436.364
   56.000   83.934    0.459    0.285  626.406
   56.250   83.600    0.514    0.260   39.142
   56.500   79.664    0.560    0.235   48.407
   56.750   79.641    0.495    0.267   68.846
   57.000   84.125    0.475    0.257   42.000
   57.250   76.280    0.443    0.269   93.350
   57.500   59.710    0.462    0.286  106.194
   57.750   69.310    0.435    0.295   63.003
   58.000   84.019    0.514    0.287   69.055
   58.250   87.601    0.480    0.256   37.332
   58.500   76.749    0.469    0.251   47.925
   58.750   67.095    0.482    0.275   94.376
   59.000   73.986    0.479    0.278   76.821
   59.250   82.984    0.393    0.267   38.547
   59.500   94.084    0.425    0.252   29.670
   59.750   94.659    0.437    0.246   35.694
   60.000   90.422    0.454    0.233   31.298
   60.250   81.070    0.416    0.232   48.843
   60.500   70.819    0.461    0.219   33.940
   60.750  104.176    0.434    0.245   30.883
   61.000   96.027    0.460    0.236   28.638
   61.250   96.906    0.435    0.230   37.448
   61.500   94.774    0.476    0.233   29.644
   61.750   84.219    0.492    0.214   28.792
   62.000   83.891    0.484    0.262   38.014
   62.250   91.380    0.414    0.256   31.813
   62.500   78.425    0.503    0.249   32.672
   62.750   63.660    0.468    0.246  185.787
   63.000   44.989    0.471    0.259  118.735
   63.250   16.988    0.443    0.287  469.601
   63.500   20.567    0.457    0.283  482.280
   63.750   19.641    0.394    0.296  426.903
   64.000   22.923    0.415    0.287  331.607
   64.250   18.686    0.470    0.309  204.223
   64.500   18.055    0.406    0.281  158.635
   64.750   21.938    0.368    0.276  172.319
   65.000   26.425    0.381    0.244  205.358
   65.250   18.881    0.439    0.217  244.693
   65.500   18.854    0.434    0.243  263.300
   65.750   30.552    0.370    0.266  228.737
   66.000   36.547    0.385    0.249  218.074
   66.250   50.654    0.397    0.226   30.039
   66.500   46.117    0.218    0.055   71.245
   66.750   37.667    0.205   -0.042   74.530
   67.000   26.209    0.227   -0.068   77.269
   67.250   25.585    0.225   -0.056  150.754
   67.500   19.240    0.189   -0.000  173.126
   67.750   30.945    0.154    0.005  262.742
   68.000   59.791    0.154    0.032   48.742
   68.250   71.793    0.223    0.042   26.845
   68.500   72.666    0.275    0.051   31.402
   68.750   65.726    0.268    0.055   26.778
   69.000   65.699    0.341    0.056   21.592
   69.250   68.673    0.322    0.062   32.169
   69.500   56.922    0.253    0.078   30.665
   69.750   60.203    0.237    0.037   24.050
   70.000   62.285    0.267    0.038   21.088
   70.250   61.654    0.271    0.041   26.323
   70.500   49.297    0.240    0.041   24.405
   70.750   34.532    0.251    0.040   58.978
   71.000   30.893    0.205    0.034   56.229
