~VERSION INFORMATION
 VERS.                 2.0:   CWLS LOG ASCII STANDARD -VERSION 2.0
 WRAP.                  NO:   ONE LINE PER DEPTH STEP
~WELL INFORMATION BLOCK
#MNEM.UNIT           DATA                    DESCRIPTION OF MNEMONIC
#---------    -------------------            -------------------------------
# Generated from Intellog Unique Number	CN_94_101/WELL/5025
WELL.         11-30-101-13W4                 : Well_name    - WELL
LOC .         AA/11-30-101-13W4/0            : Location     - LOCATION
UWI .         AA/11-30-101-13W400            : Uwi          - UNIQUE WELL ID
ENTR.         TIM                            : Entered      - ENTERED BY
SRVC.         SCHLUMBERGER                   : Scn          - SERVICE COMPANY
DATE.         08/13/92                       : Date         - LOG DATE
STRT.M        390                            : top_depth    - START DEPTH
STOP.M        500                            : bot_depth    - STOP DEPTH
STEP.M        0.25                           : increment    - STEP LENGTH
NULL. -999.2500:NULL Value
~CURVE INFORMATION BLOCK
#MNEM UNIT       ERCB CURVE CODE    CURVE DESCRIPTION
#-----------   ------------------   ----------------------------------
DEPT.M        00 001 00 00         : DEPTH        - DEPTH
GR  .API      00 310 00 00         : GR           - GAMMA RAY
ILD .OHMM     00 120 00 00         : RESD         - DEEP RESISTIVITY (DIL)
NPHI.V/V      00 330 00 00         : PHIN         - NEUTRON POROSITY (SANDSTONE)
DPHI.V/V      00 890 00 00         : PHID         - DENSITY POROSITY (SANDSTONE)
~PARAMETER INFORMATION
#MNEM.UNIT           DATA             DESCRIPTION OF MNEMONIC
#---------         -----------     ------------------------------
GL  .M        723.6                : gl           - GROUND LEVEL ELEVATION
EREF.M        726.86               : kb           - ELEVATION OF DEPTH REFERENCE
DATM.M        726.86               : datum        - DATUM ELEVATION
TDD .M        503                  : tdd          - TOTAL DEPTH DRILLER
RUN .         ONE                  : Run          - RUN NUMBER
ENG .         BILL                 : Engineer     - RECORDING ENGINEER
WIT .         JIM                  : Witness      - WITNESSED BY
MUD .         GEL                  : Mud_type     - MUD TYPE
MATR.         SANDSTONE            : Logunit      - NEUTRON MATRIX
TMAX.C        30                   : BHT          - MAXIMUM RECORDED TEMPERATURE
BHTD.M        503                  : BHTDEP       - MAXIMUM RECORDED TEMPERATURE
RMT .C        10                   : MDTP         - TEMPERATURE OF MUD
MUDD.KG/M     1090                 : MWT          - MUD DENSITY
NEUT.         1                    : NEUTRON      - NEUTRON TYPE
RESI.         0                    : RESIST       - RESISTIVITY TYPE
RM  .OHMM     0.75                 : RM           - RESISTIVITY OF MUD
RMC .OHMM     0.75                 : RMC          - RESISTIVITY OF MUD CAKE
RMF .OHMM     0.75                 : RMF          - RESISTIVITY OF MUD FILTRATE
SUFT.C        4                    : SUFT         - SURFACE TEMPERATURE
~A  DEPTH       GR     RESD     PHIN     PHID
# ...
  433.500   93.138    3.425    0.571    0.311
  433.750   93.742    3.171    0.598    0.324
  434.000   91.843    3.170    0.546    0.329
  434.250   93.074    3.354    0.534    0.312
  434.500   93.056    3.757    0.540    0.296
  434.750   88.653    4.130    0.508    0.291
  435.000   82.363    4.540    0.480    0.292
  435.250   80.462    4.990    0.475    0.310
  435.500   81.071    5.280    0.466    0.327
  435.750   79.168    5.277    0.481    0.338
  436.000   74.756    4.795    0.506    0.343
  436.250   74.741    4.193    0.533    0.329
  436.500   72.213    4.111    0.544    0.327
  436.750   72.195    4.434    0.523    0.339
  437.000   77.819    4.968    0.511    0.335
  437.250   80.301    4.965    0.536    0.334
  437.500   80.286    4.260    0.557    0.339
  437.750   79.636    4.021    0.525    0.339
  438.000   79.621    4.019    0.521    0.332
  438.250   79.600    4.016    0.509    0.333
  438.500   80.210    3.938    0.502    0.331
  438.750   80.816    3.861    0.521    0.327
  439.000   77.034    3.859    0.524    0.321
  439.250   80.775    3.856    0.532    0.320
  439.500   82.006    3.854    0.569    0.321
  439.750   81.988    4.001    0.516    0.317
  440.000   83.227    4.153    0.493    0.312
  440.250   85.714    4.394    0.546    0.317
  440.500   89.454    4.070    0.586    0.332
  440.750   92.571    3.698    0.550    0.348
  441.000   95.677    3.490    0.555    0.345
  441.250   98.796    3.358    0.556    0.342
  441.500  100.659    3.292    0.558    0.330
  441.750   98.761    3.418    0.542    0.314
  442.000   94.979    3.416    0.518    0.288
  442.250   99.349    3.479    0.514    0.297
  442.500  101.210    3.612    0.541    0.321
  442.750   98.684    3.610    0.529    0.318
  443.000   96.781    4.282    0.470    0.271
  443.250   93.001    5.378    0.480    0.258
  443.500   90.471    6.024    0.464    0.272
  443.750   89.202    6.497    0.443    0.277
  444.000   87.298    6.618    0.481    0.279
  444.250   87.280    6.129    0.502    0.301
  444.500   87.260    6.363    0.470    0.267
  444.750   85.359    6.862    0.423    0.267
  445.000   82.834    7.124    0.412    0.270
  445.250   83.442    6.853    0.413    0.277
  445.500   84.046    6.226    0.440    0.282
  445.750   84.655    5.990    0.430    0.271
  446.000   85.259    6.338    0.423    0.270
  446.250   85.871    6.967    0.422    0.275
  446.500   87.104    7.372    0.416    0.284
  446.750   87.081    7.092    0.448    0.297
  447.000   87.066    5.747    0.468    0.293
  447.250   87.043    5.425    0.475    0.298
  447.500   85.774    5.740    0.443    0.305
  447.750   85.124    5.737    0.448    0.312
  448.000   86.989    5.313    0.498    0.297
  448.250   88.223    4.646    0.511    0.312
  448.500   86.322    4.386    0.507    0.313
  448.750   84.423    4.640    0.493    0.297
  449.000   84.398    5.298    0.445    0.241
  449.250   85.633    5.715    0.440    0.248
  449.500   86.872    5.711    0.430    0.278
  449.750   86.225    4.900    0.498    0.302
  450.000   83.070    4.205    0.511    0.320
  450.250   84.301    3.281    0.591    0.342
  450.500   85.534    2.763    0.587    0.341
  450.750   86.141    2.607    0.583    0.329
  451.000   86.755    2.414    0.603    0.334
  451.250   87.356    2.279    0.610    0.340
  451.500   87.335    2.235    0.603    0.345
  451.750   87.950    2.601    0.575    0.336
  452.000   92.944    3.144    0.510    0.319
  452.250   99.817    3.660    0.494    0.298
  452.500  100.426    4.509    0.488    0.282
  452.750   99.154    4.863    0.468    0.272
  453.000   96.624    5.345    0.459    0.273
  453.250   97.862    5.657    0.449    0.268
  453.500   97.842    5.872    0.449    0.258
  453.750   95.311    6.096    0.434    0.254
  454.000   95.296    6.329    0.424    0.251
  454.250   96.527    6.446    0.441    0.256
  454.500   98.390    6.320    0.458    0.294
  454.750  100.877    6.081    0.466    0.302
  455.000  100.232    5.739    0.470    0.307
  455.250   97.080    5.521    0.479    0.309
  455.500   91.417    5.414    0.482    0.311
  455.750   86.382    5.620    0.465    0.309
  456.000   83.851    6.178    0.454    0.281
  456.250   82.582    6.292    0.444    0.254
  456.500   76.291    6.170    0.407    0.235
  456.750   78.780    6.782    0.355    0.159
  457.000   83.777    8.045    0.405    0.205
  457.250   90.023    9.014    0.433    0.270
  457.500   91.889    8.671    0.452    0.285
  457.750   92.493    6.269    0.516    0.308
  458.000   94.355    4.446    0.496    0.316
  458.250   95.589    4.040    0.491    0.306
  458.500   96.190    3.886    0.510    0.305
  458.750   95.550    3.667    0.532    0.311
  459.000   96.786    3.462    0.551    0.321
  459.250   99.271    3.087    0.568    0.341
  459.500   95.492    2.648    0.597    0.337
  459.750   91.083    2.406    0.574    0.322
  460.000   92.316    2.271    0.514    0.308
  460.250   94.803    2.746    0.500    0.291
  460.500   97.918    3.384    0.493    0.282
  460.750   99.153    4.250    0.471    0.287
  461.000   99.762    4.672    0.447    0.310
  461.250   97.237    4.943    0.445    0.342
  461.500   95.333    5.035    0.455    0.362
  461.750   95.313    5.032    0.463    0.349
  462.000   97.803    4.841    0.472    0.271
  462.250   99.663    4.315    0.478    0.267
  462.500  102.150    3.996    0.483    0.291
  462.750  104.013    3.700    0.475    0.270
  463.000  104.622    3.629    0.461    0.291
  463.250  103.975    3.558    0.486    0.301
  463.500  100.193    3.555    0.491    0.275
  463.750   95.787    3.486    0.498    0.271
  464.000   93.886    3.290    0.513    0.283
  464.250   88.853    3.106    0.521    0.319
  464.500   86.952    2.876    0.495    0.327
  464.750   87.558    2.874    0.519    0.361
  465.000   90.675    2.983    0.503    0.339
  465.250   96.921    3.097    0.505    0.325
  465.500  101.918    3.278    0.507    0.317
  465.750  106.288    3.535    0.504    0.303
  466.000  106.265    3.740    0.509    0.290
  466.250  104.367    3.737    0.495    0.323
  466.500   88.047    3.332    0.495    0.355
  466.750   83.639    2.502    0.542    0.370
  467.000   77.352    2.147    0.608    0.383
  467.250   74.200    1.988    0.615    0.388
  467.500   71.672    2.065    0.608    0.380
  467.750   62.875    2.449    0.606    0.352
  468.000   55.332    3.448    0.594    0.310
  468.250   47.786    5.443    0.409    0.280
  468.500   43.380    6.215    0.384    0.274
  468.750   40.855    9.444    0.389    0.288
  469.000   40.832   12.559    0.389    0.304
  469.250   42.070   16.077    0.377    0.311
  469.500   45.184   14.888    0.384    0.321
  469.750   53.943   10.166    0.471    0.327
  470.000   71.475    4.395    0.492    0.342
  470.250   81.487    2.888    0.515    0.367
  470.500   75.825    2.832    0.503    0.325
  470.750   78.936    2.830    0.503    0.321
  471.000   82.056    2.775    0.507    0.320
  471.250   82.035    2.773    0.514    0.304
  471.500   81.385    2.772    0.499    0.283
  471.750   82.621    2.770    0.485    0.268
  472.000   80.093    2.614    0.514    0.302
  472.250   65.030    2.714    0.516    0.284
  472.500   51.848    3.159    0.478    0.266
  472.750   46.183    4.448    0.391    0.307
  473.000   51.178    8.332    0.441    0.335
  473.250   55.550   11.082    0.458    0.344
  473.500   58.038   13.656    0.455    0.341
  473.750   62.400   12.173    0.451    0.330
  474.000   65.522    6.128    0.456    0.350
  474.250   73.024    4.028    0.495    0.363
  474.500   80.526    2.698    0.569    0.365
  474.750   81.760    2.499    0.578    0.355
  475.000   78.605    2.695    0.542    0.338
  475.250   76.079    3.385    0.491    0.300
  475.500   73.554    4.251    0.447    0.266
  475.750   64.130    4.948    0.432    0.261
  476.000   50.318    7.960    0.422    0.289
  476.250   40.268    9.998    0.387    0.305
  476.500   43.382   14.348    0.396    0.315
  476.750   45.869   17.348    0.383    0.325
