~VERSION INFORMATION
 VERS.                 2.0:   CWLS LOG ASCII STANDARD -VERSION 2.0
 WRAP.                  NO:   ONE LINE PER DEPTH STEP
~WELL INFORMATION BLOCK
#MNEM.UNIT           DATA                    DESCRIPTION OF MNEMONIC
#---------    -------------------            -------------------------------
# Generated from Intellog Unique Number	CC_84_87/WELL/2307
NULL.         -999.25                        : NULL_VALUE
WELL.         PEX PCEJ MCMURRAY OV           : Well_name    - WELL
LOC .         10-26-087-16W4                 : Location     - LOCATION          
UWI .         AA/10-26-087-16W400            : Uwi          - UNIQUE WELL ID    
ENTR.         JOHN                           : Entered      - ENTERED BY        
SRVC.         SCHLUMBERGER                   : Scn          - SERVICE COMPANY   
DATE.         07 MAR 79                      : Date         - LOG DATE
STRT.M        100                            : top_depth    - START DEPTH       
STOP.M        265.001                        : bot_depth    - STOP DEPTH        
STEP.M        0.3                            : increment    - STEP LENGTH       
~CURVE INFORMATION BLOCK
#MNEM UNIT       ERCB CURVE CODE    CURVE DESCRIPTION
#-----------   ------------------   ----------------------------------
DEPT.M        00 001 00 00         : DEPTH        - DEPTH                       
DPHI.V/V      00 890 00 00         : PHID         - DENSITY POROSITY (LIMESTONE)
NPHI.V/V      00 330 00 00         : PHIN         - NEUTRON POROSITY (LIMESTONE)
GR  .API      00 310 00 00         : GR           - GAMMA RAY                   
ILD .OHMM     00 120 00 00         : RESD         - DEEP RESISTIVITY (DIL)      
~PARAMETER INFORMATION       
#MNEM.UNIT           DATA             DESCRIPTION OF MNEMONIC
#---------         -----------     ------------------------------
GL  .M        517.6                : gl           - GROUND LEVEL ELEVATION      
EREF.M        521.25               : kb           - ELEVATION OF DEPTH REFERENCE
DATM.M        521.25               : datum        - DATUM ELEVATION             
TDD .M        271                  : tdd          - TOTAL DEPTH DRILLER         
RUN .         ONE                  : Run          - RUN NUMBER                  
ENG .         BILL                 : Engineer     - RECORDING ENGINEER          
WIT .         JIM                  : Witness      - WITNESSED BY                
MUD .         GEL                  : Mud_type     - MUD TYPE                    
MATR.         LIMESTONE            : Logunit      - NEUTRON MATRIX              
TMAX.C        60                   : BHT          - MAXIMUM RECORDED TEMPERATURE
BHTD.M        271                  : BHTDEP       - MAXIMUM RECORDED TEMPERATURE
MATR.         1                    : LOGUNIT      - NEUTRON MATRIX              
RMT .C        25                   : MDTP         - TEMPERATURE OF MUD          
NEUT.         1                    : NEUTRON      - NEUTRON TYPE                
RESI.         0                    : RESIST       - RESISTIVITY TYPE            
RMC .OHMM     0.25                 : RMC          - RESISTIVITY OF MUD CAKE     
RMF .OHMM     0.25                 : RMF          - RESISTIVITY OF MUD FILTRATE 
SUFT.C        15                   : SUFT         - SURFACE TEMPERATURE         
~A  DEPTH     PHID     PHIN       GR     RESD
# ...
  152.201    0.294    0.459   95.228   11.286
  152.501    0.288    0.447   97.719   10.089
  152.801    0.238    0.457  100.821    9.720
  153.101    0.223    0.446  105.155    9.367
  153.401    0.246    0.446  105.793    9.370
  153.701    0.231    0.436  104.589    9.374
  154.001    0.248    0.443  107.083    9.556
  154.301    0.257    0.445  110.184    9.383
  154.601    0.240    0.455  110.824    9.213
  154.901    0.229    0.474  111.463    9.216
  155.201    0.211    0.486  115.183    9.049
  155.501    0.221    0.487  117.053    9.226
  155.801    0.241    0.476  111.548    9.230
  156.101    0.234    0.449   98.666    9.233
  156.401    0.244    0.470   94.389    9.238
  156.701    0.239    0.472   92.574    9.241
  157.001    0.220    0.450   93.220    9.421
  157.301    0.223    0.482   98.779    9.785
  157.601    0.250    0.486   93.887   10.164
  157.901    0.262    0.457   85.308   10.759
  158.201    0.275    0.461   87.180   11.174
  158.501    0.298    0.470   86.592   11.391
  158.801    0.281    0.491   83.547   11.395
  159.101    0.245    0.494   82.963   10.776
  159.401    0.264    0.478   84.216   10.001
  159.701    0.295    0.457   87.320    9.109
  160.001    0.247    0.464   90.420    8.615
  160.301    0.232    0.476   91.678    8.458
  160.601    0.242    0.483   95.398    8.305
  160.901    0.274    0.477   96.655    8.153
  161.201    0.264    0.467  100.986    7.567
  161.501    0.269    0.466   99.167    7.022
  161.801    0.253    0.483   95.507    6.642
  162.101    0.258    0.492  102.912    6.644
  162.401    0.257    0.477  106.628    7.165
  162.701    0.236    0.498  104.810    7.728
  163.001    0.230    0.461   94.386    8.026
  163.301    0.247    0.452   92.570    8.183
  163.601    0.255    0.498   96.906    8.499
  163.901    0.253    0.498  101.849    8.995
  164.201    0.257    0.458  101.264    9.885
  164.501    0.246    0.466   96.371   10.463
  164.801    0.256    0.455   96.400    9.894
  165.101    0.240    0.452  101.350    8.679
  165.401    0.252    0.457  103.218    6.311
  165.701    0.244    0.459  111.239    5.857
  166.001    0.262    0.492  119.258    6.083
  166.301    0.260    0.503  116.828    6.941
  166.601    0.224    0.497  109.477    7.628
  166.901    0.193    0.443  111.352    8.226
  167.201    0.209    0.453  113.222    8.545
  167.501    0.225    0.471  111.408    8.548
  167.801    0.235    0.480  115.736    8.394
  168.101    0.207    0.488  113.308    8.396
  168.401    0.209    0.483  112.104    8.091
  168.701    0.203    0.475  112.131    7.945
  169.001    0.203    0.484  114.623    8.098
  169.301    0.225    0.503  114.031    8.256
  169.601    0.237    0.508  113.453    8.417
  169.901    0.244    0.498  115.931    8.418
  170.201    0.233    0.465  123.338    9.079
  170.501    0.222    0.458  126.441   10.166
  170.801    0.228    0.442  121.548   11.599
  171.101    0.230    0.426  111.124   12.747
  171.401    0.212    0.412  103.161   12.281
  171.701    0.170    0.408  103.803   10.978
  172.001    0.189    0.413  108.751    9.813
  172.301    0.222    0.427  114.310    8.772
  172.601    0.230    0.437  118.028    8.612
  172.901    0.233    0.443  114.368    8.946
  173.201    0.250    0.443  105.790   10.018
  173.501    0.242    0.442  100.280   11.217
  173.801    0.207    0.433   96.004   11.650
  174.101    0.210    0.411   88.655   12.331
  174.401    0.287    0.416   86.841   11.882
  174.701    0.290    0.434   88.098   11.237
  175.001    0.274    0.411   90.589   10.827
  175.301    0.193    0.385   93.072   10.831
  175.601    0.146    0.397   99.248   10.837
  175.901    0.230    0.446  104.192   11.048
  176.201    0.292    0.423  102.994   11.475
  176.501    0.267    0.449   99.330   11.920
  176.801    0.274    0.462   97.517   12.380
  177.101    0.265    0.458   98.158   13.102
  177.401    0.267    0.455   98.183   13.610
  177.701    0.257    0.440   95.138   13.874
  178.001    0.234    0.415   93.322   13.370
  178.301    0.191    0.380   90.277   14.149
  178.601    0.178    0.382   91.537   18.410
  178.901    0.180    0.400   91.563   27.319
  179.201    0.073    0.332   86.054   33.601
  179.501    0.023    0.222   81.780   30.035
  179.801    0.000    0.204   76.275   17.109
  180.101    0.013    0.234   79.374   13.160
  180.401    0.068    0.300   86.169   11.764
  180.701    0.137    0.382   94.803   11.335
  181.001    0.207    0.432  105.281   10.925
  181.301    0.197    0.461  108.997   10.928
  181.601    0.165    0.422  105.338   10.730
  181.901    0.155    0.404  110.898   10.534
  182.201    0.206    0.437  112.160   10.343
  182.501    0.222    0.460  110.349    9.782
  182.801    0.210    0.472  112.829    9.604
  183.101    0.216    0.463  118.389    9.254
  183.401    0.214    0.474  121.491    9.086
  183.701    0.223    0.488  117.216    8.920
  184.001    0.221    0.485  109.865    8.924
  184.301    0.207    0.486  107.434    9.099
  184.601    0.191    0.475  112.379    9.102
  184.901    0.157    0.479  118.555    9.106
  185.201    0.142    0.485  117.357    9.110
  185.501    0.165    0.478  122.916    9.286
  185.801    0.220    0.478  124.790   10.015
  186.101    0.230    0.468  118.666   10.402
  186.401    0.245    0.460  111.317   11.431
  186.701    0.242    0.454  107.044   11.436
  187.001    0.228    0.448  105.229    9.663
  187.301    0.234    0.439  106.482    9.139
  187.601    0.226    0.437  112.659    9.315
  187.901    0.219    0.447  118.218    9.859
  188.201    0.218    0.462  121.322   10.835
  188.501    0.222    0.469  118.275   11.685
  188.801    0.239    0.459  110.928   12.136
  189.101    0.247    0.423  109.722   12.609
  189.401    0.255    0.435  115.288   12.850
  189.701    0.241    0.428  119.616   12.857
  190.001    0.229    0.413  119.642   12.623
  190.301    0.213    0.412  117.213   12.868
  190.601    0.220    0.424  120.315   13.118
  190.901    0.205    0.423  117.268   12.880
  191.201    0.183    0.421  113.609   11.954
  191.501    0.185    0.408  117.327   11.303
  191.801    0.203    0.415  120.426   10.690
  192.101    0.202    0.430  124.758   10.695
  192.401    0.191    0.430  126.019   10.902
  192.701    0.198    0.440  125.430   11.113
  193.001    0.228    0.433  120.539   11.762
  193.301    0.229    0.437  121.183   11.990
  193.601    0.224    0.420  131.045   11.773
  193.901    0.208    0.425  120.620   11.133
  194.201    0.193    0.453  112.659    9.232
  194.501    0.166    0.471  114.533    8.098
  194.801    0.193    0.493  120.089    6.715
  195.101    0.225    0.493  134.258    6.593
  195.401    0.209    0.498  136.746    7.810
  195.701    0.209    0.501  129.396    9.606
  196.001    0.205    0.489  117.742    9.609
  196.301    0.207    0.465  109.161    8.431
  196.601    0.194    0.436  107.961    7.258
  196.901    0.213    0.446  127.049    6.367
  197.201    0.227    0.467  129.542    6.370
  197.501    0.210    0.497  129.564    6.742
  197.801    0.213    0.512  132.666    8.137
  198.101    0.177    0.507  127.775    7.989
  198.401    0.172    0.447  122.271    7.143
  198.701    0.127    0.429  124.143    7.013
  199.001    0.195    0.448  134.007    7.148
  199.301    0.211    0.462  135.883    7.566
  199.601    0.203    0.453  132.835    8.471
  199.901    0.223    0.450  134.706    9.665
  200.201    0.204    0.455  132.888   11.027
  200.501    0.205    0.417  126.152   13.820
  200.801    0.203    0.409  123.109   14.904
  201.101    0.181    0.383  117.601   14.634
  201.401    0.052    0.331  112.095   13.837
  201.701    0.093    0.393  116.427   11.915
  202.001    0.214    0.419  131.212   11.480
  202.301    0.212    0.418  128.169   10.856
  202.601    0.217    0.430  123.893   10.658
  202.901    0.189    0.438  123.304   10.865
  203.201    0.201    0.438  125.178   11.941
  203.501    0.210    0.431  127.049   13.881
  203.801    0.245    0.420  120.927   16.444
  204.101    0.261    0.415  116.653   17.081
