~VERSION INFORMATION
 VERS.                 2.0:   CWLS LOG ASCII STANDARD -VERSION 2.0
 WRAP.                  NO:   ONE LINE PER DEPTH STEP
~WELL INFORMATION BLOCK
#MNEM.UNIT           DATA                    DESCRIPTION OF MNEMONIC
#---------    -------------------            -------------------------------
# Generated from Intellog Unique Number	CC_88_90/WELL/3151
WELL.         MUSKY OIL OPERATIONS LTD.      : Well_name    - WELL
LOC .         AA/11-12-089-09W4/0            : Location     - LOCATION
UWI .         AA/11-12-089-09W400            : Uwi          - UNIQUE WELL ID
ENTR.         JOETTE                         : Entered      - ENTERED BY
SRVC.         SCHLUMBERGER                   : Scn          - SERVICE COMPANY
DATE.         03/02/92                       : Date         - LOG DATE
STRT.M        13.716                         : top_depth    - START DEPTH
STOP.M        114.716                        : bot_depth    - STOP DEPTH
STEP.M        0.25                           : increment    - STEP LENGTH
 NULL. -999.2500:NULL Value
~CURVE INFORMATION BLOCK
#MNEM UNIT       ERCB CURVE CODE    CURVE DESCRIPTION
#-----------   ------------------   ----------------------------------
DEPT.M        00 001 00 00         : DEPTH        - DEPTH
GR  .API      00 310 00 00         : GR           - GAMMA RAY
CALI.MM       00 280 01 00         : CAL          - CALIPER
DPHI.V/V      00 890 00 00         : PHID         - DENSITY POROSITY (SANDSTONE)
ILD .OHMM     00 120 00 00         : RESD         - DEEP RESISTIVITY (DIL)
~PARAMETER INFORMATION
#MNEM.UNIT           DATA             DESCRIPTION OF MNEMONIC
#---------         -----------     ------------------------------
GL  .M        361.036              : gl           - GROUND LEVEL ELEVATION
EREF.M        362.102              : kb           - ELEVATION OF DEPTH REFERENCE
DATM.M        362.102              : datum        - DATUM ELEVATION
TDD .M        129.54               : tdd          - TOTAL DEPTH DRILLER
RUN .         ONE                  : Run          - RUN NUMBER
ENG .         BILL                 : Engineer     - RECORDING ENGINEER
WIT .         JIM                  : Witness      - WITNESSED BY
MUD .         GEL                  : Mud_type     - MUD TYPE
MATR.         SANDSTONE            : Logunit      - NEUTRON MATRIX
TMAX.C        -6.66667             : BHT          - MAXIMUM RECORDED TEMPERATURE
BHTD.M        129.54               : BHTDEP       - MAXIMUM RECORDED TEMPERATURE
RMT .C        8.33333              : MDTP         - TEMPERATURE OF MUD
MUDD.KG/M     10000                : MWT          - MUD DENSITY
NEUT.         1                    : NEUTRON      - NEUTRON TYPE
RESI.         0                    : RESIST       - RESISTIVITY TYPE
RM  .OHMM     4                    : RM           - RESISTIVITY OF MUD
RMC .OHMM     4                    : RMC          - RESISTIVITY OF MUD CAKE
RMF .OHMM     4                    : RMF          - RESISTIVITY OF MUD FILTRATE
SUFT.C        4                    : SUFT         - SURFACE TEMPERATURE
~A  DEPTH       GR      CAL     PHID     RESD
   13.716   85.425  156.692    0.375   70.737
   13.966   84.199  162.610    0.392   57.752
   14.216   87.275  176.434    0.409  101.930
   14.466   96.496  169.476    0.412   71.854
   14.716  112.478  163.508    0.393   65.494
   14.966  106.336  154.563    0.367   57.545
   15.216  105.725  151.565    0.376   45.288
   15.466  119.863  148.567    0.383   47.809
   15.716  127.241  148.538    0.386   55.322
   15.966  113.723  149.507    0.380   52.311
   16.216  111.268  151.459    0.386   52.252
   16.466  124.792  152.406    0.390   51.244
   16.716  121.108  152.385    0.389   50.278
   16.966  110.048  152.357    0.390   53.077
   17.216  109.437  152.328    0.395   56.031
   17.466  105.138  152.293    0.399   53.963
   17.716  102.683  153.262    0.391   46.552
   17.966  103.916  157.193    0.394   44.823
   18.216  112.523  164.095    0.388   45.623
   18.466  105.765  168.026    0.393   43.140
   18.716   93.477  167.991    0.405   46.385
   18.966  100.855  163.995    0.411   66.899
   19.216   95.942  159.010    0.411   63.258
   19.466  108.237  157.009    0.416   54.570
   19.716  115.614  155.998    0.426   46.208
   19.966  119.920  157.935    0.428   63.088
   20.216  127.297  158.904    0.406   67.803
   20.466  112.551  159.873    0.388   74.270
   20.716  104.565  162.800    0.385   67.697
   20.966  107.641  162.786    0.385   57.337
   21.216  118.706  160.764    0.376   70.102
   21.466  121.168  160.735    0.375   67.515
   21.716  121.171  164.667    0.374   78.124
   21.966  109.497  162.659    0.352  128.124
   22.216   90.449  156.691    0.299  135.256
   22.466   89.838  152.709    0.246   83.850
   22.716   93.528  150.701    0.211   76.428
   22.966   94.760  150.673    0.198   62.398
   23.216  108.899  147.668    0.209   44.791
   23.466  120.578  149.619    0.216   37.246
   23.716  126.727  165.430    0.242   32.124
   23.966  125.501  175.287    0.245   30.945
   24.216  106.453  177.253    0.258   30.355
   24.466   84.331  178.208    0.259   29.228
   24.716   97.856  178.179    0.249   30.862
   24.966   89.255  177.168    0.241   47.891
   25.216   91.102  173.166    0.248   44.471
   25.466   99.094  170.175    0.263   47.816
   25.716   99.712  163.210    0.275   56.355
   25.966  102.173  158.239    0.286   58.396
   26.216   96.030  155.233    0.301   52.271
   26.466  102.794  156.188    0.262   40.380
   26.716  124.307  156.174    0.223   32.968
   26.966  135.987  156.145    0.213   32.339
   27.216  129.230  156.110    0.230   41.778
   27.466  116.941  155.092    0.286   40.972
   27.716  102.195  154.073    0.291   37.354
   27.966  112.646  157.008    0.272   31.062
   28.216  114.493  164.906    0.262   26.796
   28.466  118.183  172.791    0.268   24.876
   28.716  121.874  171.779    0.279   22.257
   28.966  118.189  163.831    0.290   22.237
   29.216  115.734  149.944    0.255   21.022
   29.466  118.196  141.006    0.241   19.521
   29.716  120.043  134.033    0.255   17.148
   29.966  108.984  131.028    0.275   16.515
   30.216  100.998  131.014    0.299   17.121
   30.466  102.229  135.928    0.305   14.237
   30.716  113.295  138.877    0.316   10.998
   30.966  102.850  142.809    0.325    8.656
   31.216  101.625  147.730    0.335    7.890
   31.466  104.701  154.631    0.342    6.931
   31.716  110.849  161.526    0.330    6.317
   31.966  112.082  160.500    0.313    6.311
   32.216  105.325  157.502    0.315    6.424
   32.466  109.630  155.494    0.328    6.907
   32.716  109.633  154.476    0.312    6.776
   32.966  107.792  154.454    0.300    6.405
   33.216  108.410  154.419    0.291    7.831
   33.466   99.809  153.394    0.276    9.577
   33.716   99.812  152.390    0.252   11.496
   33.966   97.972  151.371    0.253   10.477
   34.216   83.225  150.339    0.244   10.859
   34.466   88.145  150.303    0.234   10.079
   34.716   94.909  150.282    0.247   11.244
   34.966   89.380  150.261    0.265   13.999
   35.216   91.842  150.225    0.271   13.987
   35.466  101.678  150.204    0.261   13.723
   35.716  102.296  149.179    0.254   13.217
   35.966   93.081  148.168    0.241   11.401
   36.216  105.375  149.115    0.227    9.481
   36.466  120.742  150.084    0.225   10.194
   36.716  120.131  152.035    0.225   12.012
   36.966  117.061  153.980    0.228   16.396
   37.216  120.137  153.952    0.228   17.313
   37.466  109.079  154.913    0.231   16.983
   37.716   99.249  154.892    0.222   16.055
   37.966   94.949  152.884    0.155   17.586
   38.216   98.640  148.889    0.099   26.799
   38.466   99.258  146.873    0.062   44.766
   38.716  100.490  145.862    0.058   29.323
   38.966   98.650  144.837    0.082   21.841
   39.216   91.892  144.808    0.128   15.678
   39.466   96.197  145.777    0.215   16.551
   39.716  108.492  146.732    0.242   13.267
   39.966   94.975  148.683    0.269   11.657
   40.216   95.593  150.642    0.267   12.763
   40.466  102.356  153.584    0.256   11.851
   40.716   92.526  156.525    0.246   10.802
   40.966  101.747  156.490    0.247   10.793
   41.216  100.522  155.464    0.251   10.201
   41.466   89.463  154.439    0.252    9.826
   41.716   88.852  153.428    0.247    9.461
   41.966   94.386  153.407    0.240    9.630
   42.216   98.691  152.374    0.230   11.141
   42.466   95.621  150.380    0.231   16.065
   42.716   88.864  145.402    0.239   17.277
   42.966   91.325  142.397    0.242   19.271
   43.216  118.369  141.378    0.239   16.628
   43.466  104.852  143.323    0.234   13.576
   43.716   93.178  145.281    0.221   11.711
   43.966   90.723  147.233    0.215   13.799
   44.216   89.498  149.178    0.227   12.352
   44.466  112.239  149.156    0.233   10.459
   44.716  123.919  149.121    0.237   10.450
   44.966  113.475  150.083    0.237    9.699
   45.216  114.708  150.061    0.233   11.022
   45.466  114.710  151.009    0.226   11.421
   45.716  104.266  150.973    0.227   10.410
   45.966   98.738  150.952    0.230    9.844
   46.216   97.512  150.931    0.235   10.391
   46.466  109.806  148.909    0.236   12.250
   46.716  120.258  147.897    0.235   14.977
   46.966  110.427  146.886    0.252   13.904
   47.216  107.357  146.851    0.266    7.864
   47.466  109.819  151.772    0.281    6.417
   47.716  108.593  157.691    0.278    6.413
   47.966  108.597  163.602    0.268    6.291
   48.216  116.589  165.540    0.242    6.170
   48.466  112.290  165.518    0.240    7.972
   48.716   93.241  164.486    0.240    9.391
   48.966   87.099  164.472    0.245    9.387
   49.216   82.800  163.454    0.249    9.907
   49.466   80.960  161.445    0.249   11.896
   49.716   72.974  160.420    0.249   14.276
   49.966   64.987  159.402    0.248   12.315
   50.216   74.823  158.383    0.247   11.864
   50.466   83.430  158.355    0.247   11.014
   50.716   88.350  158.327    0.248   11.840
   50.966   96.957  158.298    0.249   13.454
   51.216  116.012  158.270    0.252   13.941
   51.466  106.797  158.242    0.253   13.430
   51.716  117.862  159.196    0.247   12.241
   51.966  127.084  159.168    0.236   11.575
   52.216  120.327  160.123    0.226   12.911
   52.466  116.642  161.084    0.220   17.950
   52.716  120.948  161.056    0.225   18.604
   52.966  124.024  162.018    0.252    9.423
   53.216  128.329  162.979    0.312    6.642
   53.466  116.655  163.948    0.302    4.597
   53.716  110.512  165.892    0.286    6.275
   53.966   95.766  166.854    0.274    6.871
   54.216   90.239  166.826    0.266    7.526
   54.466   97.002  166.797    0.257    6.984
   54.716  102.536  165.786    0.249    8.235
   54.966  110.528  162.774    0.240   13.018
   55.216  106.844  160.758    0.237   10.825
   55.466  111.764  160.744    0.240    8.518
   55.716  106.850  165.659    0.245    8.355
   55.966  108.697  168.600    0.251    9.492
   56.216  105.627  167.582    0.255   10.784
   56.466   93.954  165.581    0.253   10.774
   56.716   93.957  162.568    0.253    9.467
   56.966  104.408  161.564    0.242    9.284
