~VERSION INFORMATION
 VERS.                 2.0:   CWLS LOG ASCII STANDARD -VERSION 2.0
 WRAP.                  NO:   ONE LINE PER DEPTH STEP
~WELL INFORMATION BLOCK
#MNEM.UNIT           DATA                    DESCRIPTION OF MNEMONIC
#---------    -------------------            -------------------------------
# Generated from Intellog Unique Number	CC_84_87/WELL/2332
NULL.         -999.25                        : NULL_VALUE
WELL.         PEX PCEJ HANGST OV             : Well_name    - WELL              
LOC .         11-26-087-09W4                 : Location     - LOCATION          
UWI .         AA/11-26-087-09W400            : Uwi          - UNIQUE WELL ID    
ENTR.         RJA                            : Entered      - ENTERED BY        
SRVC.         DRESSER ATLAS                  : Scn          - SERVICE COMPANY   
DATE.         07 FEB 81                      : Date         - LOG DATE
STRT.M        65                             : top_depth    - START DEPTH       
STOP.M        170.001                        : bot_depth    - STOP DEPTH        
STEP.M        0.3                            : increment    - STEP LENGTH       
~CURVE INFORMATION BLOCK
#MNEM UNIT       ERCB CURVE CODE    CURVE DESCRIPTION
#-----------   ------------------   ----------------------------------
DEPT.M        00 001 00 00         : DEPTH        - DEPTH                       
ILD .OHMM     00 120 00 00         : RESD         - DEEP RESISTIVITY (DIL)      
GR  .API      00 310 00 00         : GR           - GAMMA RAY                   
NPHI.V/V      00 330 00 00         : PHIN         - NEUTRON POROSITY (LIMESTONE)
DPHI.V/V      00 890 00 00         : PHID         - DENSITY POROSITY (LIMESTONE)
~PARAMETER INFORMATION       
#MNEM.UNIT           DATA             DESCRIPTION OF MNEMONIC
#---------         -----------     ------------------------------
GL  .M        407.8                : gl           - GROUND LEVEL ELEVATION      
EREF.M        412.9                : kb           - ELEVATION OF DEPTH REFERENCE
DATM.M        412.9                : datum        - DATUM ELEVATION             
TDD .M        173.5                : tdd          - TOTAL DEPTH DRILLER         
RUN .         ONE                  : Run          - RUN NUMBER                  
ENG .         BILL                 : Engineer     - RECORDING ENGINEER          
WIT .         JIM                  : Witness      - WITNESSED BY                
MUD .         GEL                  : Mud_type     - MUD TYPE                    
MATR.         LIMESTONE            : Logunit      - NEUTRON MATRIX              
TMAX.C        19                   : BHT          - MAXIMUM RECORDED TEMPERATURE
BHTD.M        173.5                : BHTDEP       - MAXIMUM RECORDED TEMPERATURE
MATR.         1                    : LOGUNIT      - NEUTRON MATRIX              
RMT .C        25                   : MDTP         - TEMPERATURE OF MUD          
NEUT.         1                    : NEUTRON      - NEUTRON TYPE                
RESI.         0                    : RESIST       - RESISTIVITY TYPE            
RMC .OHMM     0.25                 : RMC          - RESISTIVITY OF MUD CAKE     
RMF .OHMM     0.25                 : RMF          - RESISTIVITY OF MUD FILTRATE 
SUFT.C        15                   : SUFT         - SURFACE TEMPERATURE         
~A  DEPTH     RESD       GR     PHIN     PHID
# ...
  117.201   16.592   75.284    0.398    0.188
  117.501   15.697   82.421    0.379    0.187
  117.801   15.225   93.158    0.375    0.179
  118.101   14.738   92.906    0.375    0.182
  118.401   14.513   89.363    0.370    0.177
  118.701   14.959   77.873    0.369    0.182
  119.001   15.303   70.358    0.358    0.188
  119.301   16.170   64.766    0.366    0.176
  119.601   16.988   79.352    0.363    0.176
  119.901   18.578   85.619    0.362    0.220
  120.201   20.983   79.656    0.366    0.239
  120.501   23.253   61.088    0.363    0.215
  120.801   26.973   57.172    0.387    0.228
  121.101   30.119   57.294    0.398    0.249
  121.401   29.267   54.434    0.386    0.263
  121.701   24.004   56.913    0.388    0.252
  122.001   19.612   61.256    0.403    0.212
  122.301   17.794   57.216    0.402    0.205
  122.601   17.758   60.566    0.384    0.217
  122.901   19.942   61.928    0.365    0.221
  123.201   22.610   62.669    0.385    0.219
  123.501   22.694   55.090    0.400    0.255
  123.801   21.800   50.740    0.399    0.243
  124.101   21.965   53.407    0.404    0.215
  124.401   23.520   49.864    0.414    0.247
  124.701   28.128   49.674    0.410    0.243
  125.001   30.642   52.837    0.403    0.272
  125.301   35.746   49.170    0.403    0.304
  125.601   33.182   37.184    0.370    0.320
  125.901   29.935   32.462    0.349    0.323
  126.201   26.902   45.124    0.388    0.250
  126.501   25.795   48.286    0.412    0.244
  126.801   27.993   48.966    0.411    0.262
  127.101   37.962   46.541    0.393    0.270
  127.401   53.379   37.596    0.366    0.344
  127.701   71.431   28.714    0.359    0.365
  128.001   78.859   31.318    0.416    0.359
  128.301   75.323   37.026    0.464    0.365
  128.601   79.134   36.028    0.462    0.348
  128.901   87.031   31.119    0.446    0.340
  129.201   91.610   27.143    0.446    0.326
  129.501   95.514   24.905    0.442    0.309
  129.801   94.780   24.031    0.446    0.335
  130.101   91.397   25.642    0.447    0.343
  130.401   90.001   33.089    0.430    0.329
  130.701   87.787   28.179    0.431    0.320
  131.001   78.145   31.281    0.456    0.323
  131.301   60.647   32.518    0.463    0.351
  131.601   48.614   33.447    0.463    0.351
  131.901   41.264   46.109    0.467    0.307
  132.201   34.956   49.458    0.467    0.273
  132.501   33.902   41.693    0.471    0.301
  132.801   35.347   41.441    0.460    0.307
  133.101   39.096   42.679    0.461    0.303
  133.401   39.541   32.927    0.464    0.332
  133.701   37.697   33.482    0.452    0.338
  134.001   32.673   42.233    0.457    0.333
  134.301   26.951   46.948    0.429    0.306
  134.601   23.672   49.365    0.425    0.276
  134.901   23.355   49.114    0.440    0.287
  135.201   25.201   44.019    0.456    0.287
  135.501   28.956   36.813    0.479    0.333
  135.801   32.831   34.761    0.480    0.338
  136.101   36.244   41.586    0.469    0.319
  136.401   34.226   45.618    0.482    0.353
  136.701   29.105   45.677    0.467    0.352
  137.001   24.563   50.328    0.451    0.328
  137.301   20.416   51.132    0.431    0.307
  137.601   20.181   55.412    0.426    0.243
  137.901   22.278   57.955    0.417    0.256
  138.201   25.451   48.203    0.434    0.323
  138.501   26.691   43.108    0.417    0.334
  138.801   29.410   48.506    0.414    0.275
  139.101   31.253   47.882    0.431    0.274
  139.401   31.912   39.682    0.426    0.313
  139.701   30.831   35.209    0.435    0.331
  140.001   28.240   41.848    0.429    0.338
  140.301   25.331   53.206    0.427    0.283
  140.601   23.070   50.161    0.422    0.295
  140.901   22.805   45.687    0.412    0.283
  141.201   25.176   60.335    0.418    0.285
  141.501   30.570   47.480    0.436    0.305
  141.801   33.620   45.924    0.447    0.329
  142.101   42.247   41.822    0.465    0.377
  142.401   42.891   46.847    0.483    0.399
  142.701   37.317   48.272    0.454    0.352
  143.001   32.038   49.138    0.454    0.324
  143.301   27.821   52.237    0.477    0.334
  143.601   26.727   61.485    0.470    0.329
  143.901   27.814   75.948    0.467    0.315
  144.201   29.333   94.073    0.445    0.317
  144.501   29.273   81.528    0.446    0.325
  144.801   28.120   55.635    0.445    0.337
  145.101   25.905   41.351    0.418    0.312
  145.401   24.001   39.112    0.445    0.257
  145.701   23.188   38.487    0.460    0.258
  146.001   24.131   49.225    0.436    0.235
  146.301   30.498   39.535    0.449    0.260
  146.601   38.545   29.908    0.423    0.341
  146.901   48.071   29.098    0.412    0.328
  147.201   52.666   33.129    0.426    0.313
  147.501   45.734   37.657    0.430    0.313
  147.801   34.824   37.716    0.435    0.329
  148.101   23.074   27.530    0.467    0.313
  148.401   18.078   35.722    0.456    0.298
  148.701   15.491   35.407    0.444    0.333
  149.001   17.430   30.251    0.453    0.338
  149.301   21.165   24.907    0.424    0.332
  149.601   22.536   30.367    0.424    0.323
  149.901   21.485   37.628    0.419    0.332
  150.201   17.688   34.645    0.433    0.330
  150.501   14.674   28.431    0.443    0.328
  150.801   14.313   28.304    0.454    0.345
  151.101   15.860   27.120    0.444    0.332
  151.401   19.370   25.068    0.448    0.329
  151.701   28.349   27.734    0.470    0.349
  152.001   37.789   22.825    0.460    0.343
  152.301   42.119   21.890    0.447    0.369
  152.601   43.582   25.860    0.445    0.387
  152.901   37.918   24.428    0.454    0.361
  153.201   27.793   27.902    0.382    0.281
  153.501   18.805   35.659    0.359    0.213
  153.801   14.706   50.556    0.372    0.201
  154.101   13.573   43.164    0.391    0.240
  154.401   13.417   30.246    0.409    0.272
  154.701   14.477   26.578    0.409    0.251
  155.001   16.259   26.327    0.412    0.287
  155.301   19.114   32.967    0.410    0.257
  155.601   22.728   30.790    0.400    0.304
  155.901   33.390   20.480    0.401    0.335
  156.201   47.130   17.807    0.395    0.298
  156.501   52.628   17.430    0.387    0.325
  156.801   51.724   13.763    0.400    0.343
  157.101   48.660   11.960    0.413    0.330
  157.401   44.740   15.743    0.409    0.319
  157.701   43.557   15.305    0.396    0.313
  158.001   42.403   14.122    0.403    0.313
  158.301   38.767   16.166    0.420    0.329
  158.601   28.469   19.142    0.417    0.321
  158.901   24.535   24.850    0.394    0.305
  159.201   22.602   27.207    0.396    0.304
  159.501   20.119   20.622    0.400    0.307
  159.801   18.324   21.425    0.400    0.325
  160.101   16.156   25.271    0.382    0.330
  160.401   15.199   34.456    0.334    0.240
  160.701   15.053   42.275    0.318    0.126
  161.001   15.875   39.416    0.297    0.070
  161.301   19.873   29.974    0.245    0.040
  161.601   23.407   38.787    0.250    0.031
  161.901   24.733   44.247    0.265    0.040
  162.201   20.952   48.279    0.275    0.040
  162.501   19.083   51.379    0.289    0.030
  162.801   17.884   51.810    0.291    0.039
  163.101   17.949   55.655    0.287    0.067
  163.401   18.015   59.564    0.292    0.057
  163.701   18.324   63.223    0.303    0.041
  164.001   18.816   59.556    0.296    0.049
  164.301   18.849   59.428    0.291    0.064
  164.601   18.421   61.846    0.303    0.053
  164.901   18.209   59.980    0.309    0.070
  165.201   15.841   63.391    0.303    0.083
  165.501   14.988   67.361    0.319    0.081
  165.801   14.788   65.494    0.307    0.081
  166.101   14.674   60.089    0.297    0.071
  166.401   14.925   56.609    0.285    0.041
  166.701   16.922   51.886    0.268    0.044
  167.001   22.993   38.907    0.236    0.010
  167.301   27.082   29.404    0.188    0.033
  167.601   44.096   34.118    0.193    0.045
  167.901   39.704   34.425    0.184    0.039
  168.201   51.733   31.814    0.142    0.039
  168.501   59.556   28.582    0.133    0.026
  168.801   67.652   31.123    0.123    0.030
  169.101   69.471   34.038    0.119    0.035
