~Version : LASO    vs 4.00 
VERS.                2.00:   CWLS Log ASCII Standard -VERSION 2.0
WRAP.                  NO:
~Well Information Block
#MNEM.UNIT       Data                        Description of Mnemonic
#----.----      -------------------------- : -----------------------------
STRT.M             1.0000:
STOP.M           202.5000:
STEP.M             0.1000:
NULL.           -999.2500:
COMP.  MOBIL OIL CANADA                    :COMPANY
WELL.  MOBIL 90 CLARKE CREEK 16-31         :WELL
FLD.   CLARKE CREEK                        :FIELD
LOC.   16-31-089-07W4                      :LOCATION
CTRY.  CANADA                              :COUNTRY
PROV.  ALBERTA                             :PROVINCE
SRVC.  BRITISH PLASTERBOARD                :SERVICE COMPANY
DATE.  22-JAN-90                           :LOG DATE
UWI.   AA/16-31-089-07W400                 :UNIQUE WELL ID
~Parameter Information Block
#MNEM.UNIT       Data                        Description of Mnemonic
#----.----      -------------------------- : -----------------------------
RUN .                   1                 : Run Number
GL  .M           453.6000                 : Ground Level Elevation
DREF.                  GD                 : Depth Reference
EREF.M           453.6000                 : Elevation of Depth Reference
TDL .M           204.5000                 : Total Depth Logger
TDD .M           204.5000                 : Total Depth Driller
~Curve Information Block
#MNEM.UNIT        API CODE    Curve Description
#---------    ------------    -------------------------------------------
DEPT.M                    :   DEPTH
CALI.mm                   :   CALI
DPHI.V/V                  :   DPHI
DT  .US/M     60 520  0  1:   2 SONIC INTERVAL TRANSIT TIME (COMPENSATED)
GR  .API                  :   GR
ILD .Ohmm                 :   ILD
NPHI.V/V                  :   NPHI
RHOB.K/M3     45 350  1  1:   3 BULK DENSITY
~A  Depth           CALI        DPHI          DT          GR         ILD        NPHI        RHOB
# ...
142.1000        136.1708      0.2600    430.7200    109.1897     30.8161      0.3846   1252.5000
142.2000        137.2299      0.2555    444.7600    106.0126     29.8418      0.3926   1232.5000
142.3000        139.0058      0.2509    441.6400    106.0747     28.8509      0.4066   1212.5000
142.4000        141.3420      0.2463    454.2400    107.3052     27.1393      0.4154   1254.7000
142.5000        143.2692      0.2416    445.1200    103.2144     27.1157      0.4238   1307.1001
142.6000        144.8346      0.2398    435.1200    104.7045     27.6063      0.4353   1283.3000
142.7000        145.9841      0.2381    438.4800    105.3683     28.1510      0.4229   1294.6001
142.8000        144.0585      0.2401    443.4000    106.4529     28.3084      0.4050   1296.7000
142.9000        141.6921      0.2465    451.2000    106.0959     28.8702      0.3909   1095.1000
143.0000        141.1610      0.2586    461.3600    105.5126     27.9913      0.3810   1102.1000
143.1000        142.7991      0.2712    449.4000    104.3726     27.0633      0.3868   1074.0000
143.2000        143.7077      0.2771    434.2400    103.1997     26.5578      0.4107   1047.1000
143.3000        144.7011      0.2729    424.3600     98.3459     25.9966      0.4315   1161.2000
143.4000        142.5196      0.2694    418.0400     92.9831     27.4042      0.4428   1293.5000
143.5000        140.2970      0.2629    421.4000     90.6582     29.4734      0.4170   1273.3000
143.6000        139.9207      0.2567    424.7600     94.2280     32.2436      0.3997   1186.7000
143.7000        141.2232      0.2531    427.8400     98.1684     33.7617      0.3849   1162.7000
143.8000        142.3552      0.2529    423.0800    100.1413     33.5633      0.3584   1250.7000
143.9000        143.4082      0.2579    418.7600    100.9428     31.3881      0.3432   1318.9000
144.0000        141.7300      0.2608    413.9600    101.1399     30.2422      0.3545   1297.5000
144.1000        140.8351      0.2579    415.8400    102.2472     30.5983      0.3618   1276.1001
144.2000        141.9909      0.2489    418.6000    105.4324     30.7070      0.3613   1316.7000
144.3000        144.5428      0.2408    414.7200    106.8988     30.7758      0.3664   1281.2000
144.4000        144.7226      0.2382    408.6000    108.4153     30.8313      0.3826   1232.5000
144.5000        144.0483      0.2381    412.4800    110.1271     30.4002      0.3912   1272.4000
144.6000        143.6915      0.2427    415.4800    107.6534     29.0375      0.3981   1316.7000
144.7000        143.5532      0.2441    414.6000    104.2167     28.2335      0.3982   1366.9000
144.8000        144.6439      0.2453    415.7200     99.6114     28.2373      0.3950   1302.8000
144.9000        148.5064      0.2435    414.7200     93.7863     28.7441      0.3836   1268.7000
145.0000        147.4281      0.2443    412.9200     88.7945     30.2356      0.3799   1222.4000
145.1000        144.5979      0.2536    422.4800     83.4379     33.0151      0.3764   1201.1001
145.2000        141.8964      0.2609    436.0000     79.1116     36.2172      0.3729   1223.1001
145.3000        139.5049      0.2622    448.8000     79.0332     39.7318      0.3664   1252.7000
145.4000        139.7923      0.2617    461.6000     81.1704     41.1577      0.3602   1287.6001
145.5000        140.8688      0.2554    471.8000     84.4269     39.8124      0.3578   1316.1001
145.6000        142.0764      0.2497    464.5200     88.6638     36.7514      0.3555   1324.6001
145.7000        143.4486      0.2417    446.9200     94.2049     34.2724      0.3532   1333.1001
145.8000        145.2621      0.2357    441.4800     98.8270     30.9492      0.3548   1334.9000
145.9000        146.5379      0.2377    449.2400    101.9840     27.8800      0.3700   1301.4000
146.0000        146.0516      0.2418    447.1600    100.5849     26.2745      0.3909   1261.5000
146.1000        144.3341      0.2465    445.0800     96.0026     26.2701      0.4116   1287.1001
146.2000        142.7204      0.2523    455.3600     89.4787     28.6029      0.4040   1248.1001
146.3000        141.1397      0.2550    447.2800     84.5081     29.8720      0.3918   1267.9000
146.4000        141.3532      0.2564    436.9200     82.4046     33.0285      0.3774   1267.2000
146.5000        141.7672      0.2555    449.4800     82.6254     34.4835      0.3647   1282.7000
146.6000        141.4969      0.2521    440.3200     84.4683     34.5841      0.3685   1217.3000
146.7000        141.0329      0.2432    430.1600     84.5064     31.3995      0.3764   1228.3000
146.8000        140.7171      0.2442    420.4800     82.8619     30.3378      0.3804   1261.1001
146.9000        140.6218      0.2514    411.1200     81.6375     30.4342      0.3818   1281.9000
147.0000        140.6099      0.2629    406.8800     78.9045     31.8258      0.3836   1257.1001
147.1000        140.6066      0.2677    406.3200     79.4483     33.9823      0.3906   1274.2000
147.2000        140.6043      0.2667    427.8400     84.6455     36.5713      0.3877   1306.4000
147.3000        140.6025      0.2562    431.4400     89.7063     36.9942      0.3802   1313.9000
147.4000        140.6006      0.2468    426.8800     94.9056     37.1227      0.3714   1287.5000
147.5000        140.5987      0.2411    420.3600    101.0276     37.2049      0.3702   1289.0000
147.6000        140.5968      0.2427    416.3600    104.1653     37.2718      0.3702   1290.9000
147.7000        140.9097      0.2400    416.1200    104.6198     35.0453      0.3598   1295.5000
147.8000        142.1060      0.2356    415.8800    103.7413     32.1321      0.3485   1324.5000
147.9000        143.2583      0.2359    415.0000    102.9332     31.0508      0.3400   1333.9000
148.0000        143.9342      0.2336    411.4000    101.2195     30.0109      0.3417   1314.7000
148.1000        144.2608      0.2313    406.8400     98.9111     29.9473      0.3429   1302.5000
148.2000        143.9585      0.2290    395.4400     97.0754     30.4454      0.3447   1375.0000
148.3000        143.5886      0.2266    396.4400     98.2728     31.1731      0.3533   1387.1001
148.4000        143.4660      0.2237    409.4800    100.8715     31.7999      0.3688   1282.1001
148.5000        143.4468      0.2225    423.2000    103.7075     30.8653      0.3796   1306.3000
148.6000        143.8399      0.2213    431.9200    102.9897     30.3177      0.3745   1325.7000
148.7000        143.8455      0.2317    434.2800    104.8444     30.7285      0.3577   1251.9000
148.8000        143.1187      0.2413    435.4400    104.1068     32.0050      0.3511   1213.4000
148.9000        142.4832      0.2509    428.7200     97.5934     32.1268      0.3601   1187.9000
149.0000        142.2568      0.2604    424.2400     92.1115     32.1901      0.3732   1264.2000
149.1000        144.5642      0.2561    415.0800     91.2778     32.2479      0.3852   1299.1001
149.2000        145.7550      0.2525    405.5600     86.2703     32.7856      0.3894   1290.4000
149.3000        144.7972      0.2480    400.0000     85.2270     33.8954      0.3983   1284.2000
149.4000        142.7031      0.2410    403.4800     87.0575     35.4532      0.3926   1248.5000
149.5000        141.2803      0.2375    405.4400     89.2395     37.0896      0.3897   1240.1001
149.6000        140.9709      0.2406    405.2000     92.5961     38.9221      0.3934   1311.0000
149.7000        140.6576      0.2462    400.2400     90.3069     41.6718      0.4026   1390.7000
149.8000        140.9320      0.2511    410.0400     77.8990     43.3103      0.4045   1252.3000
149.9000        140.9577      0.2558    418.2000     67.6734     44.9845      0.3929   1183.1001
150.0000        140.9590      0.2630    427.0000     71.9138     45.9760      0.3798   1231.1001
150.1000        140.9587      0.2678    435.4400     80.3453     47.6350      0.3641   1251.7000
150.2000        141.2626      0.2714    439.6400     87.5770     47.2209      0.3541   1258.5000
150.3000        142.0710      0.2665    433.0800     96.6555     41.9441      0.3652   1345.3000
