~VERSION INFORMATION
 VERS.                 2.0:   CWLS LOG ASCII STANDARD -VERSION 2.0
 WRAP.                  NO:   ONE LINE PER DEPTH STEP
~WELL INFORMATION BLOCK
#MNEM.UNIT           DATA                    DESCRIPTION OF MNEMONIC
#---------    -------------------            -------------------------------
# Generated from Intellog Unique Number	CN_94_101/WELL/5012
WELL.         10-36-097-12W4                 : Well_name    - WELL
LOC .         AA/10-36-097-12W4/0            : Location     - LOCATION
UWI .         AA/10-36-097-12W400            : Uwi          - UNIQUE WELL ID
ENTR.         JOETTE                         : Entered      - ENTERED BY
SRVC.         SCHLUMBERGER                   : Scn          - SERVICE COMPANY
DATE.         08/17/92                       : Date         - LOG DATE
STRT.M        0                              : top_depth    - START DEPTH
STOP.M        110                            : bot_depth    - STOP DEPTH
STEP.M        0.25                           : increment    - STEP LENGTH
 NULL. -999.2500:NULL Value
~CURVE INFORMATION BLOCK
#MNEM UNIT       ERCB CURVE CODE    CURVE DESCRIPTION
#-----------   ------------------   ----------------------------------
DEPT.M        00 001 00 00         : DEPTH        - DEPTH
ILD .OHMM     00 120 00 00         : RESD         - DEEP RESISTIVITY (DIL)
GR  .API      00 310 00 00         : GR           - GAMMA RAY
DPHI.V/V      00 890 00 00         : PHID         - DENSITY POROSITY (SANDSTONE)
NPHI.V/V      00 330 00 00         : PHIN         - NEUTRON POROSITY (SANDSTONE)
~PARAMETER INFORMATION
#MNEM.UNIT           DATA             DESCRIPTION OF MNEMONIC
#---------         -----------     ------------------------------
GL  .M        331.14               : gl           - GROUND LEVEL ELEVATION
EREF.M        331.14               : kb           - ELEVATION OF DEPTH REFERENCE
DATM.M        331.14               : datum        - DATUM ELEVATION
TDD .M        112                  : tdd          - TOTAL DEPTH DRILLER
RUN .         ONE                  : Run          - RUN NUMBER
ENG .         BILL                 : Engineer     - RECORDING ENGINEER
WIT .         JIM                  : Witness      - WITNESSED BY
MUD .         GEL                  : Mud_type     - MUD TYPE
MATR.         SANDSTONE            : Logunit      - NEUTRON MATRIX
TMAX.C        15                   : BHT          - MAXIMUM RECORDED TEMPERATURE
BHTD.M        112                  : BHTDEP       - MAXIMUM RECORDED TEMPERATURE
RMT .C        15                   : MDTP         - TEMPERATURE OF MUD
MUDD.KG/M     1022                 : MWT          - MUD DENSITY
NEUT.         1                    : NEUTRON      - NEUTRON TYPE
RESI.         0                    : RESIST       - RESISTIVITY TYPE
RM  .OHMM     14.6                 : RM           - RESISTIVITY OF MUD
RMC .OHMM     7.81                 : RMC          - RESISTIVITY OF MUD CAKE
RMF .OHMM     11.3                 : RMF          - RESISTIVITY OF MUD FILTRATE
SUFT.C        4                    : SUFT         - SURFACE TEMPERATURE
~A  DEPTH     RESD       GR     PHID     PHIN
    0.000   26.770   42.047    0.361    0.561
    0.250   26.439   42.138    0.361    0.563
    0.500   26.113   41.637    0.361    0.565
    0.750   26.183   41.136    0.360    0.567
    1.000   26.218   40.635    0.359    0.566
    1.250   26.253   38.975    0.358    0.565
    1.500   26.312   37.247    0.350    0.564
    1.750   26.358   32.609    0.294    0.559
    2.000   26.405   27.381    0.258    0.552
    2.250   26.453   25.676    0.216    0.521
    2.500   26.500   27.606    0.199    0.458
    2.750   26.547   27.060    0.173    0.380
    3.000   26.595   24.173    0.156    0.351
    3.250   26.278   23.104    0.140    0.337
    3.500   25.954   24.353    0.131    0.331
    3.750   25.622   25.057    0.132    0.333
    4.000   25.305   23.965    0.139    0.325
    4.250   24.993   23.441    0.148    0.325
    4.500   24.337   23.554    0.248    0.324
    4.750   24.036   23.644    0.310    0.324
    5.000   23.739   25.552    0.384    0.325
    5.250   23.446   26.211    0.450    0.319
    5.500   22.830   27.460    0.478    0.310
    5.750   22.559   29.323    0.490    0.313
    6.000   22.589   34.141    0.511    0.581
    6.250   21.995   37.799    0.512    0.624
    6.500   21.733   37.889    0.481    0.676
    6.750   21.456   39.161    0.460    0.709
    7.000   21.191   39.864    0.407    0.731
    7.250   20.634   39.341    0.378    0.751
    7.500   20.379   36.499    0.348    0.659
    7.750   19.862   33.612    0.333    0.562
    8.000   19.608   33.111    0.339    0.550
    8.250   19.915   34.405    0.348    0.559
    8.500   20.245   34.495    0.367    0.570
    8.750   20.865   34.563    0.370    0.581
    9.000   21.495   34.062    0.377    0.577
    9.250   23.470   35.948    0.382    0.532
    9.500   24.909   37.219    0.377    0.518
    9.750   25.288   35.514    0.349    0.514
   10.000   25.684   32.059    0.346    0.519
   10.250   25.009   31.558    0.343    0.527
   10.500   22.682   33.421    0.342    0.521
   10.750   21.165   33.533    0.336    0.508
   11.000   19.462   31.851    0.326    0.490
   11.250   17.920   30.123    0.321    0.533
   11.500   17.936   28.462    0.326    0.529
   11.750   17.968   28.575    0.336    0.500
   12.000   17.746   29.233    0.353    0.496
   12.250   16.102   31.119    0.377    0.541
   12.500   16.362   32.982    0.426    0.547
   12.750   16.863   31.299    0.382    0.520
   13.000   17.380   29.616    0.375    0.490
   13.250   17.660   30.275    0.387    0.490
   13.500   16.954   32.138    0.432    0.518
   13.750   15.370   34.023    0.455    0.552
   14.000   14.761   35.273    0.453    0.562
   14.250   14.579   34.794    0.412    0.558
   14.500   14.612   31.930    0.388    0.566
   14.750   14.847   29.633    0.385    0.576
   15.000   15.521   27.951    0.388    0.548
   15.250   16.458   30.404    0.411    0.543
   15.500   16.962   33.449    0.415    0.546
   15.750   16.054   32.949    0.434    0.558
   16.000   16.539   33.061    0.391    0.540
   16.250   16.813   30.765    0.372    0.508
   16.500   15.688   25.559    0.367    0.480
   16.750   16.881   26.808    0.369    0.466
   17.000   17.631   30.489    0.376    0.467
   17.250   17.923   29.943    0.369    0.473
   17.500   17.206   28.851    0.370    0.485
   17.750   16.277   29.555    0.377    0.482
   18.000   14.975   32.577    0.372    0.515
   18.250   13.594   36.849    0.402    0.542
   18.500   13.230   38.689    0.438    0.567
   18.750   12.877   39.984    0.409    0.568
   19.000   12.544   39.483    0.366    0.565
   19.250   12.384   41.323    0.355    0.568
   19.500   12.417   44.368    0.343    0.558
   19.750   12.428   43.299    0.343    0.551
   20.000   12.456   38.639    0.339    0.552
   20.250   12.838   36.979    0.327    0.522
   20.500   13.613   34.092    0.331    0.533
   20.750   13.637   41.295    0.305    0.548
   21.000   12.719   38.999    0.292    0.556
   21.250   12.568   37.339    0.308    0.525
   21.500   13.517   38.020    0.282    0.511
   21.750   15.170   33.360    0.247    0.538
   22.000   17.270   33.450    0.268    0.565
   22.250   15.224   37.699    0.336    0.589
   22.500   12.151   38.380    0.373    0.612
   22.750    9.694   39.630    0.363    0.613
   23.000    8.792   42.084    0.359    0.608
   23.250    7.978   42.196    0.370    0.605
   23.500    8.103   41.673    0.369    0.599
   23.750    9.626   41.194    0.346    0.602
   24.000   10.501   41.285    0.340    0.603
   24.250   10.987   41.375    0.331    0.592
   24.500   10.257   42.056    0.358    0.584
   24.750    9.974   42.759    0.392    0.578
   25.000    8.918   43.418    0.403    0.603
   25.250    8.089   44.735    0.371    0.622
   25.500    7.548   44.802    0.362    0.635
   25.750    6.849   44.301    0.372    0.629
   26.000    6.390   43.778    0.381    0.619
   26.250    6.135   44.459    0.353    0.606
   26.500    6.323   45.731    0.354    0.607
   26.750    7.298   44.639    0.339    0.610
   27.000    7.106   40.002    0.253    0.583
   27.250    7.428   38.319    0.257    0.585
   27.500   10.032   41.364    0.324    0.593
   27.750    8.356   45.613    0.400    0.625
   28.000    7.157   45.112    0.432    0.650
   28.250    6.132   41.634    0.415    0.665
   28.500    5.567   39.951    0.374    0.645
   28.750    5.982   39.450    0.375    0.622
   29.000    6.526   38.972    0.383    0.614
   29.250    6.176   40.244    0.386    0.613
   29.500    5.932   42.084    0.363    0.611
   29.750    5.614   43.970    0.357    0.586
   30.000    5.542   46.424    0.346    0.581
   30.250    6.221   47.105    0.346    0.578
   30.500    6.985   46.013    0.348    0.571
   30.750    7.305   46.694    0.351    0.570
   31.000    7.315   48.557    0.358    0.578
   31.250    6.926   49.829    0.366    0.583
   31.500    6.649   48.146    0.404    0.530
   31.750    7.053   43.508    0.423    0.494
   32.000    7.270   41.803    0.403    0.496
   32.250    7.174   40.711    0.396    0.584
   32.500    7.606   39.029    0.402    0.650
   32.750    7.620   38.528    0.408    0.696
   33.000    6.169   38.049    0.403    0.708
   33.250    4.992   36.367    0.392    0.711
   33.500    4.658   36.479    0.383    0.706
   33.750    4.801   36.524    0.385    0.698
   34.000    5.317   36.023    0.381    0.698
   34.250    5.635   36.727    0.371    0.696
   34.500    6.603   37.976    0.341    0.620
   34.750    6.899   39.862    0.328    0.523
   35.000    6.912   37.588    0.330    0.485
   35.250    6.541   35.314    0.326    0.509
   35.500    6.104   36.586    0.311    0.537
   35.750    6.031   36.063    0.275    0.515
   36.000    6.866   33.198    0.253    0.440
   36.250    9.138   29.174    0.279    0.434
   36.500   10.412   30.469    0.289    0.479
   36.750    9.574   33.491    0.155    0.503
   37.000    7.017   42.490    0.147    0.553
   37.250    6.638   43.126    0.289    0.608
   37.500    6.024   42.057    0.338    0.625
   37.750    5.463   39.761    0.333    0.629
   38.000    5.315   39.260    0.324    0.636
   38.250    4.892   40.532    0.315    0.648
   38.500    4.831   41.804    0.316    0.645
   38.750    4.838   43.667    0.315    0.649
   39.000    5.282   43.188    0.290    0.653
   39.250    5.845   40.301    0.240    0.626
   39.500    6.283   40.391    0.264    0.583
   39.750    6.858   39.300    0.309    0.588
   40.000    6.770   40.026    0.333    0.613
   40.250    5.884   41.866    0.342    0.611
   40.500    5.894   43.138    0.312    0.593
   40.750    6.525   43.251    0.296    0.596
   41.000    6.447   42.705    0.298    0.642
   41.250    6.011   41.613    0.326    0.653
   41.500    5.375   40.544    0.333    0.660
   41.750    5.311   39.452    0.351    0.662
   42.000    5.471   38.360    0.361    0.668
   42.250    8.165   34.291    0.366    0.661
   42.500   15.507   30.222    0.373    0.599
   42.750   25.189   20.266    0.379    0.546
   43.000   36.523   13.242    0.398    0.453
   43.250   52.187    9.809    0.388    0.344
