~VERSION INFORMATION
 VERS.                 2.0:   CWLS LOG ASCII STANDARD -VERSION 2.0
 WRAP.                  NO:   ONE LINE PER DEPTH STEP
~WELL INFORMATION BLOCK
#MNEM.UNIT           DATA                    DESCRIPTION OF MNEMONIC
#---------    -------------------            -------------------------------
# Generated from Intellog Unique Number	CN_91_93/WELL/2882
WELL.         10-11-092-17W4                 : Well_name    - WELL
LOC .         AA/10-11-092-17W4/0            : Location     - LOCATION
UWI .         AA/10-11-092-17W400            : Uwi          - UNIQUE WELL ID
ENTR.         JOETTE                         : Entered      - ENTERED BY
SRVC.         SCHLUMBERGER                   : Scn          - SERVICE COMPANY
DATE.         03/31/92                       : Date         - LOG DATE
STRT.M        30                             : top_depth    - START DEPTH
STOP.M        260                            : bot_depth    - STOP DEPTH
STEP.M        0.25                           : increment    - STEP LENGTH
 NULL. -999.2500:NULL Value
~CURVE INFORMATION BLOCK
#MNEM UNIT       ERCB CURVE CODE    CURVE DESCRIPTION
#-----------   ------------------   ----------------------------------
DEPT.M        00 001 00 00         : DEPTH        - DEPTH
CALI.MM       00 280 01 00         : CAL          - CALIPER
GR  .API      00 310 00 00         : GR           - GAMMA RAY
NPHI.V/V      00 330 00 00         : PHIN         - NEUTRON POROSITY (SANDSTONE)
DPHI.V/V      00 890 00 00         : PHID         - DENSITY POROSITY (SANDSTONE)
ILD .OHMM     00 120 00 00         : RESD         - DEEP RESISTIVITY (DIL)
~PARAMETER INFORMATION
#MNEM.UNIT           DATA             DESCRIPTION OF MNEMONIC
#---------         -----------     ------------------------------
GL  .M        502.2                : gl           - GROUND LEVEL ELEVATION
EREF.M        505.87               : kb           - ELEVATION OF DEPTH REFERENCE
DATM.M        505.87               : datum        - DATUM ELEVATION
TDD .M        263.3                : tdd          - TOTAL DEPTH DRILLER
RUN .         ONE                  : Run          - RUN NUMBER
ENG .         BILL                 : Engineer     - RECORDING ENGINEER
WIT .         JIM                  : Witness      - WITNESSED BY
MUD .         GEL                  : Mud_type     - MUD TYPE
MATR.         SANDSTONE            : Logunit      - NEUTRON MATRIX
TMAX.C        22                   : BHT          - MAXIMUM RECORDED TEMPERATURE
BHTD.M        263.3                : BHTDEP       - MAXIMUM RECORDED TEMPERATURE
RMT .C        22                   : MDTP         - TEMPERATURE OF MUD
MUDD.KG/M     1100                 : MWT          - MUD DENSITY
NEUT.         1                    : NEUTRON      - NEUTRON TYPE
RESI.         0                    : RESIST       - RESISTIVITY TYPE
RM  .OHMM     11.7                 : RM           - RESISTIVITY OF MUD
RMC .OHMM     11.7                 : RMC          - RESISTIVITY OF MUD CAKE
RMF .OHMM     11.7                 : RMF          - RESISTIVITY OF MUD FILTRATE
SUFT.C        4                    : SUFT         - SURFACE TEMPERATURE
~A  DEPTH      CAL       GR     PHIN     PHID     RESD
# ...
  212.500  206.720   37.771    0.379    0.283  129.855
  212.750  207.678   37.151    0.376    0.275  127.431
  213.000  209.578   37.106    0.375    0.269  125.031
  213.250  209.533   37.681    0.396    0.275  118.157
  213.500  209.488   38.238    0.406    0.282  115.932
  213.750  209.414   38.813    0.425    0.296  113.768
  214.000  209.384   39.962    0.425    0.292  115.816
  214.250  208.351   41.704    0.420    0.287  120.144
  214.500  206.316   42.279    0.415    0.289  122.308
  214.750  205.298   44.012    0.410    0.290  113.502
  215.000  202.245   45.170    0.401    0.290  109.340
  215.250  200.239   46.329    0.393    0.291   72.688
  215.500  198.219   48.080    0.395    0.291   70.034
  215.750  194.208   49.813    0.396    0.291   59.246
  216.000  192.202   50.980    0.395    0.289   52.019
  216.250  186.185   53.315    0.389    0.287   45.674
  216.500  185.153   53.297    0.384    0.284   38.638
  216.750  185.108   52.067    0.416    0.280   35.205
  217.000  184.090   51.456    0.419    0.272   32.670
  217.250  183.027   51.429    0.417    0.277   30.890
  217.500  182.997   51.995    0.410    0.280   28.135
  217.750  181.965   55.506    0.404    0.277   26.606
  218.000  180.887   57.257    0.406    0.271   24.238
  218.250  179.854   59.008    0.404    0.264   21.274
  218.500  179.810   61.936    0.401    0.257   20.118
  218.750  179.765   62.501    0.408    0.245   19.380
  219.000  179.720   61.298    0.426    0.230   23.306
  219.250  179.690   57.105    0.420    0.246   28.556
  219.500  179.690   56.494    0.414    0.253   32.491
  219.750  179.585   55.273    0.405    0.252   47.905
  220.000  181.471   55.228    0.387    0.267   60.899
  220.250  182.429   55.210    0.384    0.277   77.431
  220.500  182.399   56.952    0.378    0.280   77.379
  220.750  185.287   58.119    0.376    0.278   74.529
  221.000  187.233   61.047    0.370    0.270   67.895
  221.250  191.139   63.381    0.362    0.245   64.195
  221.500  196.018   63.956    0.345    0.232   58.490
  221.750  199.924   62.142    0.328    0.241   52.315
  222.000  201.855   60.328    0.366    0.257   45.083
  222.250  202.753   60.301    0.390    0.263   47.626
  222.500  203.696   60.274    0.390    0.271   53.194
  222.750  203.666   60.238    0.393    0.265   58.315
  223.000  204.609   60.211    0.404    0.268   59.374
  223.250  204.534   60.768    0.405    0.278   59.355
  223.500  204.489   61.935    0.392    0.269   55.072
  223.750  204.444   63.094    0.380    0.246   52.080
  224.000  204.399   66.605    0.369    0.229   46.573
  224.250  204.354   69.532    0.360    0.213   41.656
  224.500  204.309   70.700    0.375    0.213   37.258
  224.750  205.252   71.266    0.384    0.221   35.222
  225.000  206.165   68.868    0.395    0.234   37.904
  225.250  206.135   68.248    0.395    0.238   38.586
  225.500  208.051   72.361    0.393    0.226   38.573
  225.750  208.979   75.297    0.394    0.198   35.796
  226.000  209.937   80.012    0.392    0.162   32.017
  226.250  211.852   84.134    0.389    0.154   28.637
  226.500  208.814   85.876    0.385    0.130   24.678
  226.750  206.809   75.172    0.388    0.156   22.905
  227.000  205.776   72.172    0.394    0.153   20.487
  227.250  201.750   70.376    0.390    0.150   19.012
  227.500  199.744   69.146    0.383    0.151   18.312
  227.750  198.712   70.906    0.367    0.160   18.990
  228.000  196.676   73.834    0.339    0.173   20.821
  228.250  195.643   74.391    0.355    0.200   22.410
  228.500  195.599   74.373    0.381    0.219   24.567
  228.750  195.554   74.938    0.393    0.222   26.932
  229.000  195.554   74.301    0.386    0.228   27.426
  229.250  196.437   74.283    0.383    0.264   27.915
  229.500  197.379   76.025    0.383    0.255   28.422
  229.750  198.277   75.396    0.379    0.246   27.887
  230.000  199.220   74.785    0.370    0.222   26.855
  230.250  200.178   72.361    0.370    0.219   26.354
  230.500  202.094   71.158    0.368    0.210   27.845
  230.750  203.052   70.538    0.363    0.225   32.872
  231.000  204.967   68.724    0.362    0.266   36.715
  231.250  204.908   67.521    0.357    0.259   38.081
  231.500  204.848   63.336    0.363    0.252   39.491
  231.750  203.815   62.716    0.380    0.253   35.975
  232.000  202.797   60.310    0.406    0.251   32.784
  232.250  199.774   57.912    0.408    0.253   35.939
  232.500  196.751   59.062    0.407    0.269   41.649
  232.750  196.721   60.813    0.406    0.263   42.413
  233.000  200.612   62.555    0.401    0.239   46.495
  233.250  201.555   64.898    0.399    0.228   49.117
  233.500  203.471   67.242    0.392    0.240   48.200
  233.750  203.441   69.586    0.388    0.235   42.314
  234.000  202.378   72.522    0.377    0.224   38.553
  234.250  202.333   73.672    0.373    0.215   33.224
  234.500  202.288   74.821    0.364    0.192   29.716
  234.750  201.255   73.025    0.358    0.182   27.071
  235.000  202.183   70.017    0.351    0.176   27.559
  235.250  202.138   71.184    0.372    0.188   28.589
  235.500  205.042   74.121    0.368    0.199   29.098
  235.750  206.988   81.197    0.360    0.208   29.089
  236.000  211.852   87.097    0.352    0.209   25.540
  236.250  213.797   92.404    0.335    0.168   20.817
  236.500  211.777   90.006    0.368    0.153   19.325
  236.750  204.802   81.080    0.383    0.133   17.605
  237.000  197.843   75.109    0.395    0.210   18.598
  237.250  193.802   75.082    0.408    0.221   19.293
  237.500  194.745   76.842    0.400    0.235   21.541
  237.750  195.703   80.963    0.393    0.243   23.619
  238.000  196.631   85.067    0.384    0.251   25.896
  238.250  196.586   87.420    0.380    0.256   28.919
  238.500  196.541   90.356    0.366    0.244   30.000
  238.750  195.493   87.950    0.349    0.230   27.330
  239.000  195.448   75.468    0.347    0.216   24.444
  239.250  197.364   76.024    0.348    0.198   21.863
  239.500  199.295   76.006    0.350    0.176   19.552
  239.750  200.252   74.776    0.380    0.164   17.814
  240.000  193.263   76.536    0.390    0.150   18.135
  240.250  190.270   80.658    0.396    0.166   18.810
  240.500  190.195   83.594    0.401    0.200   20.239
  240.750  192.125   87.707    0.405    0.205   20.610
  241.000  195.044   86.495    0.379    0.192   19.844
  241.250  198.935   73.420    0.406    0.170   18.766
  241.500  192.979   73.384    0.402    0.186   16.785
  241.750  186.992   69.209    0.391    0.210   17.406
  242.000  182.981   70.349    0.381    0.229   19.088
  242.250  182.936   72.109    0.373    0.231   21.714
  242.500  183.879   74.444    0.364    0.223   25.168
  242.750  184.807   75.611    0.367    0.202   29.171
  243.000  184.777   74.390    0.370    0.177   31.984
  243.250  184.702   73.169    0.371    0.234   34.419
  243.500  184.672   74.336    0.374    0.207   33.771
  243.750  185.585   76.680    0.374    0.196   31.335
  244.000  185.540   80.784    0.368    0.206   29.084
  244.250  185.495   83.720    0.354    0.195   27.498
  244.500  186.408   83.109    0.342    0.184   25.051
  244.750  186.378   78.332    0.346    0.171   23.689
  245.000  187.321   75.342    0.361    0.176   21.980
  245.250  188.234   71.148    0.379    0.174   21.973
  245.500  188.204   72.306    0.392    0.171   22.369
  245.750  189.147   73.465    0.417    0.282   24.521
  246.000  189.087   75.809    0.434    0.283   26.398
  246.250  189.057   77.560    0.425    0.278   27.891
  246.500  190.000   79.903    0.416    0.259   30.005
  246.750  189.940   81.645    0.405    0.248   29.990
  247.000  190.868   83.980    0.392    0.232   29.975
  247.250  191.796   85.148    0.384    0.241   28.871
  247.500  191.766   86.297    0.378    0.234   27.297
  247.750  193.682   85.668    0.371    0.220   25.810
  248.000  194.609   83.872    0.357    0.194   23.508
  248.250  195.567   80.281    0.343    0.187   22.646
  248.500  197.498   76.689    0.320    0.173   22.631
  248.750  200.386   73.698    0.315    0.144   22.623
