~VERSION INFORMATION
 VERS.                 2.0:   CWLS LOG ASCII STANDARD -VERSION 2.0
 WRAP.                  NO:   ONE LINE PER DEPTH STEP
~WELL INFORMATION BLOCK
#MNEM.UNIT           DATA                    DESCRIPTION OF MNEMONIC
#---------    -------------------            -------------------------------
# Generated from Intellog Unique Number	CC_80_83/WELL/2355
NULL.         -999.25                        : NULL_VALUE
WELL.         PEX PCEJ HANGST OV             : Well_name    - WELL
LOC .         10-14-082-10W4                 : Location     - LOCATION          
UWI .         AA/10-14-082-10W400            : Uwi          - UNIQUE WELL ID    
ENTR.         DW                             : Entered      - ENTERED BY        
SRVC.         DRESSER ATLAS                  : Scn          - SERVICE COMPANY   
DATE.         24 FEB 80                      : Date         - LOG DATE
STRT.M        250                            : top_depth    - START DEPTH       
STOP.M        484.891                        : bot_depth    - STOP DEPTH        
STEP.M        0.3                            : increment    - STEP LENGTH       
~CURVE INFORMATION BLOCK
#MNEM UNIT       ERCB CURVE CODE    CURVE DESCRIPTION
#-----------   ------------------   ----------------------------------
DEPT.M        00 001 00 00         : DEPTH        - DEPTH                       
GR  .API      00 310 00 00         : GR           - GAMMA RAY                   
ILD .OHMM     00 120 00 00         : RESD         - DEEP RESISTIVITY (DIL)      
DPHI.V/V      00 890 00 00         : PHID         - DENSITY POROSITY (LIMESTONE)
NPHI.V/V      00 330 00 00         : PHIN         - NEUTRON POROSITY (LIMESTONE)
~PARAMETER INFORMATION       
#MNEM.UNIT           DATA             DESCRIPTION OF MNEMONIC
#---------         -----------     ------------------------------
GL  .M        706.79               : gl           - GROUND LEVEL ELEVATION      
EREF.M        710.48               : kb           - ELEVATION OF DEPTH REFERENCE
DATM.M        710.48               : datum        - DATUM ELEVATION             
TDD .M        496                  : tdd          - TOTAL DEPTH DRILLER         
RUN .         ONE                  : Run          - RUN NUMBER                  
ENG .         BILL                 : Engineer     - RECORDING ENGINEER          
WIT .         JIM                  : Witness      - WITNESSED BY                
MUD .         GEL                  : Mud_type     - MUD TYPE                    
MATR.         LIMESTONE            : Logunit      - NEUTRON MATRIX              
TMAX.C        17                   : BHT          - MAXIMUM RECORDED TEMPERATURE
BHTD.M        496                  : BHTDEP       - MAXIMUM RECORDED TEMPERATURE
MATR.         1                    : LOGUNIT      - NEUTRON MATRIX              
RMT .C        25                   : MDTP         - TEMPERATURE OF MUD          
NEUT.         1                    : NEUTRON      - NEUTRON TYPE                
RESI.         0                    : RESIST       - RESISTIVITY TYPE            
RMC .OHMM     0.25                 : RMC          - RESISTIVITY OF MUD CAKE     
RMF .OHMM     0.25                 : RMF          - RESISTIVITY OF MUD FILTRATE 
SUFT.C        15                   : SUFT         - SURFACE TEMPERATURE         
~A  DEPTH       GR     RESD     PHID     PHIN
# ...
  406.594   71.061    6.299    0.233    0.321
  406.894   68.555    6.921    0.234    0.317
  407.194   64.177    8.198    0.074    0.320
  407.494   61.668    8.675    0.119    0.293
  407.794   66.017    8.515    0.179    0.265
  408.094   80.972    7.609    0.196    0.310
  408.394   94.054    6.673    0.194    0.326
  408.694   96.532    5.743    0.202    0.345
  408.994  102.754    5.429    0.200    0.371
  409.294  102.737    4.944    0.184    0.376
  409.594   97.739    4.762    0.185    0.391
  409.894   92.729    4.675    0.188    0.389
  410.194   93.343    4.764    0.184    0.382
  410.494   94.575    5.138    0.183    0.378
  410.794   94.561    5.336    0.180    0.345
  411.094   97.667    5.337    0.178    0.341
  411.394  105.133    5.439    0.182    0.347
  411.694  108.240    5.440    0.195    0.338
  411.994  110.092    5.441    0.210    0.338
  412.294  106.338    4.954    0.199    0.351
  412.594   97.593    4.184    0.197    0.357
  412.894   96.331    3.340    0.195    0.374
  413.194   93.201    2.338    0.247    0.392
  413.494   92.558    1.902    0.264    0.416
  413.794   87.559    1.798    0.252    0.453
  414.094   82.556    1.833    0.214    0.419
  414.394   76.927    1.976    0.219    0.389
  414.694   75.039    2.297    0.241    0.370
  414.994   76.276    3.103    0.241    0.354
  415.294   85.613    4.038    0.260    0.340
  415.594   89.344    4.437    0.246    0.334
  415.894   86.831    4.695    0.284    0.342
  416.194   83.701    4.609    0.295    0.354
  416.494   85.555    4.524    0.212    0.363
  416.794   91.153    4.276    0.205    0.365
  417.094   91.764    3.479    0.214    0.372
  417.393   89.255    2.675    0.205    0.374
  417.693   86.745    2.626    0.200    0.383
  417.993   87.358    2.727    0.200    0.386
  418.293   86.719    2.996    0.212    0.347
  418.593   92.316    3.170    0.212    0.372
  418.893   96.042    3.355    0.208    0.379
  419.193   95.401    3.293    0.208    0.372
  419.493   94.142    2.999    0.210    0.363
  419.793   96.624    2.730    0.210    0.378
  420.093   96.611    2.486    0.209    0.394
  420.393   92.851    2.395    0.205    0.397
  420.693   97.829    2.487    0.196    0.387
  420.993  100.932    2.632    0.204    0.372
  421.293   93.435    2.947    0.204    0.362
  421.593   92.797    3.118    0.203    0.352
  421.893   97.773    3.178    0.205    0.363
  422.193   97.758    3.239    0.204    0.379
  422.493   92.753    3.179    0.194    0.368
  422.793   85.257    3.063    0.123    0.346
  423.093   88.981    3.063    0.158    0.363
  423.393  100.819    3.242    0.205    0.346
  423.693  110.782    3.242    0.214    0.350
  423.993  106.402    3.243    0.216    0.375
  424.293  106.383    3.183    0.208    0.383
  424.593  106.369    3.498    0.202    0.372
  424.893   79.666    5.729    0.262    0.330
  425.193   80.925    6.174    0.257    0.324
  425.493   74.714    6.780    0.240    0.302
  425.793   75.969    7.307    0.221    0.298
  426.093   85.941    7.586    0.216    0.302
  426.393   85.952    7.875    0.214    0.298
  426.693   77.251    8.022    0.204    0.299
  426.993   78.509    7.871    0.200    0.306
  427.293   82.877    7.580    0.204    0.310
  427.593   87.248    7.579    0.197    0.319
  427.893   82.902    8.168    0.136    0.315
  428.193   82.294    8.167    0.146    0.300
  428.493   84.794    7.434    0.183    0.290
  428.793   92.897    6.767    0.185    0.325
  429.093  108.469    6.045    0.185    0.337
  429.393   99.769    5.931    0.195    0.330
  429.693  107.250    6.042    0.198    0.325
  429.993  104.772    6.273    0.191    0.337
  430.293  108.522    6.761    0.191    0.350
  430.593  107.288    8.309    0.198    0.359
  430.893  109.790    9.474    0.230    0.352
  431.193   89.262   11.216    0.237    0.338
  431.493   69.359   13.031    0.229    0.313
  431.793   53.190   16.319    0.218    0.290
  432.093   49.470   18.958    0.222    0.278
  432.393   51.968   20.054    0.221    0.277
  432.693   64.429   20.430    0.229    0.301
  432.993   73.156   20.046    0.235    0.295
  433.293   77.524   19.671    0.238    0.309
  433.593   60.110   16.925    0.219    0.317
  433.893   69.457   14.562    0.186    0.304
  434.193   83.162   13.506    0.209    0.303
  434.493   89.401   13.253    0.209    0.317
  434.793   89.411   13.500    0.197    0.306
  435.093   67.643   13.498    0.193    0.294
  435.393   72.633   13.497    0.193    0.283
  435.693   80.114   12.519    0.198    0.289
  435.993   83.239   11.831    0.209    0.309
  436.293   78.895   11.608    0.209    0.303
  436.593   77.038   11.827    0.204    0.317
  436.893   86.387   12.509    0.213    0.324
  437.193   80.797   12.046    0.212    0.333
  437.493   72.097   10.761    0.205    0.326
  437.793   80.822    9.087    0.199    0.319
  438.093   91.414    9.257    0.202    0.313
  438.393   91.427   10.167    0.223    0.300
  438.693   72.769   12.732    0.256    0.289
  438.993   47.885   17.847    0.284    0.273
  439.293   30.471   72.914    0.279    0.276
  439.593   29.862   94.808    0.263    0.310
  439.893   36.098  102.183    0.260    0.298
  440.193   30.508   89.582    0.264    0.296
  440.493   34.255   54.984    0.269    0.300
  440.793   38.003   27.970    0.273    0.314
  441.093   42.371   20.711    0.266    0.336
  441.393   52.964   22.322    0.246    0.340
  441.693   74.761   25.933    0.238    0.338
  441.992   68.548   28.480    0.264    0.320
  442.292   38.686   33.715    0.272    0.325
  442.592   30.607   34.346    0.268    0.331
  442.892   33.734   30.113    0.253    0.338
  443.192   40.591   21.882    0.248    0.364
  443.492   56.786   18.135    0.243    0.352
  443.792   63.021   13.941    0.223    0.334
  444.092   63.658   12.223    0.209    0.306
  444.392   64.915    9.941    0.191    0.297
  444.692   68.039    8.394    0.170    0.296
  444.992   79.252    7.641    0.154    0.302
  445.292  104.784    6.955    0.152    0.306
  445.592  102.928    6.573    0.155    0.319
  445.892   95.472    7.218    0.155    0.329
  446.192   96.733    7.493    0.131    0.342
  446.492   93.009    7.082    0.065    0.333
  446.792   87.419    6.327    0.189    0.312
  447.092   81.207    5.652    0.197    0.318
  447.392   88.067    5.242    0.193    0.318
  447.692  115.463    5.143    0.197    0.338
  447.992  119.832    5.544    0.204    0.336
  448.292  104.908    7.917    0.204    0.322
  448.592   86.870    9.198    0.188    0.310
  448.892   94.354    9.914    0.177    0.322
  449.192   95.608   10.887    0.177    0.312
  449.492   98.734   13.893    0.206    0.313
  449.792   97.500   20.992    0.229    0.328
  450.092   59.548   36.171    0.257    0.334
  450.392   45.867   41.242    0.279    0.331
  450.692   35.921   39.713    0.276    0.325
  450.992   32.204   37.534    0.263    0.321
  451.292   37.814   30.525    0.245    0.311
  451.592   47.163   23.913    0.240    0.310
  451.892   52.776   16.120    0.224    0.315
  452.192   62.124   13.870    0.204    0.324
  452.492   64.626   14.130    0.237    0.368
  452.792   68.373   17.367    0.250    0.350
  453.092   66.517   19.074    0.252    0.340
  453.392   64.041   19.799    0.239    0.332
  453.692   65.299   18.363    0.226    0.330
  453.992   71.534   15.800    0.217    0.347
  454.292   72.792   13.094    0.215    0.337
  454.592   75.295    9.879    0.216    0.322
  454.892   83.396    8.662    0.122    0.309
  455.192   97.101    7.738    0.117    0.305
  455.492   94.002    6.912    0.120    0.328
  455.792  101.485    6.532    0.122    0.313
  456.092  103.986    6.410    0.126    0.307
  456.392   96.529    6.409    0.130    0.310
  456.692   98.412    6.652    0.130    0.306
  456.992  100.288    6.651    0.128    0.316
  457.292  105.279    6.905    0.128    0.322
  457.592  108.407    6.903    0.132    0.318
  457.892  102.192    6.774    0.137    0.315
  458.192   81.043    6.647    0.142    0.312
  458.492   81.057    6.521    0.136    0.297
