~VERSION INFORMATION
 VERS.                 2.0:   CWLS LOG ASCII STANDARD -VERSION 2.0
 WRAP.                  NO:   ONE LINE PER DEPTH STEP
~WELL INFORMATION BLOCK
#MNEM.UNIT           DATA                    DESCRIPTION OF MNEMONIC
#---------    -------------------            -------------------------------
# Generated from Intellog Unique Number	CN_94_101/WELL/5022
WELL.         11-26-099-15W4                 : Well_name    - WELL
LOC .         AA/11-26-099-15W4/0            : Location     - LOCATION
UWI .         AA/11-26-099-15W400            : Uwi          - UNIQUE WELL ID
ENTR.         TIM                            : Entered      - ENTERED BY
SRVC.         SCHLUMBERGER                   : Scn          - SERVICE COMPANY
DATE.         08/13/92                       : Date         - LOG DATE
STRT.M        275                            : top_depth    - START DEPTH
STOP.M        485                            : bot_depth    - STOP DEPTH
STEP.M        0.25                           : increment    - STEP LENGTH
 NULL. -999.2500:NULL Value
~CURVE INFORMATION BLOCK
#MNEM UNIT       ERCB CURVE CODE    CURVE DESCRIPTION
#-----------   ------------------   ----------------------------------
DEPT.M        00 001 00 00         : DEPTH        - DEPTH
GR  .API      00 310 00 00         : GR           - GAMMA RAY
ILD .OHMM     00 120 00 00         : RESD         - DEEP RESISTIVITY (DIL)
NPHI.V/V      00 330 00 00         : PHIN         - NEUTRON POROSITY (SANDSTONE)
DPHI.V/V      00 890 00 00         : PHID         - DENSITY POROSITY (SANDSTONE)
~PARAMETER INFORMATION
#MNEM.UNIT           DATA             DESCRIPTION OF MNEMONIC
#---------         -----------     ------------------------------
GL  .M        724.5                : gl           - GROUND LEVEL ELEVATION
EREF.M        727.9                : kb           - ELEVATION OF DEPTH REFERENCE
DATM.M        727.9                : datum        - DATUM ELEVATION
TDD .M        488                  : tdd          - TOTAL DEPTH DRILLER
RUN .         ONE                  : Run          - RUN NUMBER
ENG .         BILL                 : Engineer     - RECORDING ENGINEER
WIT .         JIM                  : Witness      - WITNESSED BY
MUD .         GEL                  : Mud_type     - MUD TYPE
MATR.         SANDSTONE            : Logunit      - NEUTRON MATRIX
TMAX.C        28                   : BHT          - MAXIMUM RECORDED TEMPERATURE
BHTD.M        488                  : BHTDEP       - MAXIMUM RECORDED TEMPERATURE
RMT .C        10                   : MDTP         - TEMPERATURE OF MUD
MUDD.KG/M     1140                 : MWT          - MUD DENSITY
NEUT.         1                    : NEUTRON      - NEUTRON TYPE
RESI.         0                    : RESIST       - RESISTIVITY TYPE
RM  .OHMM     1.08                 : RM           - RESISTIVITY OF MUD
RMC .OHMM     1.08                 : RMC          - RESISTIVITY OF MUD CAKE
RMF .OHMM     1.08                 : RMF          - RESISTIVITY OF MUD FILTRATE
SUFT.C        4                    : SUFT         - SURFACE TEMPERATURE
~A  DEPTH       GR     RESD     PHIN     PHID
# ...
  362.000  141.406    4.613    0.512    0.294
  362.250  140.781    4.809    0.514    0.289
  362.500  140.765    5.003    0.539    0.287
  362.750  140.748    5.396    0.545    0.278
  363.000  141.353    5.591    0.540    0.274
  363.250  141.333    5.190    0.510    0.271
  363.500  141.931    4.391    0.498    0.271
  363.750  142.529    3.791    0.504    0.268
  364.000  142.516    3.589    0.528    0.262
  364.250  140.672    3.982    0.535    0.251
  364.500  136.983    4.177    0.559    0.250
  364.750  136.365    4.174    0.540    0.257
  365.000  134.517    4.568    0.546    0.265
  365.250  133.893    4.960    0.572    0.273
  365.500  137.548    5.552    0.578    0.279
  365.750  138.136    5.946    0.574    0.281
  366.000  137.515    6.537    0.525    0.285
  366.250  136.282    6.733    0.520    0.293
  366.500  132.594    6.729    0.513    0.299
  366.750  130.753    6.526    0.500    0.304
  367.000  126.459    5.926    0.504    0.301
  367.250  128.888    5.724    0.527    0.291
  367.500  131.932    5.520    0.530    0.280
  367.750  131.922    5.518    0.530    0.268
  368.000  130.680    5.712    0.521    0.262
  368.250  130.055    5.708    0.500    0.264
  368.500  128.822    5.904    0.491    0.269
  368.750  126.360    6.099    0.479    0.273
  369.000  123.900    6.492    0.483    0.274
  369.250  122.056    6.885    0.490    0.276
  369.500  120.205    7.080    0.499    0.281
  369.750  118.969    7.275    0.496    0.294
  370.000  120.179    6.874    0.493    0.319
  370.250  123.834    5.875    0.488    0.297
  370.500  127.490    5.276    0.517    0.291
  370.750  132.368    5.073    0.562    0.280
  371.000  135.412    5.070    0.578    0.284
  371.250  131.730    5.462    0.586    0.292
  371.500  126.210    5.659    0.554    0.302
  371.750  122.532    6.051    0.526    0.315
  372.000  120.069    6.446    0.502    0.322
  372.250  120.059    6.839    0.495    0.328
  372.500  119.428    7.035    0.490    0.332
  372.750  118.807    7.228    0.483    0.337
  373.000  115.733    6.825    0.484    0.313
  373.250  112.662    6.426    0.486    0.303
  373.500  111.426    5.825    0.488    0.306
  373.750  114.473    5.425    0.491    0.310
  374.000  120.575    5.023    0.495    0.315
  374.250  124.842    4.822    0.518    0.309
  374.500  127.271    4.618    0.539    0.303
  374.750  127.261    4.417    0.553    0.296
  375.000  127.852    4.213    0.566    0.289
  375.250  129.059    4.009    0.573    0.286
  375.500  129.664    3.808    0.577    0.292
  375.750  129.647    3.804    0.584    0.299
  376.000  129.630    3.999    0.593    0.305
  376.250  129.620    4.193    0.572    0.309
  376.500  129.610    4.388    0.534    0.309
  376.750  129.591    4.582    0.558    0.311
  377.000  129.581    4.779    0.572    0.313
  377.250  129.571    5.172    0.523    0.312
  377.500  130.166    5.367    0.493    0.305
  377.750  130.146    5.760    0.521    0.294
  378.000  130.136    6.152    0.533    0.287
  378.250  130.737    6.148    0.508    0.287
  378.500  131.332    6.146    0.503    0.288
  378.750  132.545    5.942    0.500    0.289
  379.000  135.589    5.740    0.526    0.289
  379.250  139.856    5.537    0.553    0.289
  379.500  144.734    5.535    0.586    0.287
  379.750  150.836    5.332    0.587    0.284
  380.000  155.099    5.329    0.556    0.283
  380.250  157.535    5.125    0.550    0.280
  380.500  161.187    5.122    0.555    0.277
  380.750  164.228    4.919    0.558    0.277
  381.000  162.377    4.914    0.563    0.263
  381.250  160.536    4.713    0.564    0.263
  381.500  157.462    4.708    0.568    0.264
  381.750  155.003    4.705    0.566    0.273
  382.000  153.764    4.700    0.544    0.280
  382.250  153.757    4.697    0.538    0.273
  382.500  155.578    4.694    0.521    0.268
  382.750  162.291    4.888    0.537    0.256
  383.000  163.501    4.884    0.562    0.246
  383.250  162.261    5.278    0.570    0.259
  383.500  157.968    6.069    0.578    0.279
  383.750  153.063    6.860    0.534    0.283
  384.000  149.381    7.451    0.485    0.279
  384.250  148.756    7.844    0.456    0.268
  384.500  157.303    8.041    0.438    0.258
  384.750  162.182    8.434    0.425    0.251
  385.000  160.945    8.828    0.414    0.251
  385.250  157.260    9.023    0.414    0.249
  385.500  153.571    9.217    0.419    0.245
  385.750  151.116    8.816    0.425    0.242
  386.000  149.271    8.414    0.431    0.236
  386.250  145.586    8.012    0.442    0.240
  386.500  143.130    7.810    0.464    0.251
  386.750  141.282    7.806    0.488    0.255
  387.000  138.820    7.802    0.494    0.256
  387.250  137.584    7.799    0.505    0.256
  387.500  136.344    7.994    0.505    0.256
  387.750  135.723    8.189    0.467    0.256
  388.000  134.483    8.383    0.457    0.260
  388.250  133.859    8.578    0.451    0.263
  388.500  133.231    8.574    0.445    0.257
  388.750  133.836    8.570    0.438    0.248
  389.000  134.434    8.764    0.460    0.236
  389.250  135.032    8.960    0.475    0.237
  389.500  133.792    9.155    0.464    0.239
  389.750  130.722    9.350    0.445    0.242
  390.000  129.486    9.543    0.435    0.247
  390.250  131.915    9.541    0.429    0.249
  390.500  133.128    9.337    0.422    0.253
  390.750  135.557    9.136    0.423    0.256
  391.000  136.159    8.735    0.446    0.264
  391.250  137.365    8.135    0.452    0.270
  391.500  136.132    7.733    0.459    0.267
  391.750  131.839    7.531    0.465    0.267
  392.000  130.596    7.327    0.470    0.267
  392.250  132.420    7.325    0.476    0.268
  392.500  136.072    7.519    0.486    0.273
  392.750  139.116    7.713    0.480    0.276
  393.000  140.941    7.710    0.470    0.281
  393.250  140.310    8.103    0.471    0.281
  393.500  139.691    8.297    0.498    0.276
  393.750  139.067    8.493    0.503    0.272
  394.000  139.053    8.490    0.505    0.260
  394.250  139.040    7.890    0.467    0.261
  394.500  140.247    7.090    0.443    0.260
  394.750  143.291    6.889    0.413    0.255
  395.000  148.169    6.884    0.440    0.257
  395.250  153.655    7.276    0.480    0.264
  395.500  150.588    7.472    0.508    0.260
  395.750  145.072    7.666    0.497    0.257
  396.000  139.555    7.663    0.472    0.258
  396.250  133.428    7.461    0.433    0.269
  396.500  130.357    7.259    0.458    0.271
  396.750  132.175    7.055    0.467    0.264
  397.000  134.607    6.854    0.473    0.260
  397.250  137.040    6.451    0.477    0.265
  397.500  139.469    6.250    0.479    0.278
  397.750  140.682    4.853    0.529    0.296
  398.000  141.889    4.254    0.561    0.310
  398.250  141.264    4.250    0.582    0.309
  398.500  140.028    4.446    0.598    0.304
  398.750  139.403    4.442    0.599    0.300
  399.000  140.004    4.437    0.591    0.293
  399.250  141.211    4.433    0.580    0.288
  399.500  140.589    4.231    0.578    0.287
  399.750  139.347    4.228    0.579    0.307
  400.000  139.948    4.024    0.581    0.315
  400.250  142.989    4.021    0.586    0.312
  400.500  144.813    4.413    0.588    0.306
  400.750  146.023    4.411    0.592    0.300
  401.000  145.398    5.001    0.586    0.292
  401.250  143.544    5.397    0.562    0.274
  401.500  142.926    5.988    0.549    0.269
  401.750  142.294    6.382    0.500    0.266
  402.000  142.896    6.776    0.495    0.262
  402.250  145.937    7.368    0.482    0.260
  402.500  150.818    7.564    0.466    0.249
  402.750  159.362    8.155    0.452    0.240
  403.000  158.734    8.349    0.445    0.236
  403.250  158.727    8.543    0.433    0.231
  403.500  160.545    8.541    0.415    0.221
  403.750  163.593    8.537    0.401    0.225
  404.000  167.245    8.532    0.407    0.228
  404.250  164.174    8.529    0.436    0.232
  404.500  159.877    8.524    0.451    0.230
  404.750  158.036    8.720    0.451    0.226
  405.000  156.797    8.913    0.442    0.220
  405.250  156.172    8.911    0.427    0.213
