~VERSION INFORMATION
 VERS.                 2.0:   CWLS LOG ASCII STANDARD -VERSION 2.0
 WRAP.                  NO:   ONE LINE PER DEPTH STEP
~WELL INFORMATION BLOCK
#MNEM.UNIT           DATA                    DESCRIPTION OF MNEMONIC
#---------    -------------------            -------------------------------
# Generated from Intellog Unique Number	CC_84_87/WELL/2339
NULL.         -999.25                        : NULL_VALUE
WELL.         ARCO ACI MCMURRAY              : Well_name    - WELL
LOC .         12-08-084-08W4                 : Location     - LOCATION          
UWI .         AA/12-08-084-08W4/0            : Uwi          - UNIQUE WELL ID    
ENTR.         JHS                            : Entered      - ENTERED BY        
SRVC.         WELEX                          : Scn          - SERVICE COMPANY   
DATE.         22 JAN 76                      : Date         - LOG DATE
STRT.M        274.32                         : top_depth    - START DEPTH       
STOP.M        487.687                        : bot_depth    - STOP DEPTH        
STEP.M        0.305                          : increment    - STEP LENGTH       
~CURVE INFORMATION BLOCK
#MNEM UNIT       ERCB CURVE CODE    CURVE DESCRIPTION
#-----------   ------------------   ----------------------------------
DEPT.M        00 001 00 00         : DEPTH        - DEPTH                       
DPHI.V/V      00 890 00 00         : PHID         - DENSITY POROSITY (LIMESTONE)
GR  .API      00 310 00 00         : GR           - GAMMA RAY                   
ILD .OHMM     00 120 00 00         : RESD         - DEEP RESISTIVITY (DIL)      
~PARAMETER INFORMATION       
#MNEM.UNIT           DATA             DESCRIPTION OF MNEMONIC
#---------         -----------     ------------------------------
GL  .M        726.948              : gl           - GROUND LEVEL ELEVATION      
EREF.M        729.691              : kb           - ELEVATION OF DEPTH REFERENCE
DATM.M        729.691              : datum        - DATUM ELEVATION             
TDD .M        495.3                : tdd          - TOTAL DEPTH DRILLER         
RUN .         ONE                  : Run          - RUN NUMBER                  
ENG .         BILL                 : Engineer     - RECORDING ENGINEER          
WIT .         JIM                  : Witness      - WITNESSED BY                
MUD .         GEL                  : Mud_type     - MUD TYPE                    
MATR.         LIMESTONE            : Logunit      - NEUTRON MATRIX              
TMAX.C        20                   : BHT          - MAXIMUM RECORDED TEMPERATURE
BHTD.M        495.3                : BHTDEP       - MAXIMUM RECORDED TEMPERATURE
MATR.         1                    : LOGUNIT      - NEUTRON MATRIX              
RMT .C        25                   : MDTP         - TEMPERATURE OF MUD          
NEUT.         1                    : NEUTRON      - NEUTRON TYPE                
RESI.         0                    : RESIST       - RESISTIVITY TYPE            
RMC .OHMM     0.25                 : RMC          - RESISTIVITY OF MUD CAKE     
RMF .OHMM     0.25                 : RMF          - RESISTIVITY OF MUD FILTRATE 
SUFT.C        15                   : SUFT         - SURFACE TEMPERATURE         
~A  DEPTH     PHID       GR     RESD
# ...
  340.464    0.322   51.985   15.318
  340.768    0.324   52.466   15.318
  341.073    0.328   51.518   15.797
  341.378    0.321   49.618   15.877
  341.683    0.319   48.670   15.798
  341.988    0.318   48.675   15.798
  342.293    0.315   50.109   15.480
  342.597    0.305   52.971   14.923
  342.902    0.301   54.880   14.684
  343.207    0.298   52.027   14.684
  343.512    0.294   54.889   14.366
  343.817    0.301   58.703   13.410
  344.121    0.301   56.803   13.331
  344.426    0.295   59.189   13.411
  344.731    0.283   59.194   13.492
  345.036    0.276   59.674   13.332
  345.341    0.273   64.918   11.899
  345.645    0.275   71.113    7.995
  345.950    0.270   72.546    5.446
  346.255    0.263   74.932    4.330
  346.560    0.261   80.175    4.012
  346.865    0.264   84.465    4.092
  347.169    0.274   83.041    4.412
  347.474    0.280   76.856    5.129
  347.779    0.286   73.052    6.086
  348.084    0.283   70.675    7.042
  348.389    0.269   66.870    7.362
  348.694    0.252   64.017    7.760
  348.998    0.239   64.023    8.797
  349.303    0.224   55.932   10.231
  349.608    0.215   53.556   11.268
  349.913    0.210   57.846   10.949
  350.218    0.232   60.708    9.516
  350.522    0.264   61.665    8.002
  350.827    0.275   65.955    7.684
  351.132    0.276   64.532    7.923
  351.437    0.277   63.108    8.402
  351.742    0.267   65.017    8.004
  352.046    0.259   67.880    6.969
  352.351    0.251   72.170    6.332
  352.656    0.273   72.175    6.651
  352.961    0.284   65.037    7.289
  353.266    0.263   59.803    7.608
  353.570    0.234   60.760    7.210
  353.875    0.215   73.622    6.254
  354.180    0.228   88.865    4.581
  354.485    0.243   95.061    3.705
  354.790    0.250   90.303    3.865
  355.095    0.265   86.974    4.503
  355.399    0.290   81.741    5.938
  355.704    0.275   65.080    8.408
  356.009    0.233   65.084    9.923
  356.314    0.233   65.565    9.047
  356.619    0.266   69.379    4.665
  356.923    0.255   77.955    3.709
  357.228    0.231   81.293    3.072
  357.533    0.233   87.965    2.833
  357.838    0.243  103.684    2.515
  358.143    0.243  107.974    2.436
  358.447    0.245  107.503    2.436
  358.752    0.244   96.079    2.596
  359.057    0.235   96.083    2.756
  359.362    0.239  101.326    2.677
  359.667    0.247   94.665    2.438
  359.971    0.250   88.004    2.279
  360.276    0.244   88.484    2.280
  360.581    0.254   95.155    2.280
  360.886    0.269   98.016    2.440
  361.191    0.286   91.831    2.600
  361.496    0.288   84.694    2.919
  361.800    0.284   82.317    4.115
  362.105    0.270   72.798    5.629
  362.410    0.280   64.231    7.542
  362.715    0.305   68.046   11.048
  363.020    0.288   69.480   15.351
  363.324    0.265   63.294   16.706
  363.629    0.317   50.918   17.663
  363.934    0.397   52.828   19.098
  364.239    0.388   55.213   19.895
  364.544    0.389   53.313   19.736
  364.848    0.380   53.317   18.462
  365.153    0.349   54.751   17.187
  365.458    0.340   57.136   15.992
  365.763    0.325   55.238   14.240
  366.068    0.306   54.288   11.770
  366.372    0.285   52.865   10.018
  366.677    0.282   53.823    9.540
  366.982    0.288   55.731    9.541
  367.287    0.308   58.117   10.019
  367.592    0.309   59.551   11.295
  367.897    0.307   46.222   12.889
  368.201    0.308   46.227   15.917
  368.506    0.302   45.279   19.105
  368.811    0.301   44.332   21.409
  369.116    0.306   46.241   18.707
  369.421    0.306   49.103   16.397
  369.725    0.307   51.490   12.812
  370.030    0.306   52.446   10.820
  370.335    0.314   51.975    9.864
  370.640    0.319   55.789    9.546
  370.945    0.316   55.318    9.228
  371.249    0.298   53.417    9.467
  371.554    0.280   49.613   10.265
  371.859    0.257   48.666   11.699
  372.164    0.191   46.288   14.329
  372.469    0.150   39.627   17.278
  372.773    0.214   38.680   16.163
  373.078    0.319   43.446   12.817
  373.383    0.314   50.594   10.347
  373.688    0.303   57.741    9.312
  373.993    0.291   63.937    9.232
  374.298    0.283   61.084    9.392
  374.602    0.288   57.755    9.711
  374.907    0.300   54.427    9.792
  375.212    0.294   49.669    9.951
  375.517    0.292   50.150   10.032
  375.822    0.304   49.679    9.952
  376.126    0.313   46.351    9.793
  376.431    0.309   45.880    9.395
  376.736    0.292   46.360    9.236
  377.041    0.291   49.698    9.157
  377.346    0.295   54.465    9.078
  377.650    0.294   55.898    9.477
  377.955    0.296   58.283    9.876
  378.260    0.291   59.241    9.876
  378.565    0.282   60.198    9.717
  378.870    0.283   59.727    9.718
  379.174    0.295   51.636    9.718
  379.479    0.290   53.546    9.798
  379.784    0.293   57.836    9.958
  380.089    0.304   61.175    9.959
  380.394    0.307   58.798    9.800
  380.699    0.291   56.422    9.721
  381.003    0.287   56.426    9.721
  381.308    0.286   55.480    9.721
  381.613    0.274   52.627    9.802
  381.918    0.275   47.870    9.722
  382.223    0.295   50.255    9.484
  382.527    0.284   62.641    9.405
  382.832    0.286   57.408    9.405
  383.137    0.287   57.413    9.405
  383.442    0.284   56.941    9.565
  383.747    0.283   48.850    9.725
  384.051    0.290   48.855    9.805
  384.356    0.287   49.812    9.726
  384.661    0.274   50.769    9.726
  384.966    0.269   53.155    9.408
  385.271    0.259   57.446    9.170
  385.576    0.262   61.736    9.250
  385.880    0.259   65.551    9.569
  386.185    0.222   66.508   10.047
  386.490    0.194   61.274   10.048
  386.795    0.262   54.136    9.570
  387.100    0.281   56.998    8.774
  387.404    0.271   65.098    8.535
  387.709    0.271   67.485    8.297
  388.014    0.269   69.869    7.899
  388.319    0.263   74.636    7.341
  388.624    0.263   73.689    6.784
  388.928    0.256   76.550    5.669
  389.233    0.249   81.793    4.952
  389.538    0.239   87.035    4.634
  389.843    0.242   88.470    4.714
  390.148    0.233   85.140    4.874
  390.452    0.218   78.954    5.353
  390.757    0.219   85.626    5.433
  391.062    0.230   79.440    4.955
  391.367    0.250   81.350    3.760
  391.672    0.250   88.497    3.442
  391.977    0.249   84.693    3.363
  392.281    0.261   89.460    3.682
  392.586    0.266   83.750    4.400
  392.891    0.269   83.755    5.197
  393.196    0.261   87.093    5.596
  393.501    0.260   90.907    5.835
  393.805    0.254   94.721    5.915
  394.110    0.241   93.774    5.836
  394.415    0.223   88.064    5.837
  394.720    0.207   83.783    5.598
  395.025    0.193   81.407    5.280
  395.329    0.227   81.888    5.041
  395.634    0.241   90.940    4.723
  395.939    0.237   93.326    4.405
  396.244    0.237   89.997    4.166
  396.549    0.255   93.335    3.848
  396.853    0.256  100.483    3.450
  397.158    0.244  100.964    3.052
  397.463    0.245   96.208    2.734
  397.768    0.239   95.259    2.495
  398.073    0.242   99.073    2.256
  398.378    0.255  106.221    2.177
  398.682    0.248  105.274    2.417
  398.987    0.249  103.849    2.736
  399.292    0.238  104.806    3.294
  399.597    0.230  102.431    3.932
  399.902    0.228   93.388    4.411
  400.206    0.234   88.631    4.809
  400.511    0.225   88.635    4.969
  400.816    0.212   90.545    5.288
  401.121    0.206   90.549    5.528
  401.426    0.222   86.745    5.847
  401.730    0.248   88.179    6.007
  402.035    0.245   99.611    6.167
  402.340    0.222  101.046    6.326
  402.645    0.230  102.002    6.646
  402.950    0.209  103.912    7.204
  403.254    0.201  102.964    7.922
  403.559    0.178   98.683    8.559
  403.864    0.158   90.116    8.799
  404.169    0.152   82.502    8.640
  404.474    0.207   83.935    8.242
  404.779    0.216   94.893    7.844
  405.083    0.225  103.468    7.207
  405.388    0.224  102.998    6.650
  405.693    0.215   98.240    6.172
  405.998    0.215   92.531    5.455
  406.303    0.225  100.155    4.978
