~VERSION INFORMATION
 VERS.                 2.0:   CWLS LOG ASCII STANDARD -VERSION 2.0
 WRAP.                  NO:   ONE LINE PER DEPTH STEP
~WELL INFORMATION BLOCK
#MNEM.UNIT           DATA                    DESCRIPTION OF MNEMONIC
#---------    -------------------            -------------------------------
# Generated from Intellog Unique Number	CN_94_101/WELL/5028
WELL.         12-08-097-12W4                 : Well_name    - WELL
LOC .         AA/12-08-097-12W4/0            : Location     - LOCATION
UWI .         AA/12-08-097-12W400            : Uwi          - UNIQUE WELL ID
ENTR.         T                              : Entered      - ENTERED BY
SRVC.         SCHLUMBERGER                   : Scn          - SERVICE COMPANY
DATE.         08/13/92                       : Date         - LOG DATE
STRT.M        25                             : top_depth    - START DEPTH
STOP.M        180                            : bot_depth    - STOP DEPTH
STEP.M        0.25                           : increment    - STEP LENGTH
 NULL. -999.2500:NULL Value
~CURVE INFORMATION BLOCK
#MNEM UNIT       ERCB CURVE CODE    CURVE DESCRIPTION
#-----------   ------------------   ----------------------------------
DEPT.M        00 001 00 00         : DEPTH        - DEPTH
GR  .API      00 310 00 00         : GR           - GAMMA RAY
ILD .OHMM     00 120 00 00         : RESD         - DEEP RESISTIVITY (DIL)
NPHI.V/V      00 330 00 00         : PHIN         - NEUTRON POROSITY (SANDSTONE)
DPHI.V/V      00 890 00 00         : PHID         - DENSITY POROSITY (SANDSTONE)
~PARAMETER INFORMATION
#MNEM.UNIT           DATA             DESCRIPTION OF MNEMONIC
#---------         -----------     ------------------------------
GL  .M        410                  : gl           - GROUND LEVEL ELEVATION
EREF.M        410                  : kb           - ELEVATION OF DEPTH REFERENCE
DATM.M        410                  : datum        - DATUM ELEVATION
TDD .M        185.5                : tdd          - TOTAL DEPTH DRILLER
RUN .         ONE                  : Run          - RUN NUMBER
ENG .         BILL                 : Engineer     - RECORDING ENGINEER
WIT .         JIM                  : Witness      - WITNESSED BY
MUD .         GEL                  : Mud_type     - MUD TYPE
MATR.         SANDSTONE            : Logunit      - NEUTRON MATRIX
TMAX.C        26.5                 : BHT          - MAXIMUM RECORDED TEMPERATURE
BHTD.M        188                  : BHTDEP       - MAXIMUM RECORDED TEMPERATURE
RMT .C        8                    : MDTP         - TEMPERATURE OF MUD
MUDD.KG/M     1050                 : MWT          - MUD DENSITY
NEUT.         1                    : NEUTRON      - NEUTRON TYPE
RESI.         0                    : RESIST       - RESISTIVITY TYPE
RM  .OHMM     16.4                 : RM           - RESISTIVITY OF MUD
RMC .OHMM     16.4                 : RMC          - RESISTIVITY OF MUD CAKE
RMF .OHMM     16.4                 : RMF          - RESISTIVITY OF MUD FILTRATE
SUFT.C        4                    : SUFT         - SURFACE TEMPERATURE
~A  DEPTH       GR     RESD     PHIN     PHID
# ...
  112.000  136.907    9.734    0.485    0.208
  112.250  133.940    9.535    0.477    0.201
  112.500  130.963    8.932    0.467    0.196
  112.750  126.793    8.529    0.453    0.190
  113.000  126.815    7.925    0.437    0.184
  113.250  129.226    7.524    0.415    0.171
  113.500  136.437    7.122    0.390    0.143
  113.750  138.255    6.721    0.417    0.091
  114.000  137.079    6.521    0.446    0.079
  114.250  136.502    6.321    0.453    0.141
  114.500  135.925    5.920    0.429    0.204
  114.750  137.155    5.922    0.420    0.200
  115.000  137.764    5.925    0.426    0.199
  115.250  138.385    5.928    0.455    0.204
  115.500  138.406    6.337    0.490    0.215
  115.750  138.428    6.339    0.492    0.216
  116.000  138.450    6.341    0.491    0.210
  116.250  138.471    5.942    0.480    0.205
  116.500  139.102    5.740    0.464    0.203
  116.750  139.119    5.541    0.450    0.203
  117.000  139.135    5.139    0.447    0.205
  117.250  139.766    4.940    0.451    0.213
  117.500  140.375    4.740    0.475    0.232
  117.750  139.804    4.542    0.480    0.248
  118.000  136.837    4.544    0.489    0.257
  118.250  135.057    4.749    0.501    0.245
  118.500  132.678    4.753    0.506    0.235
  118.750  127.317    4.555    0.514    0.223
  119.000  124.944    4.152    0.522    0.217
  119.250  124.367    3.750    0.517    0.213
  119.500  125.586    3.147    0.500    0.205
  119.750  128.595    2.946    0.490    0.194
  120.000  132.215    2.747    0.495    0.178
  120.250  132.236    2.750    0.523    0.210
  120.500  131.665    2.955    0.518    0.269
  120.750  131.077    3.161    0.504    0.272
  121.000  131.098    3.365    0.503    0.240
  121.250  132.323    3.775    0.505    0.229
  121.500  133.536    3.776    0.506    0.230
  121.750  136.557    3.780    0.505    0.231
  122.000  138.974    3.782    0.501    0.232
  122.250  141.390    3.583    0.499    0.230
  122.500  142.614    2.979    0.492    0.225
  122.750  143.235    2.577    0.487    0.222
  123.000  140.861    2.378    0.485    0.220
  123.250  135.489    1.976    0.510    0.219
  123.500  130.716    1.777    0.517    0.221
  123.750  122.954    1.577    0.535    0.241
  124.000  117.587    1.580    0.569    0.263
  124.250  107.430    1.380    0.589    0.267
  124.500  103.266    1.383    0.627    0.274
  124.750  103.881    1.387    0.644    0.286
  125.000  104.502    1.591    0.592    0.303
  125.250  104.529    2.202    0.598    0.322
  125.500  102.760    3.015    0.544    0.315
  125.750  100.974    3.624    0.568    0.303
  126.000   97.403    4.639    0.597    0.309
  126.250   92.641    5.451    0.618    0.315
  126.500   93.261    6.264    0.528    0.308
  126.750   93.881    6.672    0.481    0.278
  127.000   92.706    6.472    0.448    0.250
  127.250   93.320    5.869    0.453    0.252
  127.500  100.527    4.860    0.461    0.262
  127.750  108.936    4.457    0.443    0.275
  128.000  119.734    3.853    0.436    0.264
  128.250  123.952    3.251    0.462    0.246
  128.500  123.375    3.051    0.485    0.248
  128.750  122.798    2.850    0.513    0.250
  129.000  121.622    3.056    0.534    0.254
  129.250  118.650    3.060    0.544    0.253
  129.500  115.678    3.264    0.549    0.251
  129.750  115.695    3.267    0.547    0.248
  130.000  118.116    3.472    0.546    0.245
  130.250  120.533    3.678    0.542    0.245
  130.500  120.554    3.680    0.537    0.247
  130.750  118.780    3.887    0.531    0.249
  131.000  118.203    4.091    0.530    0.246
  131.250  118.818    4.094    0.525    0.237
  131.500  121.234    3.693    0.519    0.216
  131.750  125.447    3.089    0.515    0.191
  132.000  126.671    2.688    0.523    0.185
  132.250  126.693    2.488    0.541    0.189
  132.500  126.110    2.490    0.558    0.202
  132.750  125.533    2.494    0.614    0.225
  133.000  122.567    2.496    0.609    0.248
  133.250  120.787    2.903    0.583    0.253
  133.500  114.821    3.513    0.541    0.254
  133.750  107.658    4.529    0.497    0.243
  134.000  101.094    5.341    0.440    0.212
  134.250   94.529    6.760    0.419    0.195
  134.500   87.965    8.786    0.406    0.201
  134.750   80.204   10.409    0.441    0.209
  135.000   72.442   11.828    0.447    0.243
  135.250   66.476   13.248    0.436    0.264
  135.500   64.103   13.050    0.432    0.291
  135.750   64.124   12.849    0.431    0.300
  136.000   65.942   12.246    0.437    0.303
  136.250   68.963   11.843    0.441    0.303
  136.500   72.577   11.239    0.443    0.304
  136.750   76.191   10.635    0.437    0.304
  137.000   79.201   10.639    0.424    0.301
  137.250   82.814   10.438    0.428    0.296
  137.500   85.830   10.442    0.437    0.297
  137.750   90.042   10.445    0.442    0.304
  138.000   94.859   10.853    0.433    0.302
  138.250   97.270   11.057    0.429    0.294
  138.500   99.692   11.263    0.435    0.287
  138.750  100.911   11.670    0.438    0.280
  139.000  100.933   12.484    0.427    0.270
  139.250  100.960   12.890    0.415    0.241
  139.500   99.778   13.298    0.407    0.234
  139.750   99.201   13.706    0.400    0.214
  140.000   98.629   14.114    0.390    0.205
  140.250   98.651   14.522    0.373    0.200
  140.500   98.673   14.929    0.380    0.200
  140.750   98.694   15.540    0.387    0.226
  141.000   98.117   15.946    0.389    0.236
  141.250   97.535   16.557    0.395    0.242
  141.500   96.958   17.370    0.403    0.245
  141.750   96.985   17.979    0.405    0.247
  142.000   97.610   18.386    0.408    0.249
  142.250   97.621   19.199    0.410    0.251
  142.500   95.847   19.608    0.410    0.251
  142.750   94.072   19.610    0.404    0.253
  143.000   94.094   19.816    0.400    0.261
  143.250   96.510   19.819    0.402    0.270
  143.500   98.328   19.823    0.405    0.274
  143.750   98.355   19.824    0.405    0.264
  144.000   97.179   19.828    0.402    0.265
  144.250   95.404   19.425    0.397    0.270
  144.500   93.031   18.619    0.402    0.274
  144.750   91.251   17.611    0.410    0.278
  145.000   94.272   16.803    0.408    0.279
  145.250   96.688   16.604    0.400    0.279
  145.500   97.907   17.214    0.406    0.268
  145.750   97.330   18.836    0.407    0.240
  146.000   96.748   20.660    0.406    0.225
  146.250   91.985   23.698    0.411    0.224
  146.500   89.008   26.736    0.411    0.265
  146.750   88.430   29.977    0.401    0.294
  147.000   89.660   29.575    0.396    0.300
  147.250   89.073   25.126    0.401    0.300
  147.500   86.106   22.296    0.405    0.298
  147.750   82.530   19.669    0.415    0.295
  148.000   78.360   17.648    0.415    0.293
  148.250   80.782   15.831    0.402    0.290
  148.500   84.995   14.821    0.394    0.287
  148.750   88.603   13.812    0.383    0.285
  149.000   91.624   12.399    0.378    0.282
  149.250   91.646   11.593    0.385    0.280
  149.500   91.673   10.989    0.395    0.275
  149.750   92.886   10.385    0.399    0.273
  150.000  101.889    9.780    0.405    0.272
  150.250  106.700    8.973    0.404    0.268
  150.500  108.518    8.370    0.395    0.264
  150.750  107.941    7.767    0.384    0.256
  151.000  105.567    7.567    0.391    0.243
  151.250  101.398    7.570    0.399    0.231
  151.500  100.227    7.774    0.404    0.224
  151.750  108.027    7.979    0.396    0.238
  152.000  114.635    7.982    0.394    0.263
  152.250  121.242    7.985    0.394    0.257
  152.500  127.251    7.990    0.391    0.229
  152.750  130.865    7.992    0.386    0.227
  153.000  131.490    7.792    0.386    0.224
  153.250  133.314    7.593    0.400    0.229
  153.500  135.730    7.394    0.410    0.240
  153.750  136.949    7.194    0.428    0.251
  154.000  137.569    6.995    0.437    0.256
  154.250  139.991    6.796    0.446    0.255
  154.500  141.200    6.597    0.447    0.255
  154.750  143.017    6.599    0.449    0.261
  155.000  144.835    6.400    0.455    0.272
  155.250  146.653    6.403    0.467    0.276
