~VERSION INFORMATION
 VERS.                 2.0:   CWLS LOG ASCII STANDARD -VERSION 2.0
 WRAP.                  NO:   ONE LINE PER DEPTH STEP
~WELL INFORMATION BLOCK
#MNEM.UNIT           DATA                    DESCRIPTION OF MNEMONIC
#---------    -------------------            -------------------------------
# Generated from Intellog Unique Number	CC_88_90/WELL/3146
WELL.         PETRO-CANADA                   : Well_name    - WELL
LOC .         AA/10-11-089-15W4/0            : Location     - LOCATION
UWI .         AA/10-11-089-15W400            : Uwi          - UNIQUE WELL ID
ENTR.         JOETTE                         : Entered      - ENTERED BY
SRVC.         SCHLUMBERGER                   : Scn          - SERVICE COMPANY
DATE.         03/04/92                       : Date         - LOG DATE
STRT.M        75.000                         : top_depth    - START DEPTH
STOP.M        176.000                        : bot_depth    - STOP DEPTH
STEP.M        0.25                           : increment    - STEP LENGTH
 NULL. -999.2500:NULL Value
~CURVE INFORMATION BLOCK
#MNEM UNIT       ERCB CURVE CODE    CURVE DESCRIPTION
#-----------   ------------------   ----------------------------------
DEPT.M        00 001 00 00         : DEPTH        - DEPTH
GR  .API      00 310 00 00         : GR           - GAMMA RAY
CALI.MM       00 280 01 00         : CAL          - CALIPER
NPHI.V/V      00 330 00 00         : PHIN         - NEUTRON POROSITY (SANDSTONE)
DPHI.V/V      00 890 00 00         : PHID         - DENSITY POROSITY (SANDSTONE)
ILD .OHMM     00 120 00 00         : RESD         - DEEP RESISTIVITY (DIL)
~PARAMETER INFORMATION
#MNEM.UNIT           DATA             DESCRIPTION OF MNEMONIC
#---------         -----------     ------------------------------
GL  .M        497.5                : gl           - GROUND LEVEL ELEVATION
EREF.M        500.5                : kb           - ELEVATION OF DEPTH REFERENCE
DATM.M        500.5                : datum        - DATUM ELEVATION
TDD .M        237                  : tdd          - TOTAL DEPTH DRILLER
RUN .         ONE                  : Run          - RUN NUMBER
ENG .         BILL                 : Engineer     - RECORDING ENGINEER
WIT .         JIM                  : Witness      - WITNESSED BY
MUD .         GEL                  : Mud_type     - MUD TYPE
MATR.         SANDSTONE            : Logunit      - NEUTRON MATRIX
TMAX.C        60                   : BHT          - MAXIMUM RECORDED TEMPERATURE
BHTD.M        237                  : BHTDEP       - MAXIMUM RECORDED TEMPERATURE
RMT .C        20.6                 : MDTP         - TEMPERATURE OF MUD
MUDD.KG/M     9666.66              : MWT          - MUD DENSITY
NEUT.         1                    : NEUTRON      - NEUTRON TYPE
RESI.         0                    : RESIST       - RESISTIVITY TYPE
RM  .OHMM     8.2                  : RM           - RESISTIVITY OF MUD
RMC .OHMM     10.9                 : RMC          - RESISTIVITY OF MUD CAKE
RMF .OHMM     10.9                 : RMF          - RESISTIVITY OF MUD FILTRATE
SUFT.C        4                    : SUFT         - SURFACE TEMPERATURE
~A  DEPTH       GR      CAL     PHIN     PHID     RESD
# ...
  111.500   74.823  183.369    0.416    0.234   14.406
  111.750   83.430  179.113    0.432    0.267   15.203
  112.000   88.350  178.009    0.480    0.310   15.479
  112.250   96.957  179.994    0.503    0.305   15.750
  112.500  116.012  187.138    0.498    0.303   15.440
  112.750  106.797  188.086    0.472    0.304   14.593
  113.000  117.862  186.983    0.467    0.298   13.532
  113.250  127.084  186.894    0.451    0.297   13.273
  113.500  120.327  186.784    0.457    0.305   14.015
  113.750  116.642  187.731    0.465    0.305   15.072
  114.000  120.948  187.665    0.475    0.305   14.512
  114.250  124.024  187.576    0.431    0.307   12.971
  114.500  128.329  188.502    0.432    0.304    8.458
  114.750  116.655  189.450    0.443    0.304    7.563
  115.000  110.512  192.448    0.455    0.300    6.395
  115.250   95.766  194.477    0.502    0.299    5.308
  115.500   90.239  196.439    0.516    0.296    4.830
  115.750   97.002  197.365    0.501    0.280    5.393
  116.000  102.536  197.254    0.486    0.270    6.249
  116.250  110.528  196.151    0.467    0.248    7.512
  116.500  106.844  195.003    0.452    0.215    8.383
  116.750  111.764  193.900    0.438    0.213    7.776
  117.000  106.850  192.753    0.443    0.222    6.823
  117.250  108.697  192.709    0.463    0.241    5.769
  117.500  105.627  194.693    0.509    0.257    4.447
  117.750   93.954  200.801    0.525    0.261    4.279
  118.000   93.957  201.727    0.534    0.248    4.120
  118.250  104.408  201.682    0.540    0.231    3.965
  118.500  102.567  200.535    0.561    0.214    3.960
  118.750  110.560  200.468    0.578    0.188    3.957
  119.000  116.708  200.380    0.556    0.153    4.025
  119.250  103.806  200.247    0.553    0.142    4.093
  119.500   81.685  200.180    0.564    0.172    4.091
  119.750   82.302  201.106    0.587    0.234    4.087
  120.000  101.972  202.031    0.566    0.237    3.933
  120.250  102.590  201.943    0.545    0.235    3.927
  120.500   88.457  201.898    0.529    0.242    3.925
  120.750   79.857  196.605    0.508    0.233    4.381
  121.000   83.548  190.297    0.474    0.217    5.465
  121.250   81.093  191.267    0.502    0.233    7.481
  121.500   77.408  194.288    0.495    0.271    8.047
  121.750   94.619  194.177    0.441    0.298   10.417
  122.000  107.528  192.038    0.429    0.294   10.999
  122.250  105.073  189.876    0.433    0.274   12.271
  122.500   96.472  188.729    0.448    0.249   12.723
  122.750  105.079  188.574    0.460    0.250   13.435
  123.000  108.770  189.544    0.443    0.254   13.170
  123.250   95.867  189.477    0.430    0.277   12.213
  123.500   91.568  189.410    0.421    0.266   11.982
  123.750   87.884  190.358    0.401    0.271   12.413
  124.000   89.116  190.270    0.396    0.276   13.111
  124.250   77.443  191.217    0.405    0.246   13.587
  124.500   80.519  191.084    0.412    0.239   13.579
  124.750  111.865  192.054    0.427    0.229   12.831
  125.000  114.941  192.980    0.437    0.244   11.902
  125.250  114.329  193.950    0.431    0.252   11.040
  125.500  111.260  195.912    0.427    0.265   10.825
  125.750   84.836  196.860    0.421    0.279   11.855
  126.000   81.767  197.852    0.415    0.274   11.845
  126.250   84.843  198.800    0.413    0.260   11.618
  126.500   89.148  199.725    0.422    0.232   10.579
  126.750  103.900  200.673    0.445    0.241    9.807
  127.000  130.330  201.643    0.466    0.247    9.796
  127.250  124.188  201.532    0.468    0.252    9.971
  127.500  111.899  201.399    0.489    0.255   10.523
  127.750  104.529  202.369    0.467    0.235   10.711
  128.000  105.146  202.258    0.438    0.249   10.902
  128.250   91.013  203.228    0.442    0.254   10.889
  128.500   85.486  204.198    0.454    0.239   10.476
  128.750   83.031  206.138    0.468    0.239   10.278
  129.000   82.420  206.094    0.478    0.233    9.534
  129.250   84.881  207.042    0.477    0.235   10.064
  129.500   82.425  204.880    0.472    0.254   10.432
  129.750   80.585  202.696    0.467    0.261   10.232
  130.000   91.650  198.462    0.446    0.253    9.846
  130.250  115.622  196.322    0.422    0.257    9.301
  130.500  122.385  192.065    0.432    0.245    9.125
  130.750  116.857  188.867    0.438    0.239    8.618
  131.000  121.162  187.742    0.450    0.245    8.772
  131.250  121.780  187.631    0.442    0.243    9.612
  131.500  121.783  187.542    0.435    0.252   10.927
  131.750  108.880  186.395    0.434    0.260   11.976
  132.000   92.905  185.292    0.446    0.241   13.116
  132.250   83.075  184.167    0.450    0.248   13.350
  132.500  100.286  180.968    0.441    0.279   13.588
  132.750  124.257  179.865    0.430    0.290   13.573
  133.000  124.875  178.696    0.433    0.295   13.554
  133.250  116.889  178.629    0.440    0.299   13.796
  133.500  111.361  178.541    0.448    0.282   13.769
  133.750   97.229  179.488    0.447    0.277   13.505
  134.000   84.940  180.414    0.440    0.284   13.007
  134.250   64.663  181.362    0.452    0.276   11.843
  134.500   41.313  182.310    0.468    0.248   10.392
  134.750   43.774  183.235    0.484    0.254    9.459
  135.000   40.705  183.191    0.466    0.268    9.452
  135.250   33.333  184.139    0.466    0.257    9.436
  135.500   35.179  185.087    0.465    0.231    9.250
  135.750   59.151  186.034    0.457    0.219    9.242
  136.000   99.101  185.946    0.462    0.232    8.893
  136.250  105.250  186.894    0.470    0.246    8.725
  136.500  108.326  187.841    0.483    0.251    8.396
  136.750   84.361  189.826    0.487    0.237    7.934
  137.000   68.385  190.751    0.492    0.241    7.782
  137.250   48.722  192.713    0.498    0.258    7.628
  137.500   46.267  193.683    0.491    0.274    7.762
  137.750   60.406  194.609    0.445    0.287    8.046
  138.000   65.940  194.565    0.427    0.274    8.496
  138.250   57.953  195.468    0.437    0.272    8.648
  138.500   45.050  196.460    0.454    0.252    8.477
  138.750   45.668  197.386    0.466    0.269    7.861
  139.000   51.203  198.334    0.471    0.277    6.899
  139.250   58.581  199.237    0.460    0.245    6.054
  139.500   58.584  201.266    0.455    0.228    5.214
  139.750   54.900  204.220    0.468    0.256    3.664
  140.000   57.975  205.234    0.523    0.285    3.215
  140.250   63.510  207.219    0.578    0.297    2.872
  140.500   61.669  209.159    0.570    0.296    3.033
  140.750   61.673  210.129    0.576    0.276    3.579
  141.000   55.530  210.062    0.577    0.256    4.384
  141.250   62.908  209.907    0.571    0.229    6.830
  141.500   75.817  208.804    0.465    0.194    7.624
  141.750   83.809  207.701    0.448    0.201    8.992
  142.000   83.198  206.598    0.485    0.210    8.984
  142.250   78.284  205.473    0.495    0.216    8.812
  142.500   67.840  204.347    0.485    0.215    8.171
  142.750   57.396  205.273    0.476    0.215    7.868
  143.000   47.566  206.221    0.468    0.213    7.859
  143.250   35.892  206.132    0.460    0.202    8.142
  143.500   32.823  206.021    0.446    0.196    8.439
  143.750   35.284  204.874    0.415    0.196    8.914
  144.000   38.360  203.793    0.395    0.187    9.765
  144.250   37.134  201.609    0.399    0.188   10.504
  144.500   40.210  198.411    0.400    0.235   11.095
  144.750   46.359  196.249    0.395    0.237   11.497
  145.000   38.987  193.029    0.403    0.259   11.918
  145.250   43.907  191.948    0.418    0.245   12.123
  145.500   48.826  188.706    0.435    0.239   12.117
  145.750   48.830  187.603    0.437    0.243   12.100
  146.000   46.989  185.397    0.428    0.240   11.864
  146.250   46.377  184.294    0.418    0.241   11.634
  146.500   46.381  183.191    0.422    0.279   11.841
  146.750   42.697  180.985    0.425    0.268   12.049
  147.000   48.231  180.940    0.407    0.213   12.486
  147.250   48.849  179.771    0.409    0.168   12.709
  147.500   36.560  179.726    0.417    0.270   12.691
  147.750   29.189  179.638    0.418    0.282   12.917
