~VERSION INFORMATION
 VERS.                 2.0:   CWLS LOG ASCII STANDARD -VERSION 2.0
 WRAP.                  NO:   ONE LINE PER DEPTH STEP
~WELL INFORMATION BLOCK
#MNEM.UNIT           DATA                    DESCRIPTION OF MNEMONIC
#---------    -------------------            -------------------------------
# Generated from Intellog Unique Number	CC_84_87/WELL/2329
NULL.         -999.25                        : NULL_VALUE
WELL.         SUN CHEECHAM                   : Well_name    - WELL              
LOC .         11-17-084-07W4                 : Location     - LOCATION          
UWI .         AA/11-17-084-07W4/0            : Uwi          - UNIQUE WELL ID    
ENTR.         RJA                            : Entered      - ENTERED BY        
SRVC.         SCHLUMBERGER                   : Scn          - SERVICE COMPANY   
DATE.         02 FEB 80                      : Date         - LOG DATE
STRT.M        215                            : top_depth    - START DEPTH       
STOP.M        478.091                        : bot_depth    - STOP DEPTH        
STEP.M        0.3                            : increment    - STEP LENGTH       
~CURVE INFORMATION BLOCK
#MNEM UNIT       ERCB CURVE CODE    CURVE DESCRIPTION
#-----------   ------------------   ----------------------------------
DEPT.M        00 001 00 00         : DEPTH        - DEPTH                       
DPHI.V/V      00 890 00 00         : PHID         - DENSITY POROSITY (LIMESTONE)
NPHI.V/V      00 330 00 00         : PHIN         - NEUTRON POROSITY (LIMESTONE)
GR  .API      00 310 00 00         : GR           - GAMMA RAY                   
ILD .OHMM     00 120 00 00         : RESD         - DEEP RESISTIVITY (DIL)      
~PARAMETER INFORMATION       
#MNEM.UNIT           DATA             DESCRIPTION OF MNEMONIC
#---------         -----------     ------------------------------
GL  .M        679.4                : gl           - GROUND LEVEL ELEVATION      
EREF.M        682.4                : kb           - ELEVATION OF DEPTH REFERENCE
DATM.M        682.4                : datum        - DATUM ELEVATION             
TDD .M        482                  : tdd          - TOTAL DEPTH DRILLER         
RUN .         ONE                  : Run          - RUN NUMBER                  
ENG .         BILL                 : Engineer     - RECORDING ENGINEER          
WIT .         JIM                  : Witness      - WITNESSED BY                
MUD .         GEL                  : Mud_type     - MUD TYPE                    
MATR.         LIMESTONE            : Logunit      - NEUTRON MATRIX              
TMAX.C        43                   : BHT          - MAXIMUM RECORDED TEMPERATURE
BHTD.M        482                  : BHTDEP       - MAXIMUM RECORDED TEMPERATURE
MATR.         1                    : LOGUNIT      - NEUTRON MATRIX              
RMT .C        25                   : MDTP         - TEMPERATURE OF MUD          
NEUT.         1                    : NEUTRON      - NEUTRON TYPE                
RESI.         0                    : RESIST       - RESISTIVITY TYPE            
RMC .OHMM     0.25                 : RMC          - RESISTIVITY OF MUD CAKE     
RMF .OHMM     0.25                 : RMF          - RESISTIVITY OF MUD FILTRATE 
SUFT.C        4                    : SUFT         - SURFACE TEMPERATURE         
~A  DEPTH     PHID     PHIN       GR     RESD
# ...
  267.200    0.334    0.414   73.062   11.026
  267.500    0.317    0.424   75.472   11.032
  267.800    0.301    0.439   72.461   11.671
  268.100    0.299    0.454   77.884   11.893
  268.400    0.317    0.454   85.716   12.351
  268.700    0.304    0.431   88.729   12.131
  269.000    0.301    0.444   85.116   11.913
  269.300    0.321    0.431   82.104   12.143
  269.600    0.326    0.395  110.419   13.088
  269.900    0.340    0.406  117.046   13.588
  270.200    0.338    0.409  141.746   14.109
  270.500    0.323    0.404  154.398   14.654
  270.800    0.315    0.407  191.146   14.934
  271.100    0.311    0.430  139.339   15.219
  271.400    0.320    0.444  107.413   15.230
  271.700    0.297    0.396   82.112   14.959
  272.000    0.303    0.419   90.547   14.418
  272.300    0.321    0.438  103.801   13.648
  272.600    0.313    0.451  100.790   13.155
  272.900    0.309    0.460   85.128   12.452
  273.200    0.326    0.433   90.551   12.003
  273.500    0.325    0.430   93.564   11.789
  273.800    0.297    0.427   89.348   11.578
  274.100    0.289    0.418   98.385   11.585
  274.400    0.293    0.422  109.832   11.592
  274.700    0.299    0.427  112.243   11.383
  275.000    0.279    0.441  108.027   11.181
  275.300    0.268    0.450   97.185   10.980
  275.600    0.297    0.432   94.173   10.786
  275.900    0.314    0.424   91.764   10.591
  276.200    0.284    0.418   92.970   10.598
  276.500    0.255    0.414  105.020   10.409
  276.800    0.262    0.410  100.804   10.222
  277.100    0.285    0.396   97.793   10.040
  277.400    0.274    0.429   97.794   10.235
  277.700    0.249    0.421  100.204   10.240
  278.000    0.271    0.421   98.398   10.632
  278.299    0.279    0.442   91.772   10.838
  278.599    0.305    0.421   97.797   10.646
  278.899    0.251    0.433  106.232   10.262
  279.199    0.236    0.441  111.052    8.691
  279.499    0.219    0.443  114.066    8.072
  279.799    0.242    0.447  118.283    7.360
  280.099    0.212    0.460  120.092    6.837
  280.399    0.219    0.486  129.129    6.470
  280.699    0.230    0.506  132.744    6.123
  280.999    0.231    0.489  125.516    6.357
  281.299    0.234    0.459  120.095    6.981
  281.599    0.239    0.460  112.867    7.383
  281.899    0.253    0.468  111.061    9.061
  282.199    0.244    0.442  108.653    9.583
  282.499    0.254    0.450  105.641   10.138
  282.799    0.232    0.430  106.847   10.528
  283.099    0.267    0.395  109.258   10.339
  283.399    0.267    0.402  111.066    9.784
  283.699    0.272    0.427  112.874    9.434
  283.999    0.332    0.455  115.285    9.264
  284.299    0.366    0.474  112.274    9.099
  284.599    0.403    0.465  110.468    8.454
  284.899    0.298    0.453  105.649    8.457
  285.199    0.310    0.420  106.253    8.621
  285.499    0.299    0.433  108.061    9.119
  285.799    0.296    0.449   97.219    9.469
  286.099    0.311    0.449   93.002    9.475
  286.399    0.320    0.425   94.811    9.305
  286.699    0.313    0.417   94.812    9.311
  286.999    0.299    0.424   91.800    9.314
  287.299    0.301    0.447   79.151    9.495
  287.599    0.350    0.473   71.320    9.678
  287.899    0.362    0.484   64.695   10.237
  288.199    0.369    0.458   62.889   10.828
  288.499    0.375    0.461   59.275   11.246
  288.799    0.378    0.473   62.288   11.250
  289.099    0.360    0.474   67.109   11.257
  289.399    0.352    0.468   69.519   11.055
  289.699    0.355    0.476   70.725   10.858
  289.999    0.345    0.470   64.702   10.865
  290.299    0.351    0.459   61.088   10.672
  290.599    0.340    0.454   62.897   10.676
  290.899    0.333    0.459   62.898   10.681
  291.199    0.310    0.466   58.682   10.888
  291.499    0.319    0.471   56.273   10.694
  291.799    0.337    0.479   57.479   10.903
  292.099    0.350    0.476   60.492   10.906
  292.399    0.343    0.460   62.902   10.713
  292.699    0.354    0.453   61.698   10.716
  292.999    0.354    0.447   63.507   10.524
  293.299    0.357    0.443   62.905   10.532
  293.599    0.355    0.435   61.099   10.342
  293.899    0.351    0.434   57.485   10.161
  294.199    0.347    0.444   54.474    9.978
  294.499    0.350    0.450   55.680    9.982
  294.799    0.344    0.446   54.476    9.987
  295.099    0.349    0.449   57.489    9.994
  295.399    0.358    0.455   59.900    9.997
  295.699    0.366    0.449   58.696    9.819
  295.999    0.366    0.467   59.300    9.826
  296.299    0.351    0.471   60.505    9.831
  296.599    0.335    0.459   58.699   10.021
  296.899    0.346    0.450   60.507   10.024
  297.199    0.352    0.432   59.906   10.031
  297.499    0.358    0.450   56.895   10.224
  297.799    0.362    0.463   55.088   10.423
  298.099    0.358    0.454   50.873   10.623
  298.399    0.368    0.447   56.898   10.627
  298.699    0.372    0.435   59.308   10.837
  298.999    0.347    0.450   59.912   10.841
  299.299    0.354    0.466   57.503   10.845
  299.599    0.344    0.459   53.287   10.851
  299.899    0.358    0.446   51.481   10.857
  300.199    0.363    0.430   53.892   10.661
  300.499    0.354    0.432   55.700   10.279
  300.799    0.347    0.454   55.098   10.286
  301.099    0.331    0.464   53.894   11.504
  301.399    0.273    0.447   53.895   12.166
  301.699    0.168    0.347   52.691   13.610
  301.999    0.274    0.363   62.331   13.870
  302.299    0.338    0.407   61.730   13.624
  302.599    0.363    0.442   59.321   13.134
  302.898    0.349    0.443   58.719   12.200
  303.198    0.352    0.447   59.925   11.335
  303.498    0.354    0.460   60.529   10.927
  303.798    0.344    0.459   59.325   10.535
  304.098    0.354    0.463   59.326   10.348
  304.398    0.363    0.467   61.134   10.162
  304.698    0.356    0.471   57.521    9.984
  304.998    0.358    0.459   55.714    9.805
  305.298    0.361    0.470   56.318    9.628
  305.598    0.351    0.463   56.921    9.632
  305.898    0.355    0.454   56.922    9.817
  306.198    0.349    0.449   56.923   10.006
  306.498    0.361    0.436   58.129   10.014
  306.798    0.355    0.441   59.937   10.205
  307.098    0.362    0.441   62.347   10.210
  307.398    0.345    0.435   68.975    9.844
  307.698    0.344    0.437   76.807    9.316
  307.998    0.329    0.443   87.049    7.888
  308.298    0.275    0.461   92.472    6.802
  308.598    0.281    0.472   95.485    5.447
  308.898    0.281    0.492   89.462    4.786
  309.198    0.291    0.494   86.451    4.701
  309.498    0.339    0.513   82.235    4.703
  309.798    0.341    0.507   78.622    4.975
  310.098    0.316    0.486   79.828    5.462
  310.398    0.301    0.498   79.828    6.110
  310.698    0.323    0.493   75.010    6.462
  310.998    0.321    0.470   68.987    6.836
  311.298    0.332    0.428   61.156    7.368
  311.598    0.319    0.431   60.555    7.650
  311.898    0.319    0.451   66.580    7.943
  312.198    0.328    0.469   67.183    7.948
  312.498    0.322    0.459   65.377    7.805
  312.798    0.337    0.463   63.571    7.525
  313.098    0.337    0.464   65.379    7.255
  313.398    0.327    0.458   64.176    7.126
  313.698    0.313    0.434   68.393    6.997
  313.998    0.327    0.412   78.635    6.501
  314.298    0.286    0.406   86.467    5.607
  314.598    0.283    0.434   92.493    5.019
  314.898    0.333    0.483   94.903    4.749
  315.198    0.334    0.496   94.904    4.664
  315.498    0.363    0.503   96.712    4.935
  315.798    0.310    0.493   94.906    5.125
  316.098    0.323    0.481   96.714    5.222
  316.398    0.279    0.505  102.137    4.943
  316.698    0.274    0.572   95.512    4.856
  316.998    0.256    0.557   90.091    4.858
  317.298    0.277    0.501   97.321    4.859
  317.598    0.275    0.475  101.538    4.953
  317.898    0.292    0.476  106.359    3.683
  318.198    0.267    0.487  107.565    2.590
  318.498    0.283    0.530  111.180    1.722
  318.798    0.261    0.533  111.181    1.146
  319.098    0.278    0.557  108.170    0.988
