~Version : LASO    vs 4.00
VERS.                2.00:   CWLS Log ASCII Standard -VERSION 2.0
WRAP.                  NO:
~Well Information Block
#MNEM.UNIT       Data                        Description of Mnemonic
#----.----      -------------------------- : -----------------------------
STRT.M            15.0000:
STOP.M           203.4000:
STEP.M             0.1000:
NULL.           -999.2500:
COMP.  MOBIL OIL CANADA LTD.     :COMPANY
WELL.  MOBIL CLARKE OV 12-34     :WELL
FLD.   CLARKE                    :FIELD
LOC.   12-34-089-08W4            :LOCATION
CTRY.  CANADA                    :COUNTRY
PROV.  ALBERTA                   :PROVINCE
SRVC.  SCHLUMBERGER              :SERVICE COMPANY
DATE.  20-FEB-81                 :LOG DATE
UWI.   AA/12-34-089-08W400       :UNIQUE WELL ID
~Parameter Information Block
#MNEM.UNIT       Data                        Description of Mnemonic
#----.----      -------------------------- : -----------------------------
RUN .                   1                 : Run Number
GL  .M           415.1000                 : Ground Level Elevation
DREF.                  KB                 : Depth Reference
EREF.M           418.1000                 : Elevation of Depth Reference
TDL .M           203.0000                 : Total Depth Logger
TDD .M           200.0000                 : Total Depth Driller
CSGL.M            18.0000                 : Casing Bottom Logger
CSGD.M            15.0000                 : Casing Bottom Driller
CSGS.MM          219.0000                 : Casing Size
CSGW.KG/M          0.0000                 : Casing Weight
BHT .DEGC         12.0000                 : Bottom Hole Temperature
BS  .MM          159.0000                 : Bit Size
DFD .           1110.0000                 : Mud Weight (Density)
DFV .             90.0000                 : Mud Viscosity
DFPH.             10.0000                 : Mud pH
RM  .OHMM          1.9600                 : Mud Resistivity
RMT .DEGC         20.0000                 : Mud Resistivity Temperature
~Curve Information Block
#MNEM.UNIT        API CODE    Curve Description
#---------    ------------    -------------------------------------------
DEPT.M                    :   DEPTH
CALI.MM       42 280  1  1:   3 DENSITY CALIPER
DPHI.V/V                  :   DPHI
DT  .US/M     60 520  0  1:   2 SONIC INTERVAL TRANSIT TIME (COMPENSATED)
GR  .GAPI     42 310  1  1:   4 GAMMA RAY
ILD .OHMM      7 120 46  1:   7 DEEP INDUCTION
ILM .OHMM      7 120 44  1:   8 MEDIUM INDUCTION
NPHI.V/V      42 890  3  1:   5 NEUTRON POROSITY (SANDSTONE)
RHOB.K/M3     42 350  1  1:   6 BULK DENSITY
SFLU.OHMM      7 220  1  1:   9 FOCUSSED RESISTIVITY
SP  .MV        7  10  1  1:   10 SPONTANEOUS POTENTIAL
~A  Depth           CALI        DPHI          DT          GR         ILD         ILM        NPHI        RHOB        SFLU          SP
# ...
88.2000         168.1500      0.2354    346.9200     85.4250     12.5150     16.6659      0.3964   2347.3999     72.7495    -36.3800
88.3000         168.1500      0.2372    382.8800     88.6500     12.5150     16.6659      0.3964   2347.3999     72.7495    -36.3800
88.4000         168.4750      0.2406    418.8400     90.9150     12.2752     15.4678      0.4449   2196.3000     88.7626    -36.0600
88.5000         168.4750      0.2451    501.8400     92.2200     12.2752     15.4678      0.4449   2196.3000     88.7626    -36.0600
88.6000         169.3500      0.2505    501.8400     92.2200     11.6582     12.5380      0.4866   2171.1001     46.8414    -36.0900
88.7000         169.3500      0.2560    501.8400     92.2200     11.6582     12.5380      0.4866   2171.1001     46.8414    -36.0900
88.8000         168.4250      0.2543    504.9600     91.6500     10.1632      9.9410      0.4993   2183.8999      9.5198    -37.0400
88.9000         168.4250      0.2347    509.6400     90.9750     10.1632      9.9410      0.4993   2183.8999      9.5198    -37.0400
89.0000         168.2750      0.2008    512.3200     91.7700      9.4848      9.1840      0.4873   2216.3999      6.4540    -37.3500
89.1000         168.2750      0.1745    513.0000     92.9100      9.4848      9.1840      0.4873   2216.3999      6.4540    -37.3500
89.2000         170.2000      0.1553    511.7600     93.5400      8.5002      8.4378      0.4779   2219.8000      5.6264    -37.4000
89.3000         170.2000      0.1350    510.0000     92.3100      8.5002      8.4378      0.4779   2219.8000      5.6264    -37.4000
89.4000         169.8250      0.1074    508.3200     89.2500      7.5689      7.7737      0.4866   2209.0000      6.1579    -37.1700
89.5000         169.8250      0.0836    506.9200     87.7650      7.5689      7.7737      0.4866   2209.0000      6.1579    -37.1700
89.6000         167.4250      0.0647    508.5200     87.0150      6.8333      7.2415      0.4978   2231.5000      7.5758    -36.1400
89.7000         167.4250      0.0630    511.1600     87.8550      6.8333      7.2415      0.4978   2231.5000      7.5758    -36.1400
89.8000         167.4250      0.0899    512.2000     88.5000      6.8333      7.1619      0.4952   2224.8999      8.2079    -35.8000
89.9000         167.4250      0.1146    512.5200     89.9400      6.8333      7.1619      0.4952   2224.8999      8.2079    -35.8000
90.0000         166.8750      0.1350    513.4800     91.4100      7.0377      7.1950      0.4898   2211.8999      8.7142    -36.0400
90.1000         166.8750      0.1460    514.5600     91.9950      7.0377      7.1950      0.4898   2211.8999      8.7142    -36.0400
90.2000         167.0250      0.1579    516.8000     92.2200      6.8585      7.0312      0.4993   2236.8000      7.3490    -37.4200
90.3000         167.0250      0.2208    520.2000     92.4450      6.8585      7.0312      0.4993   2236.8000      7.3490    -37.4200
90.4000         171.7000      0.2618    522.6801     92.6700      6.4778      6.8270      0.5054   2266.6001      8.3144    -37.2200
90.5000         171.7000      0.2696    523.8000     93.0600      6.4778      6.8270      0.5054   2266.6001      8.3144    -37.2200
90.6000         180.3000      0.2772    525.2800     94.9050      6.1579      6.5801      0.5102   2248.0000      8.1928    -35.5300
90.7000         180.3000      0.2829    524.5200     96.7500      6.1579      6.5801      0.5102   2248.0000      8.1928    -35.5300
90.8000         183.2250      0.2621    523.4400     98.6850      5.6264      6.0678      0.5132   2227.2000      5.2364    -33.8500
90.9000         183.2250      0.2608    520.5600    100.6500      5.6264      6.0678      0.5132   2227.2000      5.2364    -33.8500
91.0000         180.9000      0.2640    518.2000    102.6300      5.4731      5.8214      0.5054   2230.3000      4.9548    -33.6800
91.1000         180.9000      0.2645    518.0400    103.8600      5.4731      5.8214      0.5054   2230.3000      4.9548    -33.6800
91.2000         178.9750      0.2603    517.8800    104.9400      5.3831      5.7099      0.4990   2232.3999      5.0609    -33.6000
91.3000         178.9750      0.2608    517.7600    105.6750      5.3831      5.7099      0.4990   2232.3999      5.0609    -33.6000
91.4000         177.4500      0.2659    517.9200    104.4000      5.2557      5.4983      0.5108   2206.3999      5.1408    -33.4500
91.5000         177.4500      0.2706    518.0800    103.5900      5.2557      5.4983      0.5108   2206.3999      5.1408    -33.4500
91.6000         178.6250      0.2690    517.6000    104.2650      5.2219      5.5237      0.5068   2197.3999      5.0053    -33.3200
91.7000         178.6250      0.2672    516.5200    104.8350      5.2219      5.5237      0.5068   2197.3999      5.0053    -33.3200
91.8000         183.1000      0.2623    514.4000    105.8850      5.3239      5.6005      0.5212   2242.7000      5.0563    -33.2200
91.9000         183.1000      0.2556    511.5200    106.5900      5.3239      5.6005      0.5212   2242.7000      5.0563    -33.2200
92.0000         172.3250      0.2514    504.9200    106.7850      5.7047      5.9187      0.5357   2201.6001      5.0284    -33.1400
92.1000         172.3250      0.2443    499.6000    106.9500      5.7047      5.9187      0.5357   2201.6001      5.0284    -33.1400
92.2000         168.9250      0.2405    493.1600    106.9950      5.9625      6.1692      0.5320   2214.7000      5.0007    -33.0500
92.3000         168.9250      0.2398    477.0800    104.8500      5.9625      6.1692      0.5320   2214.7000      5.0007    -33.0500
92.4000         168.7500      0.2448    467.8000    101.7750      6.2320      6.5318      0.4846   2244.7000      4.9412    -33.0600
92.5000         168.7500      0.2502    464.1200     99.2250      6.2320      6.5318      0.4846   2244.7000      4.9412    -33.0600
92.6000         167.4000      0.2514    462.2800     96.8250      6.5318      6.9475      0.4452   2254.5000      5.4179    -33.3700
92.7000         167.4000      0.2539    463.2400     97.2450      6.5318      6.9475      0.4452   2254.5000      5.4179    -33.3700
92.8000         164.1500      0.2571    464.8400     98.3100      7.3898      8.1701      0.4434   2230.5000      9.8317    -36.0300
92.9000         164.1500      0.2616    470.0400     99.6450      7.3898      8.1701      0.4434   2230.5000      9.8317    -36.0300
93.0000         162.4250      0.2657    476.3200     99.6450      7.7167      8.4768      0.4605   2235.1001     11.7660    -37.8100
93.1000         162.4250      0.2687    480.6400     99.5850      7.7167      8.4768      0.4605   2235.1001     11.7660    -37.8100
93.2000         163.1250      0.2688    483.7600     98.9400      7.8312      8.5631      0.4760   2237.7000     13.2626    -38.5900
93.3000         163.1250      0.2628    485.7600     98.2950      7.8312      8.5631      0.4760   2237.7000     13.2626    -38.5900
93.4000         179.9000      0.2529    487.1600     97.9500      7.4995      7.8964      0.4975   2227.2000      9.7326    -35.5600
93.5000         179.9000      0.2490    483.1600     97.7850      7.4995      7.8964      0.4975   2227.2000      9.7326    -35.5600
93.6000         181.7000      0.2630    481.0400     98.7900      7.2282      7.5341      0.4921   2244.2000      6.7769    -34.1900
93.7000         181.7000      0.2684    483.7200    100.2300      7.2282      7.5341      0.4921   2244.2000      6.7769    -34.1900
93.8000         180.8000      0.2613    487.2800    101.5950      6.9156      7.2549      0.4868   2258.8999      5.3288    -33.6900
93.9000         180.8000      0.2512    490.8400    102.7500      6.9156      7.2549      0.4868   2258.8999      5.3288    -33.6900
94.0000         184.6500      0.2449    494.1200    102.7650      6.3129      6.5197      0.4965   2235.8000      6.1014    -33.5700
94.1000         184.6500      0.2408    496.2000    102.7800      6.3129      6.5197      0.4965   2235.8000      6.1014    -33.5700
94.2000         182.2500      0.2385    497.8400    102.8100      6.0510      6.3013      0.5016   2229.6001      7.3288    -33.5800
