~VERSION INFORMATION
 VERS.                 2.0:   CWLS LOG ASCII STANDARD -VERSION 2.0
 WRAP.                  NO:   ONE LINE PER DEPTH STEP
~WELL INFORMATION BLOCK
#MNEM.UNIT           DATA                    DESCRIPTION OF MNEMONIC
#---------    -------------------            -------------------------------
# Generated from Intellog Unique Number	CN_94_101/WELL/3576
WELL.         15-36-096-11W4                 : Well_name    - WELL
LOC .         AA/15-36-096-11W4/0            : Location     - LOCATION
UWI .         AA/15-36-096-11W400            : Uwi          - UNIQUE WELL ID
ENTR.         JOETTE                         : Entered      - ENTERED BY
SRVC.         SCHLUMBERGER                   : Scn          - SERVICE COMPANY
DATE.         07/31/92                       : Date         - LOG DATE
STRT.M        10                             : top_depth    - START DEPTH
STOP.M        125                            : bot_depth    - STOP DEPTH
STEP.M        0.25                           : increment    - STEP LENGTH
 NULL. -999.2500:NULL Value
~CURVE INFORMATION BLOCK
#MNEM UNIT       ERCB CURVE CODE    CURVE DESCRIPTION
#-----------   ------------------   ----------------------------------
DEPT.M        00 001 00 00         : DEPTH        - DEPTH
GR  .API      00 310 00 00         : GR           - GAMMA RAY
ILD .OHMM     00 120 00 00         : RESD         - DEEP RESISTIVITY (DIL)
NPHI.V/V      00 330 00 00         : PHIN         - NEUTRON POROSITY (SANDSTONE)
RHOB.KG/M3    00 350 00 00         : DENS         - BULK DENSITY
DPHI.V/V      00 890 00 00         : PHID         - DENSITY POROSITY (SANDSTONE)
~PARAMETER INFORMATION
#MNEM.UNIT           DATA             DESCRIPTION OF MNEMONIC
#---------         -----------     ------------------------------
GL  .M        0                    : gl           - GROUND LEVEL ELEVATION
EREF.M        0                    : kb           - ELEVATION OF DEPTH REFERENCE
DATM.M        0                    : datum        - DATUM ELEVATION
TDD .M        127.7                : tdd          - TOTAL DEPTH DRILLER
RUN .         ONE                  : Run          - RUN NUMBER
ENG .         BILL                 : Engineer     - RECORDING ENGINEER
WIT .         JIM                  : Witness      - WITNESSED BY
MUD .         GEL                  : Mud_type     - MUD TYPE
MATR.         SANDSTONE            : Logunit      - NEUTRON MATRIX
TMAX.C        3                    : BHT          - MAXIMUM RECORDED TEMPERATURE
BHTD.M        127.7                : BHTDEP       - MAXIMUM RECORDED TEMPERATURE
RMT .C        3                    : MDTP         - TEMPERATURE OF MUD
MUDD.KG/M     1180                 : MWT          - MUD DENSITY
NEUT.         1                    : NEUTRON      - NEUTRON TYPE
RESI.         0                    : RESIST       - RESISTIVITY TYPE
RM  .OHMM     17                   : RM           - RESISTIVITY OF MUD
RMC .OHMM     17                   : RMC          - RESISTIVITY OF MUD CAKE
RMF .OHMM     17                   : RMF          - RESISTIVITY OF MUD FILTRATE
SUFT.C        4                    : SUFT         - SURFACE TEMPERATURE
~A  DEPTH       GR     RESD     PHIN     DENS     PHID
# ...
   83.000   74.956  165.949    0.431 2132.840    0.313
   83.250   69.567  106.015    0.455 2122.740    0.320
   83.500   62.963  468.617    0.451 2139.380    0.309
   83.750   63.039  288.174    0.457 2147.840    0.304
   84.000   73.460  117.266    0.431 2131.520    0.314
   84.250   69.873  206.524    0.415 2117.310    0.323
   84.500   43.208  407.077    0.405 2115.440    0.324
   84.750   41.463  227.908    0.405 2119.780    0.321
   85.000   48.239  200.317    0.409 2121.980    0.320
   85.250   41.616  303.606    0.419 2132.540    0.314
   85.500   35.012  410.906    0.425 2134.690    0.312
   85.750   39.947  546.107    0.415 2132.870    0.313
   86.000   45.489  335.826    0.398 2122.770    0.320
   86.250   40.727  300.940    0.429 2114.680    0.324
   86.500   42.625  301.645    0.447 2108.740    0.328
   86.750   43.897  172.080    0.430 2102.710    0.332
   87.000   43.974  280.977    0.395 2107.060    0.329
   87.250   36.155  476.616    0.408 2115.470    0.324
   87.500   34.410  750.003    0.385 2121.830    0.320
   87.750   39.952  293.780    0.395 2138.470    0.310
   88.000   46.121  226.426    0.430 2153.050    0.301
   88.250   41.339  391.358    0.394 2142.960    0.307
   88.500   40.808  715.610    0.403 2106.120    0.330
   88.750   45.744  285.786    0.410 2126.870    0.317
   89.000   44.606  189.555    0.419 2131.220    0.314
   89.250   39.216  220.651    0.414 2114.900    0.324
   89.500   34.434  555.429    0.414 2104.850    0.330
   89.750   39.389  461.461    0.428 2113.260    0.325
   90.000   41.875  214.145    0.405 2127.800    0.316
   90.250   44.989  184.613    0.403 2132.100    0.314
   90.500   49.924  101.496    0.425 2113.770    0.325
   90.750   60.344   55.767    0.401 2103.720    0.331
   91.000   33.679   66.184    0.431 2103.950    0.331
   91.250   35.578   87.909    0.437 2106.100    0.330
   91.500   29.581  190.437    0.418 2112.460    0.326
   91.750   20.528  283.098    0.410 2129.100    0.316
   92.000   13.317 1161.550    0.431 2133.490    0.313
   92.250   18.859  878.085    0.428 2129.470    0.315
   92.500   25.617  109.404    0.394 2125.540    0.318
   92.750   35.430   99.838    0.418 2125.730    0.318
   93.000   33.077  212.131    0.438 2121.800    0.320
   93.250   32.565  224.944    0.439 2103.470    0.331
   93.500   35.659  112.591    0.382 2113.950    0.325
   93.750   39.380  190.874    0.365 2140.920    0.309
   94.000   33.990  206.238    0.423 2167.840    0.292
   94.250   37.711   59.829    0.441 2180.370    0.285
   94.500   51.776   38.945    0.385 2174.390    0.288
   94.750   49.442   64.834    0.354 2267.180    0.232
   95.000   58.629   79.888    0.351 2298.220    0.213
   95.250   66.600   16.854    0.368 2281.950    0.223
   95.500   67.892   18.545    0.366 2284.240    0.222
   95.750   80.742   15.121    0.380 2284.380    0.222
   96.000   79.603   14.335    0.393 2268.110    0.231
   96.250   72.392   16.081    0.388 2258.010    0.238
   96.500   84.008   13.872    0.371 2289.140    0.219
   96.750   73.760   15.562    0.360 2285.170    0.221
   97.000   61.670   16.804    0.357 2277.130    0.226
   97.250   77.557   16.223    0.366 2267.030    0.232
   97.500   62.431   17.529    0.377 2261.000    0.236
   97.750   67.993   17.580    0.383 2252.960    0.241
   98.000   69.284   16.972    0.371 2236.690    0.250
   98.250   59.624   21.726    0.379 2226.630    0.257
   98.500   51.805   25.290    0.389 2220.600    0.260
   98.750   45.201   36.231    0.402 2183.760    0.283
   99.000   45.885  314.939    0.403 2155.150    0.300
   99.250   36.225  353.511    0.396 2134.720    0.312
   99.500   31.443  209.504    0.374 2116.390    0.323
   99.750   39.434  152.452    0.365 2133.030    0.313
  100.000   47.406   11.881    0.357 2207.320    0.268
  100.250   66.329   12.357    0.362 2265.140    0.233
  100.500   61.547   14.674    0.353 2285.900    0.221
  100.750   57.372   13.903    0.354 2296.420    0.214
  101.000   65.952   11.986    0.365 2284.260    0.222
  101.250   66.047   13.204    0.405 2267.940    0.232
  101.500   61.246   15.670    0.372 2255.830    0.239
  101.750   50.998   14.847    0.377 2247.750    0.244
  102.000   45.001   16.042    0.430 2208.800    0.267
  102.250   44.451   14.639    0.435 2137.000    0.311
  102.500   35.418   16.422    0.360 2114.550    0.325
  102.750   33.065   14.166    0.375 2127.130    0.317
  103.000   41.645   10.129    0.421 2135.540    0.312
  103.250   76.985    7.954    0.489 2137.790    0.310
  103.500   78.276    9.801    0.541 2113.240    0.325
  103.750   86.874    8.944    0.665 2004.320    0.391
  104.000   91.810    9.308    0.649 1901.610    0.454
  104.250   93.708    9.156    0.608 2021.190    0.381
  104.500   98.663    8.675    0.559 2066.630    0.354
  104.750   99.954    8.860    0.520 2095.660    0.336
  105.000   92.116    8.239    0.473 2167.840    0.292
  105.250  100.107    6.228    0.408 2225.660    0.257
  105.500  115.386    4.370    0.399 2295.830    0.215
  105.750  115.463    8.143    0.403 2337.160    0.190
  106.000  119.791    8.803    0.374 2355.900    0.178
  106.250  107.113    8.986    0.355 2354.030    0.179
  106.500  110.834    9.351    0.359 2358.330    0.177
  106.750  115.162    9.028    0.349 2379.090    0.164
  107.000  107.343    8.716    0.417 2393.670    0.155
  107.250  101.934    8.258    0.485 2391.800    0.156
  107.500  106.301   10.181    0.578 2398.160    0.153
  107.750   97.248    7.007    0.504 2408.670    0.146
  108.000  111.293    3.572    0.589 2408.810    0.146
  108.250  128.394    3.384    0.587 2406.990    0.147
  108.500  124.220    3.456    0.606 2407.220    0.147
  108.750  140.106    4.104    0.596 2407.360    0.147
  109.000  142.005    3.221    0.699 2407.550    0.147
  109.250  134.167    3.290    0.721 2407.730    0.147
  109.500  105.072    6.019    0.616 2407.920    0.147
  109.750   75.370    7.011    0.514 2401.930    0.150
  110.000   51.722    9.489    0.425 2400.060    0.151
  110.250   37.223   23.005    0.420 2161.550    0.296
  110.500   31.207   23.059    0.412 2157.620    0.298
  110.750   26.425   36.286    0.405 2145.420    0.306
  111.000   21.035   61.551    0.414 2110.730    0.327
  111.250   13.824  121.322    0.421 2114.930    0.324
  111.500   10.276  108.719    0.405 2123.350    0.319
  111.750   11.567   93.726    0.431 2121.480    0.320
  112.000   14.054   92.198    0.413 2105.210    0.330
  112.250   17.186   79.484    0.393 2113.620    0.325
  112.500   19.066   64.809    0.385 2163.220    0.295
  112.750   23.413   84.531    0.380 2165.410    0.294
  113.000   25.938   56.035    0.418 2169.760    0.291
  113.250   26.602   29.120    0.416 2165.830    0.293
  113.500   27.306   32.041    0.408 2145.400    0.306
  113.750   26.756   29.257    0.375 2133.250    0.313
  114.000   23.188   31.593    0.368 2147.880    0.304
  114.250   17.211   43.594    0.384 2160.450    0.297
  114.500   20.912   41.304    0.384 2177.050    0.287
  114.750   24.652   42.185    0.345 2210.140    0.267
  115.000   24.121   31.909    0.319 2274.190    0.228
  115.250   26.000   26.495    0.292 2292.840    0.216
  115.500   38.243   26.063    0.287 2311.540    0.205
  115.750   51.700   45.048    0.322 2328.270    0.195
  116.000   43.255   73.599    0.387 2311.960    0.205
  116.250   30.577   43.592    0.382 2277.130    0.226
  116.500   20.937   34.883    0.357 2256.740    0.238
  116.750   23.423   34.965    0.330 2203.450    0.271
  117.000   23.500   30.732    0.368 2181.010    0.284
  117.250   25.398   26.017    0.366 2193.490    0.277
  117.500   32.175   23.300    0.336 2218.400    0.262
  117.750   31.037   19.358    0.344 2237.100    0.250
  118.000   27.508   33.459    0.325 2245.520    0.245
  118.250   25.117   54.633    0.319 2225.130    0.257
  118.500   26.427   81.311    0.334 2221.200    0.260
  118.750   25.270   98.271    0.407 2192.590    0.277
  119.000   26.580  128.176    0.418 2145.470    0.306
  119.250   29.067  141.117    0.398 2147.710    0.304
