~VERSION INFORMATION
 VERS.                 2.0:   CWLS LOG ASCII STANDARD -VERSION 2.0
 WRAP.                  NO:   ONE LINE PER DEPTH STEP
~WELL INFORMATION BLOCK
#MNEM.UNIT           DATA                    DESCRIPTION OF MNEMONIC
#---------    -------------------            -------------------------------
# Generated from Intellog Unique Number	CN_94_101/WELL/5043
WELL.         14-35-100-13W4                 : Well_name    - WELL
LOC .         AA/14-35-100-13W4/0            : Location     - LOCATION
UWI .         AA/14-35-100-13W400            : Uwi          - UNIQUE WELL ID
ENTR.         TIM                            : Entered      - ENTERED BY
SRVC.         SCHLUMBERGER                   : Scn          - SERVICE COMPANY
DATE.         08/11/92                       : Date         - LOG DATE
STRT.M        350.52                         : top_depth    - START DEPTH
STOP.M        576.02                         : bot_depth    - STOP DEPTH
STEP.M        0.25                           : increment    - STEP LENGTH
 NULL. -999.2500:NULL Value
~CURVE INFORMATION BLOCK
#MNEM UNIT       ERCB CURVE CODE    CURVE DESCRIPTION
#-----------   ------------------   ----------------------------------
DEPT.M        00 001 00 00         : DEPTH        - DEPTH
GR  .API      00 310 00 00         : GR           - GAMMA RAY
ILD .OHMM     00 120 00 00         : RESD         - DEEP RESISTIVITY (DIL)
NPHI.V/V      00 330 00 00         : PHIN         - NEUTRON POROSITY (SANDSTONE)
~PARAMETER INFORMATION
#MNEM.UNIT           DATA             DESCRIPTION OF MNEMONIC
#---------         -----------     ------------------------------
GL  .M        784.555              : gl           - GROUND LEVEL ELEVATION
EREF.M        787.908              : kb           - ELEVATION OF DEPTH REFERENCE
DATM.M        787.908              : datum        - DATUM ELEVATION
TDD .M        577.596              : tdd          - TOTAL DEPTH DRILLER
RUN .         ONE                  : Run          - RUN NUMBER
ENG .         BILL                 : Engineer     - RECORDING ENGINEER
WIT .         JIM                  : Witness      - WITNESSED BY
MUD .         GEL                  : Mud_type     - MUD TYPE
MATR.         SANDSTONE            : Logunit      - NEUTRON MATRIX
TMAX.C        22.2222              : BHT          - MAXIMUM RECORDED TEMPERATURE
BHTD.M        577.596              : BHTDEP       - MAXIMUM RECORDED TEMPERATURE
RMT .C        22.2222              : MDTP         - TEMPERATURE OF MUD
MUDD.KG/M     9400                 : MWT          - MUD DENSITY
NEUT.         1                    : NEUTRON      - NEUTRON TYPE
RESI.         0                    : RESIST       - RESISTIVITY TYPE
RM  .OHMM     9                    : RM           - RESISTIVITY OF MUD
RMC .OHMM     9                    : RMC          - RESISTIVITY OF MUD CAKE
RMF .OHMM     9                    : RMF          - RESISTIVITY OF MUD FILTRATE
SUFT.C        4                    : SUFT         - SURFACE TEMPERATURE
~A  DEPTH       GR     RESD     PHIN
# ...
  404.770   76.029    3.912    0.417
  405.020   71.677    4.482    0.410
  405.270   64.213    4.847    0.404
  405.520   57.995    4.944    0.398
  405.770   51.779    4.851    0.400
  406.020   57.394    4.406    0.404
  406.270   73.604    4.239    0.414
  406.520   82.337    3.775    0.424
  406.770   89.200    3.173    0.433
  407.020   92.329    2.995    0.441
  407.270   91.097    2.882    0.451
  407.520   89.859    2.829    0.457
  407.770   88.004    2.830    0.462
  408.020   86.773    2.886    0.468
  408.270   86.155    3.002    0.475
  408.520   86.169    3.123    0.488
  408.770   86.800    3.248    0.500
  409.020   88.063    3.312    0.508
  409.270   88.694    3.314    0.506
  409.520   89.329    3.190    0.505
  409.770   90.591    3.130    0.505
  410.020   91.222    3.012    0.507
  410.270   91.862    2.899    0.511
  410.520   92.491    2.737    0.514
  410.770   93.127    2.583    0.516
  411.020   95.007    2.346    0.516
  411.270   97.508    1.971    0.517
  411.520  100.013    1.861    0.519
  411.770  100.645    1.826    0.526
  412.020  101.279    1.758    0.530
  412.270  100.052    1.758    0.526
  412.520  100.061    1.759    0.524
  412.770   99.446    1.760    0.521
  413.020  100.083    1.795    0.518
  413.270  100.091    1.831    0.517
  413.520  101.348    1.868    0.518
  413.770  101.983    1.905    0.523
  414.020  100.131    1.944    0.526
  414.270   98.896    2.021    0.527
  414.520   96.415    2.102    0.529
  414.770   94.558    2.273    0.527
  415.020   91.454    2.364    0.526
  415.270   88.348    2.556    0.525
  415.520   83.375    2.763    0.524
  415.770   78.406    2.988    0.521
  416.020   74.056    3.230    0.519
  416.270   70.330    3.847    0.514
  416.520   65.981    4.673    0.512
  416.770   63.500    5.355    0.500
  417.020   61.642    5.678    0.462
  417.270   64.148    5.905    0.418
  417.520   66.651    5.467    0.394
  417.770   69.780    4.964    0.395
  418.020   73.528    4.254    0.405
  418.270   77.277    3.862    0.420
  418.520   78.531    3.440    0.445
  418.770   81.660    3.063    0.467
  419.020   85.415    2.782    0.481
  419.270   86.043    2.783    0.478
  419.520   86.677    2.839    0.483
  419.770   84.820    2.953    0.485
  420.020   82.965    3.131    0.483
  420.270   83.602    3.321    0.482
  420.520   84.233    3.322    0.480
  420.770   84.870    3.323    0.478
  421.020   85.504    3.325    0.476
  421.270   85.512    3.326    0.478
  421.520   85.523    3.393    0.480
  421.770   83.043    3.598    0.476
  422.020   78.070    4.123    0.467
  422.270   69.363    5.205    0.454
  422.520   61.279    5.738    0.444
  422.770   60.667    6.203    0.431
  423.020   60.056    6.578    0.416
  423.270   59.441    6.581    0.402
  423.520   58.832    6.093    0.391
  423.770   58.840    5.323    0.381
  424.020   59.477    4.834    0.385
  424.270   62.603    4.389    0.390
  424.520   69.466    3.908    0.397
  424.770   76.953    3.349    0.404
  425.020   83.193    2.814    0.416
  425.270   84.456    2.411    0.436
  425.520   82.598    2.106    0.481
  425.770   81.364    2.107    0.536
  426.020   80.755    2.235    0.529
  426.270   81.386    2.324    0.528
  426.520   82.020    2.416    0.523
  426.770   83.277    2.613    0.519
  427.020   83.911    2.717    0.516
  427.270   85.797    2.719    0.513
  427.520   86.428    2.617    0.511
  427.770   87.059    2.519    0.508
  428.020   87.694    2.471    0.507
  428.270   86.459    2.379    0.504
  428.520   83.978    2.379    0.501
  428.770   78.386    2.381    0.493
  429.020   80.889    2.428    0.484
  429.270   87.752    2.430    0.470
  429.520   96.484    2.430    0.455
  429.770  100.856    2.432    0.482
  430.020   97.755    2.386    0.491
  430.270   95.898    2.434    0.506
  430.520   92.800    2.531    0.503
  430.770   90.937    2.684    0.494
  431.020   88.456    2.846    0.484
  431.270   85.353    3.018    0.479
  431.520   83.498    3.201    0.466
  431.770   82.889    3.265    0.458
  432.020   82.897    3.331    0.453
  432.270   82.911    3.332    0.447
  432.520   83.542    3.334    0.442
  432.770   82.930    3.335    0.437
  433.020   82.324    3.273    0.430
  433.270   81.707    3.211    0.423
  433.520   79.852    3.151    0.417
  433.770   79.240    3.033    0.409
  434.020   78.008    2.976    0.441
  434.270   77.394    3.096    0.455
  434.520   76.165    3.220    0.480
  434.770   75.550    3.284    0.482
  435.020   74.316    3.415    0.478
  435.270   73.084    3.288    0.467
  435.520   73.092    3.163    0.454
  435.770   73.103    3.045    0.449
  436.020   75.606    2.988    0.462
  436.270   78.112    2.931    0.481
  436.520   79.992    2.933    0.495
  436.770   80.629    2.935    0.497
  437.020   80.640    2.880    0.495
  437.270   80.025    2.881    0.495
  437.520   79.419    2.827    0.496
  437.770   79.424    2.774    0.499
  438.020   80.059    2.775    0.502
  438.270   80.075    2.724    0.503
  438.520   80.084    2.725    0.503
  438.770   80.095    2.726    0.503
  439.020   78.860    2.727    0.503
  439.270   73.891    2.836    0.503
  439.520   63.312    3.007    0.503
  439.770   62.697    3.447    0.508
  440.020   61.465    3.655    0.512
  440.270   63.971    3.801    0.511
  440.520   67.100    3.953    0.492
  440.770   68.974    3.804    0.478
  441.020   72.726    3.523    0.456
  441.270   76.472    3.262    0.443
  441.520   83.338    3.078    0.440
  441.770   87.710    2.796    0.478
  442.020   91.459    2.588    0.488
  442.270   94.584    2.396    0.521
  442.520   97.713    2.262    0.516
  442.770   98.967    2.219    0.510
  443.020  100.850    2.221    0.503
  443.270  101.487    2.222    0.500
  443.520  102.121    2.223    0.497
  443.770  102.755    2.224    0.495
  444.020  103.389    2.225    0.494
  444.270  102.775    2.269    0.491
  444.520   97.808    2.315    0.482
  444.770  100.934    2.362    0.479
  445.020  103.434    2.456    0.477
  445.270  105.939    2.555    0.475
  445.520  104.082    2.816    0.475
  445.770  102.227    3.044    0.474
  446.020  103.484    3.421    0.472
  446.270  107.236    3.771    0.468
  446.520  107.864    4.239    0.465
  446.770  104.138    4.673    0.458
  447.020   97.919    4.860    0.451
  447.270   94.816    4.861    0.437
  447.520   94.827    4.959    0.429
  447.770   94.847    4.962    0.425
  448.020   93.606    4.869    0.429
  448.270   91.129    4.777    0.431
  448.520   88.648    4.781    0.435
  448.770   86.793    4.690    0.440
  449.020   85.556    4.693    0.446
  449.270   84.941    4.605    0.454
  449.520   82.466    4.607    0.460
  449.770   81.231    4.610    0.455
  450.020   80.617    4.611    0.447
  450.270   80.008    4.526    0.436
  450.520   80.016    4.527    0.416
  450.770   80.030    4.442    0.392
  451.020   80.041    4.359    0.381
  451.270   80.678    4.196    0.383
  451.520   81.309    4.197    0.387
  451.770   81.944    4.119    0.394
  452.020   81.955    4.201    0.401
  452.270   79.474    4.285    0.410
  452.520   76.994    4.372    0.402
  452.770   73.270    4.459    0.390
  453.020   73.910    4.462    0.372
  453.270   75.787    4.379    0.366
  453.520   77.041    4.296    0.371
  453.770   80.790    4.135    0.382
  454.020   83.918    4.057    0.395
  454.270   83.930    4.060    0.408
  454.520   83.326    4.141    0.435
  454.770   82.706    4.224    0.447
  455.020   82.094    4.393    0.442
  455.270   81.483    4.395    0.437
  455.520   81.494    4.230    0.438
  455.770   80.885    3.768    0.441
  456.020   80.896    3.625    0.447
  456.270   80.910    3.422    0.454
  456.520   80.921    3.559    0.465
  456.770   80.929    3.775    0.475
  457.020   80.943    3.926    0.484
  457.270   80.952    4.163    0.486
  457.520   80.966    4.329    0.486
  457.770   80.980    4.502    0.482
  458.020   80.988    4.593    0.480
  458.270   80.999    4.595    0.455
  458.520   81.013    4.173    0.419
  458.770   81.021    3.938    0.397
