~VERSION INFORMATION
 VERS.                 2.0:   CWLS LOG ASCII STANDARD -VERSION 2.0
 WRAP.                  NO:   ONE LINE PER DEPTH STEP
~WELL INFORMATION BLOCK
#MNEM.UNIT           DATA                    DESCRIPTION OF MNEMONIC
#---------    -------------------            -------------------------------
# Generated from Intellog Unique Number	CX_WELLS/WELL/3810
WELL.         HUDSON BAY                     : Well_name    - WELL
LOC .         AA/12-28-086-10W4/0            : Location     - LOCATION
UWI .         AA/12-28-086-10W400            : Uwi          - UNIQUE WELL ID
ENTR.         T                              : Entered      - ENTERED BY
SRVC.         SCHLUMBERGER                   : Scn          - SERVICE COMPANY
STRT.F        100                            : top_depth    - START DEPTH
STOP.F        620.013                        : bot_depth    - STOP DEPTH
STEP.F        0.82                           : increment    - STEP LENGTH
 NULL. -999.2500:NULL Value
~CURVE INFORMATION BLOCK
#MNEM UNIT       ERCB CURVE CODE    CURVE DESCRIPTION
#-----------   ------------------   ----------------------------------
DEPT.F        00 001 00 00         : DEPTH        - DEPTH
GR  .API      00 310 00 00         : GR           - GAMMA RAY
NPHI.V/V      00 330 00 00         : PHIN         - NEUTRON POROSITY (SANDSTONE)
ILD .OHMM     00 120 00 00         : RESD         - DEEP RESISTIVITY (DIL)
~PARAMETER INFORMATION
#MNEM.UNIT           DATA             DESCRIPTION OF MNEMONIC
#---------         -----------     ------------------------------
GL  .F        1474                 : gl           - GROUND LEVEL ELEVATION
EREF.F        1474                 : kb           - ELEVATION OF DEPTH REFERENCE
DATM.F        1474                 : datum        - DATUM ELEVATION
TDD .F        625                  : tdd          - TOTAL DEPTH DRILLER
RUN .         ONE                  : Run          - RUN NUMBER
ENG .         BILL                 : Engineer     - RECORDING ENGINEER
WIT .         JIM                  : Witness      - WITNESSED BY
MUD .         GEL                  : Mud_type     - MUD TYPE
MATR.         SANDSTONE            : Logunit      - NEUTRON MATRIX
TMAX.F        58                   : BHT          - MAXIMUM RECORDED TEMPERATURE
BHTD.F        625                  : BHTDEP       - MAXIMUM RECORDED TEMPERATURE
MATR.         1                    : LOGUNIT      - NEUTRON MATRIX
RMT .F        58                   : MDTP         - TEMPERATURE OF MUD
NEUT.         1                    : NEUTRON      - NEUTRON TYPE
RESI.         7                    : RESIST       - RESISTIVITY TYPE
RMC .OHMM     8.2                  : RMC          - RESISTIVITY OF MUD CAKE
RMF .OHMM     8.2                  : RMF          - RESISTIVITY OF MUD FILTRATE
SUFT.F        39.2                 : SUFT         - SURFACE TEMPERATURE
~A  DEPTH       GR     PHIN     RESD
# ...
  455.971   93.820    0.389    9.206
  456.791   93.484    0.387    9.246
  457.612   92.015    0.387    9.314
  458.432   91.286    0.389    9.354
  459.252   90.557    0.391   10.093
  460.072   92.900    0.394   11.516
  460.892   97.520    0.398   14.307
  461.713  102.531    0.401   15.059
  462.533  105.267    0.404   15.113
  463.353  106.825    0.413   15.181
  464.173  109.157    0.364   14.893
  464.993  116.064    0.342   14.263
  465.814  108.865    0.330   13.290
  466.634   99.750    0.325   13.016
  467.454   87.204    0.320   13.399
  468.274   82.293    0.320   14.164
  469.094   80.812    0.327   14.876
  469.915   82.382    0.337   15.970
  470.735   82.808    0.350   17.064
  471.555   80.576    0.360   17.447
  472.375   79.859    0.357   17.870
  473.196   81.428    0.364   17.897
  474.016   83.760    0.349   17.281
  474.836   85.330    0.328   16.651
  475.656   77.358    0.320   15.350
  476.476   68.646    0.316   14.035
  477.297   62.210    0.322   13.734
  478.117   61.863    0.344   13.788
  478.937   66.482    0.364   14.540
  479.757   76.068    0.371   15.963
  480.577   81.069    0.378   18.083
  481.398   84.936    0.361   20.177
  482.218   84.981    0.352   40.801
  483.038   76.258    0.344   53.186
  483.858   72.480    0.343   37.843
  484.678   73.668    0.350   33.778
  485.499   82.492    0.345   31.082
  486.319   88.266    0.265   30.465
  487.139   92.885    0.216   32.586
  487.959   84.924    0.183   32.626
  488.780   68.555    0.158   31.325
  489.600   54.483    0.220   30.353
  490.420   59.114    0.235   30.407
  491.240   63.352    0.219   31.843
  492.060   59.966    0.204   33.937
  492.881   53.530    0.209   52.153
  493.701   54.718    0.234   96.084
  494.521   57.431    0.254   82.767
  495.341   62.062    0.259   70.503
  496.161   65.167    0.197   67.465
  496.982   61.008    0.125   59.978
  497.802   52.285    0.099   37.081
  498.622   46.992    0.081   31.318
  499.442   45.131    0.044   31.372
  500.262   45.187    0.059   31.426
  501.083   45.209    0.090   31.823
  501.903   46.779    0.170   32.233
  502.723   49.122    0.232   31.602
  503.543   46.902    0.275   31.301
  504.364   45.410    0.273   30.698
  505.184   43.538    0.251   30.752
  506.004   40.533    0.255   30.806
  506.824   42.484    0.296   34.610
  507.644   53.976    0.321   52.839
  508.465   61.645    0.314   33.706
  509.285   65.513    0.304   26.219
  510.105   65.950    0.288   20.812
  510.925   65.602    0.282   19.498
  511.745   62.979    0.290   18.881
  512.566   57.305    0.299   18.922
  513.386   53.538    0.311   18.962
  514.206   61.207    0.323   18.688
  515.026   77.273    0.330   18.756
  515.846   84.965    0.328   18.810
  516.667   86.904    0.328   18.508
  517.487   90.391    0.328   18.562
  518.307   92.734    0.329   18.288
  519.127   90.481    0.331   18.342
  519.948   85.951    0.334   18.383
  520.768   85.626    0.336   18.450
  521.588   86.040    0.336   18.518
  522.408   86.477    0.333   18.559
  523.228   86.511    0.329   18.284
  524.049   87.329    0.329   18.338
  524.869   88.136    0.329   18.078
  525.689   89.325    0.329   18.105
  526.509   90.524    0.328   18.186
  527.329   92.094    0.327   18.213
  528.150   92.520    0.329   18.267
  528.970   84.167    0.331   18.348
  529.790   83.068    0.333   18.731
  530.610   85.792    0.331   18.812
  531.430   88.876    0.325   18.839
  532.251   87.014    0.323   18.894
  533.071   84.009    0.323   18.948
  533.891   85.960    0.324   19.029
  534.711   90.209    0.329   19.083
  535.531   92.922    0.335   19.137
  536.352   94.895    0.338   19.178
  537.172   96.476    0.340   19.246
  537.992   96.880    0.339   18.971
  538.812   98.068    0.336   19.012
  539.633   98.886    0.330   18.737
  540.453   98.920    0.330   18.463
  541.273   98.606    0.331   18.148
  542.093   97.485    0.332   17.873
  542.913   96.386    0.333   17.585
  543.734   96.072    0.333   17.653
  544.554   96.105    0.333   17.694
  545.374   95.780    0.333   17.761
  546.194   95.813    0.336   17.802
  547.014   95.096    0.338   17.514
  547.835   93.234    0.341   17.568
  548.655   89.848    0.345   17.636
  549.475   89.130    0.346   17.704
  550.295   92.606    0.347   17.758
  551.115   94.568    0.346   17.825
  551.936   94.602    0.342   17.852
  552.756   93.133    0.339   17.920
  553.576   91.641    0.335   17.974
  554.396   89.399    0.331   18.029
  555.217   89.444    0.331   18.096
  556.037   89.129    0.331   18.492
  556.857   88.804    0.331   18.875
  557.677   88.445    0.332   19.983
  558.497   88.501    0.333   21.392
  559.318   87.784    0.334   20.091
  560.138   77.513    0.327   19.105
  560.958   70.315    0.318   21.568
  561.778   71.122    0.319   24.373
  562.598   73.454    0.321   22.717
  563.419   81.919    0.327   22.087
  564.239   82.715    0.332   20.759
  565.059   84.273    0.333   20.813
  565.879   73.263    0.328   27.723
  566.699   70.247    0.324   26.765
  567.520   71.446    0.322   24.793
  568.340   73.027    0.318   24.136
  569.160   73.834    0.315   23.506
  569.980   74.260    0.309   24.600
  570.801   74.697    0.305   25.325
  571.621   74.720    0.302   26.432
  572.441   72.107    0.298   26.829
  573.261   68.710    0.300   27.554
  574.081   64.954    0.302   28.976
  574.902   66.131    0.303   30.413
  575.722   69.225    0.303   30.467
  576.542   67.745    0.302   30.521
  577.362   65.884    0.302   30.931
  578.182   62.890    0.303   32.012
  579.003   63.316    0.306   31.039
  579.823   62.587    0.307   29.054
  580.643   56.151    0.307   27.726
  581.463   55.063    0.302   27.452
  582.283   55.478    0.300   27.861
  583.104   56.297    0.298   28.231
  583.924   55.568    0.300   28.627
  584.744   46.093    0.301   32.800
  585.564   43.840    0.301   38.343
  586.385   40.453    0.301   45.596
  587.205   38.973    0.299   55.928
  588.025   43.222    0.298   57.022
  588.845   45.925    0.298   61.867
  589.665   47.135    0.299   62.961
  590.486   46.799    0.299   65.081
  591.306   47.225    0.298   68.557
  592.126   47.651    0.297   69.651
  592.946   48.077    0.301   69.692
  593.766   47.359    0.305   69.746
  594.587   42.437    0.305  109.900
  595.407   33.321    0.300  144.224
  596.227   29.565    0.299  144.278
  597.047   30.383    0.299  146.399
  597.867   30.406    0.297  148.506
  598.688   29.307    0.292  152.337
  599.508   30.114    0.287  153.418
  600.328   33.601    0.283  151.761
  601.148   37.469    0.283  149.078
  601.969   35.215    0.284  147.422
  602.789   33.365    0.285   97.440
  603.609   32.266    0.286   83.452
  604.429   31.930    0.284  117.092
  605.249   31.974    0.281  121.265
  606.070   31.638    0.281  113.094
  606.890   31.290    0.288   98.066
  607.710   30.965    0.297   94.028
  608.530   30.628    0.313   93.398
  609.350   31.435    0.321  100.637
  610.171   32.624    0.330  115.431
  610.991   35.718    0.339  127.502
  611.811   37.680    0.339  127.214
  612.631   36.581    0.338  126.570
  613.451   38.151    0.330  121.834
  614.272   39.720    0.308  100.647
  615.092   47.782    0.261  104.465
  615.912   58.511   -0.077   95.610
  616.732   50.551   -0.091   16.846
  617.552   40.673   -0.092   37.812
  618.373   37.657   -0.086   40.262
  619.193   36.558   -0.071   44.093
  620.013   35.840   -0.014   49.978
