~VERSION INFORMATION
 VERS.                 2.0:   CWLS LOG ASCII STANDARD -VERSION 2.0
 WRAP.                  NO:   ONE LINE PER DEPTH STEP
~WELL INFORMATION BLOCK
#MNEM.UNIT           DATA                    DESCRIPTION OF MNEMONIC
#---------    -------------------            -------------------------------
# Generated from Intellog Unique Number	CC_84_87/WELL/2306
NULL.         -999.25                        : NULL_VALUE
WELL.         PEX PCEJ HANGST OV             : Well_name    - WELL              
LOC .         10-26-086-09W4                 : Location     - LOCATION          
UWI .         AA/10-26-086-09W400            : Uwi          - UNIQUE WELL ID    
ENTR.         DW                             : Entered      - ENTERED BY        
SRVC.         DRESSER ATLAS                  : Scn          - SERVICE COMPANY   
DATE.         02 FEB 81                      : Date         - LOG DATE
STRT.M        65                             : top_depth    - START DEPTH       
STOP.M        220.102                        : bot_depth    - STOP DEPTH        
STEP.M        0.3                            : increment    - STEP LENGTH       
~CURVE INFORMATION BLOCK
#MNEM UNIT       ERCB CURVE CODE    CURVE DESCRIPTION
#-----------   ------------------   ----------------------------------
DEPT.M        00 001 00 00         : DEPTH        - DEPTH                       
DPHI.V/V      00 890 00 00         : PHID         - DENSITY POROSITY (LIMESTONE)
NPHI.V/V      00 330 00 00         : PHIN         - NEUTRON POROSITY (LIMESTONE)
GR  .API      00 310 00 00         : GR           - GAMMA RAY                   
ILD .OHMM     00 120 00 00         : RESD         - DEEP RESISTIVITY (DIL)      
~PARAMETER INFORMATION       
#MNEM.UNIT           DATA             DESCRIPTION OF MNEMONIC
#---------         -----------     ------------------------------
GL  .M        478.88               : gl           - GROUND LEVEL ELEVATION      
EREF.M        483.98               : kb           - ELEVATION OF DEPTH REFERENCE
DATM.M        483.98               : datum        - DATUM ELEVATION             
TDD .M        279                  : tdd          - TOTAL DEPTH DRILLER         
RUN .         ONE                  : Run          - RUN NUMBER                  
ENG .         BILL                 : Engineer     - RECORDING ENGINEER          
WIT .         JIM                  : Witness      - WITNESSED BY                
MUD .         GEL                  : Mud_type     - MUD TYPE                    
MATR.         LIMESTONE            : Logunit      - NEUTRON MATRIX              
TMAX.C        23                   : BHT          - MAXIMUM RECORDED TEMPERATURE
BHTD.M        279                  : BHTDEP       - MAXIMUM RECORDED TEMPERATURE
MATR.         1                    : LOGUNIT      - NEUTRON MATRIX              
RMT .C        25                   : MDTP         - TEMPERATURE OF MUD          
NEUT.         1                    : NEUTRON      - NEUTRON TYPE                
RESI.         0                    : RESIST       - RESISTIVITY TYPE            
RMC .OHMM     0.25                 : RMC          - RESISTIVITY OF MUD CAKE     
RMF .OHMM     0.25                 : RMF          - RESISTIVITY OF MUD FILTRATE 
SUFT.C        4                    : SUFT         - SURFACE TEMPERATURE         
~A  DEPTH     PHID     PHIN       GR     RESD
# ...
  117.201    0.293    0.504   53.964    5.892
  117.501    0.302    0.506   55.749    6.341
  117.801    0.290    0.485   58.150    6.694
  118.101    0.264    0.474   61.780    7.056
  118.401    0.270    0.474   61.118    7.313
  118.701    0.280    0.469   56.119    8.021
  119.001    0.294    0.472   51.130    8.962
  119.301    0.304    0.458   46.151    9.814
  119.601    0.268    0.447   39.307    9.600
  119.901    0.300    0.446   38.623    9.405
  120.201    0.326    0.444   42.276    8.860
  120.501    0.308    0.434   47.144    8.504
  120.801    0.307    0.432   48.310    7.855
  121.101    0.307    0.437   53.797    7.256
  121.401    0.385    0.443   58.061    6.975
  121.701    0.371    0.472   56.141    6.324
  122.001    0.341    0.479   55.459    5.624
  122.301    0.340    0.481   57.879    5.201
  122.601    0.395    0.488   52.273    4.718
  122.901    0.451    0.504   56.529    4.199
  123.201    0.396    0.519   54.609    3.526
  123.501    0.419    0.522   55.174    3.327
  123.801    0.348    0.493   62.502    3.133
  124.101    0.309    0.505   60.577    3.124
  124.401    0.426    0.516   58.678    3.236
  124.701    0.489    0.542   57.384    4.049
  125.001    0.430    0.510   56.732    4.612
  125.301    0.400    0.515   55.439    5.558
  125.601    0.393    0.490   57.227    6.210
  125.901    0.377    0.483   59.618    6.426
  126.201    0.397    0.491   55.876    6.526
  126.501    0.310    0.478   52.729    6.639
  126.801    0.350    0.471   52.678    7.006
  127.101    0.270    0.473   60.630    7.400
  127.401    0.227    0.463   62.405    7.959
  127.701    0.235    0.444   63.569    8.399
  128.001    0.243    0.428   64.754    8.696
  128.301    0.278    0.445   63.455    9.529
  128.601    0.291    0.462   60.942   10.062
  128.901    0.288    0.460   60.266   10.618
  129.201    0.250    0.399   60.819   10.585
  129.501    0.236    0.382   60.137   10.558
  129.801    0.187    0.380   58.845   10.331
  130.101    0.225    0.380   58.795   10.111
  130.401    0.243    0.406   58.117    9.518
  130.701    0.214    0.416   56.220    9.139
  131.001    0.193    0.436   58.617    8.775
  131.301    0.245    0.447   64.113    8.430
  131.601    0.330    0.426   64.048    7.638
  131.901    0.367    0.427   60.286    7.338
  132.201    0.399    0.475   59.600    7.181
  132.501    0.433    0.464   60.151    7.576
  132.801    0.366    0.454   62.574    8.307
  133.101    0.346    0.444   64.372    9.278
  133.401    0.251    0.435   59.990    9.983
  133.701    0.262    0.424   58.085    9.954
  134.001    0.259    0.428   58.021    9.738
  134.301    0.249    0.430   59.198    9.347
  134.601    0.239    0.389   59.753    9.152
  134.901    0.236    0.413   59.069    8.297
  135.201    0.258    0.439   57.778    7.965
  135.501    0.243    0.436   55.882    7.794
  135.801    0.234    0.414   53.958    7.479
  136.101    0.235    0.432   53.891    7.321
  136.401    0.350    0.439   53.849    7.441
  136.701    0.324    0.427   56.251    7.705
  137.001    0.300    0.421   57.426    8.285
  137.301    0.348    0.446   56.744    8.913
  137.601    0.383    0.459   56.701    8.890
  137.901    0.357    0.451   57.258    8.867
  138.201    0.238    0.430   51.653    8.350
  138.501    0.247    0.434   57.747    7.293
  138.801    0.302    0.450   58.308    5.791
  139.101    0.355    0.480   56.405    3.876
  139.401    0.401    0.507   55.104    3.793
  139.701    0.439    0.527   55.051    4.159
  140.001    0.370    0.539   59.288    5.617
  140.301    0.331    0.541   62.937    6.765
  140.601    0.334    0.458   63.487    7.565
  140.901    0.317    0.455   59.738    8.133
  141.201    0.258    0.430   54.743    8.422
  141.501    0.249    0.431   54.698    8.400
  141.801    0.235    0.430   58.950    8.380
  142.101    0.235    0.433   62.589    8.676
  142.401    0.241    0.425   61.287    9.510
  142.701    0.238    0.417   58.153   10.625
  143.001    0.241    0.405   52.549   11.006
  143.301    0.133    0.339   43.865   11.399
  143.601    0.193    0.275   38.251   11.578
  143.901    0.271    0.318   43.121   11.331
  144.201    0.186    0.385   54.162   10.881
  144.501    0.150    0.361   46.705    9.498
  144.801    0.195    0.378   51.572    8.617
  145.101    0.237    0.407   56.441    6.976
  145.401    0.287    0.436   58.240    5.644
  145.701    0.319    0.465   56.322    4.401
  146.001    0.358    0.492   56.887    3.300
  146.301    0.400    0.509   50.656    2.994
  146.601    0.448    0.540   48.135    2.929
  146.901    0.456    0.538   49.913    3.273
  147.201    0.426    0.502   50.487    4.419
  147.501    0.319    0.457   50.422    5.225
  147.801    0.256    0.428   50.977    5.517
  148.101    0.243    0.419   49.684    5.291
  148.401    0.295    0.441   49.019    5.079
  148.701    0.445    0.498   50.161    5.071
  149.001    0.339    0.520   50.127    5.250
  149.301    0.334    0.515   50.061    5.977
  149.601    0.421    0.446   52.473    6.680
  149.901    0.263    0.430   53.020    7.052
  150.201    0.238    0.424   51.741    7.028
  150.501    0.210    0.432   48.602    6.494
  150.801    0.195    0.409   47.306    5.565
  151.101    0.279    0.398   45.398    4.502
  151.401    0.408    0.417   49.654    4.008
  151.701    0.470    0.532   53.904    3.777
  152.001    0.440    0.513   56.912    3.555
  152.301    0.375    0.531   57.479    3.481
  152.601    0.391    0.506   54.344    3.465
  152.901    0.412    0.501   52.436    3.524
  153.201    0.433    0.508   54.835    3.653
  153.501    0.450    0.495   56.629    3.714
  153.801    0.377    0.481   57.803    3.916
  154.101    0.275    0.476   59.583    4.212
  154.401    0.329    0.515   60.155    4.532
  154.701    0.420    0.524   57.003    4.785
  155.001    0.439    0.503   55.102    5.149
  155.301    0.276    0.491   57.506    5.234
  155.601    0.308    0.492   58.058    5.219
  155.901    0.391    0.516   54.310    4.819
  156.201    0.325    0.499   51.166    4.718
  156.501    0.327    0.487   50.491    4.795
  156.801    0.452    0.516   60.910    5.156
  157.101    0.280    0.505   57.766    5.549
  157.401    0.237    0.468   50.319    6.435
  157.701    0.187    0.396   47.163    6.927
  158.001    0.224    0.420   48.332    7.173
  158.301    0.255    0.434   50.754    7.281
  158.601    0.278    0.396   52.532    7.405
  158.901    0.285    0.376   51.250    8.431
  159.201    0.294    0.320   35.170   10.361
  159.501    0.320    0.315   38.181   11.142
  159.801    0.333    0.337   38.126   11.114
  160.101    0.306    0.369   35.609   10.865
  160.401    0.275    0.372   41.714   11.258
  160.701    0.243    0.370   47.801   12.583
  161.001    0.251    0.372   47.119   13.281
  161.301    0.262    0.365   44.616   13.485
  161.601    0.267    0.363   39.007   12.704
  161.901    0.270    0.370   43.264   11.529
  162.201    0.259    0.380   51.828   10.062
  162.501    0.236    0.393   55.464    9.662
  162.801    0.241    0.400   50.476    9.447
  163.101    0.268    0.404   54.732    9.429
  163.401    0.262    0.403   58.373    9.568
  163.701    0.221    0.404   61.390    9.734
  164.001    0.234    0.420   57.023   10.077
  164.301    0.231    0.442   53.852   10.236
  164.601    0.240    0.427   56.269   10.027
  164.901    0.227    0.431   60.532    9.624
  165.201    0.237    0.417   61.703    9.065
  165.501    0.248    0.422   58.571    8.537
  165.801    0.258    0.447   62.206    8.201
  166.101    0.258    0.453   65.846    8.171
  166.401    0.252    0.441   65.168    8.305
  166.701    0.243    0.420   57.708    8.442
  167.001    0.251    0.418   53.963    8.910
  167.301    0.249    0.429   59.450    9.950
  167.601    0.244    0.435   63.703   10.912
  167.901    0.240    0.438   63.025   12.197
  168.201    0.239    0.416   58.648   16.470
  168.501    0.230    0.413   49.958   22.662
  168.801    0.231    0.400   46.211   21.743
  169.101    0.293    0.393   34.441   20.114
