~VERSION INFORMATION
 VERS.                 2.0:   CWLS LOG ASCII STANDARD -VERSION 2.0
 WRAP.                  NO:   ONE LINE PER DEPTH STEP
~WELL INFORMATION BLOCK
#MNEM.UNIT           DATA                    DESCRIPTION OF MNEMONIC
#---------    -------------------            -------------------------------
# Generated from Intellog Unique Number	CN_91_93/WELL/1077
WELL.         10-11-091-16W4                 : Well_name    - WELL
LOC .         AA/10-11-091-16W4/0            : Location     - LOCATION
UWI .         AA/10-11-091-16W400            : Uwi          - UNIQUE WELL ID
ENTR.         JOETTE                         : Entered      - ENTERED BY
SRVC.         SCHLUMBERGER                   : Scn          - SERVICE COMPANY
STRT.F        213.255                        : top_depth    - START DEPTH
STOP.F        787.402                        : bot_depth    - STOP DEPTH
STEP.F        0.82                           : increment    - STEP LENGTH
 NULL. -999.2500:NULL Value
~CURVE INFORMATION BLOCK
#MNEM UNIT       ERCB CURVE CODE    CURVE DESCRIPTION
#-----------   ------------------   ----------------------------------
DEPT.F        00 001 00 00         : DEPTH        - DEPTH
GR  .API      00 310 00 00         : GR           - GAMMA RAY
DPHI.V/V      00 890 00 00         : PHID         - DENSITY POROSITY (SANDSTONE)
NPHI.V/V      00 330 00 00         : PHIN         - NEUTRON POROSITY (SANDSTONE)
CALI.IN       00 280 01 00         : CAL          - CALIPER
ILD .OHMM     00 120 00 00         : RESD         - DEEP RESISTIVITY (DIL)
~PARAMETER INFORMATION
#MNEM.UNIT           DATA             DESCRIPTION OF MNEMONIC
#---------         -----------     ------------------------------
GL  .M        490.58               : gl           - GROUND LEVEL ELEVATION
EREF.M        493.87               : kb           - ELEVATION OF DEPTH REFERENCE
DATM.M        493.87               : datum        - DATUM ELEVATION
TDD .M        246                  : tdd          - TOTAL DEPTH DRILLER
RUN .         ONE                  : Run          - RUN NUMBER
ENG .         BILL                 : Engineer     - RECORDING ENGINEER
WIT .         JIM                  : Witness      - WITNESSED BY
MUD .         GEL                  : Mud_type     - MUD TYPE
MATR.         SANDSTONE            : Logunit      - NEUTRON MATRIX
TMAX.F        140                  : BHT          - MAXIMUM RECORDED TEMPERATURE
BHTD.F        6797.9               : BHTDEP       - MAXIMUM RECORDED TEMPERATURE
RMT .F        77                   : MDTP         - TEMPERATURE OF MUD
MUDD.LB/G     9.66666              : MWT          - MUD DENSITY
NEUT.         1                    : NEUTRON      - NEUTRON TYPE
RESI.         0                    : RESIST       - RESISTIVITY TYPE
RM  .OHMM     8.75                 : RM           - RESISTIVITY OF MUD
RMC .OHMM     0.25                 : RMC          - RESISTIVITY OF MUD CAKE
RMF .OHMM     6.25                 : RMF          - RESISTIVITY OF MUD FILTRATE
SUFT.F        39.2                 : SUFT         - SURFACE TEMPERATURE
~A  DEPTH       GR     PHID     PHIN      CAL     RESD
# ...
  692.257   47.412    0.320    0.371    7.188   49.802
  693.077   46.509    0.315    0.361    7.130   51.654
  693.898   42.306    0.320    0.367    7.071   44.197
  694.718   43.500    0.321    0.377    7.013   30.627
  695.538   44.995    0.330    0.378    6.955   26.934
  696.358   45.290    0.327    0.381    6.800   25.028
  697.178   43.186    0.325    0.376    6.684   23.043
  697.999   43.482    0.331    0.391    6.606   21.410
  698.819   47.375    0.325    0.405    6.606   20.449
  699.639   51.568    0.310    0.426    6.527   18.827
  700.459   56.660    0.309    0.405    6.469   17.334
  701.280   59.953    0.312    0.384    6.449   15.670
  702.100   59.349    0.307    0.371    6.410   14.296
  702.920   56.646    0.304    0.360    6.389   12.923
  703.740   59.039    0.312    0.355    6.370   11.470
  704.560   60.234    0.304    0.368    6.369   10.657
  705.381   61.128    0.321    0.372    6.368    9.902
  706.201   60.523    0.315    0.398    6.387    9.286
  707.021   58.719    0.318    0.410    6.386    8.788
  707.841   57.517    0.326    0.412    6.405    8.317
  708.661   54.214    0.332    0.412    6.405    7.943
  709.482   50.611    0.338    0.398    6.403    7.380
  710.302   48.208    0.347    0.380    6.422    7.049
  711.122   48.203    0.345    0.376    6.421    6.671
  711.942   50.597    0.329    0.379    6.440    6.313
  712.762   53.291    0.329    0.378    6.458    6.141
  713.583   52.986    0.327    0.373    6.496    6.029
  714.403   51.182    0.317    0.387    6.553    6.139
  715.223   47.580    0.322    0.392    6.571    6.139
  716.043   48.774    0.327    0.369    6.609    6.366
  716.864   53.567    0.331    0.354    6.724    6.726
  717.684   57.160    0.326    0.354    6.800    7.040
  718.504   61.653    0.315    0.354    6.838    7.040
  719.324   74.840    0.306    0.365    6.934    7.368
  720.144   80.532    0.292    0.368    7.029    8.001
  720.965   85.323    0.282    0.372    7.163    8.452
  721.785   89.216    0.263    0.375    7.336    9.094
  722.605   94.608    0.273    0.375    7.527    9.695
  723.425  107.796    0.257    0.363    7.719   10.336
  724.245  111.389    0.239    0.356    7.949   11.327
  725.066  114.382    0.226    0.355    8.179   12.412
  725.886  116.776    0.216    0.368    8.352   13.355
  726.706  112.874    0.246    0.393    8.197   14.238
  727.526  109.271    0.256    0.393    8.043   15.179
  728.346  107.467    0.265    0.410    8.042   15.179
  729.167  110.461    0.247    0.427    8.099   15.596
  729.987  103.260    0.293    0.437    8.175   15.884
  730.807   95.760    0.298    0.444    7.770   16.176
  731.627   97.854    0.305    0.423    7.308   16.174
  732.448   91.853    0.272    0.421    6.864   14.891
  733.268   86.452    0.237    0.352    6.671   13.710
  734.088   85.547    0.193    0.325    6.728   12.739
  734.908   88.239    0.130    0.346    6.881   12.392
  735.728   90.934    0.292    0.363    7.054   11.944
  736.549   95.727    0.270    0.366    7.284   11.619
  737.369   99.620    0.260    0.359    7.726   11.097
  738.189  100.814    0.264    0.365    7.821   10.894
  739.009   97.212    0.264    0.355    8.283   10.894
  739.829  101.105    0.254    0.350    8.724   11.092
  740.650  104.997    0.231    0.351    8.878   11.826
  741.470  101.394    0.220    0.350    9.088   13.692
  742.290   98.992    0.214    0.354    9.203   14.463
  743.110   92.391    0.236    0.387    9.299   14.730
  743.930   95.685    0.267    0.400    9.337   14.999
  744.751   99.877    0.259    0.404    9.337   14.998
  745.571  104.969    0.233    0.389    9.354   14.723
  746.391  108.862    0.228    0.375    9.334   14.062
  747.211  107.058    0.216    0.372    9.314   13.066
  748.031   98.659    0.247    0.377    9.294   12.366
  748.852   93.557    0.286    0.388    9.236   12.138
  749.672   90.255    0.302    0.388    9.158   11.808
  750.492   95.347    0.264    0.382    8.965   11.175
  751.312   98.939    0.236    0.370    8.945   10.970
  752.133   99.534    0.200    0.358    9.021   10.969
  752.953  102.229    0.180    0.343    9.040   10.969
  753.773   98.626    0.153    0.328    8.962   11.271
  754.593   91.425    0.160    0.326    8.827   11.907
  755.413   87.822    0.160    0.334    8.595   12.350
  756.234   90.217    0.144    0.329    8.325   11.371
  757.054   97.408    0.117    0.347    8.170    9.379
  757.874  111.794    0.107    0.358    8.035    8.795
  758.694  113.288    0.100    0.371    8.035    7.950
  759.514  110.885    0.112    0.377    7.976    7.593
  760.335  111.779    0.112    0.389    7.763    7.454
  761.155  122.268    0.106    0.390    7.589    7.453
  761.975  118.665    0.211    0.391    7.415    7.521
  762.795  114.164    0.223    0.405    7.261    7.800
  763.615  108.463    0.233    0.418    7.106    8.165
  764.436   96.466    0.240    0.459    6.971    8.785
  765.256   85.368    0.239    0.473    6.854    9.805
  766.076   78.767    0.201    0.493    6.777   11.994
  766.896   72.766    0.176    0.495    6.718   20.221
  767.717   62.267    0.144    0.497    6.159   25.193
  768.537   48.771    0.107    0.150    6.140   97.795
  769.357   44.569    0.091    0.115    6.139  131.110
  770.177   38.867    0.079    0.096    6.138  161.855
  770.997   37.663    0.085    0.093    6.137  215.012
  771.818   38.858    0.092    0.092    6.310  246.663
  772.638   40.352    0.098    0.097    6.213  225.031
  773.458   41.546    0.101    0.105    6.174  205.289
  774.278   42.441    0.108    0.106    6.174  242.082
  775.098   42.436    0.114    0.106    6.153  244.283
  775.919   41.533    0.118    0.109    6.171  226.982
  776.739   39.428    0.119    0.115    6.190  208.979
  777.559   38.225    0.119    0.115    6.190  205.156
  778.379   37.321    0.120    0.117    6.208  194.150
  779.199   36.416    0.121    0.121    6.208  187.140
  780.020   36.111    0.124    0.121    6.225  188.838
  780.840   36.707    0.124    0.121    6.283  187.087
  781.660   37.902    0.123    0.118    6.320  172.251
  782.480   34.299    0.121    0.117    6.358  175.414
  783.301   33.695    0.119    0.115    6.377  175.414
  784.121   34.589    0.116    0.116    6.338  183.588
  784.941   35.484    0.119    0.119    6.298  180.233
  785.761   36.079    0.127    0.128    6.259  134.399
  786.581   38.173    0.023    0.140    6.258  107.847
  787.402   40.867    0.018    0.145    6.277  101.128
