~VERSION INFORMATION
 VERS.                 2.0:   CWLS LOG ASCII STANDARD -VERSION 2.0
 WRAP.                  NO:   ONE LINE PER DEPTH STEP
~WELL INFORMATION BLOCK
#MNEM.UNIT           DATA                    DESCRIPTION OF MNEMONIC
#---------    -------------------            -------------------------------
# Generated from Intellog Unique Number	CN_91_93/WELL/3925
WELL.         12-07-092-08W4                 : Well_name    - WELL
LOC .         AA/12-07-092-08W4/0            : Location     - LOCATION
UWI .         AA/12-07-092-08W400            : Uwi          - UNIQUE WELL ID
ENTR.         JOETTE                         : Entered      - ENTERED BY
SRVC.         SCHLUMBERGER                   : Scn          - SERVICE COMPANY
STRT.F        50                             : top_depth    - START DEPTH
STOP.F        456.004                        : bot_depth    - STOP DEPTH
STEP.F        0.8202                         : increment    - STEP LENGTH
 NULL. -999.2500:NULL Value
~CURVE INFORMATION BLOCK
#MNEM UNIT       ERCB CURVE CODE    CURVE DESCRIPTION
#-----------   ------------------   ----------------------------------
DEPT.F        00 001 00 00         : DEPTH        - DEPTH
GR  .API      00 310 00 00         : GR           - GAMMA RAY
NPHI.V/V      00 330 00 00         : PHIN         - NEUTRON POROSITY (SANDSTONE)
ILD .OHMM     00 120 00 00         : RESD         - DEEP RESISTIVITY (DIL)
~PARAMETER INFORMATION
#MNEM.UNIT           DATA             DESCRIPTION OF MNEMONIC
#---------         -----------     ------------------------------
GL  .M        394.106              : gl           - GROUND LEVEL ELEVATION
EREF.M        395.326              : kb           - ELEVATION OF DEPTH REFERENCE
DATM.M        395.326              : datum        - DATUM ELEVATION
TDD .M        140.818              : tdd          - TOTAL DEPTH DRILLER
RUN .         ONE                  : Run          - RUN NUMBER
ENG .         BILL                 : Engineer     - RECORDING ENGINEER
WIT .         JIM                  : Witness      - WITNESSED BY
MUD .         GEL                  : Mud_type     - MUD TYPE
MATR.         SANDSTONE            : Logunit      - NEUTRON MATRIX
TMAX.F        44                   : BHT          - MAXIMUM RECORDED TEMPERATURE
BHTD.F        462                  : BHTDEP       - MAXIMUM RECORDED TEMPERATURE
RMT .F        44                   : MDTP         - TEMPERATURE OF MUD
MUDD.LB/G     9.5                  : MWT          - MUD DENSITY
NEUT.         1                    : NEUTRON      - NEUTRON TYPE
RESI.         0                    : RESIST       - RESISTIVITY TYPE
RM  .OHMM     2.48                 : RM           - RESISTIVITY OF MUD
RMC .OHMM     2.48                 : RMC          - RESISTIVITY OF MUD CAKE
RMF .OHMM     2.48                 : RMF          - RESISTIVITY OF MUD FILTRATE
SUFT.F        39.2                 : SUFT         - SURFACE TEMPERATURE
~A  DEPTH       GR     PHIN     RESD
# ...
  227.986   61.556    0.449    4.689
  228.806   60.326    0.464    5.040
  229.626   58.281    0.476    5.518
  230.446   56.236    0.458    5.823
  231.266   56.621    0.331    6.145
  232.087   62.266    0.323    6.252
  232.907   67.921    0.348    5.696
  233.727   70.727    0.441    5.387
  234.547   71.117    0.505    4.821
  235.367   73.117    0.509    4.312
  236.188   72.692    0.506    4.078
  237.008   71.057    0.504    3.717
  237.828   71.033    0.506    3.579
  238.648   71.013    0.501    3.445
  239.469   69.778    0.498    3.442
  240.289   67.728    0.471    3.437
  241.109   67.708    0.454    3.432
  241.929   68.903    0.455    3.430
  242.749   69.694    0.467    3.425
  243.570   69.274    0.504    3.422
  244.390   67.629    0.478    3.417
  245.210   65.989    0.473    3.477
  246.030   67.589    0.474    3.537
  246.850   71.214    0.474    3.599
  247.671   75.245    0.473    3.729
  248.491   76.845    0.474    3.934
  249.311   74.395    0.474    4.076
  250.131   71.540    0.474    4.147
  250.951   67.060    0.455    4.297
  251.772   60.965    0.395    4.619
  252.592   56.895    0.351    5.058
  253.412   55.650    0.327    6.295
  254.232   55.225    0.316    7.554
  255.052   55.211    0.324    9.752
  255.873   55.186    0.330   11.918
  256.693   55.171    0.338   14.299
  257.513   52.311    0.347   14.547
  258.333   49.056    0.319   14.523
  259.154   44.576    0.329   13.985
  259.974   49.416    0.341   12.746
  260.794   55.067    0.357   11.620
  261.614   58.692    0.373   10.398
  262.434   59.077    0.386    9.304
  263.255   56.622    0.378    8.024
  264.075   52.557    0.348    8.013
  264.895   50.912    0.337    8.615
  265.715   50.487    0.317   11.752
  266.535   47.633    0.302   19.617
  267.356   45.183    0.304   37.909
  268.176   43.538    0.325   49.850
  268.996   46.763    0.351   62.045
  269.816   50.388    0.369   56.548
  270.636   51.978    0.377   47.894
  271.457   51.149    0.370   37.687
  272.277   48.704    0.356   31.339
  273.097   45.849    0.333   21.297
  273.917   45.424    0.338   19.052
  274.738   49.454    0.359   16.739
  275.558   55.510    0.384   14.711
  276.378   64.400    0.404   12.008
  277.198   81.795    0.375   10.547
  278.018   77.320    0.360   10.156
  278.839   70.816    0.366   10.144
  279.659   72.416    0.372   10.130
  280.479   74.421    0.341   10.312
  281.299   67.921    0.330   10.682
  282.119   65.066    0.312   10.870
  282.940   70.716    0.330   11.257
  283.760   75.556    0.353   11.248
  284.580   74.727    0.345   11.031
  285.400   75.912    0.331   10.816
  286.220   75.897    0.342   10.610
  287.041   73.042    0.333   10.788
  287.861   70.992    0.317   10.976
  288.681   70.567    0.338   10.970
  289.501   70.552    0.357   11.573
  290.322   68.908    0.347   12.214
  291.142   67.673    0.328   13.125
  291.962   66.843    0.339   13.851
  292.782   66.818    0.355   14.618
  293.602   65.588    0.366   14.876
  294.423   61.113    0.361   15.699
  295.243   50.963    0.336   17.182
  296.063   40.413    0.331   18.468
  296.883   25.808    0.315   20.979
  297.703   17.683    0.307   27.086
  298.524   20.093    0.323   38.328
  299.344   20.883    0.331   59.440
  300.164   21.673    0.336   88.890
  300.984   22.464    0.335   85.546
  301.804   24.464    0.335   82.374
  302.625   23.234    0.330   79.343
  303.445   20.374    0.316   80.697
  304.265   19.139    0.321   83.617
  305.085   16.684    0.322   85.068
  305.906   15.854    0.323   86.545
  306.726   15.430    0.334   86.448
  307.546   16.630    0.331   84.759
  308.366   19.445    0.320   84.687
  309.186   23.070    0.325   83.056
  310.007   27.100    0.332   82.963
  310.827   32.751    0.337   75.612
  311.647   41.641    0.333   65.226
  312.467   50.936    0.321   55.229
  313.287   56.992    0.323   44.274
  314.108   59.807    0.323   36.149
  314.928   60.592    0.326   30.052
  315.748   59.357    0.334   26.404
  316.568   58.122    0.323   24.510
  317.388   57.697    0.323   23.601
  318.209   58.078    0.333   23.574
  319.029   58.058    0.345   23.541
  319.849   57.638    0.346   24.393
  320.669   56.808    0.327   25.276
  321.490   55.168    0.308   26.674
  322.310   53.113    0.314   28.664
  323.130   52.284    0.321   30.818
  323.950   51.864    0.331   35.646
  324.770   51.844    0.332   37.608
  325.591   51.014    0.336   36.884
  326.411   49.374    0.338   36.853
  327.231   50.569    0.343   36.143
  328.051   52.565    0.349   32.315
  328.871   53.355    0.353   31.134
  329.692   51.715    0.348   29.980
  330.512   48.860    0.337   30.500
  331.332   46.415    0.339   31.604
  332.152   41.930    0.340   33.353
  332.972   42.720    0.340   37.178
  333.793   44.725    0.345   39.973
  334.613   45.921    0.353   42.185
  335.433   45.086    0.358   37.728
  336.253   44.266    0.347   35.022
  337.073   42.621    0.333   33.111
  337.894   45.441    0.338   31.883
  338.714   48.651    0.346   31.269
  339.534   49.847    0.343   31.225
  340.354   49.422    0.338   29.530
  341.175   47.787    0.342   27.404
  341.995   46.147    0.345   27.373
  342.815   45.317    0.343   29.430
  343.635   44.077    0.341   33.422
  344.455   40.412    0.337   37.945
  345.276   37.962    0.340   43.091
  346.096   39.158    0.347   48.060
  346.916   42.783    0.355   49.785
  347.736   46.813    0.353   46.214
  348.556   51.243    0.336   41.343
  349.377   52.849    0.338   37.680
  350.197   50.804    0.340   34.986
  351.017   46.324    0.341   30.739
  351.837   43.464    0.343   29.599
  352.657   45.064    0.346   25.998
  353.478   46.259    0.352   25.497
  354.298   44.219    0.339   27.407
  355.118   39.329    0.346   30.003
  355.938   36.885    0.360   34.073
  356.759   34.434    0.369   39.410
  357.579   36.030    0.360   42.361
  358.399   38.445    0.351   42.313
  359.219   38.020    0.350   42.266
  360.039   34.750    0.349   45.430
  360.860   36.355    0.377   48.818
  361.680   38.766    0.358   46.154
  362.500   39.151    0.357   42.831
  363.320   39.941    0.353   42.006
  364.140   41.136    0.350   44.318
  364.961   41.521    0.357   45.113
  365.781   39.066    0.356   46.745
  366.601   36.611    0.351   44.194
  367.421   35.377    0.344   41.759
  368.241   34.547    0.351   40.955
  369.062   33.717    0.358   40.921
  369.882   34.507    0.364   40.875
  370.702   37.317    0.370   40.087
  371.522   41.353    0.362   37.900
  372.343   46.188    0.353   36.495
  373.163   48.198    0.347   35.142
  373.983   45.748    0.342   30.858
  374.803   42.083    0.346   28.644
  375.623   35.983    0.347   28.100
  376.444   30.293    0.347   27.051
  377.264   30.273    0.348   26.537
  378.084   30.249    0.375   24.613
  378.904   29.419    0.396   23.713
  379.724   26.569    0.382   22.006
  380.545   20.469    0.351   20.805
  381.365   19.639    0.344   20.034
  382.185   19.214    0.339   20.011
  383.005   19.194    0.335   20.364
  383.825   19.174    0.338   21.095
  384.646   19.555    0.341   23.094
  385.466   20.745    0.340   24.816
  386.286   21.540    0.338   25.714
  387.106   23.140    0.338   26.160
  387.927   25.145    0.337   24.733
  388.747   26.340    0.332   23.816
  389.567   26.721    0.331   22.516
  390.387   26.296    0.327   21.276
  391.207   28.706    0.323   20.878
  392.028   33.956    0.324   20.104
  392.848   39.607    0.320   18.996
  393.668   45.257    0.318   18.302
  394.488   49.282    0.339   16.989
  395.308   44.402    0.348   15.475
  396.129   29.802    0.346   15.181
  396.949   32.212    0.345   16.017
  397.769   32.192    0.336   16.903
  398.589   27.307    0.343   18.169
  399.409   25.262    0.364   20.259
  400.230   24.023    0.387   23.013
  401.050   23.598    0.380   27.110
  401.870   22.368    0.375   32.527
  402.690   21.938    0.379   41.233
  403.510   23.133    0.386   50.374
  404.331   25.544    0.389   56.184
  405.151   28.764    0.391   69.908
