~VERSION INFORMATION
 VERS.                 2.0:   CWLS LOG ASCII STANDARD -VERSION 2.0
 WRAP.                  NO:   ONE LINE PER DEPTH STEP
~WELL INFORMATION BLOCK
#MNEM.UNIT           DATA                    DESCRIPTION OF MNEMONIC
#---------    -------------------            -------------------------------
# Generated from Intellog Unique Number	CN_91_93/WELL/2865
WELL.         16-22-092-09W4                 : Well_name    - WELL
LOC .         AA/16-22-092-09W4/0            : Location     - LOCATION
UWI .         AA/16-22-092-09W400            : Uwi          - UNIQUE WELL ID
ENTR.         JOETTE                         : Entered      - ENTERED BY
SRVC.         SCHLUMBERGER                   : Scn          - SERVICE COMPANY
DATE.         03/31/92                       : Date         - LOG DATE
STRT.F        30                             : top_depth    - START DEPTH
STOP.F        380.23                         : bot_depth    - STOP DEPTH
STEP.F        0.8202                         : increment    - STEP LENGTH
 NULL. -999.2500:NULL Value
~CURVE INFORMATION BLOCK
#MNEM UNIT       ERCB CURVE CODE    CURVE DESCRIPTION
#-----------   ------------------   ----------------------------------
DEPT.F        00 001 00 00         : DEPTH        - DEPTH
CALI.IN       00 280 01 00         : CAL          - CALIPER
GR  .API      00 310 00 00         : GR           - GAMMA RAY
NPHI.V/V      00 330 00 00         : PHIN         - NEUTRON POROSITY (SANDSTONE)
DPHI.V/V      00 890 00 00         : PHID         - DENSITY POROSITY (SANDSTONE)
ILD .OHMM     00 120 00 00         : RESD         - DEEP RESISTIVITY (DIL)
~PARAMETER INFORMATION
#MNEM.UNIT           DATA             DESCRIPTION OF MNEMONIC
#---------         -----------     ------------------------------
GL  .M        357.165              : gl           - GROUND LEVEL ELEVATION
EREF.M        357.165              : kb           - ELEVATION OF DEPTH REFERENCE
DATM.M        357.165              : datum        - DATUM ELEVATION
TDD .M        117.653              : tdd          - TOTAL DEPTH DRILLER
RUN .         ONE                  : Run          - RUN NUMBER
ENG .         BILL                 : Engineer     - RECORDING ENGINEER
WIT .         JIM                  : Witness      - WITNESSED BY
MUD .         GEL                  : Mud_type     - MUD TYPE
MATR.         SANDSTONE            : Logunit      - NEUTRON MATRIX
TMAX.F        54                   : BHT          - MAXIMUM RECORDED TEMPERATURE
BHTD.F        386                  : BHTDEP       - MAXIMUM RECORDED TEMPERATURE
RMT .F        62                   : MDTP         - TEMPERATURE OF MUD
MUDD.LB/G     8.8                  : MWT          - MUD DENSITY
NEUT.         1                    : NEUTRON      - NEUTRON TYPE
RESI.         0                    : RESIST       - RESISTIVITY TYPE
RM  .OHMM     6.2                  : RM           - RESISTIVITY OF MUD
RMC .OHMM     6.2                  : RMC          - RESISTIVITY OF MUD CAKE
RMF .OHMM     6.2                  : RMF          - RESISTIVITY OF MUD FILTRATE
SUFT.F        39.2                 : SUFT         - SURFACE TEMPERATURE
~A  DEPTH      CAL       GR     PHIN     PHID     RESD
   30.000    6.292   73.594    0.549    0.200    9.501
   30.820    6.301   77.165    0.542    0.257    9.597
   31.640    6.278   76.914    0.551    0.277    9.875
   32.461    6.248   66.710    0.500    0.204   10.256
   33.281    6.242   62.350    0.538    0.153   10.458
   34.101    6.251   62.691    0.511    0.214   10.186
   34.921    6.197   72.123    0.498    0.282    9.559
   35.742    6.191  100.317    0.542    0.206    8.733
   36.562    6.208   94.797    0.520    0.126    8.580
   37.382    6.178  106.280    0.541    0.098    8.829
   38.202    6.109  107.799    0.551    0.094    9.424
   39.022    6.032  123.965    0.603    0.175   10.155
   39.843    5.861  119.324    0.575    0.379   11.144
   40.663    5.784  119.372    0.498    0.383   11.680
   41.483    5.872  114.438    0.505    0.302   10.000
   42.303    5.873  122.990    0.557    0.270    9.650
   43.123    5.960  128.900    0.544    0.273   10.399
   43.944    5.961  118.690    0.529    0.275   10.033
   44.764    5.877  110.233    0.496    0.268    9.245
   45.584    5.815  120.544    0.542    0.294    8.138
   46.404    5.754  133.493    0.522    0.336    7.710
   47.224    5.943  133.541    0.508    0.318    9.801
   48.045    5.890  128.900    0.510    0.302   11.056
   48.865    5.727  114.288    0.552    0.270    9.556
   49.685    5.705  128.995    0.551    0.261    8.644
   50.505    5.698  134.318    0.555    0.296    8.041
   51.325    5.809  121.765    0.539    0.312    8.824
   52.146    5.849  115.359    0.476    0.250    8.438
   52.966    5.710  115.114    0.521    0.240    6.011
   53.786    5.727  126.597    0.604    0.311    3.766
   54.606    5.767  117.560    0.634    0.333    2.784
   55.426    5.784  120.838    0.588    0.329    3.000
   56.247    5.809  124.982    0.532    0.311    4.180
   57.067    5.708  119.755    0.516    0.281    4.504
   57.887    5.702  124.498    0.522    0.273    5.127
   58.707    5.820  133.045    0.518    0.286    5.731
   59.528    5.978  128.403    0.537    0.280    4.774
   60.348    5.823  137.249    0.524    0.256    5.385
   61.168    5.934  122.638    0.494    0.248    5.909
   61.988    5.795  122.686    0.466    0.266    6.485
   62.808    5.835  106.023    0.430    0.271    9.377
   63.629    5.766   93.170    0.416    0.166   13.933
   64.449    5.728  107.291    0.414    0.115    9.482
   65.269    5.870  114.965    0.476    0.246    7.010
   66.089    6.004  113.254    0.486    0.263    6.702
   66.909    5.896  123.858    0.500    0.244    3.726
   67.730    5.671  123.613    0.567    0.315    1.961
   68.550    5.719  110.467    0.615    0.357    1.574
   69.370    5.751  100.844    0.632    0.341    1.533
   70.190    5.800  111.442    0.623    0.351    1.426
   71.010    5.770  107.094    0.631    0.324    1.608
   71.831    5.763   97.764    0.600    0.332    1.814
   72.651    5.764   89.307    0.619    0.339    1.937
   73.471    5.734  120.724    0.561    0.324    2.106
   74.291    5.673  110.222    0.550    0.316    2.702
   75.112    5.698  107.052    0.552    0.290    2.858
   75.932    5.754  105.635    0.557    0.305    4.094
   76.752    5.794  102.746    0.546    0.279    4.704
   77.572    5.795  110.419    0.512    0.294    3.542
   78.392    5.899  100.198    0.532    0.296    4.032
   79.213    5.845   98.493    0.539    0.334    5.221
   80.033    5.705   95.312    0.507    0.287    7.342
   80.853    5.582   87.740    0.494    0.210   12.409
   81.673    5.724  103.033    0.475    0.244    8.446
   82.493    5.967  103.374    0.517    0.348    5.963
   83.314    6.188  106.945    0.504    0.383    5.059
   84.134    6.017  110.216    0.515    0.335    4.214
   84.954    5.854  107.333    0.581    0.311    3.030
   85.774    5.902  116.472    0.562    0.282    2.571
   86.594    5.919  123.847    0.561    0.283    2.504
   87.415    5.944  121.562    0.500    0.297    2.773
   88.235    5.922  122.770    0.567    0.280    2.533
   89.055    5.962  125.461    0.602    0.299    2.377
   89.875    5.870  113.195    0.609    0.294    2.402
   90.695    5.941  125.264    0.604    0.293    2.471
   91.516    5.825  121.502    0.589    0.304    2.363
   92.336    5.889  111.287    0.582    0.296    2.323
   93.156    5.938  127.166    0.602    0.290    2.390
   93.976    5.915  120.767    0.593    0.305    2.551
   94.797    5.932  127.561    0.597    0.300    2.674
   95.617    5.863  112.064    0.552    0.290    3.187
   96.437    6.044  110.354    0.575    0.288    3.870
   97.257    5.842  106.006    0.515    0.246    3.107
   98.077    6.203  103.709    0.601    0.285    3.197
   98.898    6.071  113.141    0.578    0.302    3.320
   99.718    6.026  117.292    0.547    0.270    2.869
  100.538    5.949  113.237    0.581    0.285    3.007
  101.358    5.896  118.566    0.512    0.277    3.424
  102.178    5.897  104.541    0.473    0.313    3.970
  102.999    5.914  110.743    0.410    0.318    5.900
  103.819    5.673   85.874    0.386    0.275   11.033
  104.639    5.612   89.732    0.370    0.155   12.447
  105.459    5.574   92.124    0.371    0.124   12.925
  106.280    5.583   91.293    0.350    0.248   13.548
  107.100    5.600   95.462    0.330    0.268   12.834
  107.920    5.609   93.739    0.366    0.240   12.158
  108.740    5.649   88.805    0.381    0.259   17.255
  109.560    5.604   82.986    0.345    0.132   25.410
  110.381    5.558  103.859    0.312    0.100   16.822
  111.201    5.544  102.729    0.418    0.183    9.527
  112.021    5.600   83.129    0.356    0.242   15.662
  112.841    5.671   67.053    0.310    0.300   18.000
  113.661    5.540   67.107    0.303    0.311   17.210
  114.482    5.502   68.620    0.333    0.311   15.428
  115.302    5.464   66.323    0.352    0.306   13.454
  116.122    5.512   70.773    0.335    0.297   15.038
  116.942    5.514   74.038    0.319    0.299   17.439
  117.762    5.484   67.053    0.329    0.298   19.314
  118.583    5.462   59.774    0.314    0.308   20.058
  119.403    5.455   78.877    0.339    0.320   18.316
  120.223    5.472   93.877    0.355    0.247   16.726
  121.043    5.481  113.572    0.358    0.239   15.992
  121.864    5.522  131.503    0.367    0.253   16.916
  122.684    5.554  149.433    0.379    0.236   18.737
  123.504    5.532  169.128    0.361    0.228   20.558
  124.324    5.517  159.206    0.317    0.241   24.504
  125.144    5.503  159.840    0.300    0.240   31.439
  125.965    5.473  146.114    0.273    0.262   44.620
  126.785    5.459  134.433    0.249    0.292   47.205
  127.605    5.507  137.705    0.257    0.279   36.532
  128.425    5.500  121.335    0.310    0.251   30.713
  129.245    5.556  112.591    0.332    0.234   36.608
  130.066    5.526  160.719    0.339    0.253   46.114
  130.886    5.497  182.173    0.327    0.279   92.802
  131.706    5.498  191.012    0.323    0.268  119.050
  132.526    5.538   74.667    0.350    0.289   82.528
  133.346    5.571   57.125    0.378    0.293   82.614
  134.167    5.525   53.363    0.371    0.300   97.571
  134.987    5.464   57.520    0.329    0.301  134.714
  135.807    5.434   45.253    0.254    0.315  273.643
  136.627    5.451   37.382    0.231    0.341  292.161
  137.448    5.468   36.258    0.205    0.373  257.137
  138.268    5.485   40.121    0.231    0.345  197.180
  139.088    5.502   35.187    0.253    0.342  252.985
  139.908    5.511   33.178    0.260    0.324  318.633
  140.728    5.481   35.283    0.232    0.343  460.667
  141.549    5.498   36.796    0.233    0.344  534.166
  142.369    5.475   31.862    0.226    0.349  544.640
  143.189    5.446   23.997    0.223    0.321  308.425
  144.009    5.502   35.767    0.277    0.309  317.375
  144.829    5.518   42.269    0.264    0.331  274.279
  145.650    5.481   44.368    0.254    0.338  287.472
  146.470    5.459   39.141    0.247    0.343  333.337
  147.290    5.499   39.482    0.220    0.351  611.944
  148.110    5.508   26.922    0.210    0.331  574.432
  148.930    5.494   20.816    0.238    0.318  515.012
