~VERSION INFORMATION
 VERS.                 2.0:   CWLS LOG ASCII STANDARD -VERSION 2.0
 WRAP.                  NO:   ONE LINE PER DEPTH STEP
~WELL INFORMATION BLOCK
#MNEM.UNIT           DATA                    DESCRIPTION OF MNEMONIC
#---------    -------------------            -------------------------------
# Generated from Intellog Unique Number	CN_91_93/WELL/2660
WELL.         15-26-091-14W4                 : Well_name    - WELL
LOC .         AA/15-26-091-14W4/0            : Location     - LOCATION
UWI .         AA/15-26-091-14W400            : Uwi          - UNIQUE WELL ID
ENTR.         joette                         : Entered      - ENTERED BY
SRVC.         SCHLUMBERGER                   : Scn          - SERVICE COMPANY
DATE.         02/05/92                       : Date         - LOG DATE
STRT.M        75                             : top_depth    - START DEPTH
STOP.M        180                            : bot_depth    - STOP DEPTH
STEP.M        0.25                           : increment    - STEP LENGTH
 NULL. -999.2500:NULL Value
~CURVE INFORMATION BLOCK
#MNEM UNIT       ERCB CURVE CODE    CURVE DESCRIPTION
#-----------   ------------------   ----------------------------------
DEPT.M        00 001 00 00         : DEPTH        - DEPTH
GR  .API      00 310 00 00         : GR           - GAMMA RAY
CALI.MM       00 280 01 00         : CAL          - CALIPER
NPHI.V/V      00 330 00 00         : PHIN         - NEUTRON POROSITY (SANDSTONE)
DPHI.V/V      00 890 00 00         : PHID         - DENSITY POROSITY (SANDSTONE)
ILD .OHMM     00 120 00 00         : RESD         - DEEP RESISTIVITY (DIL)
~PARAMETER INFORMATION
#MNEM.UNIT           DATA             DESCRIPTION OF MNEMONIC
#---------         -----------     ------------------------------
GL  .M        472.4                : gl           - GROUND LEVEL ELEVATION
EREF.M        475.4                : kb           - ELEVATION OF DEPTH REFERENCE
DATM.M        475.4                : datum        - DATUM ELEVATION
TDD .M        190                  : tdd          - TOTAL DEPTH DRILLER
RUN .         ONE                  : Run          - RUN NUMBER
ENG .         BILL                 : Engineer     - RECORDING ENGINEER
WIT .         JIM                  : Witness      - WITNESSED BY
MUD .         GEL                  : Mud_type     - MUD TYPE
MATR.         SANDSTONE            : Logunit      - NEUTRON MATRIX
TMAX.C        18                   : BHT          - MAXIMUM RECORDED TEMPERATURE
BHTD.M        190                  : BHTDEP       - MAXIMUM RECORDED TEMPERATURE
RMT .C        15                   : MDTP         - TEMPERATURE OF MUD
MUDD.KG/M     1007                 : MWT          - MUD DENSITY
NEUT.         1                    : NEUTRON      - NEUTRON TYPE
RESI.         0                    : RESIST       - RESISTIVITY TYPE
RM  .OHMM     3.5                  : RM           - RESISTIVITY OF MUD
RMC .OHMM     3.5                  : RMC          - RESISTIVITY OF MUD CAKE
RMF .OHMM     3.5                  : RMF          - RESISTIVITY OF MUD FILTRATE
SUFT.C        4                    : SUFT         - SURFACE TEMPERATURE
~A  DEPTH       GR      CAL     PHIN     PHID     RESD
# ...
  148.000   57.495  192.022    0.461    0.284   11.186
  148.250   66.973  188.922    0.476    0.260   10.160
  148.500   77.060  187.868    0.491    0.223    9.414
  148.750   84.752  186.794    0.517    0.306    8.398
  149.000   91.253  185.719    0.542    0.311    7.489
  149.250   98.945  184.645    0.578    0.285    6.684
  149.500  100.087  185.555    0.545    0.287    5.960
  149.750  100.037  186.486    0.515    0.286    5.317
  150.000  100.584  187.397    0.518    0.268    4.569
  150.250  102.321  188.307    0.528    0.225    4.000
  150.500  103.463  189.218    0.539    0.189    3.437
  150.750  103.997  188.123    0.526    0.174    3.241
  151.000  104.531  187.069    0.512    0.206    3.359
  151.250  105.102  183.969    0.516    0.251    3.615
  151.500  101.480  181.902    0.540    0.257    3.892
  151.750  103.812  179.814    0.563    0.269    3.884
  152.000  107.324  179.753    0.568    0.268    3.879
  152.250  106.679  179.671    0.566    0.259    3.799
  152.500  104.248  179.589    0.540    0.247    3.794
  152.750  101.817  180.520    0.507    0.234    3.785
  153.000   98.183  181.430    0.499    0.205    3.853
  153.250   95.168  184.326    0.495    0.190    4.223
  153.500   92.142  186.229    0.454    0.185    4.720
  153.750   87.924  188.132    0.417    0.229    5.475
  154.000   80.717  184.059    0.433    0.262    7.107
  154.250   74.713  181.020    0.446    0.276    8.403
  154.500   69.888  177.941    0.441    0.295    9.566
  154.750   67.469  175.833    0.433    0.292   10.489
  155.000   63.847  175.792    0.421    0.287   11.936
  155.250   61.391  175.689    0.420    0.280   12.844
  155.500   56.590  175.607    0.425    0.288   14.089
  155.750   47.609  177.510    0.412    0.296   15.162
  156.000   38.615  179.393    0.386    0.310   17.579
  156.250   34.385  180.344    0.391    0.318   21.988
  156.500   33.157  182.227    0.401    0.323   27.491
  156.750   31.322  183.158    0.413    0.322   36.361
  157.000   30.069  184.068    0.417    0.313   46.342
  157.250   28.817  183.966    0.411    0.312   66.069
  157.500   28.792  184.897    0.406    0.316  115.820
  157.750   28.743  184.774    0.404    0.317  142.059
  158.000   29.289  185.725    0.400    0.316  144.509
  158.250   29.836  185.623    0.399    0.312  141.589
  158.500   31.573  185.520    0.398    0.305  133.622
  158.750   35.084  185.459    0.400    0.300  123.709
  159.000   36.226  185.397    0.398    0.295  112.497
  159.250   39.154  185.315    0.393    0.293   77.089
  159.500   41.499  184.220    0.397    0.287   74.221
  159.750   49.787  183.105    0.403    0.281   61.377
  160.000   52.703  183.023    0.402    0.276   51.759
  160.250   55.048  182.961    0.400    0.272   36.185
  160.500   58.559  182.900    0.394    0.271   32.892
  160.750   59.105  181.785    0.391    0.268   27.737
  161.000   59.044  181.723    0.388    0.268   22.956
  161.250   59.615  181.662    0.386    0.265   21.262
  161.500   60.757  179.554    0.384    0.259   18.952
  161.750   65.459  179.513    0.387    0.257   17.546
  162.000   69.591  177.425    0.394    0.262   16.886
  162.250   73.114  176.371    0.400    0.265   15.923
  162.500   76.613  175.297    0.393    0.263   15.608
  162.750   78.375  174.202    0.400    0.260   15.002
  163.000   79.517  173.127    0.405    0.257   14.990
  163.250   81.242  172.012    0.398    0.251   15.524
  163.500   79.990  170.979    0.388    0.248   16.097
  163.750   78.774  169.863    0.389    0.253   17.315
  164.000   76.938  168.809    0.393    0.260   17.954
  164.250   75.674  167.714    0.402    0.265   20.051
  164.500   75.041  167.673    0.406    0.271   21.586
  164.750   74.409  167.591    0.408    0.277   23.669
  165.000   74.931  166.496    0.409    0.279   24.997
  165.250   76.668  166.394    0.411    0.276   25.418
  165.500   80.216  166.353    0.410    0.275   25.866
  165.750   77.165  166.250    0.406    0.280   25.802
  166.000   74.746  166.168    0.404    0.282   25.770
  166.250   69.921  166.087    0.399    0.287   25.250
  166.500   66.311  164.992    0.395    0.285   24.739
  166.750   63.880  164.930    0.395    0.279   24.230
  167.000   64.402  165.800    0.397    0.273   24.209
  167.250   64.972  165.738    0.398    0.269   24.139
  167.500   69.079  166.669    0.401    0.272   24.576
  167.750   72.591  167.559    0.402    0.276   25.010
  168.000   74.353  167.477    0.405    0.282   25.923
  168.250   73.100  169.380    0.407    0.287   27.873
  168.500   67.679  169.298    0.413    0.292   28.365
  168.750   68.821  170.209    0.417    0.282   28.842
  169.000   72.953  170.127    0.419    0.277   28.818
  169.250   72.891  170.065    0.419    0.276   28.747
  169.500   72.842  169.942    0.420    0.278   28.711
  169.750   72.805  169.881    0.421    0.286   28.107
  170.000   70.362  169.819    0.429    0.295   28.073
  170.250   69.134  169.737    0.434    0.293   27.517
  170.500   67.286  170.627    0.433    0.287   27.471
  170.750   66.046  170.525    0.429    0.287   26.905
  171.000   66.009  170.443    0.428    0.291   26.860
  171.250   67.151  170.361    0.425    0.297   26.816
  171.500   70.674  170.299    0.426    0.305   26.783
  171.750   65.266  170.197    0.431    0.311   25.743
  172.000   53.890  170.135    0.431    0.326   25.223
  172.250   48.482  170.012    0.426    0.333   23.804
  172.500   43.669  168.959    0.421    0.336   22.455
  172.750   41.821  168.856    0.420    0.340   21.602
  173.000   40.581  167.802    0.420    0.340   20.772
  173.250   39.340  167.700    0.421    0.341   20.344
  173.500   37.505  166.666    0.419    0.345   21.086
  173.750   35.657  166.584    0.419    0.345   25.404
  174.000   35.012  166.482    0.418    0.343   42.895
  174.250   34.963  166.400    0.418    0.340   87.330
  174.500   36.688  166.297    0.415    0.339  109.233
  174.750   37.259  166.215    0.412    0.321  144.476
  175.000   40.175  166.154    0.405    0.253  136.347
  175.250   43.699  166.072    0.393    0.139  102.702
  175.500   42.458  165.990    0.304    0.038   69.156
  175.750   41.814  165.887    0.188    0.012   42.382
  176.000   40.574  165.826    0.127    0.004   30.762
  176.250   39.929  165.723    0.123    0.006   24.976
  176.500   39.867  165.662    0.133    0.007   26.378
  176.750   39.223  165.580    0.140    0.007   49.843
  177.000   39.186  165.478    0.146    0.006   63.497
  177.250   39.732  164.403    0.151    0.005   76.468
  177.500   40.874  164.342    0.155    0.004   70.765
  177.750   42.611  164.219    0.160    0.002   69.393
  178.000   44.932  164.137    0.164    0.000   65.488
  178.250   46.086  164.096    0.165   -0.001   61.803
  178.500   47.823  162.960    0.169   -0.001   59.429
  178.750   48.369  162.898    0.170    0.002   57.147
  179.000   48.320  162.816    0.170    0.007   54.907
  179.250   48.866  161.762    0.171    0.011   53.820
  179.500   50.008  161.680    0.167    0.018   52.732
  179.750   51.150  160.606    0.162    0.018   50.707
  180.000   52.887  159.511    0.161    0.019   48.760
