~VERSION INFORMATION
 VERS.                 2.0:   CWLS LOG ASCII STANDARD -VERSION 2.0
 WRAP.                  NO:   ONE LINE PER DEPTH STEP
~WELL INFORMATION BLOCK
#MNEM.UNIT           DATA                    DESCRIPTION OF MNEMONIC
#---------    -------------------            -------------------------------
# Generated from Intellog Unique Number	CN_94_101/WELL/5047
WELL.         15-14-101-13W4                 : Well_name    - WELL
LOC .         AA/15-14-101-13W4/0            : Location     - LOCATION
UWI .         AA/15-14-101-13W400            : Uwi          - UNIQUE WELL ID
ENTR.         TIM                            : Entered      - ENTERED BY
SRVC.         SCHLUMBERGER                   : Scn          - SERVICE COMPANY
DATE.         08/14/92                       : Date         - LOG DATE
STRT.M        370                            : top_depth    - START DEPTH
STOP.M        585                            : bot_depth    - STOP DEPTH
STEP.M        0.25                           : increment    - STEP LENGTH
NULL. -999.2500:NULL Value
~CURVE INFORMATION BLOCK
#MNEM UNIT       ERCB CURVE CODE    CURVE DESCRIPTION
#-----------   ------------------   ----------------------------------
DEPT.M        00 001 00 00         : DEPTH        - DEPTH
GR  .API      00 310 00 00         : GR           - GAMMA RAY
ILD .OHMM     00 120 00 00         : RESD         - DEEP RESISTIVITY (DIL)
NPHI.V/V      00 330 00 00         : PHIN         - NEUTRON POROSITY (SANDSTONE)
DPHI.V/V      00 890 00 00         : PHID         - DENSITY POROSITY (SANDSTONE)
~PARAMETER INFORMATION
#MNEM.UNIT           DATA             DESCRIPTION OF MNEMONIC
#---------         -----------     ------------------------------
GL  .M        804                  : gl           - GROUND LEVEL ELEVATION
EREF.M        809                  : kb           - ELEVATION OF DEPTH REFERENCE
DATM.M        809                  : datum        - DATUM ELEVATION
TDD .M        590                  : tdd          - TOTAL DEPTH DRILLER
RUN .         ONE                  : Run          - RUN NUMBER
ENG .         BILL                 : Engineer     - RECORDING ENGINEER
WIT .         JIM                  : Witness      - WITNESSED BY
MUD .         GEL                  : Mud_type     - MUD TYPE
MATR.         SANDSTONE            : Logunit      - NEUTRON MATRIX
TMAX.C        25                   : BHT          - MAXIMUM RECORDED TEMPERATURE
BHTD.M        590                  : BHTDEP       - MAXIMUM RECORDED TEMPERATURE
RMT .C        10                   : MDTP         - TEMPERATURE OF MUD
MUDD.KG/M     1090                 : MWT          - MUD DENSITY
NEUT.         1                    : NEUTRON      - NEUTRON TYPE
RESI.         0                    : RESIST       - RESISTIVITY TYPE
RM  .OHMM     5.7                  : RM           - RESISTIVITY OF MUD
RMC .OHMM     5.7                  : RMC          - RESISTIVITY OF MUD CAKE
RMF .OHMM     5.7                  : RMF          - RESISTIVITY OF MUD FILTRATE
SUFT.C        4                    : SUFT         - SURFACE TEMPERATURE
~A  DEPTH       GR     RESD     PHIN     PHID
# ...
  500.500  134.905    3.780    0.546    0.300
  500.750  135.526    3.991    0.516    0.294
  501.000  135.528    4.616    0.505    0.289
  501.250  136.151    4.826    0.494    0.284
  501.500  136.152    5.247    0.483    0.279
  501.750  136.154    5.456    0.474    0.273
  502.000  136.157    5.461    0.464    0.267
  502.250  136.160    5.676    0.457    0.262
  502.500  134.926    5.680    0.462    0.254
  502.750  132.456    5.686    0.471    0.253
  503.000  130.603    5.690    0.484    0.253
  503.250  131.223    6.318    0.490    0.254
  503.500  131.226    6.528    0.478    0.255
  503.750  127.519    6.946    0.476    0.254
  504.000  124.430    6.951    0.502    0.252
  504.250  120.105    6.545    0.510    0.252
  504.500  120.107    6.138    0.482    0.254
  504.750  127.529    5.938    0.458    0.259
  505.000  133.715    5.943    0.457    0.260
  505.250  139.900    5.948    0.505    0.259
  505.500  138.666    5.747    0.503    0.257
  505.750  133.722    5.548    0.479    0.254
  506.000  133.726    5.141    0.477    0.257
  506.250  136.201    4.734    0.504    0.264
  506.500  138.677    4.534    0.519    0.267
  506.750  141.771    4.539    0.527    0.269
  507.000  141.773    4.341    0.527    0.269
  507.250  140.540    4.344    0.522    0.270
  507.500  138.687    4.349    0.518    0.273
  507.750  136.217    4.355    0.513    0.273
  508.000  134.364    4.363    0.511    0.274
  508.250  129.420    4.366    0.520    0.280
  508.500  125.713    4.372    0.527    0.290
  508.750  124.480    4.377    0.537    0.297
  509.000  126.337    4.177    0.546    0.310
  509.250  126.339    3.770    0.550    0.310
  509.500  126.342    3.571    0.543    0.307
  509.750  125.727    3.374    0.535    0.302
  510.000  125.729    3.378    0.524    0.301
  510.250  125.114    3.383    0.525    0.300
  510.500  125.116    3.390    0.519    0.300
  510.750  126.973    3.393    0.514    0.299
  511.000  130.686    3.605    0.508    0.294
  511.250  133.161    4.024    0.508    0.290
  511.500  136.255    4.236    0.517    0.279
  511.750  136.258    4.446    0.521    0.265
  512.000  133.170    4.864    0.494    0.265
  512.250  130.080    5.075    0.485    0.271
  512.500  127.610    5.287    0.488    0.284
  512.750  126.994    5.293    0.512    0.290
  513.000  126.378    4.886    0.524    0.305
  513.250  123.908    4.479    0.557    0.320
  513.500  121.438    3.867    0.573    0.332
  513.750  120.203    3.460    0.579    0.345
  514.000  118.351    3.056    0.582    0.354
  514.250  112.788    2.855    0.584    0.360
  514.500  107.844    2.654    0.590    0.364
  514.750  105.992    2.452    0.597    0.365
  515.000  105.377    2.458    0.599    0.365
  515.250  104.760    2.468    0.624    0.363
  515.500  103.526    2.470    0.632    0.350
  515.750   97.346    2.479    0.627    0.328
  516.000   90.547    2.689    0.594    0.296
  516.250   84.985    3.108    0.564    0.280
  516.500   84.369    3.111    0.524    0.268
  516.750   91.791    3.735    0.484    0.265
  517.000   95.505    4.359    0.455    0.269
  517.250   91.797    4.983    0.467    0.277
  517.500   83.761    5.196    0.481    0.277
  517.750   80.054    5.409    0.459    0.279
  518.000   88.713    5.412    0.449    0.285
  518.250   97.990    5.625    0.444    0.280
  518.500  108.504    5.424    0.488    0.274
  518.750  113.453    5.018    0.506    0.276
  519.000  109.746    4.611    0.552    0.296
  519.250  110.985    3.998    0.548    0.311
  519.500  112.224    3.796    0.546    0.313
  519.750  114.700    3.391    0.540    0.313
  520.000  116.557    3.191    0.535    0.313
  520.250  118.415    3.195    0.528    0.311
  520.500  116.564    3.203    0.521    0.308
  520.750  114.711    3.208    0.517    0.303
  521.000  110.385    3.213    0.518    0.300
  521.250  104.823    3.220    0.518    0.293
  521.500   99.261    3.227    0.496    0.288
  521.750   89.989    3.437    0.469    0.282
  522.000   80.098    3.649    0.462    0.276
  522.250   53.514    4.479    0.453    0.276
  522.500   38.678    5.308    0.413    0.282
  522.750   39.916    7.580    0.379    0.290
  523.000   45.484   10.883    0.391    0.296
  523.250   45.486   12.949    0.408    0.303
  523.500   45.489   13.367    0.421    0.318
  523.750   48.583   13.373    0.427    0.325
  524.000   56.623   13.172    0.428    0.327
  524.250   64.046   12.355    0.429    0.327
  524.500   70.850   11.741    0.432    0.327
  524.750   77.035   10.513    0.432    0.327
  525.000   81.984    9.899    0.429    0.323
  525.250   87.552    8.462    0.426    0.318
  525.500   93.737    7.437    0.423    0.312
  525.750   99.305    6.411    0.422    0.307
  526.000  104.872    5.181    0.429    0.303
  526.250  109.821    4.570    0.448    0.301
  526.500  114.770    4.163    0.455    0.299
  526.750  116.628    3.962    0.475    0.296
  527.000  114.157    3.969    0.479    0.294
  527.250  106.121    3.974    0.485    0.293
  527.500   92.521    4.184    0.479    0.292
  527.750   78.303    4.810    0.453    0.294
  528.000   75.214    5.432    0.437    0.296
  528.250   70.270    6.674    0.408    0.298
  528.500   58.525    8.122    0.402    0.304
  528.750   53.581   10.601    0.375    0.307
  529.000   48.637   13.492    0.360    0.304
  529.250   43.075   16.176    0.332    0.301
  529.500   39.368   18.862    0.320    0.297
  529.750   35.661   21.959    0.309    0.291
  530.000   33.190   25.468    0.317    0.287
  530.250   33.193   29.801    0.335    0.286
  530.500   33.195   33.928    0.354    0.283
  530.750   31.961   38.056    0.357    0.283
  531.000   30.727   42.184    0.353    0.282
  531.250   30.729   44.663    0.349    0.282
  531.500   30.114   46.729    0.345    0.282
  531.750   30.117   50.032    0.345    0.283
  532.000   30.119   53.335    0.349    0.284
  532.250   30.122   54.578    0.351    0.287
  532.500   30.743   54.995    0.352    0.288
  532.750   31.363   54.588    0.350    0.289
  533.000   32.604   54.181    0.348    0.292
  533.250   32.605   53.570    0.345    0.293
  533.500   32.609   53.162    0.343    0.297
  533.750   31.992   52.756    0.341    0.300
  534.000   30.140   51.320    0.340    0.300
  534.250   29.524   50.501    0.336    0.298
  534.500   30.145   50.096    0.333    0.296
  534.750   32.003   50.515    0.328    0.292
  535.000   33.860   50.933    0.328    0.293
  535.250   36.954   51.349    0.333    0.293
  535.500   40.667   51.766    0.336    0.288
  535.750   44.998   52.392    0.344    0.286
  536.000   48.091   52.601    0.370    0.286
  536.250   53.040   52.195    0.377    0.291
  536.500   53.661   50.553    0.401    0.298
  536.750   51.191   49.939    0.410    0.304
  537.000   49.957   48.090    0.420    0.309
  537.250   49.959   46.447    0.420    0.313
  537.500   53.672   44.186    0.420    0.318
  537.750   58.004   37.803    0.420    0.323
  538.000   58.623   32.657    0.422    0.325
  538.250   59.244   29.363    0.422    0.321
  538.500   59.246   26.896    0.420    0.318
  538.750   59.250   25.253    0.420    0.314
  539.000   58.635   24.023    0.419    0.309
  539.250   58.636   23.203    0.418    0.307
  539.500   58.639   21.150    0.417    0.307
  539.750   58.641   19.711    0.415    0.305
  540.000   58.645   18.482    0.415    0.305
  540.250   59.265   17.458    0.417    0.307
  540.500   59.885   17.049    0.423    0.314
  540.750   62.981   16.438    0.429    0.310
  541.000   64.837   15.620    0.430    0.307
  541.250   70.404   15.213    0.428    0.302
  541.500   74.735   14.600    0.417    0.295
  541.750   80.921   13.989    0.413    0.294
  542.000   84.015   13.787    0.408    0.295
  542.250   90.201   13.175    0.403    0.287
  542.500   93.294   12.769    0.397    0.278
  542.750  101.336   12.567    0.403    0.267
  543.000  104.431   12.368    0.410    0.264
  543.250  105.051   11.963    0.413    0.268
  543.500  103.817   11.759    0.414    0.268
  543.750  101.965   11.765    0.415    0.262
