~VERSION INFORMATION
 VERS.                 2.0:   CWLS LOG ASCII STANDARD -VERSION 2.0
 WRAP.                  NO:   ONE LINE PER DEPTH STEP
~WELL INFORMATION BLOCK
#MNEM.UNIT           DATA                    DESCRIPTION OF MNEMONIC
#---------    -------------------            -------------------------------
# Generated from Intellog Unique Number	CN_91_93/WELL/3686
WELL.         10-14-093-08W4                 : Well_name    - WELL
LOC .         AA/10-14-093-08W4/0            : Location     - LOCATION
UWI .         AA/10-14-093-08W400            : Uwi          - UNIQUE WELL ID
ENTR.         JOETTE                         : Entered      - ENTERED BY
SRVC.         SCHLUMBERGER                   : Scn          - SERVICE COMPANY
DATE.         03/22/92                       : Date         - LOG DATE
STRT.M        50                             : top_depth    - START DEPTH
STOP.M        219                            : bot_depth    - STOP DEPTH
STEP.M        0.25                           : increment    - STEP LENGTH
 NULL. -999.2500:NULL Value
~CURVE INFORMATION BLOCK
#MNEM UNIT       ERCB CURVE CODE    CURVE DESCRIPTION
#-----------   ------------------   ----------------------------------
DEPT.M        00 001 00 00         : DEPTH        - DEPTH
CALI.MM       00 280 01 00         : CAL          - CALIPER
GR  .API      00 310 00 00         : GR           - GAMMA RAY
NPHI.V/V      00 330 00 00         : PHIN         - NEUTRON POROSITY (SANDSTONE)
DPHI.V/V      00 890 00 00         : PHID         - DENSITY POROSITY (SANDSTONE)
ILD .OHMM     00 120 00 00         : RESD         - DEEP RESISTIVITY (DIL)
~PARAMETER INFORMATION
#MNEM.UNIT           DATA             DESCRIPTION OF MNEMONIC
#---------         -----------     ------------------------------
GL  .M        466.5                : gl           - GROUND LEVEL ELEVATION
EREF.M        466.5                : kb           - ELEVATION OF DEPTH REFERENCE
DATM.M        466.5                : datum        - DATUM ELEVATION
TDD .M        219.4                : tdd          - TOTAL DEPTH DRILLER
RUN .         ONE                  : Run          - RUN NUMBER
ENG .         BILL                 : Engineer     - RECORDING ENGINEER
WIT .         JIM                  : Witness      - WITNESSED BY
MUD .         GEL                  : Mud_type     - MUD TYPE
MATR.         SANDSTONE            : Logunit      - NEUTRON MATRIX
TMAX.C        16                   : BHT          - MAXIMUM RECORDED TEMPERATURE
BHTD.M        219.4                : BHTDEP       - MAXIMUM RECORDED TEMPERATURE
RMT .C        14                   : MDTP         - TEMPERATURE OF MUD
MUDD.KG/M     9666.66              : MWT          - MUD DENSITY
NEUT.         1                    : NEUTRON      - NEUTRON TYPE
RESI.         0                    : RESIST       - RESISTIVITY TYPE
RM  .OHMM     4.5                  : RM           - RESISTIVITY OF MUD
RMC .OHMM     4.5                  : RMC          - RESISTIVITY OF MUD CAKE
RMF .OHMM     4.5                  : RMF          - RESISTIVITY OF MUD FILTRATE
SUFT.C        4                    : SUFT         - SURFACE TEMPERATURE
~A  DEPTH      CAL       GR     PHIN     PHID     RESD
# ...
   86.500  198.543  113.892    0.484    0.217   43.668
   86.750  191.743  113.950    0.466    0.271   43.692
   87.000  190.796  113.394    0.464    0.204   41.274
   87.250  191.878  122.922    0.492    0.239   37.880
   87.500  193.907  125.912    0.519    0.341   32.826
   87.750  199.915  130.108    0.531    0.486   35.803
   88.000  205.884  131.325    0.488    0.289   39.050
   88.250  223.715  136.101    0.508    0.286   41.384
   88.500  219.852  134.397    0.520    0.274   47.815
   88.750  202.176  133.238    0.510    0.325   45.168
   89.000  204.243  132.693    0.514    0.366   41.453
   89.250  199.375  130.966    0.513    0.291   40.307
   89.500  197.481  120.372    0.506    0.295   41.500
   89.750  197.598  112.143    0.465    0.299   38.644
   90.000  199.645  114.554    0.440    0.299   37.033
   90.250  204.649  118.147    0.445    0.069   38.135
   90.500  209.633  118.217    0.456    0.109   41.011
   90.750  218.578  119.434    0.463    0.180   42.219
   91.000  235.404  124.198    0.461    0.262   42.860
   91.250  228.585  135.487    0.467    0.263   38.220
   91.500  207.006  142.627    0.534    0.269   38.242
   91.750  210.040  142.083    0.551    0.323   38.822
   92.000  216.009  145.085    0.567    0.316   36.145
   92.250  224.953  134.491    0.580    0.327   35.141
   92.500  231.947  133.958    0.549    0.303   40.022
   92.750  220.201  131.628    0.492    0.253   44.924
   93.000  215.333  135.221    0.491    0.261   44.956
   93.250  211.489  134.097    0.482    0.271   45.626
   93.500  210.562  135.314    0.482    0.272   48.353
   93.750  210.659  137.134    0.483    0.237   55.061
   94.000  211.760  134.225    0.466    0.192   70.352
   94.250  211.799  133.100    0.419    0.189   67.411
   94.500  210.949  133.147    0.426    0.204   58.418
   94.750  210.022  135.546    0.444    0.212   51.358
   95.000  209.094  136.207    0.443    0.220   46.474
   95.250  206.197  133.866    0.448    0.222   56.858
   95.500  203.318  141.017    0.464    0.220   76.946
   95.750  200.459  139.290    0.474    0.226   71.650
   96.000  198.566  134.619    0.474    0.232   67.685
   96.250  197.659  132.881    0.471    0.239   63.930
   96.500  198.721  131.154    0.473    0.241   59.546
   96.750  198.779  130.609    0.468    0.224   58.713
   97.000  198.876  133.623    0.463    0.223   57.089
   97.250  197.949  135.443    0.445    0.223   57.129
   97.500  193.139  132.533    0.451    0.224   58.828
   97.750  190.222  134.342    0.456    0.232   58.853
   98.000  185.412  134.979    0.458    0.241   54.810
   98.250  183.499  123.794    0.461    0.259   51.037
   98.500  181.587  115.553    0.451    0.272   48.904
   98.750  179.732  104.368    0.436    0.241   48.931
   99.000  178.805  106.187    0.437    0.270   54.141
   99.250  177.878  107.416    0.426    0.289   71.183
   99.500  178.979   97.413    0.409    0.265   84.643
   99.750  179.037   92.730    0.416    0.274   72.305
  100.000  180.081  106.964    0.423    0.307   65.411
  100.250  180.158  113.525    0.426    0.096   60.909
  100.500  180.235  117.709    0.432    0.151   60.952
  100.750  179.347  123.076    0.448    0.247   60.115
  101.000  179.424  118.393    0.454    0.265   57.602
  101.250  179.502  120.804    0.441    0.279   61.045
  101.500  178.594  124.989    0.447    0.240   67.545
  101.750  178.671  122.671    0.453    0.248   65.677
  102.000  178.748  129.220    0.440    0.236   63.842
  102.250  178.826  129.857    0.447    0.220   68.638
  102.500  178.923  106.849    0.451    0.241   75.957
  102.750  178.961  103.349    0.426    0.223   76.010
  103.000  180.043  109.898    0.417    0.191   76.042
  103.250  180.140  108.762    0.427    0.174   76.095
  103.500  180.179  111.173    0.437    0.250   75.051
  103.750  181.280  119.495    0.439    0.300   74.021
  104.000  182.323  117.177    0.445    0.275   74.052
  104.250  184.429  124.932    0.454    0.259   73.037
  104.500  185.472  128.513    0.465    0.231   72.055
  104.750  186.516  128.560    0.455    0.234   72.085
  105.000  186.574  116.772    0.379    0.253   72.135
  105.250  186.690  104.995    0.245    0.059   72.156
  105.500  186.748  105.042    0.275   -0.000   79.849
  105.750  185.840  112.773    0.326    0.029   88.339
  106.000  185.898  122.880    0.369    0.061   94.988
  106.250  184.990  125.883    0.459    0.220   92.348
  106.500  185.087  122.973    0.433    0.299   85.992
  106.750  185.184  120.064    0.427    0.297   82.420
  107.000  185.222  117.166    0.434    0.290   81.266
  107.250  185.339  117.213    0.424    0.233   80.174
  107.500  185.377  117.839    0.419    0.229   80.196
  107.750  185.493  117.885    0.443    0.234   77.967
  108.000  185.532  137.462    0.470    0.240   76.897
  108.250  186.633  141.635    0.485    0.278   79.196
  108.500  186.672  142.876    0.499    0.274   80.387
  108.750  188.759  140.557    0.510    0.272   72.723
  109.000  189.802  138.228    0.504    0.273   65.799
  109.250  191.888  133.545    0.495    0.277   61.278
  109.500  192.932  128.271    0.485    0.268   64.032
  109.750  194.999  121.815    0.479    0.255   65.918
  110.000  196.023  119.485    0.477    0.109   69.859
  110.250  198.071  117.167    0.453    0.137   74.044
  110.500  201.123  124.319    0.454    0.162   74.086
  110.750  203.190  131.459    0.463    0.193   72.017
  111.000  204.234  140.964    0.459    0.225   68.031
  111.250  206.301  139.840    0.486    0.285   66.149
  111.500  206.359  137.510    0.492    0.298   66.177
  111.750  206.417  144.662    0.528    0.308   66.233
  112.000  207.480  139.376    0.534    0.283   66.260
  112.250  208.542  141.208    0.549    0.282   64.419
  112.500  217.525  139.469    0.540    0.292   62.628
  112.750  218.569  146.030    0.545    0.319   61.760
  113.000  215.690  146.667    0.542    0.331   62.707
  113.250  209.876  149.078    0.557    0.331   62.733
  113.500  205.046  146.169    0.566    0.333   65.534
  113.750  202.148  145.033    0.566    0.337   69.451
  114.000  200.236  143.909    0.563    0.326   73.603
  114.250  197.416  145.126    0.558    0.277   72.593
  114.500  196.450  135.714    0.538    0.254   71.597
  114.750  194.557  139.898    0.489    0.246   71.637
  115.000  192.683  136.398    0.492    0.236   74.846
  115.250  190.790  131.124    0.449    0.234   78.188
  115.500  188.897  137.082    0.454    0.241   81.668
  115.750  187.989  143.040    0.459    0.241   85.326
  116.000  188.066  138.948    0.470    0.235   85.362
  116.250  187.178  141.950    0.483    0.236   80.649
  116.500  187.217  144.953    0.468    0.221   78.418
  116.750  187.333  139.679    0.450    0.216   79.576
  117.000  187.410  145.045    0.431    0.215   83.152
  117.250  187.507  138.589    0.433    0.212   86.853
  117.500  187.546  127.404    0.441    0.075   92.031
  117.750  188.628  113.854    0.433    0.056  107.857
  118.000  188.686  103.249    0.307   -0.002  121.068
  118.250  188.744  119.859    0.375   -0.036  146.025
  118.500  189.826  131.137    0.458   -0.032  134.034
  118.750  189.884  137.697    0.453    0.089  102.058
  119.000  191.931  130.638    0.452    0.265   89.724
  119.250  193.013  133.061    0.457    0.256   80.033
  119.500  194.057  131.322    0.470    0.250   75.604
  119.750  196.124  124.275    0.463    0.248   74.556
  120.000  199.157  137.338    0.458    0.242   73.544
  120.250  203.195  146.252    0.452    0.228   73.585
  120.500  208.218  141.569    0.451    0.234   73.616
  120.750  209.261  141.024    0.456    0.236   72.616
  121.000  210.324  148.165    0.460    0.232   72.667
  121.250  210.401  147.620    0.448    0.264   72.687
  121.500  209.493  145.302    0.457    0.280   73.791
  121.750  209.570  145.348    0.465    0.234   74.912
  122.000  208.663  148.941    0.460    0.231   76.028
  122.250  208.740  133.618    0.449    0.239   76.028
  122.500  208.817  137.803    0.454    0.250   77.248
  122.750  208.895  148.501    0.465    0.256   75.079
