~VERSION INFORMATION
 VERS.                 2.0:   CWLS LOG ASCII STANDARD -VERSION 2.0
 WRAP.                  NO:   ONE LINE PER DEPTH STEP
~WELL INFORMATION BLOCK
#MNEM.UNIT           DATA                    DESCRIPTION OF MNEMONIC
#---------    -------------------            -------------------------------
# Generated from Intellog Unique Number	CN_94_101/WELL/3264
WELL.         10-11-095-06W4                 : Well_name    - WELL
LOC .         AA/10-11-095-06W4/0            : Location     - LOCATION
UWI .         AA/10-11-095-06W400            : Uwi          - UNIQUE WELL ID
ENTR.         TIM                            : Entered      - ENTERED BY
SRVC.         SCHLUMBERGER                   : Scn          - SERVICE COMPANY
DATE.         05/17/92                       : Date         - LOG DATE
STRT.M        100                            : top_depth    - START DEPTH
STOP.M        340                            : bot_depth    - STOP DEPTH
STEP.M        0.25                           : increment    - STEP LENGTH
 NULL. -999.2500:NULL Value
~CURVE INFORMATION BLOCK
#MNEM UNIT       ERCB CURVE CODE    CURVE DESCRIPTION
#-----------   ------------------   ----------------------------------
DEPT.M        00 001 00 00         : DEPTH        - DEPTH
GR  .API      00 310 00 00         : GR           - GAMMA RAY
NPHI.V/V      00 330 00 00         : PHIN         - NEUTRON POROSITY (SANDSTONE)
DPHI.V/V      00 890 00 00         : PHID         - DENSITY POROSITY (SANDSTONE)
ILD .OHMM     00 120 00 00         : RESD         - DEEP RESISTIVITY (DIL)
~PARAMETER INFORMATION
#MNEM.UNIT           DATA             DESCRIPTION OF MNEMONIC
#---------         -----------     ------------------------------
GL  .M        596.9                : gl           - GROUND LEVEL ELEVATION
EREF.M        599.8                : kb           - ELEVATION OF DEPTH REFERENCE
DATM.M        599.8                : datum        - DATUM ELEVATION
TDD .M        342                  : tdd          - TOTAL DEPTH DRILLER
RUN .         0                    : Run          - RUN NUMBER
ENG .         COMPANY:             : Engineer     - RECORDING ENGINEER
MUD .         GEL                  : Mud_type     - MUD TYPE
MATR.         SANDSTONE            : Logunit      - NEUTRON MATRIX
TMAX.C        18                   : BHT          - MAXIMUM RECORDED TEMPERATURE
BHTD.M        342                  : BHTDEP       - MAXIMUM RECORDED TEMPERATURE
RMT .C        18                   : MDTP         - TEMPERATURE OF MUD
MUDD.KG/M     1050                 : MWT          - MUD DENSITY
NEUT.         1                    : NEUTRON      - NEUTRON TYPE
RESI.         0                    : RESIST       - RESISTIVITY TYPE
RM  .OHMM     3.5                  : RM           - RESISTIVITY OF MUD
RMC .OHMM     3.5                  : RMC          - RESISTIVITY OF MUD CAKE
RMF .OHMM     3.5                  : RMF          - RESISTIVITY OF MUD FILTRATE
SUFT.C        4                    : SUFT         - SURFACE TEMPERATURE
~A  DEPTH       GR     PHIN     PHID     RESD
# ...
  230.500  100.090    0.538    0.271    4.150
  230.750  101.366    0.543    0.271    3.918
  231.000  104.562    0.550    0.271    3.494
  231.250  106.477    0.556    0.271    3.362
  231.500  106.473    0.558    0.276    3.236
  231.750  105.828    0.548    0.272    3.113
  232.000  103.264    0.528    0.267    3.054
  232.250   98.141    0.499    0.256    3.172
  232.500   95.577    0.481    0.242    3.555
  232.750   93.652    0.471    0.230    4.138
  233.000   93.007    0.465    0.226    4.818
  233.250   93.643    0.462    0.229    6.052
  233.500   95.557    0.470    0.235    7.460
  233.750   96.195    0.485    0.240    8.360
  234.000   97.471    0.489    0.243    8.517
  234.250   98.105    0.476    0.242    8.679
  234.500   97.461    0.460    0.229    8.843
  234.750   95.537    0.442    0.214    9.185
  235.000   92.332    0.424    0.200    9.908
  235.250   89.768    0.406    0.176   10.894
  235.500   87.845    0.391    0.152   11.978
  235.750   86.561    0.375    0.139   12.923
  236.000   86.556    0.361    0.131   14.482
  236.250   89.109    0.390    0.140   15.327
  236.500   89.747    0.423    0.178   15.325
  236.750   91.661    0.442    0.243   15.031
  237.000   92.937    0.439    0.246   14.193
  237.250   94.853    0.433    0.246   12.900
  237.500   96.129    0.441    0.241   11.724
  237.750   97.403    0.450    0.238   11.284
  238.000   98.680    0.456    0.232   10.452
  238.250   99.315    0.467    0.230   10.059
  238.500   99.949    0.464    0.224    9.498
  238.750   99.946    0.461    0.219    8.968
  239.000   99.301    0.459    0.220    8.467
  239.250   97.377    0.456    0.223    8.306
  239.500   96.093    0.455    0.224    7.992
  239.750   96.090    0.455    0.228    7.840
  240.000   97.365    0.460    0.241    7.689
  240.250  100.559    0.467    0.252    7.543
  240.500  104.393    0.484    0.258    7.121
  240.750  106.311    0.540    0.262    6.473
  241.000  111.423    0.535    0.269    5.883
  241.250  112.059    0.522    0.272    5.347
  241.500  109.495    0.511    0.271    4.768
  241.750  105.012    0.517    0.272    4.589
  242.000  101.169    0.526    0.280    4.588
  242.250  102.443    0.532    0.280    4.499
  242.500  103.080    0.526    0.269    4.498
  242.750  104.355    0.501    0.258    4.496
  243.000  105.629    0.495    0.255    4.495
  243.250  106.265    0.490    0.253    4.409
  243.500  105.621    0.501    0.253    4.408
  243.750  104.337    0.523    0.251    4.407
  244.000  103.052    0.522    0.248    4.405
  244.250  102.408    0.498    0.240    4.404
  244.500  101.123    0.488    0.227    4.488
  244.750  100.481    0.490    0.219    4.573
  245.000   99.837    0.485    0.222    4.839
  245.250   99.192    0.478    0.210    4.932
  245.500   99.188    0.464    0.193    5.320
  245.750   99.824    0.450    0.186    5.849
  246.000  100.457    0.441    0.190    6.432
  246.250  100.455    0.436    0.162    6.808
  246.500  100.447    0.444    0.167    7.629
  246.750   99.805    0.456    0.212    8.075
  247.000   98.520    0.451    0.226    8.711
  247.250   98.516    0.434    0.218    8.877
  247.500   97.870    0.421    0.208    9.218
  247.750   97.868    0.426    0.202    9.393
  248.000   97.863    0.432    0.207    9.390
  248.250   98.498    0.436    0.209    9.387
  248.500   98.495    0.437    0.205    9.383
  248.750   98.491    0.437    0.204    9.204
  249.000   96.566    0.436    0.204    9.202
  249.250   94.641    0.441    0.197    9.025
  249.500   93.357    0.444    0.186    8.684
  249.750   92.713    0.450    0.184    8.519
  250.000   92.069    0.455    0.213    7.454
  250.250   91.423    0.469    0.282    6.522
  250.500   91.421    0.526    0.298    5.390
  250.750   91.417    0.560    0.320    4.288
  251.000   91.413    0.581    0.312    3.411
  251.250   91.408    0.573    0.296    3.100
  251.500   91.404    0.557    0.284    2.872
  251.750   91.398    0.553    0.280    2.926
  252.000   92.034    0.545    0.272    3.039
  252.250   92.030    0.525    0.258    3.156
  252.500   92.662    0.483    0.236    3.470
  252.750   93.299    0.468    0.235    3.888
  253.000   93.296    0.464    0.242    4.195
  253.250   93.292    0.459    0.241    4.441
  253.500   92.648    0.449    0.237    4.976
  253.750   92.002    0.449    0.227    5.168
  254.000   91.999    0.449    0.221    5.575
  254.250   91.353    0.450    0.222    5.790
  254.500   91.350    0.448    0.230    6.013
  254.750   90.704    0.444    0.227    6.244
  255.000   90.702    0.444    0.220    6.243
  255.250   90.698    0.447    0.215    6.360
  255.500   90.692    0.448    0.208    6.359
  255.750   90.689    0.452    0.202    6.357
  256.000   90.685    0.457    0.191    6.354
  256.250   91.319    0.450    0.192    6.115
  256.500   91.316    0.447    0.210    5.885
  256.750   91.951    0.454    0.224    5.556
  257.000   92.587    0.463    0.227    5.450
  257.250   93.862    0.481    0.213    5.245
  257.500   95.776    0.494    0.232    4.952
  257.750   97.053    0.505    0.265    4.766
  258.000   98.968    0.515    0.269    4.500
  258.250  100.883    0.514    0.267    4.249
  258.500  103.437    0.510    0.264    4.089
  258.750  105.352    0.504    0.260    3.788
  259.000  106.628    0.504    0.255    3.576
  259.250  106.622    0.505    0.252    3.508
  259.500  106.620    0.504    0.249    3.441
  259.750  105.335    0.499    0.240    3.506
  260.000  102.771    0.494    0.229    3.641
  260.250  100.208    0.489    0.210    3.710
  260.500   95.085    0.484    0.196    4.002
  260.750   87.401    0.475    0.178    4.485
  261.000   79.078    0.463    0.167    4.748
  261.250   69.475    0.449    0.159    5.220
  261.500   60.513    0.428    0.184    5.963
  261.750   51.550    0.401    0.220    6.942
  262.000   40.667    0.381    0.259    8.395
  262.250   31.704    0.356    0.280   10.749
  262.500   27.860    0.326    0.277   13.764
  262.750   25.935    0.302    0.267   18.660
  263.000   32.330    0.296    0.249   37.021
  263.250   41.284    0.337    0.235   33.012
  263.500   49.598    0.376    0.226   29.442
  263.750   58.553    0.401    0.225   25.274
  264.000   65.587    0.413    0.223   20.491
  264.250   70.702    0.409    0.231   17.260
  264.500   75.817    0.392    0.248   18.270
  264.750   78.372    0.380    0.253   21.269
  265.000   77.088    0.370    0.258   25.722
  265.250   73.883    0.373    0.267   29.380
  265.500   71.319    0.380    0.272   32.923
  265.750   70.675    0.389    0.273   34.193
  266.000   71.950    0.384    0.271   37.597
  266.250   74.506    0.371    0.264   42.131
  266.500   78.342    0.372    0.247   41.324
  266.750   83.457    0.381    0.230   36.157
  267.000   91.771    0.396    0.207   29.880
  267.250   94.325    0.403    0.202   22.882
  267.500   93.681    0.400    0.209   20.021
  267.750   91.758    0.396    0.219   19.266
  268.000   87.914    0.394    0.225   19.631
  268.250   82.151    0.390    0.232   21.175
  268.500   77.027    0.385    0.238   21.992
  268.750   71.904    0.382    0.239   24.180
  269.000   68.700    0.384    0.237   26.089
  269.250   66.135    0.388    0.239   30.373
  269.500   63.570    0.389    0.251   36.731
  269.750   62.286    0.382    0.257   45.276
  270.000   59.722    0.377    0.262   55.807
  270.250   56.519    0.369    0.271   63.744
  270.500   51.395    0.364    0.276   71.436
  270.750   48.831    0.360    0.282   83.165
  271.000   52.026    0.364    0.277   94.985
  271.250   55.862    0.372    0.251   96.790
  271.500   59.697    0.377    0.238   83.090
  271.750   63.531    0.374    0.255   62.430
  272.000   59.047    0.366    0.274   54.624
  272.250   55.843    0.367    0.288   63.592
  272.500   52.639    0.370    0.298   82.991
  272.750   50.074    0.370    0.309  112.512
  273.000   49.431    0.367    0.309  138.683
  273.250   48.788    0.365    0.307  167.718
  273.500   48.781    0.361    0.307  206.730
  273.750   48.778    0.360    0.307  240.653
