~VERSION INFORMATION
 VERS.                 2.0:   CWLS LOG ASCII STANDARD -VERSION 2.0
 WRAP.                  NO:   ONE LINE PER DEPTH STEP
~WELL INFORMATION BLOCK
#MNEM.UNIT           DATA                    DESCRIPTION OF MNEMONIC
#---------    -------------------            -------------------------------
# Generated from Intellog Unique Number	CN_94_101/WELL/1069
WELL.         SUNCOR INC.                    : Well_name    - WELL
LOC .         AA/10-20-094-06W4/0            : Location     - LOCATION
UWI .         AA/10-20-094-06W400            : Uwi          - UNIQUE WELL ID
ENTR.         JOETTE                         : Entered      - ENTERED BY
SRVC.         SCHLUMBERGER                   : Scn          - SERVICE COMPANY
DATE.         04/10/92                       : Date         - LOG DATE
STRT.M        50                             : top_depth    - START DEPTH
STOP.M        300                            : bot_depth    - STOP DEPTH
STEP.M        0.25                           : increment    - STEP LENGTH
 NULL. -999.2500:NULL Value
~CURVE INFORMATION BLOCK
#MNEM UNIT       ERCB CURVE CODE    CURVE DESCRIPTION
#-----------   ------------------   ----------------------------------
DEPT.M        00 001 00 00         : DEPTH        - DEPTH
ILD .OHMM     00 120 00 00         : RESD         - DEEP RESISTIVITY (DIL)
DPHI.V/V      00 890 00 00         : PHID         - DENSITY POROSITY (SANDSTONE)
NPHI.V/V      00 330 00 00         : PHIN         - NEUTRON POROSITY (SANDSTONE)
GR  .API      00 310 00 00         : GR           - GAMMA RAY
CALI.MM       00 280 01 00         : CAL          - CALIPER
~PARAMETER INFORMATION
#MNEM.UNIT           DATA             DESCRIPTION OF MNEMONIC
#---------         -----------     ------------------------------
GL  .M        578.2                : gl           - GROUND LEVEL ELEVATION
EREF.M        581.4                : kb           - ELEVATION OF DEPTH REFERENCE
DATM.M        581.4                : datum        - DATUM ELEVATION
TDD .M        304                  : tdd          - TOTAL DEPTH DRILLER
RUN .         ONE                  : Run          - RUN NUMBER
ENG .         BILL                 : Engineer     - RECORDING ENGINEER
WIT .         JIM                  : Witness      - WITNESSED BY
MUD .         GEL                  : Mud_type     - MUD TYPE
MATR.         SANDSTONE            : Logunit      - NEUTRON MATRIX
TMAX.C        15                   : BHT          - MAXIMUM RECORDED TEMPERATURE
BHTD.M        304                  : BHTDEP       - MAXIMUM RECORDED TEMPERATURE
RMT .C        10                   : MDTP         - TEMPERATURE OF MUD
MUDD.KG/M     1050                 : MWT          - MUD DENSITY
NEUT.         1                    : NEUTRON      - NEUTRON TYPE
RESI.         0                    : RESIST       - RESISTIVITY TYPE
RM  .OHMM     13.1                 : RM           - RESISTIVITY OF MUD
RMC .OHMM     13.1                 : RMC          - RESISTIVITY OF MUD CAKE
RMF .OHMM     13.1                 : RMF          - RESISTIVITY OF MUD FILTRATE
SUFT.C        4                    : SUFT         - SURFACE TEMPERATURE
~A  DEPTH     RESD     PHID     PHIN       GR      CAL
# ...
  269.000  110.673    0.319    0.380   46.613  160.461
  269.250  124.046    0.318    0.387   47.861  160.480
  269.500  161.796    0.312    0.392   49.111  160.500
  269.750  203.159    0.315    0.386   48.499  162.578
  270.000  245.641    0.328    0.381   46.659  162.597
  270.250  302.669    0.329    0.377   44.817  160.557
  270.500  339.326    0.311    0.372   42.978  160.581
  270.750  359.464    0.314    0.378   42.371  160.600
  271.000  339.995    0.316    0.390   41.150  160.624
  271.250  327.712    0.331    0.401   40.540  160.638
  271.500  292.886    0.334    0.398   39.928  160.652
  271.750  252.056    0.328    0.391   40.560  160.671
  272.000  169.688    0.318    0.388   40.569  160.690
  272.250   71.238    0.311    0.393   40.583  159.684
  272.500   63.652    0.318    0.408   41.831  159.703
  272.750   43.669    0.339    0.434   43.699  159.723
  273.000   31.112    0.370    0.448   44.940  159.742
  273.250   20.169    0.387    0.456   48.041  159.765
  273.500   13.833    0.417    0.468   56.088  159.775
  273.750   12.135    0.453    0.461   68.457  159.794
  274.000   13.353    0.440    0.450   80.827  159.823
  274.250   18.079    0.393    0.433   87.017  159.837
  274.500   19.526    0.374    0.403   96.915  159.870
  274.750   20.288    0.322    0.404  112.374  159.880
  275.000   22.751    0.290    0.471  109.913  159.899
  275.250   25.035    0.261    0.480   96.949  159.913
  275.500   28.061    0.281    0.487   83.367  159.942
  275.750   30.863    0.311    0.481   78.435  159.956
  276.000   38.037    0.330    0.472   72.268  159.975
  276.250   54.513    0.351    0.464   71.661  159.999
  276.500   61.131    0.320    0.451   69.201  160.009
  276.750   68.534    0.307    0.421   70.451  160.033
  277.000   76.816    0.274    0.409   73.549  160.052
  277.250   76.910    0.250    0.378   83.450  160.066
  277.500   71.366    0.228    0.363   89.022  160.090
  277.750   48.056    0.222    0.378   96.449  159.084
  278.000   44.603    0.229    0.384  101.403  159.093
  278.250   41.398    0.223    0.380   87.821  158.087
  278.500   39.892    0.231    0.377   84.125  158.107
  278.750   39.952    0.305    0.379   78.575  158.126
  279.000   42.312    0.310    0.395   71.790  158.145
  279.250   47.425    0.305    0.383   65.623  158.169
  279.500   73.320    0.274    0.370   60.691  158.178
  279.750  107.110    0.260    0.358   58.231  158.207
  280.000  127.052    0.259    0.349   59.478  157.201
  280.250  150.745    0.280    0.353   53.928  157.210
  280.500  178.855    0.292    0.357   53.325  157.229
  280.750  189.470    0.287    0.380   55.805  157.253
  281.000  182.670    0.280    0.414   60.147  157.268
  281.250  169.585    0.278    0.425   61.389  157.296
  281.500  163.419    0.314    0.437   64.490  157.306
  281.750  160.519    0.327    0.445   66.358  157.330
  282.000  170.087    0.345    0.446   63.895  157.353
  282.250  180.137    0.337    0.440   63.288  157.372
  282.500  198.175    0.323    0.414   64.538  157.387
  282.750  222.176    0.307    0.401   61.458  157.406
  283.000  244.424    0.310    0.379   55.290  158.455
  283.250  290.003    0.327    0.384   48.505  158.469
  283.500  407.945    0.323    0.387   40.483  158.493
  283.750  408.347    0.317    0.386   34.934  159.537
  284.000  386.326    0.315    0.384   32.477  159.566
  284.250  372.278    0.307    0.377   35.580  159.580
  284.500  358.829    0.303    0.372   36.210  160.629
  284.750  359.271    0.294    0.365   35.600  160.653
  285.000  380.687    0.289    0.360   34.376  160.667
  285.250  395.538    0.303    0.356   33.152  161.725
  285.500  435.252    0.293    0.364   32.551  161.740
  285.750  443.989    0.279    0.370   31.942  161.754
  286.000  427.950    0.273    0.371   31.950  161.783
  286.250  404.871    0.280    0.369   31.349  162.827
  286.500  397.589    0.308    0.371   30.743  162.841
  286.750  390.533    0.309    0.370   30.131  162.870
  287.000  383.697    0.305    0.362   29.527  162.879
  287.250  383.981    0.287    0.359   30.157  163.928
  287.500  399.060    0.267    0.366   31.407  163.952
  287.750  407.070    0.282    0.371   31.415  163.971
  288.000  439.560    0.291    0.372   30.194  163.990
  288.250  456.821    0.296    0.373   30.202  164.009
  288.500  466.105    0.304    0.378   29.596  164.033
  288.750  466.450    0.306    0.384   28.990  165.077
  289.000  441.186    0.303    0.401   29.001  165.096
  289.250  401.820    0.299    0.401   27.777  165.115
  289.500  365.966    0.293    0.392   27.170  166.169
  289.750  339.668    0.283    0.387   27.187  166.193
  290.000  251.319    0.304    0.398   27.193  166.203
  290.250  204.419    0.316    0.415   29.061  166.231
  290.500  193.300    0.328    0.438   31.544  166.241
  290.750  212.760    0.312    0.450   35.260  166.260
  291.000  221.060    0.321    0.441   35.277  166.279
  291.250  252.622    0.330    0.434   34.050  166.298
  291.500  489.805    0.330    0.431   32.826  167.347
  291.750  603.518    0.321    0.426   33.455  167.366
  292.000  604.113    0.310    0.416   33.467  167.390
  292.250  406.697    0.316    0.413   32.239  167.404
  292.500  300.913    0.327    0.415   29.164  167.428
  292.750   41.427    0.332    0.423   28.558  166.427
  293.000   28.963    0.341    0.431   31.659  166.432
  293.250   24.007    0.341    0.450   35.995  166.451
  293.500   22.701    0.334    0.464   39.711  165.449
  293.750   24.048    0.329    0.466   45.902  165.459
  294.000   25.482    0.323    0.463   48.393  165.488
  294.250   26.483    0.319    0.452   46.545  165.502
  294.500   29.149    0.313    0.426   42.852  165.516
  294.750   30.286    0.286    0.421   44.715  165.545
  295.000   42.624    0.157    0.391   47.818  164.529
  295.250   43.458    0.187    0.350   50.919  164.553
  295.500   45.187    0.210    0.333   50.928  164.577
  295.750   47.869    0.225    0.349   48.468  164.591
  296.000   50.697    0.230    0.360   42.918  164.610
  296.250   60.151    0.229    0.369   40.458  164.625
  296.500   68.722    0.224    0.375   39.234  164.649
  296.750   71.438    0.221    0.380   38.630  163.633
  297.000   63.846    0.214    0.366   38.021  163.657
  297.250   31.177    0.205    0.316   36.796  162.646
  297.500   20.205    0.195    0.287   35.575  162.660
  297.750   15.825    0.180    0.320   34.351  162.680
  298.000   16.455    0.153    0.363   32.511  162.703
  298.250   16.777    0.134    0.381   31.902  161.688
  298.500   13.643    0.125    0.386   31.910  161.707
  298.750   14.452    0.092    0.385   31.307  160.701
  299.000   19.576    0.094    0.381   30.703  160.720
  299.250   22.798    0.089    0.380   30.712  160.744
  299.500   25.553    0.073    0.380   30.726  159.724
  299.750   29.208    0.062    0.380   30.738  159.743
  300.000   30.348    0.065    0.381   31.367  159.762
