~VERSION INFORMATION
 VERS.                 2.0:   CWLS LOG ASCII STANDARD -VERSION 2.0
 WRAP.                  NO:   ONE LINE PER DEPTH STEP
~WELL INFORMATION BLOCK
#MNEM.UNIT           DATA                    DESCRIPTION OF MNEMONIC
#---------    -------------------            -------------------------------
# Generated from Intellog Unique Number	CS_77_79/WELL/3300
WELL.         10-11-078-08W4                 : Well_name    - WELL
LOC .         AA/10-11-078-08W4/0            : Location     - LOCATION
UWI .         AA/10-11-078-08W4/0            : Uwi          - UNIQUE WELL ID
ENTR.         JOETTE                         : Entered      - ENTERED BY
SRVC.         WESTERN ATLAS                  : Scn          - SERVICE COMPANY
DATE.         08/26/92                       : Date         - LOG DATE
STRT.M        140                            : top_depth    - START DEPTH
STOP.M        370                            : bot_depth    - STOP DEPTH
STEP.M        0.25                           : increment    - STEP LENGTH
 NULL. -999.2500:NULL Value
~CURVE INFORMATION BLOCK
#MNEM UNIT       ERCB CURVE CODE    CURVE DESCRIPTION
#-----------   ------------------   ----------------------------------
DEPT.M        00 001 00 00         : DEPTH        - DEPTH
GR  .API      00 310 00 00         : GR           - GAMMA RAY
NPHI.V/V      00 330 00 00         : PHIN         - NEUTRON POROSITY (SANDSTONE)
DPHI.V/V      00 890 00 00         : PHID         - DENSITY POROSITY (SANDSTONE)
ILD .OHMM     00 120 00 00         : RESD         - DEEP RESISTIVITY (DIL)
~PARAMETER INFORMATION
#MNEM.UNIT           DATA             DESCRIPTION OF MNEMONIC
#---------         -----------     ------------------------------
GL  .M        563.4                : gl           - GROUND LEVEL ELEVATION
EREF.M        566.9                : kb           - ELEVATION OF DEPTH REFERENCE
DATM.M        566.9                : datum        - DATUM ELEVATION
TDD .M        378                  : tdd          - TOTAL DEPTH DRILLER
RUN .         ONE                  : Run          - RUN NUMBER
ENG .         BILL                 : Engineer     - RECORDING ENGINEER
WIT .         JIM                  : Witness      - WITNESSED BY
MUD .         GEL                  : Mud_type     - MUD TYPE
MATR.         SANDSTONE            : Logunit      - NEUTRON MATRIX
TMAX.C        16                   : BHT          - MAXIMUM RECORDED TEMPERATURE
BHTD.M        378                  : BHTDEP       - MAXIMUM RECORDED TEMPERATURE
MATR.         1                    : LOGUNIT      - NEUTRON MATRIX
RMT .C        15                   : MDTP         - TEMPERATURE OF MUD
NEUT.         1                    : NEUTRON      - NEUTRON TYPE
RESI.         0                    : RESIST       - RESISTIVITY TYPE
RMC .OHMM     3.8                  : RMC          - RESISTIVITY OF MUD CAKE
RMF .OHMM     3.8                  : RMF          - RESISTIVITY OF MUD FILTRATE
SUFT.C        15                   : SUFT         - SURFACE TEMPERATURE
~A  DEPTH       GR     PHIN     PHID     RESD
# ...
  227.000   90.814    0.384    0.221    3.994
  227.250   88.492    0.415    0.277    3.581
  227.500   90.278    0.444    0.322    3.270
  227.750   87.957    0.458    0.384    2.986
  228.000   90.337    0.437    0.343    2.827
  228.250   93.877    0.435    0.359    2.535
  228.500   90.382    0.439    0.372    2.445
  228.750   90.421    0.419    0.343    2.358
  229.000   88.093    0.449    0.316    2.274
  229.250   89.892    0.449    0.284    2.274
  229.500   86.984    0.450    0.309    2.275
  229.750   85.830    0.465    0.362    2.275
  230.000   84.095    0.446    0.383    2.318
  230.250   81.774    0.441    0.393    2.540
  230.500   85.314    0.438    0.402    2.834
  230.750   91.208    0.426    0.376    3.220
  231.000   91.247    0.417    0.343    3.795
  231.250   85.985    0.402    0.293    4.009
  231.500   80.723    0.383    0.232    4.393
  231.750   82.522    0.371    0.269    4.557
  232.000   82.548    0.403    0.284    4.558
  232.250   87.262    0.415    0.293    4.396
  232.500   82.593    0.399    0.322    4.397
  232.750   77.931    0.409    0.336    4.906
  233.000   77.957    0.415    0.383    5.279
  233.250   78.563    0.390    0.297    5.577
  233.500   78.002    0.378    0.220    5.578
  233.750   70.986    0.363    0.259    5.579
  234.000   68.085    0.381    0.276    5.283
  234.250   77.499    0.393    0.319    4.651
  234.500   81.633    0.404    0.312    4.095
  234.750   83.419    0.398    0.302    3.671
  235.000   78.763    0.399    0.299    3.292
  235.250   79.957    0.434    0.314    3.006
  235.500   77.048    0.446    0.349    2.795
  235.750   76.487    0.439    0.384    2.599
  236.000   77.687    0.452    0.389    2.599
  236.250   81.227    0.460    0.379    2.167
  236.500   87.134    0.484    0.375    3.296
  236.750   87.160    0.488    0.377    3.678
  237.000   86.006    0.460    0.343    4.104
  237.250   79.577    0.417    0.284    4.663
  237.500   73.147    0.387    0.284    5.597
  237.750   65.545    0.371    0.293    6.133
  238.000   59.122    0.374    0.296    6.480
  238.250   62.076    0.366    0.295    6.600
  238.500   63.282    0.350    0.294    6.723
  238.750   59.780    0.355    0.295    6.603
  239.000   58.639    0.356    0.298    6.605
  239.250   60.419    0.355    0.299    6.487
  239.500   56.337    0.357    0.300    6.370
  239.750   54.028    0.353    0.296    6.257
  240.000   59.916    0.350    0.290    6.145
  240.250   60.535    0.347    0.288    6.147
  240.500   56.453    0.355    0.290    6.148
  240.750   56.479    0.352    0.292    6.149
  241.000   68.828    0.353    0.294    6.151
  241.250   69.434    0.359    0.295    6.153
  241.500   65.939    0.357    0.294    6.153
  241.750   62.451    0.344    0.290    6.155
  242.000   60.716    0.330    0.287    6.156
  242.250   63.089    0.325    0.284    6.158
  242.500   57.834    0.335    0.281    6.159
  242.750   56.099    0.365    0.277    6.161
  243.000   61.406    0.370    0.277    6.162
  243.250   66.127    0.371    0.282    6.276
  243.500   69.087    0.385    0.285    6.278
  243.750   67.352    0.390    0.291    6.279
  244.000   63.270    0.366    0.296    6.396
  244.250   60.362    0.358    0.299    6.515
  244.500   62.735    0.352    0.301    6.637
  244.750   59.247    0.359    0.263    7.012
  245.000   61.033    0.353    0.247    7.142
  245.250   65.760    0.354    0.239    7.409
  245.500   62.258    0.342    0.240    7.548
  245.750   60.530    0.375    0.247    7.548
  246.000   68.178    0.387    0.259    7.550
  246.250   65.857    0.383    0.269    7.021
  246.500   61.781    0.375    0.279    6.295
  246.750   72.957    0.375    0.243    5.961
  247.000   82.965    0.383    0.226    5.749
  247.250   82.984    0.368    0.220    5.646
  247.500   83.010    0.379    0.224    5.545
  247.750   83.043    0.390    0.225    5.446
  248.000   81.308    0.393    0.225    5.349
  248.250   78.987    0.386    0.225    5.351
  248.500   79.019    0.380    0.225    5.352
  248.750   79.625    0.375    0.226    5.353
  249.000   77.903    0.372    0.226    5.354
  249.250   77.329    0.378    0.227    5.454
  249.500   77.942    0.384    0.226    5.455
  249.750   79.142    0.373    0.222    5.457
  250.000   86.803    0.376    0.213    5.457
  250.250   83.308    0.383    0.211    5.559
  250.500   82.153    0.383    0.215    5.560
  250.750   83.946    0.369    0.216    5.562
  251.000   80.445    0.363    0.213    5.563
  251.250   81.657    0.375    0.214    5.564
  251.500   82.863    0.373    0.216    5.668
  251.750   84.050    0.365    0.222    5.669
  252.000   85.836    0.359    0.223    5.670
  252.250   81.167    0.353    0.213    5.672
  252.500   78.259    0.358    0.205    5.673
  252.750   82.979    0.371    0.198    5.674
  253.000   89.460    0.378    0.192    5.676
  253.250   88.906    0.366    0.191    5.676
  253.500   88.345    0.367    0.199    5.678
  253.750   87.197    0.380    0.212    5.577
  254.000   87.816    0.395    0.214    5.577
  254.250   91.943    0.403    0.211    5.379
  254.500   94.316    0.397    0.208    5.187
  254.750   93.169    0.373    0.205    4.912
  255.000   90.267    0.368    0.200    4.738
  255.250   92.634    0.382    0.209    4.326
  255.500   90.905    0.414    0.283    4.022
  255.750   86.243    0.442    0.321    3.541
  256.000   88.616    0.471    0.350    3.118
  256.250   90.990    0.495    0.396    2.745
  256.500   89.842    0.521    0.412    2.166
  256.750   84.580    0.553    0.420    1.648
  257.000   78.737    0.537    0.402    1.478
  257.250   74.662    0.538    0.384    1.399
  257.500   76.448    0.519    0.407    1.400
  257.750   78.815    0.452    0.416    1.534
  258.000   81.188    0.439    0.413    1.808
  258.250   75.352    0.424    0.385    2.700
  258.500   83.007    0.396    0.357    3.013
  258.750   86.560    0.372    0.301    3.301
  259.000   81.298    0.347    0.231    3.617
  259.250   75.456    0.336    0.217    4.036
  259.500   79.589    0.327    0.221    4.586
  259.750   80.789    0.305    0.244    4.934
  260.000   80.821    0.299    0.250    5.309
  260.250   84.948    0.297    0.259    5.507
  260.500   81.453    0.304    0.266    5.508
  260.750   76.198    0.311    0.268    5.611
  261.000   72.709    0.319    0.264    5.613
  261.250   75.089    0.329    0.233    5.614
  261.500   72.767    0.342    0.207    5.615
  261.750   71.033    0.344    0.196    5.415
  262.000   75.747    0.367    0.198    5.318
  262.250   80.474    0.367    0.237    5.224
  262.500   76.979    0.352    0.248    5.321
  262.750   72.303    0.331    0.241    5.830
  263.000   75.263    0.323    0.232    6.047
  263.250   79.403    0.312    0.225    6.626
  263.500   74.728    0.298    0.214    7.260
  263.750   64.778    0.275    0.194    7.671
  264.000   63.631    0.316    0.134    7.672
  264.250   77.160    0.360    0.161    7.535
  264.500   75.438    0.361    0.191    7.135
  264.750   73.691    0.348    0.220    6.398
  265.000   74.890    0.351    0.245    6.058
  265.250   77.850    0.337    0.239    5.532
  265.500   76.702    0.362    0.238    5.335
  265.750   75.554    0.378    0.237    5.145
  266.000   75.600    0.362    0.233    4.962
  266.250   77.373    0.369    0.226    4.963
  266.500   79.159    0.385    0.219    4.875
  266.750   83.880    0.357    0.210    4.876
  267.000   92.708    0.351    0.210    4.789
  267.250   92.740    0.355    0.210    4.703
  267.500   90.412    0.381    0.212    4.620
  267.750   86.337    0.368    0.218    4.537
  268.000   84.022    0.342    0.228    4.538
  268.250   82.868    0.334    0.241    4.622
  268.500   79.960    0.332    0.245    4.973
  268.750   77.645    0.324    0.250    5.449
  269.000   81.772    0.292    0.256    5.652
  269.250   82.978    0.369    0.238    5.758
  269.500   84.757    0.365    0.230    5.759
  269.750   85.370    0.370    0.233    5.656
  270.000   87.156    0.378    0.242    5.455
  270.250   83.075    0.389    0.250    5.456
