~VERSION INFORMATION
 VERS.                 2.0:   CWLS LOG ASCII STANDARD -VERSION 2.0
 WRAP.                  NO:   ONE LINE PER DEPTH STEP
~WELL INFORMATION BLOCK
#MNEM.UNIT           DATA                    DESCRIPTION OF MNEMONIC
#---------    -------------------            -------------------------------
# Generated from Intellog Unique Number	CC_80_83/WELL/2364
NULL.         -999.25                        : NULL_VALUE
WELL.         PEX PCEJ HANGST OV             : Well_name    - WELL              
LOC .         10-23-081-08W4                 : Location     - LOCATION          
UWI .         AA/10-23-081-08W4/0            : Uwi          - UNIQUE WELL ID    
ENTR.         DW                             : Entered      - ENTERED BY        
SRVC.         SCHLUMBERGER                   : Scn          - SERVICE COMPANY   
DATE.         18 JAN 80                      : Date         - LOG DATE
STRT.M        250                            : top_depth    - START DEPTH       
STOP.M        494.79                         : bot_depth    - STOP DEPTH        
STEP.M        0.3                            : increment    - STEP LENGTH       
~CURVE INFORMATION BLOCK
#MNEM UNIT       ERCB CURVE CODE    CURVE DESCRIPTION
#-----------   ------------------   ----------------------------------
DEPT.M        00 001 00 00         : DEPTH        - DEPTH                       
DPHI.V/V      00 890 00 00         : PHID         - DENSITY POROSITY (LIMESTONE)
NPHI.V/V      00 330 00 00         : PHIN         - NEUTRON POROSITY (LIMESTONE)
GR  .API      00 310 00 00         : GR           - GAMMA RAY                   
ILD .OHMM     00 120 00 00         : RESD         - DEEP RESISTIVITY (DIL)      
~PARAMETER INFORMATION       
#MNEM.UNIT           DATA             DESCRIPTION OF MNEMONIC
#---------         -----------     ------------------------------
GL  .M        735.25               : gl           - GROUND LEVEL ELEVATION      
EREF.M        738.85               : kb           - ELEVATION OF DEPTH REFERENCE
DATM.M        738.85               : datum        - DATUM ELEVATION             
TDD .M        497                  : tdd          - TOTAL DEPTH DRILLER         
RUN .         ONE                  : Run          - RUN NUMBER                  
ENG .         BILL                 : Engineer     - RECORDING ENGINEER          
WIT .         JIM                  : Witness      - WITNESSED BY                
MUD .         GEL                  : Mud_type     - MUD TYPE                    
MATR.         LIMESTONE            : Logunit      - NEUTRON MATRIX              
TMAX.C        19                   : BHT          - MAXIMUM RECORDED TEMPERATURE
BHTD.M        497                  : BHTDEP       - MAXIMUM RECORDED TEMPERATURE
MATR.         1                    : LOGUNIT      - NEUTRON MATRIX              
RMT .C        25                   : MDTP         - TEMPERATURE OF MUD          
NEUT.         1                    : NEUTRON      - NEUTRON TYPE                
RESI.         0                    : RESIST       - RESISTIVITY TYPE            
RMC .OHMM     0.25                 : RMC          - RESISTIVITY OF MUD CAKE     
RMF .OHMM     0.25                 : RMF          - RESISTIVITY OF MUD FILTRATE 
SUFT.C        4                    : SUFT         - SURFACE TEMPERATURE         
~A  DEPTH     PHID     PHIN       GR     RESD
# ...
  406.594    0.273    0.459  108.333   11.394
  406.894    0.267    0.436  114.583   10.963
  407.194    0.288    0.425  109.635   10.748
  407.494    0.286    0.441  116.514   10.943
  407.794    0.332    0.442  123.384   11.353
  408.094    0.340    0.431  120.926   11.560
  408.394    0.318    0.417  122.200   11.334
  408.694    0.201    0.398  120.986   11.324
  408.994    0.196    0.396  112.302   11.102
  409.294    0.229    0.409  114.202   10.091
  409.594    0.382    0.460  116.095    9.712
  409.894    0.404    0.525  107.416    8.828
  410.194    0.420    0.539  103.711    8.657
  410.494    0.450    0.557  106.227    9.152
  410.794    0.484    0.524  109.368   10.242
  411.094    0.482    0.514  103.178   11.458
  411.394    0.468    0.457  108.183   11.887
  411.694    0.321    0.418  110.080   11.878
  411.994    0.238    0.404  108.871   11.642
  412.294    0.246    0.380  109.518   11.202
  412.594    0.257    0.380  108.925   10.576
  412.894    0.267    0.428  117.666    9.987
  413.194    0.272    0.433  118.318    8.743
  413.494    0.281    0.433  111.504    7.948
  413.794    0.379    0.464  109.046    7.647
  414.094    0.458    0.571  102.852    7.642
  414.394    0.513    0.587   96.662    7.929
  414.694    0.505    0.596   96.072    8.228
  414.994    0.512    0.559  111.652    8.065
  415.294    0.507    0.534  109.816    8.528
  415.594    0.438    0.504  104.867    9.542
  415.894    0.435    0.522  104.275    9.899
  416.194    0.459    0.502  100.570   10.077
  416.494    0.492    0.510   94.380   10.070
  416.794    0.460    0.470   95.035   10.061
  417.094    0.266    0.419  104.394    9.863
  417.393    0.266    0.418  101.940    9.313
  417.693    0.271    0.398  101.347    8.003
  417.993    0.276    0.383  101.993    5.802
  418.293    0.289    0.405  112.604    4.891
  418.593    0.352    0.483   99.565    5.172
  418.893    0.511    0.536   98.351    6.480
  419.193    0.519    0.537  115.181    8.593
  419.493    0.432    0.457  121.439   10.367
  419.793    0.331    0.427  101.553   12.274
  420.093    0.308    0.431   95.979   14.808
  420.393    0.286    0.436   92.279   16.567
  420.693    0.270    0.411   91.688   16.554
  420.993    0.254    0.392   87.356   15.629
  421.293    0.230    0.372   80.542   12.931
  421.593    0.128    0.348   81.197   11.111
  421.893    0.177    0.312   81.231   10.102
  422.193    0.257    0.371   85.612   11.738
  422.493    0.294    0.431   98.709   13.897
  422.793    0.292    0.409   97.495   13.624
  423.093    0.272    0.386   87.567   12.623
  423.393    0.137    0.329   74.527   10.248
  423.693    0.134    0.253   69.580    8.972
  423.993    0.273    0.371   80.811    8.469
  424.293    0.355    0.419   95.776    8.464
  424.593    0.400    0.546   94.561    8.294
  424.893    0.452    0.547   99.567    8.290
  425.193    0.346    0.562   99.540    8.439
  425.493    0.405    0.562   93.917    8.435
  425.793    0.510    0.503  103.214    8.918
  426.093    0.516    0.552  105.678    9.791
  426.393    0.512    0.557  103.166   10.748
  426.693    0.502    0.516  102.518   11.582
  426.993    0.418    0.455  111.196   12.017
  427.293    0.475    0.493  104.952   11.778
  427.593    0.520    0.581  106.789   11.123
  427.893    0.408    0.596  108.004    9.925
  428.193    0.435    0.613   98.034    8.211
  428.493    0.392    0.639   94.898    6.542
  428.793    0.365    0.655   93.005    5.020
  429.093    0.373    0.665   96.090    3.639
  429.393    0.472    0.668   87.356    2.740
  429.693    0.514    0.668   94.792    2.444
  429.993    0.462    0.664   89.793    2.489
  430.293    0.358    0.633  100.955    3.002
  430.593    0.361    0.600   99.066    3.692
  430.893    0.398    0.535   91.579    4.626
  431.193    0.405    0.536   97.148    6.250
  431.493    0.391    0.508   96.501    7.541
  431.793    0.270    0.455  102.691    8.762
  432.093    0.258    0.468  107.640    9.089
  432.393    0.284    0.463   97.665    8.911
  432.693    0.314    0.483  100.744    8.740
  432.993    0.361    0.523  114.401    7.945
  433.293    0.366    0.566  107.534    6.826
  433.593    0.353    0.593   97.558    5.755
  433.893    0.360    0.632   96.290    5.039
  434.193    0.365    0.653  102.482    4.411
  434.493    0.365    0.587  108.052    4.244
  434.793    0.369    0.609  104.916    4.240
  435.093    0.373    0.616  103.642    4.318
  435.393    0.378    0.607   99.264    4.395
  435.693    0.383    0.612   95.501    4.310
  435.993    0.389    0.629   95.483    4.068
  436.293    0.388    0.627   96.080    3.915
  436.593    0.398    0.607  104.757    3.986
  436.893    0.421    0.587  101.624    4.215
  437.193    0.435    0.602  105.947    5.280
  437.493    0.461    0.595  102.812    6.135
  437.793    0.455    0.563   98.432    6.865
  438.093    0.357    0.539   94.057    7.397
  438.393    0.358    0.541   94.028    7.673
  438.693    0.336    0.528   90.895    8.112
  438.993    0.336    0.439   99.575    8.909
  439.293    0.282    0.383   98.300   11.592
  439.593    0.196    0.319   81.483   12.025
  439.893    0.242    0.365   92.033   11.354
  440.193    0.262    0.385   92.629   10.323
  440.493    0.277    0.395  100.685    8.704
  440.793    0.272    0.402   92.575    7.066
  441.093    0.277    0.416   88.196    6.187
  441.393    0.317    0.438   85.684    5.118
  441.693    0.331    0.477   83.171    3.854
  441.992    0.381    0.500   82.519    3.188
  442.292    0.431    0.509   86.849    3.126
  442.592    0.431    0.540  101.745    4.067
  442.892    0.399    0.519  106.071    5.496
  443.192    0.340    0.440  108.534    8.475
  443.492    0.291    0.373   83.011   23.897
  443.792    0.284    0.367   72.416   38.262
  444.092    0.286    0.361   76.117   36.809
  444.392    0.290    0.367   88.530   31.031
  444.692    0.267    0.388   77.931   27.692
  444.992    0.265    0.385   98.427   23.793
  445.292    0.279    0.382   91.560   22.038
  445.592    0.289    0.391   97.130   20.809
  445.892    0.267    0.424   99.585   18.564
  446.192    0.278    0.412   92.724   16.882
  446.492    0.323    0.416   87.102   13.705
  446.792    0.266    0.433  113.192   11.338
  447.092    0.256    0.441  131.821   10.505
  447.392    0.262    0.448  133.039   11.314
  447.692    0.268    0.454  137.363   11.966
  447.992    0.368    0.440  131.120   13.641
  448.292    0.399    0.431  119.277   15.265
  448.592    0.266    0.422  115.520   16.143
  448.892    0.250    0.339   93.110   17.067
  449.192    0.255    0.339   83.756   16.417
  449.492    0.279    0.373  101.136   16.096
  449.792    0.255    0.392  117.903   16.385
  450.092    0.254    0.398  115.391   16.689
  450.392    0.257    0.404  106.034   17.309
  450.692    0.259    0.407  105.389   17.630
  450.992    0.263    0.419  126.504   17.282
  451.292    0.269    0.437  119.637   16.626
  451.592    0.288    0.433  114.638   16.306
  451.892    0.284    0.427  130.777   15.687
  452.192    0.271    0.417  131.374   15.091
  452.492    0.263    0.426  125.129   14.247
  452.792    0.251    0.452  122.614   13.198
  453.092    0.237    0.482  118.236   12.946
  453.392    0.225    0.465  143.705   12.455
  453.692    0.235    0.461  139.948   12.209
  453.992    0.254    0.462  125.620   12.201
  454.292    0.244    0.458  128.699   12.418
  454.592    0.220    0.427  130.540   12.411
  454.892    0.217    0.416  129.892   12.164
  455.192    0.205    0.462  134.216   11.930
  455.492    0.220    0.456  131.697   11.475
  455.792    0.216    0.465  131.680   11.467
  456.092    0.212    0.501  128.544   11.245
  456.392    0.243    0.478  113.595   11.226
  456.692    0.298    0.438  119.783   11.432
  456.992    0.301    0.444  119.759   11.866
  457.292    0.312    0.434  138.389   12.311
  457.592    0.296    0.414  135.252   12.537
  457.892    0.274    0.417  122.166   13.003
  458.192    0.178    0.403  119.655   12.754
  458.492    0.247    0.354  107.187   12.980
