~Version : LASO    vs 4.00 
VERS.                2.00:   CWLS Log ASCII Standard -VERSION 2.0
WRAP.                  NO:
~Well Information Block
#MNEM.UNIT       Data                        Description of Mnemonic
#----.----      -------------------------- : -----------------------------
STRT.M             1.0000:
STOP.M           202.5000:
STEP.M             0.1000:
NULL.           -999.2500:
COMP.  MOBIL OIL CANADA                    :COMPANY
WELL.  MOBIL 90 CLARKE CREEK 16-31         :WELL
FLD.   CLARKE CREEK                        :FIELD
LOC.   16-31-089-07W4                      :LOCATION
CTRY.  CANADA                              :COUNTRY
PROV.  ALBERTA                             :PROVINCE
SRVC.  BRITISH PLASTERBOARD                :SERVICE COMPANY
DATE.  22-JAN-90                           :LOG DATE
UWI.   AA/16-31-089-07W400                 :UNIQUE WELL ID
~Parameter Information Block
#MNEM.UNIT       Data                        Description of Mnemonic
#----.----      -------------------------- : -----------------------------
RUN .                   1                 : Run Number
GL  .M           453.6000                 : Ground Level Elevation
DREF.                  GD                 : Depth Reference
EREF.M           453.6000                 : Elevation of Depth Reference
TDL .M           204.5000                 : Total Depth Logger
TDD .M           204.5000                 : Total Depth Driller
~Curve Information Block
#MNEM.UNIT        API CODE    Curve Description
#---------    ------------    -------------------------------------------
DEPT.M                    :   DEPTH
CALI.mm                   :   CALI
DPHI.V/V                  :   DPHI
DT  .US/M     60 520  0  1:   2 SONIC INTERVAL TRANSIT TIME (COMPENSATED)
GR  .API                  :   GR
ILD .Ohmm                 :   ILD
NPHI.V/V                  :   NPHI
RHOB.K/M3     45 350  1  1:   3 BULK DENSITY
~A  Depth           CALI        DPHI          DT          GR         ILD        NPHI        RHOB
# ...
100.6000        147.4341      0.3045    492.6400     86.8853     22.0470      0.3903   1186.8000
100.7000        148.9658      0.2521    480.8000     89.0657     21.6912      0.3545   1249.1001
100.8000        150.8852      0.2169    467.2400     91.9365     21.3429      0.3448   1599.2000
100.9000        153.8539      0.1797    463.8400     95.8776     20.6693      0.3715   1653.0000
101.0000        155.6330      0.1572    459.7600     99.9365     19.6851      0.4577   1651.6001
101.1000        156.6149      0.2345    470.4800    103.2744     18.1306      0.5121   1197.4000
101.2000        156.1659      0.2719    483.8800    103.9751     16.6206      0.5540   1258.3000
101.3000        155.8810      0.2884    497.2800    103.0134     14.7637      0.5520   1187.9000
101.4000        155.4695      0.3014    510.6800    101.4279     13.3820      0.5142   1189.8000
101.5000        154.9127      0.3101    516.8800    100.7330     12.4801      0.5136   1175.8000
101.6000        154.2680      0.3072    518.2000    101.1763     11.9586      0.5187   1161.8000
101.7000        153.9038      0.2994    528.5200    103.9900     11.5307      0.5154   1194.9000
101.8000        153.5524      0.3080    523.2800    109.5385     11.2189      0.5098   1212.4000
101.9000        153.2023      0.3204    519.2000    113.8057     10.8575      0.5163   1187.2000
102.0000        153.1505      0.3269    528.1200    117.4333     10.5871      0.5156   1151.2000
102.1000        152.8048      0.3343    516.4000    119.5191     10.2418      0.5124   1002.8000
102.2000        152.8130      0.3400    513.8400    116.3809     10.0524      0.5186    962.4000
102.3000        152.8428      0.3480    516.8000    112.5027      9.6624      0.5108    958.6000
102.4000        152.8749      0.3560    511.6800    109.0505      9.3370      0.5158   1030.6000
102.5000        152.9072      0.3620    501.4800    104.7654      9.0242      0.5480   1082.9000
102.6000        152.9396      0.3669    496.3600    104.7199      8.8579      0.5461   1109.6000
102.7000        152.9720      0.3647    510.2800    109.0477      8.7120      0.5287   1038.9000
102.8000        153.0045      0.3622    519.5600    113.1552      8.3856      0.5306    989.3000
102.9000        153.0369      0.3629    528.8400    116.1240      8.1024      0.5296   1021.1000
103.0000        153.0693      0.3698    540.2000    117.5936      8.0874      0.5555   1099.2000
103.1000        153.1017      0.3808    542.6800    116.0057      8.2138      0.5842   1083.6000
103.2000        153.1342      0.3856    544.0800    111.7025      8.2508      0.5914   1057.6000
103.3000        153.4987      0.3838    552.1200    108.2065      8.2718      0.5987    985.5000
103.4000        153.6024      0.3815    554.1200    104.4973      8.2870      0.5667    938.6000
103.5000        153.6354      0.3821    554.6400    105.1181      8.0496      0.5262    958.3000
103.6000        153.6679      0.3866    555.2400    103.0197      8.0074      0.5079    975.1000
103.7000        153.7003      0.3912    553.0000    103.3769      8.1623      0.5276    949.5000
103.8000        153.7327      0.3780    550.2000    106.4426      8.4105      0.5541    968.3000
103.9000        153.7651      0.3681    549.4800    104.7675      8.7820      0.5670    910.0000
104.0000        153.4239      0.3621    549.2800    102.5341      9.0697      0.5565    938.0000
104.1000        153.4296      0.3551    563.2400    100.2924      9.3937      0.5227    984.7000
104.2000        153.4590      0.3480    551.6000    100.1311      9.7555      0.4722   1086.9000
104.3000        153.4909      0.3430    540.5600    103.0308     10.3031      0.4384   1030.6000
104.4000        153.1355      0.3392    533.0800    104.9209     10.7221      0.3947    965.5000
104.5000        153.1530      0.3335    533.0400    107.2557     11.1395      0.3901   1085.3000
104.6000        153.1842      0.3298    529.8000    106.4188     11.8950      0.4120   1051.9000
104.7000        153.2165      0.3262    519.1600    104.3449     12.8087      0.4286   1004.1000
104.8000        153.2488      0.3246    512.3200    102.6097     13.7964      0.4502    999.3000
104.9000        152.8997      0.3254    513.2800     99.9187     14.6221      0.4662   1130.8000
105.0000        152.5498      0.3425    514.1600     98.1986     15.0004      0.4879   1056.6000
105.1000        152.5445      0.3548    508.4800     96.5234     15.3916      0.4972    980.1000
105.2000        152.2427      0.3557    498.8400     96.3337     15.9798      0.4702   1023.0000
105.3000        152.2003      0.3468    493.5600     97.5219     16.3213      0.4788   1081.5000
105.4000        152.2316      0.3411    499.6400     98.7193     16.1311      0.5162    995.1000
105.5000        152.2637      0.3374    503.3200     97.5218     16.1244      0.5389   1011.4000
105.6000        152.2961      0.3306    503.8800     98.1803     16.4383      0.5334   1098.2000
105.7000        151.6797      0.3195    495.5600    100.2777     16.9422      0.4854   1165.8000
105.8000        150.0045      0.3135    493.0800    101.1719     17.6980      0.4471   1189.8000
105.9000        148.5031      0.3215    495.2800    100.8912     18.6875      0.4268   1113.4000
106.0000        146.6591      0.3395    500.7600    104.6411     19.2927      0.4186    923.4000
106.1000        144.7874      0.3548    506.2400    107.6622     20.0370      0.4082   1005.0000
106.2000        143.6120      0.3648    511.7200    106.7124     20.4567      0.4102   1105.8000
106.3000        145.5373      0.3682    520.6400    104.1996     20.8674      0.4234    994.9000
106.4000        146.7604      0.3602    519.2000    106.3547     20.9568      0.4396    899.8000
106.5000        146.5664      0.3477    517.7600    110.2712     21.0056      0.4011   1174.6001
106.6000        146.5670      0.3369    527.9600    114.8369     20.6762      0.3853   1187.0000
106.7000        146.9882      0.3204    519.1200    118.0260     19.8713      0.3782   1214.6001
106.8000        150.0425      0.3093    522.5600    121.1611     18.7247      0.3878   1231.1001
106.9000        151.3445      0.3020    528.6000    121.3362     18.0217      0.4007   1135.6000
107.0000        152.1969      0.2992    526.0000    118.2623     17.2464      0.4078   1183.4000
107.1000        152.3497      0.2926    506.2000    114.4236     16.9396      0.4117   1179.8000
107.2000        153.1955      0.2863    508.4800    109.4541     16.9323      0.4109   1175.3000
107.3000        153.6221      0.2827    511.6000    106.6084     17.4831      0.4119   1219.5000
107.4000        153.3295      0.2813    515.2800    103.2595     17.9665      0.4072   1211.9000
107.5000        152.6492      0.2800    513.5600    104.9657     18.9843      0.4007   1207.4000
107.6000        152.5691      0.2778    511.6000    108.1961     19.7434      0.4006   1256.7000
107.7000        152.1881      0.2748    516.8000    111.9299     20.5088      0.4065   1178.0000
107.8000        152.2031      0.2710    512.5200    113.7574     20.9020      0.4138   1239.9000
107.9000        152.2339      0.2654    505.4000    115.0017     21.1177      0.4218   1266.1001
108.0000        152.2662      0.2616    502.0800    115.1900     21.1623      0.4190   1255.7000
108.1000        152.2985      0.2629    496.7600    114.2929     22.0706      0.4073   1248.5000
108.2000        151.9510      0.2678    479.4800    110.6438     22.7751      0.3946   1285.7000
108.3000        151.6012      0.2746    477.3600    110.5315     23.2752      0.3926   1275.9000
108.4000        151.2512      0.2825    470.2800    108.4800     23.8591      0.4138   1261.9000
108.5000        150.2469      0.2885    479.2800    101.3288     23.9298      0.4251   1247.9000
108.6000        148.8639      0.2910    476.2800     95.6331     23.9749      0.4203   1237.2000
108.7000        146.6302      0.2909    473.8000     91.6440     24.7738      0.3923   1221.3000
108.8000        144.3757      0.2799    496.2000     91.4037     25.4611      0.3656   1193.8000
