~VERSION INFORMATION
 VERS.                 2.0:   CWLS LOG ASCII STANDARD -VERSION 2.0
 WRAP.                  NO:   ONE LINE PER DEPTH STEP
~WELL INFORMATION BLOCK
#MNEM.UNIT           DATA                    DESCRIPTION OF MNEMONIC
#---------    -------------------            -------------------------------
# Generated from Intellog Unique Number	CN_94_101/WELL/2690
WELL.         16-30-094-15W4                 : Well_name    - WELL
LOC .         AA/16-30-094-15W4/0            : Location     - LOCATION
UWI .         AA/16-30-094-15W400            : Uwi          - UNIQUE WELL ID
ENTR.         JOETTE                         : Entered      - ENTERED BY
SRVC.         SCHLUMBERGER                   : Scn          - SERVICE COMPANY
DATE.         06/19/92                       : Date         - LOG DATE
STRT.F        100                            : top_depth    - START DEPTH
STOP.F        870.177                        : bot_depth    - STOP DEPTH
STEP.F        0.82                           : increment    - STEP LENGTH
 NULL. -999.2500:NULL Value
~CURVE INFORMATION BLOCK
#MNEM UNIT       ERCB CURVE CODE    CURVE DESCRIPTION
#-----------   ------------------   ----------------------------------
DEPT.F        00 001 00 00         : DEPTH        - DEPTH
CALI.IN       00 280 01 00         : CAL          - CALIPER
GR  .API      00 310 00 00         : GR           - GAMMA RAY
DPHI.V/V      00 890 00 00         : PHID         - DENSITY POROSITY (SANDSTONE)
ILD .OHMM     00 120 00 00         : RESD         - DEEP RESISTIVITY (DIL)
~PARAMETER INFORMATION
#MNEM.UNIT           DATA             DESCRIPTION OF MNEMONIC
#---------         -----------     ------------------------------
GL  .M        520.294              : gl           - GROUND LEVEL ELEVATION
EREF.M        523.342              : kb           - ELEVATION OF DEPTH REFERENCE
DATM.M        523.342              : datum        - DATUM ELEVATION
TDD .M        269.748              : tdd          - TOTAL DEPTH DRILLER
RUN .         ONE                  : Run          - RUN NUMBER
ENG .         BILL                 : Engineer     - RECORDING ENGINEER
WIT .         JIM                  : Witness      - WITNESSED BY
MUD .         GEL                  : Mud_type     - MUD TYPE
MATR.         SANDSTONE            : Logunit      - NEUTRON MATRIX
TMAX.F        68                   : BHT          - MAXIMUM RECORDED TEMPERATURE
BHTD.F        885                  : BHTDEP       - MAXIMUM RECORDED TEMPERATURE
RMT .F        68                   : MDTP         - TEMPERATURE OF MUD
MUDD.LB/G     9.5                  : MWT          - MUD DENSITY
NEUT.         1                    : NEUTRON      - NEUTRON TYPE
RESI.         0                    : RESIST       - RESISTIVITY TYPE
RM  .OHMM     0.84                 : RM           - RESISTIVITY OF MUD
RMC .OHMM     0.84                 : RMC          - RESISTIVITY OF MUD CAKE
RMF .OHMM     0.84                 : RMF          - RESISTIVITY OF MUD FILTRATE
SUFT.F        39.2                 : SUFT         - SURFACE TEMPERATURE
~A  DEPTH      CAL       GR     PHID     RESD
# ...
  385.433    9.441   84.565    0.300    3.736
  386.253    9.443   86.933    0.296    3.537
  387.073    9.407   88.132    0.287    3.474
  387.894    9.410   86.991    0.283    3.544
  388.714    9.414   87.814    0.292    3.614
  389.534    9.456   89.395    0.281    3.756
  390.354    9.537   90.204    0.283    3.978
  391.175    9.539   91.792    0.281    4.055
  391.995    9.581   89.092    0.247    3.984
  392.815    9.545   84.833    0.220    3.914
  393.635    9.510   81.354    0.197    4.466
  394.455    9.436   81.000    0.180    4.642
  395.276    9.439   85.707    0.281    4.002
  396.096    9.402   90.804    0.282    3.718
  396.916    9.405   92.399    0.290    3.653
  397.736    9.408   93.987    0.292    3.655
  398.556    9.371   92.847    0.301    3.660
  399.377    9.375   87.808    0.297    3.664
  400.197    9.378   85.498    0.290    3.667
  401.017    9.381   83.968    0.293    3.671
  401.837    9.384   82.828    0.284    3.745
  402.657    9.348   81.297    0.285    3.749
  403.478    9.351   80.944    0.283    3.824
  404.298    9.354   82.922    0.291    3.827
  405.118    9.356   84.503    0.306    3.830
  405.938    9.359   83.370    0.299    3.834
  406.759    9.363   82.626    0.293    3.839
  407.579    9.367   83.825    0.298    3.917
  408.399    9.368   85.023    0.299    3.920
  409.219    9.372   81.926    0.302    3.997
  410.039    9.375   76.108    0.300    4.156
  410.860    9.378   79.263    0.288    4.237
  411.680    9.381   79.681    0.289    4.488
  412.500    9.384   80.887    0.282    4.663
  413.320    9.387   75.451    0.288    4.938
  414.140    9.390   73.141    0.293    5.035
  414.961    9.392   75.899    0.294    4.946
  415.781    9.474   74.759    0.275    5.140
  416.601    9.594   75.567    0.257    3.675
  417.421    9.636   79.892    0.249    2.940
  418.241    9.601   82.649    0.285    2.732
  419.062    9.525   82.686    0.323    2.635
  419.882    9.488   80.758    0.333    2.637
  420.702    9.414   81.574    0.339    2.639
  421.522    9.417   84.332    0.329    2.643
  422.343    9.343   81.235    0.313    2.696
  423.163    9.345   83.228    0.305    2.697
  423.983    9.348   84.809    0.301    2.701
  424.803    9.311   82.109    0.294    2.754
  425.623    9.315   77.850    0.279    2.810
  426.444    9.317   72.031    0.245    3.145
  427.264    9.321   72.450    0.222    3.522
  428.084    9.324   76.377    0.193    2.981
  428.904    9.328   86.939    0.209    2.822
  429.724    9.329   86.968    0.282    2.878
  430.545    9.333   86.607    0.315    2.935
  431.365    9.336   87.416    0.318    2.994
  432.185    9.300   90.960    0.303    3.053
  433.005    9.303   88.650    0.309    2.999
  433.825    9.267   84.788    0.315    3.003
  434.646    9.231   85.207    0.310    3.006
  435.466    9.195   83.287    0.302    3.066
  436.286    9.160   84.485    0.301    3.307
  437.106    9.122   85.684    0.312    3.844
  437.927    9.086   84.933    0.312    3.505
  438.747    9.052   82.233    0.296    3.926
  439.567    9.015   78.754    0.281    4.648
  440.387    9.018   74.495    0.247    7.153
  441.207    8.983   69.059    0.239    8.794
  442.028    8.984   61.682    0.213   10.224
  442.848    8.988   65.219    0.265    8.331
  443.668    8.953   66.822    0.295    7.049
  444.488    8.955   65.284    0.298    6.192
  445.308    8.920   66.093    0.288    5.543
  446.129    8.922   68.071    0.277    5.245
  446.949    8.926   70.446    0.273    4.964
  447.769    8.928   72.034    0.288    4.877
  448.589    8.932   74.799    0.317    5.163
  449.409    8.934   76.380    0.321    5.890
  450.230    8.938   78.358    0.325    6.847
  451.050    8.980   73.710    0.296    8.264
  451.870    8.982   67.112    0.278    8.587
  452.690    8.986   62.073    0.277    7.979
  453.510    8.989   58.990    0.300    7.985
  454.331    8.990   60.182    0.269    7.993
  455.151    9.033   56.702    0.168   15.684
  455.971    9.036   48.545    0.101   22.385
  456.791    9.040   41.565    0.047   36.432
  457.612    9.042   45.095    0.239   17.268
  458.432    9.046   53.707    0.277    7.599
  459.252    9.049   61.142    0.324    7.895
  460.072    9.051   59.612    0.323    8.679
  460.892    9.055   54.963    0.321    8.849
  461.713    9.058   54.220    0.307    9.029
  462.533    9.061   53.469    0.281    8.707
  463.353    9.063   53.888    0.263    7.506
  464.173    9.066   56.646    0.259    6.843
  464.993    9.107   60.573    0.270    6.355
  465.814    9.150   65.294    0.274    5.904
  466.634    9.193   68.435    0.273    5.587
  467.454    9.195   70.802    0.273    5.192
  468.274    9.198   76.296    0.277    5.295
  469.094    9.201   80.613    0.271    5.712
  469.915    9.204   80.650    0.265    5.825
  470.735    9.206   79.112    0.262    5.723
  471.555    9.171   78.368    0.263    5.623
  472.375    9.174   79.567    0.258    5.628
  473.196    9.139   81.545    0.272    6.074
  474.016    9.141   80.015    0.278    5.856
  474.836    9.144   82.772    0.264    4.956
  475.656    9.147   83.971    0.223    4.193
  476.476    9.151   77.763    0.191    4.438
  477.297    9.153   73.114    0.252    4.878
  478.117    9.157   84.845    0.287    3.976
  478.937    9.121   87.610    0.278    3.558
  479.757    9.085   90.360    0.261    3.561
  480.577    9.009   95.074    0.264    3.500
  481.398    8.896   95.103    0.282    3.503
  482.218    8.898   85.784    0.281    3.378
  483.038    8.862   87.372    0.287    3.257
  483.858    8.827   86.621    0.301    3.084
  484.678    8.829   84.694    0.298    3.087
  485.499    8.832   82.009    0.291    3.268
  486.319    8.836   82.023    0.282    3.729
  487.139    8.839   82.059    0.271    4.254
  487.959    8.880   81.309    0.269    4.945
  488.780    8.883   79.389    0.274    5.139
  489.600    8.964   73.953    0.282    5.340
  490.420    9.006   66.965    0.293    6.094
  491.240    9.049   64.670    0.288    6.331
  492.060    9.091   66.648    0.284    5.772
  492.881    9.132   68.229    0.290    5.362
  493.701    9.136   68.258    0.301    5.572
  494.521    9.139   65.565    0.308    6.602
  495.341    9.142   64.807    0.280    6.607
  496.161    9.144   66.785    0.275    6.371
  496.982    9.147   69.161    0.282    5.918
  497.802    9.150   69.190    0.275    5.102
  498.622    9.114   67.269    0.298    4.081
  499.442    9.117   68.078    0.317    7.157
  500.262    9.082   67.328    0.328    8.168
  501.083    9.085   62.289    0.308    8.487
  501.903    9.088   58.030    0.281    7.738
  502.723    9.052   54.940    0.256    6.796
  503.543    9.055   53.410    0.233    6.196
  504.364    9.057   58.117    0.271    5.756
  505.184    9.061   64.000    0.277    5.249
  506.004    9.063   69.876    0.272    4.968
  506.824    9.066   73.811    0.275    5.067
  507.644    9.070   72.281    0.290    5.364
  508.465    9.073   73.479    0.304    5.271
  509.285    9.076   73.898    0.297    5.177
  510.105    9.079   71.198    0.286    4.810
  510.925    9.121   70.455    0.274    4.638
  511.745    9.124   67.358    0.281    4.731
  512.566    9.127   68.166    0.295    5.010
  513.386    9.130   73.660    0.300    4.831
  514.206    9.094   72.917    0.302    4.836
  515.026    9.098   71.776    0.296    5.215
  515.846    9.101   73.747    0.297    5.627
  516.667    9.102   71.437    0.268    5.227
  517.487    9.105   69.135    0.250    5.854
  518.307    9.108   73.062    0.250    6.677
  519.127    9.072   72.701    0.242    7.763
  519.948    9.075   68.832    0.299    5.655
  520.768    9.080   71.979    0.301    4.359
  521.588    9.082   79.032    0.294    4.126
  522.408    9.164   84.909    0.283    4.130
  523.228    9.165   90.792    0.255    4.134
  524.049    9.208   90.821    0.230    3.987
  524.869    9.210   92.409    0.229    3.705
  525.689    9.214   94.387    0.218    3.639
  526.509    9.178   92.857    0.204    3.643
  527.329    9.181   73.778    0.180    4.478
