~VERSION INFORMATION
 VERS.                 2.0:   CWLS LOG ASCII STANDARD -VERSION 2.0
 WRAP.                  NO:   ONE LINE PER DEPTH STEP
~WELL INFORMATION BLOCK
#MNEM.UNIT           DATA                    DESCRIPTION OF MNEMONIC
#---------    -------------------            -------------------------------
# Generated from Intellog Unique Number	CC_80_83/WELL/2428
NULL.         -999.25                        : NULL_VALUE
WELL.         SHELL HOUSE CREEK OV           : Well_name    - WELL
LOC .         12-11-081-13W4                 : Location     - LOCATION          
UWI .         AA/12-11-081-13W400            : Uwi          - UNIQUE WELL ID    
ENTR.         JHS                            : Entered      - ENTERED BY        
SRVC.         SCHLUMBERGER                   : Scn          - SERVICE COMPANY   
DATE.         01 FEB 75                      : Date         - LOG DATE
STRT.M        335.28                         : top_depth    - START DEPTH       
STOP.M        515.118                        : bot_depth    - STOP DEPTH        
STEP.M        0.305                          : increment    - STEP LENGTH       
~CURVE INFORMATION BLOCK
#MNEM UNIT       ERCB CURVE CODE    CURVE DESCRIPTION
#-----------   ------------------   ----------------------------------
DEPT.M        00 001 00 00         : DEPTH        - DEPTH                       
DPHI.V/V      00 890 00 00         : PHID         - DENSITY POROSITY (LIMESTONE)
NPHI.V/V      00 330 00 00         : PHIN         - NEUTRON POROSITY (LIMESTONE)
GR  .API      00 310 00 00         : GR           - GAMMA RAY                   
ILD .OHMM     00 120 00 00         : RESD         - DEEP RESISTIVITY (DIL)      
~PARAMETER INFORMATION       
#MNEM.UNIT           DATA             DESCRIPTION OF MNEMONIC
#---------         -----------     ------------------------------
GL  .M        706.831              : gl           - GROUND LEVEL ELEVATION      
EREF.M        710.946              : kb           - ELEVATION OF DEPTH REFERENCE
DATM.M        710.946              : datum        - DATUM ELEVATION             
TDD .M        516.331              : tdd          - TOTAL DEPTH DRILLER         
RUN .         ONE                  : Run          - RUN NUMBER                  
ENG .         BILL                 : Engineer     - RECORDING ENGINEER          
WIT .         JIM                  : Witness      - WITNESSED BY                
MUD .         GEL                  : Mud_type     - MUD TYPE                    
MATR.         LIMESTONE            : Logunit      - NEUTRON MATRIX              
TMAX.C        23.3333              : BHT          - MAXIMUM RECORDED TEMPERATURE
BHTD.M        516.331              : BHTDEP       - MAXIMUM RECORDED TEMPERATURE
MATR.         1                    : LOGUNIT      - NEUTRON MATRIX              
RMT .C        25                   : MDTP         - TEMPERATURE OF MUD          
NEUT.         1                    : NEUTRON      - NEUTRON TYPE                
RESI.         0                    : RESIST       - RESISTIVITY TYPE            
RMC .OHMM     0.25                 : RMC          - RESISTIVITY OF MUD CAKE     
RMF .OHMM     0.25                 : RMF          - RESISTIVITY OF MUD FILTRATE 
SUFT.C        15                   : SUFT         - SURFACE TEMPERATURE         
~A  DEPTH     PHID     PHIN       GR     RESD
  335.280    0.347    0.422   57.600    8.473
  335.585    0.347    0.449   59.608    8.956
  335.890    0.365    0.448   59.214    8.794
  336.194    0.374    0.443   59.224    9.126
  336.499    0.369    0.482   60.830    9.128
  336.804    0.356    0.470   60.836    8.799
  337.109    0.360    0.483   60.043    8.964
  337.414    0.371    0.495   60.850    9.302
  337.718    0.379    0.474   61.656    8.968
  338.023    0.367    0.441   63.264    8.645
  338.328    0.362    0.468   60.871    8.647
  338.633    0.368    0.469   57.678    8.973
  338.938    0.370    0.442   57.684    9.311
  339.243    0.369    0.433   57.691    9.842
  339.547    0.364    0.444   58.100    9.488
  339.852    0.350    0.460   59.705    9.146
  340.157    0.345    0.457   56.912    8.656
  340.462    0.348    0.414   57.720    9.320
  340.767    0.344    0.418   60.526    9.671
  341.071    0.363    0.433   62.934    7.899
  341.376    0.367    0.446   60.941    8.349
  341.681    0.353    0.439   60.547    8.825
  341.986    0.332    0.442   61.354    8.200
  342.291    0.344    0.455   58.961    9.504
  342.595    0.356    0.443   59.368    8.994
  342.900    0.359    0.458   58.176    7.908
  343.205    0.353    0.458   55.783    8.672
  343.510    0.350    0.449   56.189    9.337
  343.815    0.357    0.456   54.997    9.512
  344.119    0.363    0.458   56.605    8.838
  344.424    0.365    0.455   60.610    8.679
  344.729    0.362    0.447   61.417    8.522
  345.034    0.359    0.440   59.425    8.065
  345.339    0.357    0.450   59.432    7.775
  345.644    0.378    0.495   57.439    8.068
  345.948    0.369    0.473   55.846    8.849
  346.253    0.357    0.453   56.652    9.015
  346.558    0.359    0.445   57.060    8.852
  346.863    0.367    0.453   60.666    8.533
  347.168    0.371    0.459   56.274    8.226
  347.472    0.365    0.460   56.681    8.077
  347.777    0.351    0.449   57.088    7.931
  348.082    0.352    0.444   55.095    8.698
  348.387    0.341    0.479   54.703    8.700
  348.692    0.360    0.462   55.909    8.234
  348.996    0.365    0.455   56.715    8.235
  349.301    0.372    0.436   54.323    8.237
  349.606    0.348    0.450   53.529    7.940
  349.911    0.350    0.460   53.536    7.942
  350.216    0.358    0.438   52.743    8.241
  350.520    0.355    0.445   54.351    8.552
  350.825    0.360    0.470   51.158    8.554
  351.130    0.362    0.489   52.766    8.399
  351.435    0.367    0.481   52.772    8.247
  351.740    0.374    0.469   50.780    8.099
  352.045    0.366    0.489   49.587    7.952
  352.349    0.362    0.487   49.595    7.954
  352.654    0.362    0.494   50.400    7.955
  352.959    0.366    0.472   51.607    8.105
  353.264    0.364    0.477   50.414    8.106
  353.569    0.357    0.472   48.020    8.258
  353.873    0.356    0.466   49.628    8.260
  354.178    0.339    0.448   52.435    8.261
  354.483    0.351    0.450   51.643    8.417
  354.788    0.351    0.454   50.850    8.418
  355.093    0.351    0.470   50.456    8.420
  355.397    0.358    0.481   52.863    8.578
  355.702    0.350    0.464   52.469    8.423
  356.007    0.346    0.455   50.877    8.271
  356.312    0.341    0.464   54.884    8.121
  356.617    0.356    0.452   58.092    8.428
  356.921    0.362    0.454   56.098    8.430
  357.226    0.368    0.448   54.504    8.587
  357.531    0.356    0.456   55.311    8.589
  357.836    0.351    0.437   57.319    8.434
  358.141    0.350    0.447   55.327    8.282
  358.446    0.338    0.472   56.133    7.983
  358.750    0.335    0.477   58.939    7.985
  359.055    0.323    0.461   54.947    7.697
  359.360    0.280    0.412   52.954    8.137
  359.665    0.190    0.331   53.361   15.795
  359.970    0.241    0.443   57.768   14.408
  360.274    0.328    0.472   61.374    8.446
  360.579    0.339    0.462   58.582    8.294
  360.884    0.335    0.472   60.190    8.607
  361.189    0.343    0.475   62.196    8.768
  361.494    0.337    0.485   62.203    8.770
  361.798    0.340    0.488   61.811    8.772
  362.103    0.343    0.468   63.818    8.773
  362.408    0.348    0.451   63.824    8.775
  362.713    0.349    0.445   63.031    8.776
  363.018    0.338    0.466   63.438    9.108
  363.322    0.343    0.455   65.446    9.279
  363.627    0.334    0.452   67.053    9.629
  363.932    0.334    0.476   68.259    9.992
  364.237    0.327    0.488   69.066    9.811
  364.542    0.326    0.492   69.073    9.286
  364.847    0.312    0.473   66.280    8.470
  365.151    0.309    0.447   68.687    7.870
  365.456    0.320    0.451   68.695    7.728
  365.761    0.333    0.468   69.101    7.589
  366.066    0.339    0.481   71.508    7.731
  366.371    0.333    0.475   71.914    8.022
  366.675    0.324    0.476   69.121    8.173
  366.980    0.314    0.500   68.729    8.174
  367.285    0.328    0.504   67.536    8.027
  367.590    0.339    0.470   66.743    8.028
  367.895    0.330    0.446   68.751    7.883
  368.199    0.318    0.451   69.957    8.031
  368.504    0.332    0.474   72.364    8.647
  368.809    0.320    0.502   73.971    7.744
  369.114    0.314    0.488   72.379    6.935
  369.419    0.331    0.469   68.385    8.187
  369.723    0.341    0.478   74.392    8.188
  370.028    0.338    0.484   76.798    8.040
  370.333    0.329    0.487   75.606    8.657
  370.638    0.315    0.470   76.012    8.193
  370.943    0.298    0.463   78.420    7.071
  371.248    0.302    0.462   79.627    7.755
  371.552    0.294    0.467   85.234    6.334
  371.857    0.298    0.473   84.042    6.106
  372.162    0.286    0.458   84.448    5.996
  372.467    0.272    0.449   88.055    5.571
  372.772    0.263    0.471   94.862    5.470
  373.076    0.266    0.474   94.469    5.273
  373.381    0.282    0.467   83.675    5.084
  373.686    0.312    0.521   75.683    3.787
  373.991    0.315    0.516   66.090    3.929
  374.296    0.315    0.486   59.298    5.181
  374.600    0.327    0.472   60.105    7.219
  374.905    0.327    0.450   64.511    7.917
  375.210    0.323    0.444   69.718    7.774
  375.515    0.317    0.454   74.125    7.634
  375.820    0.308    0.467   73.334    7.635
  376.124    0.316    0.475   72.540    7.923
  376.429    0.306    0.457   71.346    7.499
  376.734    0.298    0.446   68.553    6.840
  377.039    0.306    0.445   66.161    6.841
  377.344    0.307    0.451   66.567    7.231
  377.649    0.324    0.446   72.974    8.228
  377.953    0.348    0.441   81.382    4.649
  378.258    0.327    0.477   84.988    3.158
  378.563    0.389    0.533   83.395    3.277
  378.868    0.421    0.517   87.002    3.941
  379.173    0.308    0.487   83.009    4.917
  379.477    0.333    0.479   75.016    5.913
  379.782    0.350    0.479   72.224    6.484
  380.087    0.351    0.488   72.230    6.485
  380.392    0.345    0.478   74.238    6.607
  380.697    0.334    0.465   75.844    6.731
  381.001    0.306    0.454   75.051    6.610
  381.306    0.339    0.476   75.058    6.490
  381.611    0.349    0.487   77.066    6.492
  381.916    0.348    0.487   79.072    6.374
  382.221    0.343    0.470   78.279    6.145
  382.525    0.329    0.454   81.887    5.924
  382.830    0.320    0.460   81.093    5.925
  383.135    0.296    0.451   79.900    7.257
  383.440    0.256    0.529   87.107    6.380
  383.745    0.332    0.585  101.114    1.603
  384.050    0.329    0.603  107.521    1.574
  384.354    0.317    0.628  112.728    1.695
  384.659    0.368    0.621  108.735    1.664
  384.964    0.383    0.600  109.942    1.546
  385.269    0.435    0.611  104.349    1.518
  385.574    0.454    0.590  101.957    1.547
  385.878    0.420    0.604  100.363    1.605
  386.183    0.406    0.587   98.370    1.576
  386.488    0.386    0.602   97.177    1.311
  386.793    0.387    0.587   94.385    1.311
  387.098    0.362    0.586   93.992    1.548
  387.402    0.394    0.619   89.598    1.828
  387.707    0.451    0.587   92.806    2.280
  388.012    0.397    0.543   91.213    2.742
