~VERSION INFORMATION
 VERS.                 2.0:   CWLS LOG ASCII STANDARD -VERSION 2.0
 WRAP.                  NO:   ONE LINE PER DEPTH STEP
~WELL INFORMATION BLOCK
#MNEM.UNIT           DATA                    DESCRIPTION OF MNEMONIC
#---------    -------------------            -------------------------------
# Generated from Intellog Unique Number	CN_91_93/WELL/3722
WELL.         16-28-093-07W4                 : Well_name    - WELL
LOC .         AA/16-28-093-07W4/0            : Location     - LOCATION
UWI .         AA/16-28-093-07W400            : Uwi          - UNIQUE WELL ID
ENTR.         JOETTE                         : Entered      - ENTERED BY
SRVC.         WESTERN ATLAS                  : Scn          - SERVICE COMPANY
DATE.         03/22/92                       : Date         - LOG DATE
STRT.F        50                             : top_depth    - START DEPTH
STOP.F        734.055                        : bot_depth    - STOP DEPTH
STEP.F        0.8202                         : increment    - STEP LENGTH
 NULL. -999.2500:NULL Value
~CURVE INFORMATION BLOCK
#MNEM UNIT       ERCB CURVE CODE    CURVE DESCRIPTION
#-----------   ------------------   ----------------------------------
DEPT.F        00 001 00 00         : DEPTH        - DEPTH
CALI.IN       00 280 01 00         : CAL          - CALIPER
GR  .API      00 310 00 00         : GR           - GAMMA RAY
NPHI.V/V      00 330 00 00         : PHIN         - NEUTRON POROSITY (SANDSTONE)
ILD .OHMM     00 120 00 00         : RESD         - DEEP RESISTIVITY (DIL)
~PARAMETER INFORMATION
#MNEM.UNIT           DATA             DESCRIPTION OF MNEMONIC
#---------         -----------     ------------------------------
GL  .M        509.748              : gl           - GROUND LEVEL ELEVATION
EREF.M        511.272              : kb           - ELEVATION OF DEPTH REFERENCE
DATM.M        511.272              : datum        - DATUM ELEVATION
TDD .M        225.247              : tdd          - TOTAL DEPTH DRILLER
RUN .         ONE                  : Run          - RUN NUMBER
ENG .         BILL                 : Engineer     - RECORDING ENGINEER
WIT .         JIM                  : Witness      - WITNESSED BY
MUD .         GEL                  : Mud_type     - MUD TYPE
MATR.         SANDSTONE            : Logunit      - NEUTRON MATRIX
TMAX.F        45                   : BHT          - MAXIMUM RECORDED TEMPERATURE
BHTD.F        739                  : BHTDEP       - MAXIMUM RECORDED TEMPERATURE
RMT .F        40                   : MDTP         - TEMPERATURE OF MUD
MUDD.LB/G     0.00102              : MWT          - MUD DENSITY
NEUT.         1                    : NEUTRON      - NEUTRON TYPE
RESI.         0                    : RESIST       - RESISTIVITY TYPE
RM  .OHMM     8                    : RM           - RESISTIVITY OF MUD
RMC .OHMM     8                    : RMC          - RESISTIVITY OF MUD CAKE
RMF .OHMM     8                    : RMF          - RESISTIVITY OF MUD FILTRATE
SUFT.F        39.2                 : SUFT         - SURFACE TEMPERATURE
~A  DEPTH      CAL       GR     PHIN     RESD
# ...
  620.866    6.424   78.757    0.309   18.327
  621.686    6.384   76.360    0.316   17.980
  622.507    6.383   79.342    0.323   16.973
  623.327    6.343   86.506    0.327   16.017
  624.147    6.343   91.877    0.329   14.833
  624.967    6.342   95.456    0.332   14.273
  625.787    6.302   94.851    0.332   13.469
  626.608    6.261   93.649    0.334   13.207
  627.428    6.261   92.446    0.337   12.943
  628.248    6.261   94.230    0.337   13.175
  629.068    6.140   97.209    0.339   13.668
  629.888    6.299  101.387    0.341   13.909
  630.709    5.979  103.772    0.344   13.380
  631.529    5.979  105.558    0.346   12.391
  632.349    6.178  103.755    0.350   11.916
  633.169    6.177  102.552    0.355   11.907
  633.990    6.177  101.948    0.357   11.891
  634.810    6.176  100.741    0.357   11.881
  635.630    6.176  100.134    0.358   12.098
  636.450    6.175  100.726    0.361   12.315
  637.270    6.174  101.318    0.364   12.775
  638.091    6.174  103.104    0.369   13.501
  638.911    6.174  102.496    0.368   14.268
  639.731    6.173   96.510    0.366   15.366
  640.551    6.173   80.959    0.355   15.650
  641.371    6.172   76.169    0.340   16.859
  642.192    6.172   71.379    0.322   18.161
  643.012    6.171   65.991    0.327   19.563
  643.832    6.170   57.612    0.333   21.074
  644.652    6.170   53.419    0.338   23.575
  645.472    6.169   50.419    0.338   27.386
  646.293    6.169   48.619    0.333   31.813
  647.113    6.168   47.416    0.326   39.097
  647.933    6.168   48.008    0.315   44.581
  648.753    6.207   49.194    0.313   51.788
  649.573    6.207   49.187    0.309   59.037
  650.394    6.206   49.773    0.309   60.081
  651.214    6.245   49.767    0.309   57.779
  652.034    6.285   50.355    0.309   56.639
  652.854    6.284   50.350    0.309   55.536
  653.675    6.323   50.938    0.308   56.518
  654.495    6.363   51.526    0.307   57.548
  655.315    6.362   52.120    0.307   59.697
  656.135    6.402   53.906    0.308   61.910
  656.955    6.441   50.310    0.311   65.445
  657.776    6.480   48.508    0.311   70.481
  658.596    6.519   47.903    0.311   77.370
  659.416    6.599   47.895    0.311   84.955
  660.236    6.638   48.484    0.311   89.806
  661.056    6.717   48.476    0.312   93.160
  661.877    6.757   49.066    0.314   91.321
  662.697    6.796   49.658    0.318   82.990
  663.517    6.795   49.647    0.320   72.627
  664.337    6.835   50.239    0.323   63.591
  665.157    6.834   52.621    0.324   54.625
  665.978    6.834   54.406    0.324   46.034
  666.798    6.833   56.792    0.327   46.835
  667.618    6.833   59.176    0.327   47.702
  668.438    6.832   55.581    0.328   53.333
  669.259    6.831   46.604    0.328   56.408
  670.079    6.831   39.423    0.329   70.664
  670.899    6.790   37.022    0.330   82.088
  671.719    6.790   37.612    0.331   76.040
  672.539    6.790   38.800    0.334   66.544
  673.360    6.749   39.392    0.338   74.400
  674.180    6.749   39.382    0.340   77.199
  675.000    6.748   38.775    0.342   81.586
  675.820    6.748   38.170    0.346   83.095
  676.640    6.747   37.564    0.345   87.816
  677.461    6.747   37.556    0.344   91.071
  678.281    6.746   36.951    0.340   92.756
  679.101    6.745   36.943    0.334   94.371
  679.921    6.705   36.936    0.327   90.756
  680.741    6.704   36.924    0.323   89.013
  681.562    6.664   37.516    0.316   84.003
  682.382    6.624   38.108    0.305   77.793
  683.202    6.623   39.294    0.296   76.278
  684.022    6.623   40.484    0.296   73.376
  684.843    6.622   41.669    0.298   71.908
  685.663    6.621   41.661    0.299   70.489
  686.483    6.621   39.860    0.299   70.414
  687.303    6.620   41.048    0.301   71.698
  688.123    6.620   44.031    0.305   72.985
  688.944    6.620   47.013    0.311   65.088
  689.764    6.619   51.788    0.309   58.060
  690.584    6.618   58.950    0.303   48.941
  691.404    6.618   51.770    0.291   41.255
  692.224    6.617   43.989    0.279   35.438
  693.045    6.617   39.795    0.289   36.055
  693.865    6.617   39.193    0.319   39.579
  694.685    6.616   37.392    0.322   43.460
  695.505    6.615   36.785    0.320   48.616
  696.325    6.575   36.175    0.315   55.420
  697.146    6.574   36.170    0.312   64.362
  697.966    6.574   35.564    0.309   73.370
  698.786    6.534   35.558    0.307   79.016
  699.606    6.493   34.355    0.309   80.478
  700.427    6.493   34.346    0.310   81.923
  701.247    6.492   34.334    0.313   84.982
  702.067    6.491   34.330    0.314   84.869
  702.887    6.491   34.321    0.315   83.194
  703.707    6.451   34.315    0.315   81.530
  704.528    5.453   34.901    0.313   81.422
  705.348    5.453   34.895    0.311   79.857
  706.168    5.413   34.884    0.307   79.751
  706.988    5.412   34.880    0.311   82.707
  707.808    5.412   34.275    0.317   84.192
  708.629    5.411   34.267    0.319   87.360
  709.449    5.411   34.256    0.318   92.323
  710.269    5.410   34.844    0.312   90.525
  711.089    5.410   37.230    0.305   77.740
  711.909    5.409   40.211    0.299   77.637
  712.730    5.409   43.194    0.294   79.052
  713.550    5.448   40.795    0.293   81.960
  714.370    5.447   37.197    0.291   83.455
  715.190    5.447   36.595    0.289   89.876
  716.010    5.486   35.988    0.285   91.514
  716.831    5.525   35.380    0.282   93.182
  717.651    5.565   35.371    0.275   93.058
  718.471    5.564   35.367    0.269   89.517
  719.291    5.564   36.553    0.262   79.852
  720.112    5.364   38.937    0.260   64.818
  720.932    5.283   43.112    0.264   52.615
  721.752    5.243   49.083    0.272   41.117
  722.572    5.203   52.064    0.284   39.542
  723.392    5.282   53.254    0.295   40.263
  724.213    5.361   50.855    0.305   40.220
  725.033    5.560   52.043    0.307   41.722
  725.853    5.759   60.405    0.301   35.150
  726.673    5.878   68.169    0.287   31.363
  727.493    5.798   79.518    0.269   25.944
  728.314    5.757   93.260    0.259   23.142
  729.134    5.916   99.829    0.245   19.874
  729.954    6.075  102.212    0.225   16.753
  730.774    6.274   98.020    0.101   14.944
  731.594    6.353   93.230    0.086   46.312
  732.415    6.432   92.026    0.080   72.756
  733.235    6.471   79.463    0.082   89.439
  734.055    6.471   71.085    0.086   86.035
