~VERSION INFORMATION
 VERS.                 2.0:   CWLS LOG ASCII STANDARD -VERSION 2.0
 WRAP.                  NO:   ONE LINE PER DEPTH STEP
~WELL INFORMATION BLOCK
#MNEM.UNIT           DATA                    DESCRIPTION OF MNEMONIC
#---------    -------------------            -------------------------------
# Generated from Intellog Unique Number	CW_82_90/WELL/3443
WELL.         CDN SUP MINK OV                : Well_name    - WELL
LOC .         AA/10-31-088-19W4/0            : Location     - LOCATION
UWI .         AA/10-31-088-19W400            : Uwi          - UNIQUE WELL ID
ENTR.         MAX                            : Entered      - ENTERED BY
SRVC.         SCHLUMBERGER                   : Scn          - SERVICE COMPANY
STRT.M        76.2                           : top_depth    - START DEPTH
STOP.M        269.45                         : bot_depth    - STOP DEPTH
STEP.M        0.25                           : increment    - STEP LENGTH
 NULL. -999.2500:NULL Value
~CURVE INFORMATION BLOCK
#MNEM UNIT       ERCB CURVE CODE    CURVE DESCRIPTION
#-----------   ------------------   ----------------------------------
DEPT.M        00 001 00 00         : DEPTH        - DEPTH
ILD .OHMM     00 120 00 00         : RESD         - DEEP RESISTIVITY (DIL)
NPHI.V/V      00 330 00 00         : PHIN         - NEUTRON POROSITY (SANDSTONE)
DPHI.V/V      00 890 00 00         : PHID         - DENSITY POROSITY (SANDSTONE)
CALI.MM       00 280 01 00         : CAL          - CALIPER
GR  .API      00 310 00 00         : GR           - GAMMA RAY
~PARAMETER INFORMATION
#MNEM.UNIT           DATA             DESCRIPTION OF MNEMONIC
#---------         -----------     ------------------------------
GL  .M        514.198              : gl           - GROUND LEVEL ELEVATION
EREF.M        518.465              : kb           - ELEVATION OF DEPTH REFERENCE
DATM.M        514.198              : datum        - DATUM ELEVATION
TDD .M        271.272              : tdd          - TOTAL DEPTH DRILLER
RUN .         ONE                  : Run          - RUN NUMBER
ENG .         BILL                 : Engineer     - RECORDING ENGINEER
WIT .         JIM                  : Witness      - WITNESSED BY
MUD .         GEL                  : Mud_type     - MUD TYPE
MATR.         SANDSTONE            : Logunit      - NEUTRON MATRIX
TMAX.C        23.8889              : BHT          - MAXIMUM RECORDED TEMPERATURE
BHTD.M        271.272              : BHTDEP       - MAXIMUM RECORDED TEMPERATURE
MATR.         1                    : LOGUNIT      - NEUTRON MATRIX
RMT .C        17.7778              : MDTP         - TEMPERATURE OF MUD
NEUT.         1                    : NEUTRON      - NEUTRON TYPE
RESI.         0                    : RESIST       - RESISTIVITY TYPE
RMC .OHMM     4.51                 : RMC          - RESISTIVITY OF MUD CAKE
RMF .OHMM     4.51                 : RMF          - RESISTIVITY OF MUD FILTRATE
SUFT.C        -15                  : SUFT         - SURFACE TEMPERATURE
~A  DEPTH     RESD     PHIN     PHID      CAL       GR
# ...
  185.700   15.935    0.430    0.220  218.504   90.431
  185.950   15.950    0.454    0.229  216.082   96.925
  186.200   14.701    0.467    0.223  214.640   98.434
  186.450   13.674    0.486    0.214  213.708   97.293
  186.700   12.603    0.501    0.198  214.247   97.322
  186.950   12.049    0.511    0.182  214.800   97.355
  187.200   12.283    0.496    0.159  214.856   96.801
  187.450   12.518    0.461    0.167  213.931   95.664
  187.700   11.752    0.458    0.212  213.476   95.395
  187.950   10.930    0.479    0.234  213.042   92.493
  188.200    9.802    0.491    0.248  213.091   89.884
  188.450   10.751    0.497    0.217  213.644   91.385
  188.700    9.551    0.500    0.197  213.699  104.042
  188.950    7.066    0.534    0.196  213.769  111.706
  189.200    4.474    0.581    0.224  214.315  110.862
  189.450    3.529    0.579    0.237  213.880  108.547
  189.700    3.313    0.540    0.211  212.445  107.402
  189.950    3.377    0.513    0.190  211.997  103.620
  190.200    3.603    0.500    0.169  212.067   99.837
  190.450    4.534    0.497    0.147  212.620   95.178
  190.700    5.654    0.469    0.157  213.158   97.266
  190.950    7.313    0.453    0.196  212.724   97.299
  191.200    8.871    0.458    0.209  211.786   94.103
  191.450   10.566    0.478    0.211  209.364   94.430
  191.700   11.274    0.480    0.168  210.903   96.517
  191.950   10.878    0.474    0.162  212.947  100.365
  192.200   10.305    0.481    0.236  213.493  105.681
  192.450   10.701    0.489    0.240  213.059  108.649
  192.700   10.907    0.490    0.230  212.120  108.686
  192.950   11.119    0.489    0.221  210.692  106.073
  193.200   11.437    0.486    0.210  210.748  102.882
  193.450   11.983    0.478    0.197  210.804  101.154
  193.700   12.671    0.467    0.202  210.852  100.013
  193.950   13.277    0.454    0.208  210.425   98.285
  194.200   13.657    0.459    0.218  209.970   96.557
  194.450   14.309    0.468    0.230  210.026   93.655
  194.700   14.855    0.465    0.236  210.579   96.912
  194.950   15.423    0.461    0.225  212.125  100.178
  195.200   15.578    0.452    0.253  210.690   99.624
  195.450   15.589    0.464    0.262  210.263   95.543
  195.700   15.041    0.468    0.256  210.802   88.826
  195.950   14.382    0.468    0.258  210.857   83.576
  196.200   13.876    0.470    0.268  210.423   76.565
  196.450   14.274    0.476    0.263  209.982   75.130
  196.700   14.550    0.482    0.262  210.045   74.874
  196.950   14.697    0.482    0.213  210.093   76.077
  197.200   15.400    0.445    0.178  210.163   75.527
  197.450   16.582    0.404    0.149  210.212   74.969
  197.700   18.526    0.423    0.158  210.261   74.708
  197.950   20.132    0.424    0.127  210.323   72.686
  198.200   22.907    0.354    0.102  208.895   77.122
  198.450   23.565    0.332    0.138  206.459   80.978
  198.700   23.377    0.378    0.176  204.037   83.649
  198.950   22.758    0.423    0.225  201.104   87.501
  199.200   21.166    0.444    0.247  198.674   87.534
  199.450   19.156    0.467    0.252  197.729   86.682
  199.700   17.820    0.471    0.226  198.786   86.430
  199.950   17.509    0.454    0.204  204.302   85.281
  200.200   18.345    0.440    0.165  207.850   81.792
  200.450   20.121    0.413    0.129  207.899   79.183
  200.700   20.510    0.383    0.141  206.975   78.336
  200.950   20.525    0.366    0.180  207.513   78.956
  201.200   18.405    0.451    0.224  208.563   84.862
  201.450   15.059    0.494    0.194  208.626   85.776
  201.700   13.506    0.499    0.146  208.185   80.819
  201.950   13.641    0.462    0.060  207.743   75.272
  202.200   14.688    0.414    0.054  208.289   76.483
  202.450   17.020    0.358    0.098  208.842   83.853
  202.700   19.366    0.387    0.153  208.408   89.169
  202.950   20.108    0.423    0.206  207.960   95.080
  203.200   17.701    0.448    0.211  209.009   98.631
  203.450   14.350    0.464    0.180  211.060   97.196
  203.700   12.753    0.466    0.163  212.117   92.240
  203.950   12.879    0.462    0.148  212.172   89.044
  204.200   13.620    0.450    0.154  212.221   91.136
  204.450   14.402    0.452    0.189  211.780   95.571
  204.700   15.089    0.469    0.224  211.843   99.709
  204.950   14.426    0.476    0.195  211.401  100.622
  205.200   13.420    0.489    0.208  210.967  101.833
  205.450   12.594    0.499    0.196  210.519  102.453
  205.700   11.397    0.496    0.184  210.575   99.845
  205.950   10.698    0.473    0.187  210.631   98.410
  206.200   10.808    0.460    0.169  210.686   97.864
  206.450   11.744    0.457    0.153  210.735   98.488
  206.700   13.000    0.474    0.189  211.302   99.394
  206.950   12.203    0.481    0.210  211.351  101.481
  207.200   11.044    0.493    0.213  210.909  105.325
  207.450   10.951    0.472    0.215  210.972  106.247
  207.700   11.164    0.482    0.213  210.034  103.924
  207.950   11.485    0.481    0.191  210.083   96.619
  208.200   11.707    0.469    0.168  209.641   94.895
  208.450   11.933    0.469    0.182  209.200   96.098
  208.700   12.053    0.484    0.194  208.766   99.070
  208.950   11.955    0.500    0.182  208.332  100.570
  209.200   11.536    0.508    0.161  207.876   99.136
  209.450   11.438    0.495    0.146  207.932   97.710
  209.700   11.874    0.478    0.191  207.491   97.151
  209.950   12.444    0.466    0.204  207.057   95.713
  210.200   12.338    0.454    0.195  206.609   95.746
  210.450   12.124    0.445    0.178  206.678   98.713
  210.700   11.914    0.457    0.163  206.727  104.323
  210.950   11.391    0.468    0.185  206.293  110.532
  211.200   10.793    0.460    0.194  206.845  107.915
  211.450   10.507    0.450    0.189  206.901  107.071
  211.700   10.518    0.443    0.178  207.454  108.568
  211.950   10.624    0.440    0.194  207.517  108.894
  212.200   10.728    0.444    0.198  207.559  106.583
  212.450   10.938    0.451    0.190  207.614  105.442
  212.700   10.846    0.467    0.179  208.174  106.351
  212.950   10.659    0.475    0.159  208.230  107.265
  213.200   10.378    0.480    0.127  208.286  103.482
  213.450   10.388    0.461    0.149  208.334   99.410
  213.700   11.290    0.429    0.207  208.894  101.494
  213.950   12.496    0.435    0.207  209.454  104.755
  214.200   13.708    0.442    0.204  210.006  107.727
  214.450   13.845    0.439    0.189  210.069  109.819
  214.700   13.729    0.431    0.163  210.118  109.260
  214.950   13.618    0.419    0.135  210.167  104.597
  215.200   13.754    0.419    0.099  210.223   99.641
  215.450   14.280    0.410    0.046  209.291   92.626
  215.700   14.960    0.372    0.063  208.857   91.778
  215.950   15.963    0.314    0.076  209.396   94.746
  216.200   16.125    0.314    0.137  213.434  101.534
  216.450   15.700    0.348    0.177  211.992  108.904
  216.700   14.338    0.421    0.199  210.060  107.763
  216.950   11.840    0.440    0.204  209.619  106.328
  217.200   10.814    0.438    0.201  210.186  109.883
  217.450   11.227    0.433    0.192  210.738  108.750
  217.700   11.764    0.427    0.181  210.787  110.251
  217.950   11.880    0.420    0.163  211.340  109.403
  218.200   12.112    0.410    0.142  211.900  107.378
  218.450   12.120    0.403    0.136  212.942  105.356
  218.700   12.131    0.428    0.180  214.993  105.976
  218.950   11.599    0.466    0.199  215.049  111.292
  219.200   11.087    0.476    0.207  213.620  115.727
  219.450    9.411    0.497    0.213  214.159  120.460
  219.700    8.439    0.496    0.223  217.204  123.134
  219.950    7.921    0.501    0.213  213.291  118.765
  220.200    7.784    0.517    0.183  209.861  112.634
  220.450    7.720    0.511    0.105  211.407  100.336
  220.700    7.797    0.485    0.130  215.439   97.141
  220.950    8.244    0.406    0.159  215.999  100.109
  221.200    9.467    0.432    0.213  212.569  106.305
  221.450   12.356    0.456    0.218  216.103  105.458
  221.700   14.450    0.471    0.213  218.658  105.495
  221.950   14.330    0.480    0.203  219.197  106.999
