~Version : LASO    vs 4.00
VERS.                2.00:   CWLS Log ASCII Standard -VERSION 2.0
WRAP.                  NO:
~Well Information Block
#MNEM.UNIT       Data                        Description of Mnemonic
#----.----      -------------------------- : -----------------------------
STRT.M            15.0000:
STOP.M           203.4000:
STEP.M             0.1000:
NULL.           -999.2500:
COMP.  MOBIL OIL CANADA LTD.     :COMPANY
WELL.  MOBIL CLARKE OV 12-34     :WELL
FLD.   CLARKE                    :FIELD
LOC.   12-34-089-08W4            :LOCATION
CTRY.  CANADA                    :COUNTRY
PROV.  ALBERTA                   :PROVINCE
SRVC.  SCHLUMBERGER              :SERVICE COMPANY
DATE.  20-FEB-81                 :LOG DATE
UWI.   AA/12-34-089-08W400       :UNIQUE WELL ID
~Parameter Information Block
#MNEM.UNIT       Data                        Description of Mnemonic
#----.----      -------------------------- : -----------------------------
RUN .                   1                 : Run Number
GL  .M           415.1000                 : Ground Level Elevation
DREF.                  KB                 : Depth Reference
EREF.M           418.1000                 : Elevation of Depth Reference
TDL .M           203.0000                 : Total Depth Logger
TDD .M           200.0000                 : Total Depth Driller
CSGL.M            18.0000                 : Casing Bottom Logger
CSGD.M            15.0000                 : Casing Bottom Driller
CSGS.MM          219.0000                 : Casing Size
CSGW.KG/M          0.0000                 : Casing Weight
BHT .DEGC         12.0000                 : Bottom Hole Temperature
BS  .MM          159.0000                 : Bit Size
DFD .           1110.0000                 : Mud Weight (Density)
DFV .             90.0000                 : Mud Viscosity
DFPH.             10.0000                 : Mud pH
RM  .OHMM          1.9600                 : Mud Resistivity
RMT .DEGC         20.0000                 : Mud Resistivity Temperature
~Curve Information Block
#MNEM.UNIT        API CODE    Curve Description
#---------    ------------    -------------------------------------------
DEPT.M                    :   DEPTH
CALI.MM       42 280  1  1:   3 DENSITY CALIPER
DPHI.V/V                  :   DPHI
DT  .US/M     60 520  0  1:   2 SONIC INTERVAL TRANSIT TIME (COMPENSATED)
GR  .GAPI     42 310  1  1:   4 GAMMA RAY
ILD .OHMM      7 120 46  1:   7 DEEP INDUCTION
ILM .OHMM      7 120 44  1:   8 MEDIUM INDUCTION
NPHI.V/V      42 890  3  1:   5 NEUTRON POROSITY (SANDSTONE)
RHOB.K/M3     42 350  1  1:   6 BULK DENSITY
SFLU.OHMM      7 220  1  1:   9 FOCUSSED RESISTIVITY
SP  .MV        7  10  1  1:   10 SPONTANEOUS POTENTIAL
~A  Depth           CALI        DPHI          DT          GR         ILD         ILM        NPHI        RHOB        SFLU          SP
15.0000        -999.2500   -999.2500   -999.2500     28.9500   -999.2500   -999.2500   -999.2500   -999.2500   -999.2500   -999.2500
15.1000        -999.2500   -999.2500   -999.2500     28.2300   -999.2500   -999.2500   -999.2500   -999.2500   -999.2500   -999.2500
15.2000        -999.2500   -999.2500   -999.2500     27.0300   -999.2500   -999.2500   -999.2500   -999.2500   -999.2500   -999.2500
15.3000        -999.2500   -999.2500   -999.2500     25.7550   -999.2500   -999.2500   -999.2500   -999.2500   -999.2500   -999.2500
15.4000        -999.2500   -999.2500   -999.2500     24.4500   -999.2500   -999.2500   -999.2500   -999.2500   -999.2500   -999.2500
15.5000        -999.2500   -999.2500   -999.2500     23.5650   -999.2500   -999.2500   -999.2500   -999.2500   -999.2500   -999.2500
15.6000        -999.2500   -999.2500   -999.2500     23.9100   -999.2500   -999.2500   -999.2500   -999.2500   -999.2500   -999.2500
15.7000        -999.2500   -999.2500   -999.2500     24.4800   -999.2500   -999.2500   -999.2500   -999.2500   -999.2500   -999.2500
15.8000        -999.2500   -999.2500   -999.2500     25.2000   -999.2500   -999.2500   -999.2500   -999.2500   -999.2500   -999.2500
15.9000        -999.2500   -999.2500   -999.2500     26.1300   -999.2500   -999.2500   -999.2500   -999.2500   -999.2500   -999.2500
16.0000        -999.2500   -999.2500   -999.2500     26.6100   -999.2500   -999.2500   -999.2500   -999.2500   -999.2500   -999.2500
16.1000        -999.2500   -999.2500   -999.2500     26.9700   -999.2500   -999.2500   -999.2500   -999.2500   -999.2500   -999.2500
16.2000        -999.2500   -999.2500   -999.2500     26.2050   -999.2500   -999.2500   -999.2500   -999.2500   -999.2500   -999.2500
16.3000        -999.2500   -999.2500   -999.2500     25.0650   -999.2500   -999.2500   -999.2500   -999.2500   -999.2500   -999.2500
16.4000        -999.2500   -999.2500   -999.2500     25.5000   -999.2500   -999.2500   -999.2500   -999.2500   -999.2500   -999.2500
16.5000        -999.2500   -999.2500   -999.2500     26.2050   -999.2500   -999.2500   -999.2500   -999.2500   -999.2500   -999.2500
16.6000        -999.2500   -999.2500   -999.2500     26.2500   -999.2500   -999.2500   -999.2500   -999.2500   -999.2500   -999.2500
16.7000        -999.2500   -999.2500   -999.2500     25.5450   -999.2500   -999.2500   -999.2500   -999.2500   -999.2500   -999.2500
16.8000        -999.2500   -999.2500   -999.2500     24.5250   -999.2500   -999.2500   -999.2500   -999.2500   -999.2500   -999.2500
16.9000        -999.2500   -999.2500   -999.2500     25.1250   -999.2500   -999.2500   -999.2500   -999.2500   -999.2500   -999.2500
17.0000        -999.2500   -999.2500   -999.2500     25.7700   -999.2500   -999.2500   -999.2500   -999.2500   -999.2500   -999.2500
17.1000        -999.2500   -999.2500   -999.2500     26.8500   -999.2500   -999.2500   -999.2500   -999.2500   -999.2500   -999.2500
17.2000        -999.2500   -999.2500   -999.2500     27.9300   -999.2500   -999.2500   -999.2500   -999.2500   -999.2500   -999.2500
17.3000        -999.2500   -999.2500   -999.2500     29.1300   -999.2500   -999.2500   -999.2500   -999.2500   -999.2500   -999.2500
17.4000        -999.2500   -999.2500   -999.2500     27.8700   -999.2500   -999.2500   -999.2500   -999.2500   -999.2500   -999.2500
17.5000        -999.2500   -999.2500   -999.2500     26.2500   -999.2500   -999.2500   -999.2500   -999.2500   -999.2500   -999.2500
17.6000        -999.2500   -999.2500   -999.2500     26.4750   -999.2500   -999.2500   -999.2500   -999.2500   -999.2500   -999.2500
17.7000        -999.2500   -999.2500   -999.2500     27.4950   -999.2500   -999.2500   -999.2500   -999.2500   -999.2500   -999.2500
17.8000        -999.2500   -999.2500   -999.2500     28.1400   -999.2500   -999.2500   -999.2500   -999.2500   -999.2500   -999.2500
17.9000        -999.2500   -999.2500   -999.2500     28.2150   -999.2500   -999.2500   -999.2500   -999.2500   -999.2500   -999.2500
18.0000         203.4250   -999.2500    774.8000     28.6050     32.1388    174.1927      0.4670   2000.0000      8.9749      0.0000
18.1000         203.4250   -999.2500    597.6400     30.1800     32.1388    174.1927      0.4670   2000.0000      8.9749      0.0000
18.2000         203.0000   -999.2500    596.8000     31.7550     32.2277    174.8356      0.4746   2000.1000      8.9915     -0.1600
18.3000         203.0000   -999.2500    619.7600     33.0900     32.2277    174.8356      0.4746   2000.1000      8.9915     -0.1600
18.4000         235.5250   -999.2500    692.8400     33.6150   1613.7264   1496.3387      0.4298   2042.2000      8.9997      0.0200
18.5000         235.5250   -999.2500    729.4000     33.6150   1613.7264   1496.3387      0.4298   2042.2000      8.9997      0.0200
18.6000         239.6500   -999.2500    649.5600     33.6150   1824.0212   1725.9568      0.4263   2038.6000      9.6701      0.1800
18.7000         239.6500   -999.2500    601.6400     34.2900   1824.0212   1725.9568      0.4263   2038.6000      9.6701      0.1800
18.8000         229.3750   -999.2500    612.4400     35.1150   1835.8192   1579.9011      0.4294   2041.7000     21.0005      0.3100
18.9000         229.3750   -999.2500    621.5600     34.7550   1835.8192   1579.9011      0.4294   2041.7000     21.0005      0.3100
19.0000         225.8000      0.3351    626.5200     34.1250    285.6472     85.4732      0.4345   2041.4000    378.2944     -3.7900
19.1000         225.8000      0.3344    627.7200     33.1500    285.6472     85.4732      0.4345   2041.4000    378.2944     -3.7900
19.2000         229.1500      0.3360    548.8400     32.4750     20.0738     23.0903      0.4187   2032.2000     90.7465    -17.6200
19.3000         229.1500      0.3377    529.7200     33.1350     20.0738     23.0903      0.4187   2032.2000     90.7465    -17.6200
19.4000         229.6500      0.3414    509.6800     33.8700      6.7457     13.3854      0.3988   2025.7000     53.3863    -23.5300
19.5000         229.6500      0.3390    500.0000     35.1300      6.7457     13.3854      0.3988   2025.7000     53.3863    -23.5300
19.6000         230.8750      0.3347    500.0000     36.0000      2.3781      6.9284      0.4003   2031.4000     42.4453    -27.2000
19.7000         230.8750      0.3333    500.0000     35.5200      2.3781      6.9284      0.4003   2031.4000     42.4453    -27.2000
19.8000         237.4750      0.3327    524.0400     34.6800   1918.8009     52.8482      0.4150   2043.5000     46.9710    -32.7700
19.9000         237.4750      0.3346    541.5200     33.8400   1918.8009     52.8482      0.4150   2043.5000     46.9710    -32.7700
20.0000         240.6750      0.3373    500.9600     33.4500   2044.7014     74.9256      0.4188   2037.6000    212.7306    -35.2400
20.1000         240.6750      0.3416    518.0800     33.0750   2044.7014     74.9256      0.4188   2037.6000    212.7306    -35.2400
20.2000         243.6000      0.3455    539.3200     33.3300   1194.0703     86.7421      0.4167   2035.3000    292.5701    -38.3100
20.3000         243.6000      0.3504    543.5600     33.6900   1194.0703     86.7421      0.4167   2035.3000    292.5701    -38.3100
20.4000         244.9750      0.3551    552.9600     34.0500    120.6229    220.9174      0.4016   2036.5000    104.5755    -43.9700
20.5000         244.9750      0.3592    564.3200     34.2750    120.6229    220.9174      0.4016   2036.5000    104.5755    -43.9700
20.6000         243.8750      0.3754    570.1200     33.1800     77.5229    667.1599      0.3957   2037.9000     81.6263    -45.2900
20.7000         243.8750      0.3913    578.2800     32.0550     77.5229    667.1599      0.3957   2037.9000     81.6263    -45.2900
20.8000         242.6500      0.4012    547.2000     32.2650     45.6909    225.0246      0.3911   2036.1000     67.3333    -47.8200
20.9000         242.6500      0.4075    527.0800     32.6850     45.6909    225.0246      0.3911   2036.1000     67.3333    -47.8200
21.0000         240.3500      0.4062    522.8800     33.1950     33.2223     93.5470      0.3895   2059.8999     90.8301    -50.7200
