~VERSION INFORMATION
 VERS.                 2.0:   CWLS LOG ASCII STANDARD -VERSION 2.0
 WRAP.                  NO:   ONE LINE PER DEPTH STEP
~WELL INFORMATION BLOCK
#MNEM.UNIT           DATA                    DESCRIPTION OF MNEMONIC
#---------    -------------------            -------------------------------
# Generated from Intellog Unique Number	CW_79_81/WELL/2479
WELL.         GULF HOOLE OV                  : Well_name    - WELL
LOC .         AA/11-01-080-23W4/0            : Location     - LOCATION
UWI .         AA/11-01-080-23W4/0            : Uwi          - UNIQUE WELL ID
ENTR.         MAX                            : Entered      - ENTERED BY
SRVC.         SCHLUMBERGER                   : Scn          - SERVICE COMPANY
STRT.M        215                            : top_depth    - START DEPTH
STOP.M        485                            : bot_depth    - STOP DEPTH
STEP.M        0.25                           : increment    - STEP LENGTH
 NULL. -999.2500:NULL Value
~CURVE INFORMATION BLOCK
#MNEM UNIT       ERCB CURVE CODE    CURVE DESCRIPTION
#-----------   ------------------   ----------------------------------
DEPT.M        00 001 00 00         : DEPTH        - DEPTH
ILD .OHMM     00 120 00 00         : RESD         - DEEP RESISTIVITY (DIL)
NPHI.V/V      00 330 00 00         : PHIN         - NEUTRON POROSITY (SANDSTONE)
DPHI.V/V      00 890 00 00         : PHID         - DENSITY POROSITY (SANDSTONE)
GR  .API      00 310 00 00         : GR           - GAMMA RAY
CALI.MM       00 280 01 00         : CAL          - CALIPER
~PARAMETER INFORMATION
#MNEM.UNIT           DATA             DESCRIPTION OF MNEMONIC
#---------         -----------     ------------------------------
GL  .M        583.2                : gl           - GROUND LEVEL ELEVATION
EREF.M        586.7                : kb           - ELEVATION OF DEPTH REFERENCE
DATM.M        583.2                : datum        - DATUM ELEVATION
TDD .M        490                  : tdd          - TOTAL DEPTH DRILLER
RUN .         ONE                  : Run          - RUN NUMBER
ENG .         BILL                 : Engineer     - RECORDING ENGINEER
WIT .         JIM                  : Witness      - WITNESSED BY
MUD .         GEL                  : Mud_type     - MUD TYPE
MATR.         SANDSTONE            : Logunit      - NEUTRON MATRIX
TMAX.C        29                   : BHT          - MAXIMUM RECORDED TEMPERATURE
BHTD.M        490                  : BHTDEP       - MAXIMUM RECORDED TEMPERATURE
MATR.         1                    : LOGUNIT      - NEUTRON MATRIX
RMT .C        17                   : MDTP         - TEMPERATURE OF MUD
NEUT.         1                    : NEUTRON      - NEUTRON TYPE
RESI.         0                    : RESIST       - RESISTIVITY TYPE
RMC .OHMM     8.12                 : RMC          - RESISTIVITY OF MUD CAKE
RMF .OHMM     7.56                 : RMF          - RESISTIVITY OF MUD FILTRATE
SUFT.C        15                   : SUFT         - SURFACE TEMPERATURE
~A  DEPTH     RESD     PHIN     PHID       GR      CAL
# ...
  434.000   46.562    0.364    0.260   57.096  250.383
  434.250   46.562    0.358    0.254   59.496  248.833
  434.500   44.563    0.365    0.248   59.755  247.877
  434.750   42.212    0.370    0.241   58.229  247.713
  435.000   41.307    0.366    0.232   55.752  248.142
  435.250   45.135    0.346    0.219   53.734  248.823
  435.500   50.695    0.332    0.199   54.253  250.104
  435.750   57.322    0.242    0.165   53.799  250.928
  436.000   62.562    0.189    0.079   51.024  251.455
  436.250   64.989    0.164    0.029   48.903  251.684
  436.500   64.167    0.163    0.035   48.863  251.716
  436.750   58.614    0.207    0.061   51.434  251.840
  437.000   49.002    0.312    0.134   54.675  252.289
  437.250   40.660    0.356    0.195   62.066  253.520
  437.500   34.612    0.367    0.220   65.713  254.740
  437.750   31.135    0.363    0.220   68.587  255.958
  438.000   29.617    0.356    0.207   70.867  257.279
  438.250   28.953    0.350    0.190   69.398  259.157
  438.500   26.854    0.341    0.174   66.693  260.431
  438.750   22.283    0.343    0.170   69.091  260.859
  439.000   17.005    0.378    0.182   75.056  260.991
  439.250   13.686    0.407    0.197   81.972  261.228
  439.500   10.954    0.422    0.208   87.997  261.563
  439.750    7.611    0.447    0.215   92.065  261.762
  440.000    6.457    0.484    0.212   92.083  262.620
  440.250    6.045    0.480    0.200   92.581  262.662
  440.500    6.050    0.460    0.195   93.613  262.101
  440.750    6.538    0.436    0.196   93.751  260.947
  441.000    7.428    0.425    0.199   91.869  259.398
  441.250    8.204    0.452    0.201   86.198  257.599
  441.500    9.002    0.463    0.218   81.513  256.393
  441.750    9.615    0.478    0.238   79.872  255.635
  442.000   10.162    0.496    0.273   79.475  255.177
  442.250   10.776    0.511    0.311   81.397  255.014
  442.500   11.398    0.534    0.351   82.903  254.750
  442.750   11.550    0.595    0.401   77.951  253.279
  443.000   11.040    0.588    0.434   80.449  251.661
  443.250   10.335    0.559    0.405   85.465  252.088
  443.500    9.677    0.542    0.352   90.478  253.707
  443.750    9.133    0.536    0.320   95.134  254.932
  444.000    8.781    0.535    0.310   98.721  254.373
  444.250    8.721    0.518    0.282   99.331  250.095
  444.500    8.725    0.499    0.249   95.144  246.415
  444.750    9.118    0.481    0.188   89.931  246.450
  445.000    9.737    0.475    0.115   85.611  247.973
  445.250   10.336    0.464    0.087   84.086  249.197
  445.500   10.844    0.443    0.131   85.950  249.723
  445.750   11.596    0.422    0.245   91.384  251.297
  446.000   12.054    0.435    0.269   95.866  255.048
  446.250   12.417    0.433    0.239   94.219  248.743
  446.500   12.720    0.439    0.176   85.976  245.412
  446.750   13.194    0.442    0.162   76.843  244.654
  447.000   14.396    0.436    0.224   70.858  245.874
  447.250   18.515    0.413    0.327   71.348  248.624
  447.500   22.316    0.397    0.306   76.076  250.307
  447.750   25.057    0.399    0.285   80.376  250.342
  448.000   25.860    0.398    0.262   80.577  250.079
  448.250   26.154    0.405    0.244   77.032  249.325
  448.500   26.843    0.419    0.241   71.879  248.372
  448.750   28.352    0.423    0.275   69.296  248.010
  449.000   31.112    0.416    0.318   70.556  248.043
  449.250   35.680    0.416    0.312   75.807  247.681
  449.500   36.849    0.414    0.291   80.348  246.725
  449.750   34.690    0.409    0.272   82.392  245.771
  450.000   30.926    0.404    0.262   81.105  244.915
  450.250   27.264    0.408    0.248   75.965  243.680
  450.500   27.695    0.398    0.230   72.769  243.310
  450.750   27.708    0.321    0.186   73.737  243.734
  451.000   27.267    0.289    0.154   77.564  245.060
  451.250   26.388    0.292    0.152   80.200  246.089
  451.500   25.169    0.310    0.170   80.575  246.418
  451.750   23.499    0.312    0.174   81.097  246.368
  452.000   22.293    0.306    0.168   83.596  245.995
  452.250   21.821    0.326    0.180   86.941  245.630
  452.500   20.181    0.358    0.201   90.826  245.570
  452.750   18.427    0.398    0.232   93.463  245.606
  453.000   17.025    0.427    0.254   93.127  245.537
  453.250   15.921    0.406    0.205   87.216  245.176
  453.500   15.219    0.368    0.097   82.534  245.212
  453.750   15.005    0.369    0.162   85.404  245.246
  454.000   15.286    0.382    0.187   88.277  243.798
  454.250   16.027    0.397    0.201   82.474  242.447
  454.500   17.218    0.407    0.219   69.714  241.788
  454.750   18.969    0.407    0.247   61.485  241.759
  455.000   19.719    0.393    0.275   58.291  243.443
  455.250   19.441    0.377    0.280   63.776  245.855
  455.500   18.326    0.401    0.271   72.474  245.892
  455.750   17.170    0.418    0.257   73.566  244.740
  456.000   16.295    0.400    0.242   65.562  243.785
  456.250   15.976    0.347    0.234   55.522  244.787
  456.500   17.395    0.377    0.270   51.580  245.645
  456.750   20.661    0.365    0.289   58.256  246.861
  457.000   22.889    0.358    0.292   67.252  247.489
  457.250   23.777    0.365    0.283   75.237  247.721
  457.500   22.373    0.379    0.268   81.440  247.361
  457.750   17.560    0.383    0.254   86.260  245.573
  458.000   15.344    0.385    0.241   79.347  244.367
  458.250   13.326    0.358    0.212   68.905  244.401
  458.500   11.996    0.330    0.195   58.105  244.139
  458.750   10.911    0.310    0.190   50.160  243.579
  459.000    9.950    0.310    0.203   44.653  242.919
  459.250    8.968    0.349    0.261   35.762  242.644
  459.500    8.256    0.358    0.305   26.867  243.093
  459.750    7.502    0.347    0.304   23.084  243.524
  460.000    6.819    0.329    0.297   22.138  243.655
  460.250    6.276    0.313    0.292   21.923  243.888
  460.500    5.916    0.305    0.291   21.842  244.221
  460.750    5.790    0.312    0.299   23.503  244.260
  461.000    5.793    0.315    0.301   26.995  244.296
  461.250    5.796    0.317    0.299   30.344  244.327
  461.500    5.926    0.321    0.281   37.258  244.658
  461.750    6.470    0.323    0.254   47.500  245.090
  462.000    7.362    0.322    0.224   59.114  245.424
  462.250    7.743    0.323    0.198   69.652  245.545
  462.500    8.301    0.336    0.188   75.865  245.994
  462.750    8.994    0.340    0.171   81.117  247.221
  463.000    9.290    0.365    0.162   85.477  248.148
  463.250    9.396    0.386    0.162   86.210  248.773
  463.500    9.588    0.394    0.166   83.733  249.201
  463.750   10.283    0.395    0.170   81.915  249.728
  464.000   10.855    0.409    0.181   83.423  250.173
  464.250   11.018    0.427    0.173   90.338  250.604
  464.500   11.060    0.427    0.158   97.076  250.735
  464.750   11.187    0.434    0.136  103.279  250.964
  465.000   11.383    0.454    0.097  106.690  251.295
  465.250   11.300    0.464    0.012  102.654  251.340
  465.500   10.884    0.413   -0.001  100.199  251.376
  465.750   10.341    0.401    0.030   96.411  251.407
  466.000    9.771    0.403    0.042   91.382  250.846
  466.250    9.465    0.399    0.055   88.669  249.691
  466.500    9.519    0.383    0.074   88.034  248.238
  466.750    9.953    0.351    0.090   83.953  247.179
  467.000    9.953    0.308    0.079   76.545  247.621
  467.250   10.868    0.261    0.057   66.341  248.844
  467.500   11.803    0.226    0.059   58.456  249.771
  467.750   12.886    0.224    0.074   57.527  249.607
  468.000   14.211    0.247    0.087   61.829  248.650
  468.250   16.205    0.247    0.080   61.693  248.293
  468.500   18.780    0.197    0.058   53.785  248.333
  468.750   20.201    0.172    0.046   49.529  247.579
  469.000   21.852    0.163    0.050   49.726  247.408
  469.250   23.204    0.173    0.070   53.668  247.439
  469.500   22.499    0.196    0.095   59.397  247.480
  469.750   17.462    0.219    0.113   63.854  247.450
  470.000   14.178    0.253    0.127   64.617  247.055
  470.250   12.313    0.273    0.140   64.873  247.093
