~VERSION INFORMATION
 VERS.                 2.0:   CWLS LOG ASCII STANDARD -VERSION 2.0
 WRAP.                  NO:   ONE LINE PER DEPTH STEP
~WELL INFORMATION BLOCK
#MNEM.UNIT           DATA                    DESCRIPTION OF MNEMONIC
#---------    -------------------            -------------------------------
# Generated from Intellog Unique Number	CN_94_101/WELL/5029
WELL.         12-12-099-15W4                 : Well_name    - WELL
LOC .         AA/12-12-099-15W4/0            : Location     - LOCATION
UWI .         AA/12-12-099-15W400            : Uwi          - UNIQUE WELL ID
ENTR.         TIM                            : Entered      - ENTERED BY
SRVC.         SCHLUMBERGER                   : Scn          - SERVICE COMPANY
DATE.         08/13/92                       : Date         - LOG DATE
STRT.M        295                            : top_depth    - START DEPTH
STOP.M        495                            : bot_depth    - STOP DEPTH
STEP.M        0.25                           : increment    - STEP LENGTH
 NULL. -999.2500:NULL Value
~CURVE INFORMATION BLOCK
#MNEM UNIT       ERCB CURVE CODE    CURVE DESCRIPTION
#-----------   ------------------   ----------------------------------
DEPT.M        00 001 00 00         : DEPTH        - DEPTH
GR  .API      00 310 00 00         : GR           - GAMMA RAY
ILD .OHMM     00 120 00 00         : RESD         - DEEP RESISTIVITY (DIL)
NPHI.V/V      00 330 00 00         : PHIN         - NEUTRON POROSITY (SANDSTONE)
DPHI.V/V      00 890 00 00         : PHID         - DENSITY POROSITY (SANDSTONE)
~PARAMETER INFORMATION
#MNEM.UNIT           DATA             DESCRIPTION OF MNEMONIC
#---------         -----------     ------------------------------
GL  .M        740.9                : gl           - GROUND LEVEL ELEVATION
EREF.M        744.35               : kb           - ELEVATION OF DEPTH REFERENCE
DATM.M        744.35               : datum        - DATUM ELEVATION
TDD .M        497.5                : tdd          - TOTAL DEPTH DRILLER
RUN .         ONE                  : Run          - RUN NUMBER
ENG .         BILL                 : Engineer     - RECORDING ENGINEER
WIT .         JIM                  : Witness      - WITNESSED BY
MUD .         GEL                  : Mud_type     - MUD TYPE
MATR.         SANDSTONE            : Logunit      - NEUTRON MATRIX
TMAX.C        25                   : BHT          - MAXIMUM RECORDED TEMPERATURE
BHTD.M        497.5                : BHTDEP       - MAXIMUM RECORDED TEMPERATURE
RMT .C        10                   : MDTP         - TEMPERATURE OF MUD
MUDD.KG/M     1100                 : MWT          - MUD DENSITY
NEUT.         1                    : NEUTRON      - NEUTRON TYPE
RESI.         0                    : RESIST       - RESISTIVITY TYPE
RM  .OHMM     0.52                 : RM           - RESISTIVITY OF MUD
RMC .OHMM     0.72                 : RMC          - RESISTIVITY OF MUD CAKE
RMF .OHMM     0.72                 : RMF          - RESISTIVITY OF MUD FILTRATE
SUFT.C        4                    : SUFT         - SURFACE TEMPERATURE
~A  DEPTH       GR     RESD     PHIN     PHID
# ...
  469.000   38.394  450.836    0.411    0.347
  469.250   38.967  425.679    0.407    0.337
  469.500   38.945  231.630    0.406    0.329
  469.750   38.936  130.921    0.398    0.320
  470.000   38.324   87.799    0.393    0.311
  470.250   38.310   65.980    0.386    0.304
  470.500   38.875   53.506    0.379    0.298
  470.750   38.866   43.391    0.385    0.298
  471.000   40.030   35.863    0.391    0.314
  471.250   42.967   32.594    0.402    0.320
  471.500   45.904   30.771    0.412    0.324
  471.750   48.249   30.754    0.419    0.323
  472.000   52.368   31.927    0.424    0.319
  472.250   57.664   31.910    0.425    0.318
  472.500   60.014   32.490    0.425    0.322
  472.750   58.224   33.104    0.425    0.328
  473.000   55.838   35.698    0.425    0.332
  473.250   54.044   39.986    0.424    0.331
  473.500   52.844   43.953    0.423    0.327
  473.750   52.231   48.306    0.419    0.327
  474.000   51.627   52.084    0.419    0.329
  474.250   51.023   56.166    0.420    0.332
  474.500   49.819   58.317    0.420    0.335
  474.750   47.438   65.322    0.418    0.341
  475.000   46.243   76.003    0.413    0.346
  475.250   45.635   85.109    0.409    0.346
  475.500   45.613   77.364    0.406    0.340
  475.750   47.959   66.408    0.403    0.331
  476.000   50.895   59.229    0.407    0.316
  476.250   52.655   51.817    0.412    0.304
  476.500   53.228   49.857    0.419    0.305
  476.750   50.847   50.778    0.424    0.315
  477.000   48.461   52.730    0.417    0.328
  477.250   48.444   57.936    0.412    0.335
  477.500   49.021   61.309    0.403    0.331
  477.750   51.954   62.450    0.410    0.334
  478.000   53.713   60.088    0.417    0.340
  478.250   57.232   54.612    0.425    0.345
  478.500   58.987   46.885    0.422    0.341
  478.750   58.969   41.811    0.417    0.338
  479.000   57.765   38.724    0.415    0.333
  479.250   57.166   37.974    0.414    0.332
  479.500   56.557   37.958    0.410    0.333
  479.750   53.585   37.937    0.408    0.337
  480.000   50.609   37.910    0.401    0.343
  480.250   50.005   37.895    0.400    0.344
  480.500   49.392   37.874    0.404    0.346
  480.750   49.379   37.852    0.409    0.341
  481.000   50.543   38.552    0.412    0.339
  481.250   52.889   40.790    0.414    0.338
  481.500   52.867   44.837    0.410    0.341
  481.750   51.672   54.181    0.404    0.343
  482.000   49.290   54.151    0.402    0.345
  482.250   45.727   54.128    0.402    0.343
  482.500   44.519   46.469    0.399    0.340
  482.750   45.101   31.163    0.396    0.324
  483.000   47.443   18.294    0.392    0.317
  483.250   50.371   16.007    0.392    0.315
  483.500   51.544   13.483    0.396    0.314
  483.750   53.290   11.576    0.398    0.316
  484.000   52.099    9.938    0.397    0.328
  484.250   48.532    9.032    0.392    0.340
  484.500   47.919    8.209    0.389    0.348
  484.750   47.315    7.319    0.386    0.348
  485.000   47.297    6.911    0.385    0.346
  485.250   47.280    6.279    0.384    0.344
  485.500   47.857    5.929    0.381    0.343
  485.750   47.835    5.387    0.379    0.339
  486.000   48.413    5.185    0.379    0.338
  486.250   50.159    4.989    0.378    0.340
  486.500   50.741    4.710    0.379    0.342
  486.750   51.905    4.446    0.380    0.343
  487.000   53.656    4.041    0.382    0.343
  487.250   53.052    3.815    0.382    0.338
  487.500   50.080    3.601    0.383    0.336
  487.750   48.289    3.465    0.383    0.333
  488.000   47.086    3.398    0.382    0.337
  488.250   45.886    3.332    0.379    0.338
  488.500   44.687    3.206    0.378    0.337
  488.750   41.124    3.205    0.377    0.336
  489.000   38.739    3.083    0.378    0.340
  489.250   36.948    3.081    0.378    0.345
  489.500   35.753    3.079    0.378    0.347
  489.750   35.736    3.136    0.375    0.345
  490.000   26.260    3.195    0.372    0.341
  490.250   26.242    3.381    0.367    0.336
  490.500   26.815    3.646    0.362    0.330
  490.750   28.570    3.930    0.359    0.321
  491.000   30.325    4.081    0.357    0.306
  491.250   32.076    4.237    0.347    0.211
  491.500   32.658    4.316    0.324    0.152
  491.750   33.818    4.480    0.270    0.171
  492.000   34.982    4.563    0.312    0.185
  492.250   35.559    4.649    0.346    0.195
  492.500   39.087    4.735    0.358    0.207
  492.750   42.610    4.824    0.365    0.277
  493.000   45.551    4.914    0.369    0.307
  493.250   49.079    4.910    0.370    0.318
  493.500   50.834    4.907    0.369    0.318
  493.750   51.407    4.999    0.368    0.316
  494.000   51.972    4.997    0.367    0.309
  494.250   52.545    4.993    0.363    0.303
  494.500   54.300    4.991    0.349    0.268
  494.750   55.464    4.986    0.311    0.230
  495.000   57.223    4.985    0.259    0.165
