~VERSION INFORMATION
 VERS.                 2.0:   CWLS LOG ASCII STANDARD -VERSION 2.0
 WRAP.                  NO:   ONE LINE PER DEPTH STEP
~WELL INFORMATION BLOCK
#MNEM.UNIT           DATA                    DESCRIPTION OF MNEMONIC
#---------    -------------------            -------------------------------
# Generated from Intellog Unique Number	CC_80_83/WELL/2441
NULL.         -999.25                        : NULL_VALUE
WELL.         PEX PCEJ HANGST OV             : Well_name    - WELL
LOC .         15-23-081-11W4                 : Location     - LOCATION          
UWI .         AA/15-23-081-11W400            : Uwi          - UNIQUE WELL ID    
ENTR.         DW                             : Entered      - ENTERED BY        
SRVC.         DRESSER ATLAS                  : Scn          - SERVICE COMPANY   
DATE.         28 FEB 80                      : Date         - LOG DATE
STRT.M        260                            : top_depth    - START DEPTH       
STOP.M        489.791                        : bot_depth    - STOP DEPTH        
STEP.M        0.3                            : increment    - STEP LENGTH       
~CURVE INFORMATION BLOCK
#MNEM UNIT       ERCB CURVE CODE    CURVE DESCRIPTION
#-----------   ------------------   ----------------------------------
DEPT.M        00 001 00 00         : DEPTH        - DEPTH                       
DPHI.V/V      00 890 00 00         : PHID         - DENSITY POROSITY (LIMESTONE)
NPHI.V/V      00 330 00 00         : PHIN         - NEUTRON POROSITY (LIMESTONE)
GR  .API      00 310 00 00         : GR           - GAMMA RAY                   
ILD .OHMM     00 120 00 00         : RESD         - DEEP RESISTIVITY (DIL)      
~PARAMETER INFORMATION       
#MNEM.UNIT           DATA             DESCRIPTION OF MNEMONIC
#---------         -----------     ------------------------------
GL  .M        700.26               : gl           - GROUND LEVEL ELEVATION      
EREF.M        703.98               : kb           - ELEVATION OF DEPTH REFERENCE
DATM.M        703.98               : datum        - DATUM ELEVATION             
TDD .M        500                  : tdd          - TOTAL DEPTH DRILLER         
RUN .         ONE                  : Run          - RUN NUMBER                  
ENG .         BILL                 : Engineer     - RECORDING ENGINEER          
WIT .         JIM                  : Witness      - WITNESSED BY                
MUD .         GEL                  : Mud_type     - MUD TYPE                    
MATR.         LIMESTONE            : Logunit      - NEUTRON MATRIX              
TMAX.C        18                   : BHT          - MAXIMUM RECORDED TEMPERATURE
BHTD.M        500                  : BHTDEP       - MAXIMUM RECORDED TEMPERATURE
MATR.         1                    : LOGUNIT      - NEUTRON MATRIX              
RMT .C        25                   : MDTP         - TEMPERATURE OF MUD          
NEUT.         1                    : NEUTRON      - NEUTRON TYPE                
RESI.         0                    : RESIST       - RESISTIVITY TYPE            
RMC .OHMM     0.25                 : RMC          - RESISTIVITY OF MUD CAKE     
RMF .OHMM     0.25                 : RMF          - RESISTIVITY OF MUD FILTRATE 
SUFT.C        15                   : SUFT         - SURFACE TEMPERATURE         
~A  DEPTH     PHID     PHIN       GR     RESD
# ...
  364.396    0.205    0.365   95.308  217.939
  364.696    0.214    0.364   86.469  250.820
  364.996    0.229    0.381   82.692  270.006
  365.296    0.236    0.399   83.975  283.723
  365.596    0.235    0.413   80.827  283.744
  365.896    0.236    0.396   85.905  281.032
  366.196    0.235    0.401   85.288  270.116
  366.496    0.218    0.397   84.039  270.135
  366.796    0.219    0.380   90.386  275.634
  367.096    0.225    0.392   91.661  259.237
  367.396    0.222    0.419   98.001  248.311
  367.696    0.222    0.440  105.607  231.913
  367.996    0.224    0.439  100.569  218.244
  368.296    0.227    0.448   96.787  201.848
  368.596    0.237    0.412   95.539  193.664
  368.896    0.245    0.422   90.498  193.684
  369.196    0.249    0.435   85.455  199.188
  369.496    0.217    0.419   82.311  210.165
  369.796    0.205    0.384   85.487  229.353
  370.096    0.187    0.372   93.725  229.374
  370.396    0.191    0.382   92.478  215.718
  370.695    0.197    0.392   83.639  204.788
  370.995    0.202    0.397   83.656  191.124
  371.295    0.208    0.377   83.042  182.944
  371.595    0.208    0.366   81.161  182.961
  371.895    0.210    0.364   78.645  191.199
  372.195    0.213    0.362   77.397  218.605
  372.495    0.213    0.359   78.681  237.789
  372.795    0.216    0.339   77.432  262.458
  373.095    0.218    0.334   73.656  276.172
  373.395    0.219    0.343   73.039  289.886
  373.695    0.220    0.353   75.582  295.386
  373.995    0.222    0.338   78.761  298.148
  374.295    0.218    0.350   79.413  298.174
  374.595    0.212    0.360   80.061  300.943
  374.895    0.213    0.348   78.812  303.707
  375.195    0.218    0.368   81.360  306.466
  375.495    0.213    0.364   78.847  309.236
  375.795    0.213    0.364   72.536  309.262
  376.095    0.218    0.371   74.451  314.763
  376.395    0.224    0.365   78.262  314.777
  376.695    0.226    0.360   75.118  314.810
  376.995    0.223    0.354   84.620  312.099
  377.295    0.219    0.345   85.268  306.648
  377.595    0.218    0.341   82.757  301.195
  377.895    0.221    0.354   78.980  295.746
  378.195    0.226    0.369   81.525  290.295
  378.495    0.224    0.387   82.172  282.102
  378.795    0.219    0.391   80.290  276.652
  379.095    0.222    0.382   84.736  271.211
  379.395    0.228    0.375   80.330  268.492
  379.695    0.235    0.382   82.872  268.524
  379.995    0.220    0.370   86.049  271.290
  380.295    0.199    0.357   93.021  274.044
  380.595    0.197    0.365   98.729  276.810
  380.895    0.205    0.368  100.011  276.844
  381.195    0.205    0.377   93.073  276.857
  381.495    0.205    0.383   86.764  268.678
  381.795    0.203    0.392   89.942  260.485
  382.095    0.208    0.414   95.651  246.824
  382.395    0.221    0.431  101.360  235.893
  382.695    0.232    0.414  100.743  224.969
  382.995    0.243    0.408   94.436  219.521
  383.295    0.255    0.390   84.967  227.757
  383.595    0.255    0.385   79.927  246.945
  383.895    0.250    0.396   76.151  279.828
  384.195    0.244    0.373   73.000  301.756
  384.495    0.243    0.365   70.489  315.474
  384.795    0.272    0.365   76.195  323.712
  385.095    0.282    0.362   95.817  326.470
  385.395    0.267    0.396   99.628  312.809
  385.695    0.240    0.410   95.853  299.143
  385.995    0.224    0.399   89.544  290.955
  386.295    0.229    0.387   91.459  288.243
  386.595    0.226    0.360   92.104  293.752
  386.895    0.213    0.364   92.124  293.778
  387.195    0.216    0.374   90.241  288.328
  387.495    0.224    0.381   91.529  282.881
  387.795    0.234    0.371   92.808  280.158
  388.095    0.235    0.377   92.187  271.973
  388.395    0.250    0.403   91.573  266.519
  388.695    0.256    0.423   93.488  252.853
  388.995    0.237    0.412   96.032  209.080
  389.295    0.210    0.419   97.315  192.682
  389.595    0.232    0.418   96.697  187.235
  389.895    0.241    0.419   91.655  184.513
  390.195    0.242    0.399   89.142  198.240
  390.495    0.233    0.414   84.102  206.476
  390.795    0.209    0.388   90.441  214.711
  391.095    0.199    0.373   89.823  217.472
  391.395    0.209    0.386   86.045  225.715
  391.695    0.212    0.407   95.550  231.214
  391.995    0.212    0.395   99.359  239.452
  392.295    0.207    0.400   89.891  250.422
  392.595    0.211    0.394   89.277  272.358
  392.895    0.218    0.378   90.555  283.331
  393.195    0.218    0.350   89.942  294.304
  393.495    0.206    0.330   91.225  305.282
  393.795    0.172    0.322   91.870  313.520
  394.095    0.089    0.307   89.992  335.450
  394.395    0.140    0.299   82.417  346.427
  394.695    0.185    0.332   91.286  346.452
  394.995    0.204    0.342   91.940  332.791
  395.294    0.211    0.351   91.959  324.596
  395.594    0.217    0.359   91.972  316.409
  395.894    0.222    0.367   93.884  305.484
  396.194    0.223    0.364   97.697  297.294
  396.494    0.225    0.373   99.608  283.640
  396.794    0.228    0.376   92.668  278.189
  397.094    0.236    0.370   85.727  272.738
  397.394    0.243    0.359   98.395  272.764
  397.694    0.231    0.359   99.042  281.000
  397.994    0.225    0.335   91.468  291.972
  398.294    0.235    0.345   83.263  305.694
  398.594    0.239    0.355   84.551  311.197
  398.894    0.237    0.343   85.196  313.957
  399.194    0.234    0.331   78.889  313.980
  399.494    0.231    0.354   77.639  308.536
  399.794    0.225    0.350   81.450  305.824
  400.094    0.217    0.346   88.426  305.839
  400.394    0.217    0.352   89.072  300.402
  400.694    0.230    0.360   85.298  300.415
  400.994    0.231    0.372   87.211  294.974
  401.294    0.230    0.370   89.123  292.261
  401.594    0.232    0.358   86.609  292.286
  401.894    0.231    0.357   89.786  286.838
  402.194    0.225    0.347   93.597  286.864
  402.494    0.225    0.340   91.719  289.617
  402.794    0.216    0.351   85.412  292.382
  403.094    0.225    0.352   82.896  297.889
  403.394    0.222    0.342   81.649  303.397
  403.694    0.217    0.327   83.570  306.150
  403.994    0.218    0.327   83.579  308.920
  404.294    0.213    0.328   83.599  308.934
  404.594    0.210    0.340   85.510  306.229
  404.894    0.209    0.364   88.060  303.510
  405.194    0.219    0.372   88.708  303.535
  405.494    0.214    0.363   88.091  306.310
  405.794    0.213    0.354   78.618  306.327
  406.094    0.218    0.349   71.046  309.097
  406.394    0.261    0.350   69.800  306.384
  406.694    0.253    0.360   80.566  300.942
  406.994    0.234    0.363   84.378  300.954
  407.294    0.227    0.364   73.643  292.770
  407.594    0.227    0.368   79.350  290.063
  407.894    0.225    0.370   89.487  287.346
  408.194    0.228    0.371   77.487  284.637
  408.494    0.241    0.377   75.608  281.914
  408.794    0.246    0.379   80.051  276.464
  409.094    0.252    0.372   83.227  271.016
  409.394    0.250    0.375   89.570  260.089
  409.694    0.226    0.369   95.909  238.219
  409.994    0.199    0.350   99.723  235.502
  410.294    0.221    0.340   85.191  235.528
  410.594    0.226    0.326   79.516  246.501
  410.894    0.219    0.315   72.580  271.167
  411.194    0.190    0.288   66.900  304.044
  411.494    0.040    0.256   56.169  325.974
  411.794    0.066    0.201   53.655  334.214
  412.094    0.132    0.227   68.216  331.499
  412.394    0.173    0.314   79.616  320.575
  412.694    0.181    0.355   87.223  301.441
  412.994    0.183    0.331   84.712  285.038
  413.294    0.157    0.310   73.976  285.063
  413.594    0.026    0.247   43.002  296.035
  413.894    0.064    0.202   48.710  317.969
  414.194    0.161    0.294   86.673  320.736
  414.494    0.187    0.350   92.384  320.751
  414.794    0.191    0.369   89.871  304.353
  415.094    0.187    0.369   86.089  287.961
  415.394    0.182    0.366   82.310  285.240
  415.694    0.180    0.375   85.491  285.275
  415.994    0.181    0.365   89.299  288.026
  416.294    0.181    0.358   98.174  293.533
