~VERSION INFORMATION
 VERS.                 2.0:   CWLS LOG ASCII STANDARD -VERSION 2.0
 WRAP.                  NO:   ONE LINE PER DEPTH STEP
~WELL INFORMATION BLOCK
#MNEM.UNIT           DATA                    DESCRIPTION OF MNEMONIC
#---------    -------------------            -------------------------------
# Generated from Intellog Unique Number	CC_80_83/WELL/2433
NULL.         -999.25                        : NULL_VALUE
WELL.         ARCO ACI McMUURAY              : Well_name    - WELL              
LOC .         12-29-083-10W4                 : Location     - LOCATION          
UWI .         AA/12-29-083-10W400            : Uwi          - UNIQUE WELL ID    
ENTR.         DW                             : Entered      - ENTERED BY        
SRVC.         SCHLUMBERGER                   : Scn          - SERVICE COMPANY   
DATE.         26 JAN 74                      : Date         - LOG DATE
STRT.M        259.08                         : top_depth    - START DEPTH       
STOP.M        502.928                        : bot_depth    - STOP DEPTH        
STEP.M        0.305                          : increment    - STEP LENGTH       
~CURVE INFORMATION BLOCK
#MNEM UNIT       ERCB CURVE CODE    CURVE DESCRIPTION
#-----------   ------------------   ----------------------------------
DEPT.M        00 001 00 00         : DEPTH        - DEPTH                       
NPHI.V/V      00 330 00 00         : PHIN         - NEUTRON POROSITY (LIMESTONE)
GR  .API      00 310 00 00         : GR           - GAMMA RAY                   
DPHI.V/V      00 890 00 00         : PHID         - DENSITY POROSITY (LIMESTONE)
ILD .OHMM     00 120 00 00         : RESD         - DEEP RESISTIVITY (DLL)      
~PARAMETER INFORMATION       
#MNEM.UNIT           DATA             DESCRIPTION OF MNEMONIC
#---------         -----------     ------------------------------
GL  .M        740.359              : gl           - GROUND LEVEL ELEVATION      
EREF.M        743.407              : kb           - ELEVATION OF DEPTH REFERENCE
DATM.M        743.407              : datum        - DATUM ELEVATION             
TDD .M        505.968              : tdd          - TOTAL DEPTH DRILLER         
RUN .         ONE                  : Run          - RUN NUMBER                  
ENG .         BILL                 : Engineer     - RECORDING ENGINEER          
WIT .         JIM                  : Witness      - WITNESSED BY                
MUD .         GEL                  : Mud_type     - MUD TYPE                    
MATR.         LIMESTONE            : Logunit      - NEUTRON MATRIX              
TMAX.C        23.3333              : BHT          - MAXIMUM RECORDED TEMPERATURE
BHTD.M        505.968              : BHTDEP       - MAXIMUM RECORDED TEMPERATURE
MATR.         1                    : LOGUNIT      - NEUTRON MATRIX              
RMT .C        25                   : MDTP         - TEMPERATURE OF MUD          
NEUT.         0                    : NEUTRON      - NEUTRON TYPE                
RESI.         1                    : RESIST       - RESISTIVITY TYPE            
RMC .OHMM     0.25                 : RMC          - RESISTIVITY OF MUD CAKE     
RMF .OHMM     0.25                 : RMF          - RESISTIVITY OF MUD FILTRATE 
SUFT.C        4                    : SUFT         - SURFACE TEMPERATURE         
~A  DEPTH     PHIN       GR     PHID     RESD
  259.080    0.428   67.289    0.299    5.030
  259.385    0.451   68.875    0.294    5.030
  259.690    0.468   70.059    0.287    5.030
  259.994    0.484   71.637    0.295    5.030
  260.299    0.466   73.626    0.298    4.937
  260.604    0.467   74.807    0.292    4.937
  260.909    0.465   75.183    0.297    4.846
  261.214    0.452   73.950    0.296    4.846
  261.518    0.428   73.922    0.300    4.757
  261.823    0.444   68.251    0.307    4.669
  262.128    0.438   74.269    0.316    4.583
  262.433    0.464   77.866    0.316    4.416
  262.738    0.450   78.235    0.310    4.416
  263.043    0.473   76.201    0.303    4.334
  263.347    0.489   73.752    0.298    4.334
  263.652    0.472   75.741    0.305    4.254
  263.957    0.470   81.356    0.310    4.176
  264.262    0.461   87.373    0.318    4.099
  264.567    0.461   83.314    0.307    3.949
  264.871    0.482   82.076    0.303    3.949
  265.176    0.488   76.408    0.317    3.877
  265.481    0.491   72.754    0.312    3.877
  265.786    0.474   75.146    0.308    3.949
  266.091    0.454   76.326    0.318    3.949
  266.395    0.448   70.254    0.309    3.949
  266.700    0.468   75.461    0.305    3.949
  267.005    0.482   77.853    0.304    3.949
  267.310    0.475   75.005    0.305    4.023
  267.615    0.493   76.992    0.320    4.022
  267.919    0.507   74.548    0.330    4.022
  268.224    0.523   76.531    0.325    4.022
  268.529    0.507   70.462    0.320    3.948
  268.834    0.490   72.046    0.310    3.948
  269.139    0.494   79.271    0.300    3.948
  269.444    0.489   82.060    0.302    3.948
  269.748    0.505   82.838    0.317    3.948
  270.053    0.515   80.399    0.325    4.021
  270.358    0.529   75.934    0.329    3.947
  270.663    0.542   73.895    0.313    3.947
  270.968    0.550   72.658    0.320    3.874
  271.272    0.486   75.448    0.309    3.874
  271.577    0.512   76.226    0.310    3.803
  271.882    0.539   72.574    0.338    3.733
  272.187    0.501   69.323    0.302    3.733
  272.492    0.507   74.934    0.288    3.733
  272.796    0.484   74.505    0.296    3.803
  273.101    0.471   65.211    0.313    3.733
  273.406    0.477   63.570    0.330    3.664
  273.711    0.507   66.363    0.329    3.530
  274.016    0.544   73.586    0.325    3.401
  274.320    0.563   73.158    0.336    3.217
  274.625    0.569   71.511    0.356    3.100
  274.930    0.556   69.475    0.345    3.042
  275.235    0.503   72.670    0.330    2.986
  275.540    0.505   76.674    0.326    2.931
  275.845    0.531   73.823    0.326    2.877
  276.149    0.543   70.171    0.292    2.877
  276.454    0.483   64.098    0.246    2.986
  276.759    0.364   52.787    0.165    3.157
  277.064    0.239   39.058    0.288    3.663
  277.369    0.300   55.554    0.312    3.801
  277.673    0.462   65.595    0.320    3.801
  277.978    0.499   63.955    0.329    3.595
  278.283    0.518   66.751    0.335    3.216
  278.588    0.527   69.943    0.323    3.098
  278.893    0.527   69.922    0.294    3.156
  279.197    0.488   64.252    0.283    3.463
  279.502    0.469   62.210    0.282    3.730
  279.807    0.446   71.047    0.283    3.944
  280.112    0.440   69.399    0.271    4.093
  280.417    0.438   71.395    0.279    4.093
  280.721    0.456   74.992    0.283    4.017
  281.026    0.477   71.339    0.283    4.017
  281.331    0.449   70.102    0.286    4.093
  281.636    0.437   64.435    0.293    4.247
  281.941    0.424   70.046    0.297    4.408
  282.246    0.446   72.034    0.301    4.408
  282.550    0.441   66.769    0.301    4.327
  282.855    0.446   68.353    0.296    4.247
  283.160    0.461   71.539    0.288    4.169
  283.465    0.474   71.519    0.282    4.247
  283.770    0.491   69.074    0.286    4.246
  284.074    0.458   71.063    0.274    4.326
  284.379    0.440   74.255    0.282    4.574
  284.684    0.455   71.405    0.290    4.573
  284.989    0.463   68.561    0.284    4.407
  285.294    0.454   68.534    0.289    4.406
  285.598    0.448   66.891    0.304    4.489
  285.903    0.453   56.388    0.322    4.926
  286.208    0.409   40.646    0.337    6.388
  286.513    0.390   34.975    0.342    9.791
  286.818    0.415   36.959    0.346   15.866
  287.122    0.409   38.547    0.340   18.068
  287.427    0.362   35.699    0.325   18.068
  287.732    0.345   39.298    0.305   16.162
  288.037    0.361   51.359    0.277   14.458
  288.342    0.348   59.788    0.261   11.148
  288.647    0.338   57.349    0.266   10.350
  288.951    0.351   51.272    0.281   10.159
  289.256    0.382   48.426    0.329   11.147
  289.561    0.386   51.622    0.336   13.174
  289.866    0.369   54.816    0.336   15.002
  290.171    0.364   53.983    0.328   16.159
  290.475    0.374   53.957    0.321   15.569
  290.780    0.389   51.512    0.320   14.725
  291.085    0.391   44.230    0.347   15.001
  291.390    0.389   42.993    0.381   16.157
  291.695    0.394   40.947    0.407   17.402
  291.999    0.428   38.910    0.463   18.060
  292.304    0.471   37.268    0.524   17.727
  292.609    0.511   43.287    0.342   16.766
  292.914    0.459   53.735    0.343   16.766
  293.219    0.395   59.349    0.355   17.079
  293.523    0.412   57.711    0.365   18.396
  293.828    0.416   69.367    0.379   18.395
  294.133    0.402   82.236    0.403   15.564
  294.438    0.433  101.546    0.407    9.967
  294.743    0.462   87.419    0.320    8.752
  295.048    0.426   49.108    0.332    8.915
  295.352    0.360   29.337    0.359   10.936
  295.657    0.356   28.501    0.358   19.810
  295.962    0.359   29.683    0.356   29.806
  296.267    0.365   31.269    0.351   29.256
  296.572    0.379   34.462    0.335   26.662
  296.876    0.399   39.268    0.317   22.980
  297.181    0.389   42.464    0.288   18.734
  297.486    0.349   45.258    0.271   14.716
  297.791    0.343   53.694    0.274   11.997
  298.096    0.360   75.830    0.283   10.933
  298.400    0.383   83.055    0.287   10.534
  298.705    0.379   79.400    0.292   10.731
  299.010    0.374   64.865    0.309   11.995
  299.315    0.367   55.570    0.321   14.443
  299.620    0.355   49.899    0.338   18.047
  299.924    0.344   47.053    0.357   22.136
  300.229    0.359   39.768    0.349   23.842
  300.534    0.379   39.738    0.336   23.842
  300.839    0.389   43.344    0.328   21.727
  301.144    0.372   48.551    0.325   19.800
  301.449    0.362   49.329    0.330   19.435
  301.753    0.354   50.514    0.335   19.435
  302.058    0.360   53.306    0.330   19.799
  302.363    0.392   55.689    0.324   19.798
  302.668    0.415   56.878    0.324   20.169
  302.973    0.397   54.029    0.329   21.723
  303.277    0.385   53.194    0.348   23.397
  303.582    0.388   47.927    0.350   25.201
  303.887    0.389   48.304    0.353   26.153
  304.192    0.374   52.702    0.358   26.152
  304.497    0.389   54.292    0.358   25.671
  304.801    0.392   53.460    0.349   25.198
  305.106    0.400   50.611    0.350   24.733
  305.411    0.387   50.584    0.353   24.278
  305.716    0.384   56.600    0.349   23.830
  306.021    0.388   61.804    0.342   23.829
  306.325    0.377   59.364    0.343   23.391
  306.630    0.389   54.904    0.343   22.122
  306.935    0.410   52.051    0.331   20.923
  307.240    0.400   46.386    0.297   19.789
  307.545    0.405   47.567    0.274   17.702
  307.850    0.375   54.388    0.267   15.544
  308.154    0.378   56.780    0.277   12.909
  308.459    0.380   59.574    0.301   11.548
  308.764    0.391   65.187    0.311   11.335
  309.069    0.395   65.558    0.299   11.126
  309.374    0.390   64.729    0.257    9.953
  309.678    0.386   67.924    0.214    8.114
  309.983    0.396   75.151    0.158    7.258
  310.288    0.408   84.794    0.131    6.614
  310.593    0.395   83.558    0.149    6.141
  310.898    0.387   68.215    0.192    5.808
  311.202    0.380   68.991    0.197    5.293
  311.507    0.379   72.192    0.170    4.823
  311.812    0.421   79.816    0.204    4.157
