~VERSION INFORMATION
 VERS.                 2.0:   CWLS LOG ASCII STANDARD -VERSION 2.0
 WRAP.                  NO:   ONE LINE PER DEPTH STEP
~WELL INFORMATION BLOCK
#MNEM.UNIT           DATA                    DESCRIPTION OF MNEMONIC
#---------    -------------------            -------------------------------
# Generated from Intellog Unique Number	CN_91_93/WELL/2715
WELL.         10-13-091-12W4                 : Well_name    - WELL
LOC .         AA/10-13-091-12W4/0            : Location     - LOCATION
UWI .         AA/10-13-091-12W400            : Uwi          - UNIQUE WELL ID
ENTR.         JOETTE                         : Entered      - ENTERED BY
SRVC.         SCHLUMBERGER                   : Scn          - SERVICE COMPANY
DATE.         02/09/92                       : Date         - LOG DATE
STRT.M        40                             : top_depth    - START DEPTH
STOP.M        184                            : bot_depth    - STOP DEPTH
STEP.M        0.25                           : increment    - STEP LENGTH
 NULL. -999.2500:NULL Value
~CURVE INFORMATION BLOCK
#MNEM UNIT       ERCB CURVE CODE    CURVE DESCRIPTION
#-----------   ------------------   ----------------------------------
DEPT.M        00 001 00 00         : DEPTH        - DEPTH
GR  .API      00 310 00 00         : GR           - GAMMA RAY
DPHI.V/V      00 890 00 00         : PHID         - DENSITY POROSITY (SANDSTONE)
ILD .OHMM     00 120 00 00         : RESD         - DEEP RESISTIVITY (DIL)
~PARAMETER INFORMATION
#MNEM.UNIT           DATA             DESCRIPTION OF MNEMONIC
#---------         -----------     ------------------------------
GL  .M        451.4                : gl           - GROUND LEVEL ELEVATION
EREF.M        451.4                : kb           - ELEVATION OF DEPTH REFERENCE
DATM.M        451.4                : datum        - DATUM ELEVATION
TDD .M        224                  : tdd          - TOTAL DEPTH DRILLER
RUN .         ONE                  : Run          - RUN NUMBER
ENG .         BILL                 : Engineer     - RECORDING ENGINEER
WIT .         JIM                  : Witness      - WITNESSED BY
MUD .         GEL                  : Mud_type     - MUD TYPE
MATR.         SANDSTONE            : Logunit      - NEUTRON MATRIX
TMAX.C        10                   : BHT          - MAXIMUM RECORDED TEMPERATURE
BHTD.M        224                  : BHTDEP       - MAXIMUM RECORDED TEMPERATURE
RMT .C        18.9                 : MDTP         - TEMPERATURE OF MUD
MUDD.KG/M     9666.66              : MWT          - MUD DENSITY
NEUT.         1                    : NEUTRON      - NEUTRON TYPE
RESI.         0                    : RESIST       - RESISTIVITY TYPE
RM  .OHMM     9.5                  : RM           - RESISTIVITY OF MUD
RMC .OHMM     9.5                  : RMC          - RESISTIVITY OF MUD CAKE
RMF .OHMM     9.5                  : RMF          - RESISTIVITY OF MUD FILTRATE
SUFT.C        4                    : SUFT         - SURFACE TEMPERATURE
~A  DEPTH       GR     PHID     RESD
# ...
  148.500   35.880    0.337   66.248
  148.750   37.719    0.343   88.974
  149.000   45.943    0.349   61.038
  149.250   50.824    0.323   19.121
  149.500   60.263    0.310   21.865
  149.750   69.400    0.309   21.736
  150.000   65.094    0.316    7.979
  150.250   61.452    0.325   11.628
  150.500   65.007    0.312   13.555
  150.750   62.569    0.303   10.112
  151.000   44.527    0.313   15.153
  151.250   35.786    0.338   16.940
  151.500   39.641    0.340   18.807
  151.750   42.602    0.346   24.006
  152.000   39.259    0.350   27.405
  152.250   36.512    0.335   35.969
  152.500   36.178    0.352   38.296
  152.750   29.537    0.340   26.457
  153.000   30.988    0.345   29.168
  153.250   30.341    0.346   28.962
  153.500   30.311    0.343   30.620
  153.750   28.768    0.330   31.047
  154.000   35.327    0.352   30.828
  154.250   40.078    0.337   26.439
  154.500   41.543    0.281   24.144
  154.750   48.997    0.277   63.220
  155.000   58.551    0.308  382.355
  155.250   43.517    0.348  279.306
  155.500   44.673    0.349  439.508
  155.750   44.634    0.337  491.349
  156.000   37.993    0.316  356.430
  156.250   49.646    0.318  505.143
  156.500   55.905    0.298  351.419
  156.750   38.767    0.306  277.185
  157.000   36.324    0.315  433.129
  157.250   31.483    0.311  676.812
  157.500   41.341    0.311  548.943
  157.750   37.099    0.333  671.955
  158.000   41.254    0.356  710.453
  158.250   37.616    0.339  454.554
  158.500   45.670    0.319  564.233
  158.750   39.625    0.340  311.810
  159.000   44.688    0.346  483.847
  159.250   46.445    0.351  184.745
  159.500   44.902    0.364  164.065
  159.750   43.359    0.356  151.930
  160.000   46.015    0.348   43.885
  160.250   54.078    0.352  178.333
  160.500   55.538    0.324   82.204
  160.750   48.893    0.336   67.140
  161.000   44.951    0.347   51.142
  161.250   53.009    0.335   20.080
  161.500   72.769    0.309   18.988
  161.750   99.122    0.298   26.169
  162.000   90.081    0.294   14.665
  162.250   81.940    0.276   15.944
  162.500   96.897    0.277   13.297
  162.750  111.554    0.300   10.200
  163.000  104.008    0.285   24.392
  163.250  107.872    0.293  185.712
  163.500   86.831    0.318  148.540
  163.750   63.690    0.341    8.043
  164.000   95.146    0.315   11.803
  164.250  125.703    0.273   15.709
  164.500  119.957    0.279   13.854
  164.750  105.222    0.295   18.829
  165.000  103.379    0.313   17.075
  165.250  106.635    0.313   10.624
  165.500  106.296    0.317   10.697
  165.750  117.654    0.287    9.047
  166.000  120.310    0.282    9.974
  166.250  104.971    0.293   17.671
  166.500  119.024    0.270   14.636
  166.750  116.281    0.296   10.325
  167.000  100.347    0.309   15.581
  167.250  109.905    0.284   19.749
  167.500  109.862    0.278   13.361
  167.750  116.416    0.296   11.949
  168.000  128.074    0.303    8.548
  168.250  113.335    0.290    7.915
  168.500  124.093    0.292   18.408
  168.750  120.446    0.267   12.896
  169.000  107.507    0.262   15.676
  169.250  106.868    0.255   10.242
  169.500   99.627    0.277   14.414
  169.750  102.287    0.259   14.213
  170.000  109.142    0.279   15.027
  170.250  119.595    0.277   18.653
  170.500  124.060    0.286   17.762
  170.750  111.711    0.299   15.339
  171.000   96.077    0.303   58.952
  171.250   97.525    0.270  115.158
  171.500   97.494    0.278   48.820
  171.750   92.952    0.286   99.444
  172.000   74.310    0.242  254.998
  172.250   61.671    0.327  366.464
  172.500   67.630    0.286  199.706
  172.750   62.188    0.313  146.909
  173.000   47.145    0.343   19.157
  173.250   36.605    0.370  154.228
  173.500   34.462    0.361   71.092
  173.750   35.623    0.363   51.571
  174.000   80.575    0.315   14.386
  174.250   49.336    0.344   14.185
  174.500   74.494    0.325   13.413
  174.750   74.447    0.301  229.386
  175.000   88.808    0.316   15.418
  175.250  101.665    0.298   11.501
  175.500   91.725    0.305   11.908
  175.750   68.584    0.321   12.159
  176.000   59.843    0.329   35.846
  176.250   92.195    0.307   23.257
  176.500  102.957    0.295   11.738
  176.750   96.016    0.279   13.684
  177.000   83.076    0.306   73.502
  177.250   79.130    0.333   35.826
  177.500   72.793    0.292   34.836
  177.750   83.250    0.289   20.642
  178.000   59.510    0.341   80.443
  178.250   36.965    0.378   69.475
  178.500   48.027    0.369   52.552
  178.750   52.186    0.360    9.919
  179.000   58.437    0.340   10.560
  179.250   41.003    0.381   11.401
  179.500   28.359    0.404   10.267
  179.750   49.618    0.396   12.222
  180.000   87.373    0.289    9.310
  180.250  116.425    0.262    7.551
  180.500  124.783    0.282    7.394
  180.750  101.947    0.243   55.127
  181.000  104.898    0.249   42.285
  181.250  103.060    0.249   35.514
  181.500  119.820    0.251   33.118
  181.750  118.577    0.256   59.915
  182.000  111.036    0.216   43.161
  182.250   75.899    0.139   37.275
  182.500   51.255    0.058   34.040
  182.750   47.617    0.065   36.496
  183.000   37.676    0.058   27.994
  183.250   34.030    0.076   26.657
  183.500   47.791    0.095   25.207
  183.750   42.049    0.081   24.682
  184.000   46.509    0.122   23.340
