~VERSION INFORMATION
 VERS.                 2.0:   CWLS LOG ASCII STANDARD -VERSION 2.0
 WRAP.                  NO:   ONE LINE PER DEPTH STEP
~WELL INFORMATION BLOCK
#MNEM.UNIT           DATA                    DESCRIPTION OF MNEMONIC
#---------    -------------------            -------------------------------
# Generated from Intellog Unique Number	CS_71_72/WELL/908
WELL.         ET AL KIRBY                    : Well_name    - WELL
LOC .         AA/11-30-071-05W4/0            : Location     - LOCATION
UWI .         AA/11-30-071-05W4/0            : Uwi          - UNIQUE WELL ID
ENTR.         SP                             : Entered      - ENTERED BY
SRVC.         SCHLUMBERGER                   : Scn          - SERVICE COMPANY
STRT.M        340                            : top_depth    - START DEPTH
STOP.M        507                            : bot_depth    - STOP DEPTH
STEP.M        0.25                           : increment    - STEP LENGTH
 NULL. -999.2500:NULL Value
~CURVE INFORMATION BLOCK
#MNEM UNIT       ERCB CURVE CODE    CURVE DESCRIPTION
#-----------   ------------------   ----------------------------------
DEPT.M        00 001 00 00         : DEPTH        - DEPTH
ILD .OHMM     00 120 00 00         : RESD         - DEEP RESISTIVITY (DIL)
DPHI.V/V      00 890 00 00         : PHID         - DENSITY POROSITY (LIMESTONE)
NPHI.V/V      00 330 00 00         : PHIN         - NEUTRON POROSITY (LIMESTONE)
GR  .API      00 310 00 00         : GR           - GAMMA RAY
~PARAMETER INFORMATION
#MNEM.UNIT           DATA             DESCRIPTION OF MNEMONIC
#---------         -----------     ------------------------------
GL  .M        684.1                : gl           - GROUND LEVEL ELEVATION
EREF.M        687.4                : kb           - ELEVATION OF DEPTH REFERENCE
DATM.M        684.1                : datum        - DATUM ELEVATION
TDD .M        507                  : tdd          - TOTAL DEPTH DRILLER
RUN .         ONE                  : Run          - RUN NUMBER
ENG .         BILL                 : Engineer     - RECORDING ENGINEER
WIT .         JIM                  : Witness      - WITNESSED BY
MUD .         GEL                  : Mud_type     - MUD TYPE
MATR.         LIMESTONE            : Logunit      - NEUTRON MATRIX
TMAX.C        22                   : BHT          - MAXIMUM RECORDED TEMPERATURE
BHTD.M        507                  : BHTDEP       - MAXIMUM RECORDED TEMPERATURE
MATR.         1                    : LOGUNIT      - NEUTRON MATRIX
RMT .C        25                   : MDTP         - TEMPERATURE OF MUD
NEUT.         1                    : NEUTRON      - NEUTRON TYPE
RESI.         0                    : RESIST       - RESISTIVITY TYPE
RMC .OHMM     0.25                 : RMC          - RESISTIVITY OF MUD CAKE
RMF .OHMM     0.25                 : RMF          - RESISTIVITY OF MUD FILTRATE
SUFT.C        15                   : SUFT         - SURFACE TEMPERATURE
~A  DEPTH     RESD     PHID     PHIN       GR
# ...
  470.500    9.092    0.263    0.391   58.971
  470.750    9.378    0.256    0.396   60.630
  471.000    9.672    0.241    0.408   60.950
  471.250   10.031    0.215    0.417   58.468
  471.500   10.367    0.179    0.409   59.396
  471.750   10.752    0.191    0.399   62.576
  472.000   10.966    0.209    0.393   65.028
  472.250   10.933    0.235    0.392   65.466
  472.500   10.696    0.233    0.394   64.507
  472.750   10.523    0.232    0.390   65.497
  473.000   10.609    0.233    0.388   67.096
  473.250   11.007    0.249    0.390   67.960
  473.500   11.789    0.276    0.401   66.635
  473.750   12.911    0.296    0.417   65.433
  474.000   13.495    0.301    0.438   69.039
  474.250   14.023    0.300    0.455   71.855
  474.500   14.169    0.299    0.464   73.331
  474.750   14.260    0.286    0.465   74.501
  475.000   13.769    0.267    0.449   75.124
  475.250   12.419    0.246    0.436   75.443
  475.500   11.289    0.238    0.430   76.005
  475.750   10.596    0.237    0.427   75.960
  476.000   10.385    0.250    0.424   74.512
  476.250   11.229    0.256    0.425   71.544
  476.500   13.392    0.254    0.427   72.046
  476.750   16.496    0.265    0.424   73.157
  477.000   19.086    0.286    0.428   68.543
  477.250   20.292    0.301    0.440   62.471
  477.500   19.926    0.304    0.447   58.710
  477.750   15.960    0.294    0.452   65.847
  478.000   13.200    0.262    0.459   70.794
  478.250   11.444    0.254    0.466   73.915
  478.500   11.281    0.254    0.469   72.771
  478.750   12.641    0.249    0.452   64.081
  479.000   13.877    0.247    0.396   56.240
  479.250   16.230    0.283    0.373   49.318
  479.500   16.876    0.296    0.383   46.650
  479.750   18.342    0.273    0.402   44.778
  480.000   18.576    0.272    0.423   49.177
  480.250   18.345    0.230    0.407   55.037
  480.500   17.282    0.204    0.383   63.517
  480.750   15.387    0.178    0.366   67.668
  481.000   14.143    0.180    0.358   71.821
  481.250   14.047    0.240    0.375   72.201
  481.500   14.704    0.263    0.393   59.553
  481.750   15.255    0.282    0.410   54.757
  482.000   16.187    0.280    0.420   54.348
  482.250   17.534    0.274    0.423   55.578
  482.500   20.143    0.273    0.426   54.496
  482.750   24.388    0.301    0.431   50.616
  483.000   26.872    0.323    0.437   49.412
  483.250   27.771    0.335    0.450   52.166
  483.500   27.015    0.337    0.461   55.895
  483.750   24.094    0.312    0.482   58.831
  484.000   19.189    0.298    0.471   61.100
  484.250   15.253    0.286    0.451   63.792
  484.500   13.076    0.276    0.441   67.097
  484.750   11.704    0.269    0.428   69.850
  485.000   10.985    0.262    0.421   71.689
  485.250   10.211    0.255    0.417   71.642
  485.500    9.936    0.245    0.413   73.911
  485.750    9.534    0.231    0.408   77.093
  486.000    9.472    0.221    0.406   79.178
  486.250    9.498    0.210    0.400   80.103
  486.500    9.596    0.202    0.408   80.300
  486.750    9.823    0.229    0.404   77.089
  487.000   10.283    0.246    0.393   70.892
  487.250   10.852    0.244    0.384   65.488
  487.500   12.116    0.229    0.387   56.556
  487.750   13.630    0.077    0.401   50.360
  488.000   15.245    0.016    0.363   44.406
  488.250   16.147   -0.002    0.306   45.274
  488.500   17.392   -0.008    0.280   50.100
  488.750   18.107    0.178    0.332   53.218
  489.000   18.291    0.238    0.370   48.607
  489.250   17.596    0.304    0.395   42.958
  489.500   16.113    0.272    0.430   52.533
  489.750   15.094    0.249    0.415   60.704
  490.000   14.628    0.238    0.405   63.764
  490.250   15.143    0.308    0.403   63.411
  490.500   16.782    0.324    0.439   50.093
  490.750   20.051    0.338    0.462   44.202
  491.000   23.740    0.347    0.474   40.627
  491.250   29.128    0.356    0.473   39.911
  491.500   36.696    0.360    0.455   39.258
  491.750   44.268    0.361    0.439   39.210
  492.000   53.097    0.362    0.446   39.952
  492.250   60.869    0.357    0.463   41.431
  492.500   66.680    0.343    0.459   42.479
  492.750   68.905    0.331    0.452   43.711
  493.000   68.444    0.327    0.447   42.751
  493.250   65.961    0.330    0.444   42.648
  493.500   58.714    0.328    0.443   43.753
  493.750   51.291    0.316    0.441   48.760
  494.000   41.707    0.309    0.440   53.890
  494.250   33.660    0.298    0.432   59.019
  494.500   30.362    0.293    0.425   62.442
  494.750   28.167    0.289    0.427   64.587
  495.000   27.506    0.285    0.404   66.553
  495.250   27.479    0.283    0.386   67.236
  495.500   27.919    0.281    0.383   65.726
  495.750   28.579    0.318    0.391   60.079
  496.000   28.118    0.306    0.407   58.330
  496.250   26.388    0.293    0.415   60.535
  496.500   24.258    0.281    0.417   60.733
  496.750   21.554    0.275    0.416   60.078
  497.000   18.864    0.280    0.422   61.613
  497.250   16.954    0.288    0.441   63.575
  497.500   14.724    0.280    0.455   66.026
  497.750   13.485    0.270    0.461   68.658
  498.000   12.210    0.264    0.455   72.386
  498.250   10.931    0.261    0.446   75.932
  498.500    9.936    0.258    0.436   80.756
  498.750    9.203    0.247    0.431   86.128
  499.000    8.621    0.233    0.426   93.510
  499.250    8.245    0.219    0.418   99.796
  499.500    7.974    0.215    0.437  101.818
  499.750    7.982    0.223    0.446   96.780
  500.000    8.233    0.197    0.434   99.777
  500.250    8.522    0.170    0.419  102.167
  500.500    8.610    0.138    0.412  102.181
  500.750    8.847    0.159    0.418   96.716
  501.000    9.385    0.144    0.420   86.138
  501.250    9.976    0.120    0.370   76.290
  501.500   10.448    0.047    0.317   80.631
  501.750   10.796    0.150    0.318   84.538
  502.000   10.683    0.191    0.337   88.692
  502.250    9.838    0.196    0.351   89.802
  502.500    9.625    0.206    0.367   75.694
  502.750    9.945    0.223    0.372   64.444
  503.000   10.298    0.243    0.366   57.397
  503.250   10.697    0.266    0.373   54.125
  503.500   10.749    0.274    0.400   53.044
  503.750   10.656    0.239    0.401   54.031
  504.000   10.096    0.209    0.380   55.569
  504.250    9.548    0.185    0.370   56.435
  504.500    9.304    0.220    0.399   56.878
  504.750    9.689    0.256    0.427   56.710
  505.000   10.594    0.282    0.437   56.663
  505.250   11.694    0.302    0.425   56.737
  505.500   12.454    0.322    0.414   56.873
  505.750   12.775    0.357    0.413   57.316
  506.000   12.688    0.480    0.414   57.391
  506.250   12.435    0.493    0.415   57.650
  506.500   12.165    0.493    0.418   57.608
  506.750   12.016    0.491    0.418   57.678
  507.000   12.023    0.485    0.404   57.873
