~Version : LASO    vs 4.00
VERS.                2.00:   CWLS Log ASCII Standard -VERSION 2.0
WRAP.                  NO:
~Well Information Block
#MNEM.UNIT       Data                        Description of Mnemonic
#----.----      -------------------------- : -----------------------------
STRT.M            15.0000:
STOP.M           206.4000:
STEP.M             0.2000:
NULL.           -999.2500:
COMP.  MOBIL OIL OF CANADA     :COMPANY
WELL.  MOBIL CLARKE OV 13-4    :WELL
FLD.                           :FIELD
LOC.   13-04-090-07W4          :LOCATION
CTRY.  CANADA                  :COUNTRY
PROV.  ALBERTA                 :PROVINCE
SRVC.  SCHLUMBERGER            :SERVICE COMPANY
DATE.  06-MAR-81               :LOG DATE
UWI.   AA/13-04-090-07W400     :UNIQUE WELL ID
~Parameter Information Block
#MNEM.UNIT       Data                        Description of Mnemonic
#----.----      -------------------------- : -----------------------------
RUN .                   1                 : Run Number
GL  .M           458.6000                 : Ground Level Elevation
DREF.                  KB                 : Depth Reference
EREF.M           458.6000                 : Elevation of Depth Reference
TDL .M           206.5000                 : Total Depth Logger
TDD .M           207.0000                 : Total Depth Driller
CSGL.M             0.0000                 : Casing Bottom Logger
CSGD.M             8.0000                 : Casing Bottom Driller
CSGS.MM          219.0000                 : Casing Size
CSGW.KG/M          0.0000                 : Casing Weight
BS  .MM          159.0000                 : Bit Size
DFD .            999.0000                 : Mud Weight (Density)
~Curve Information Block
#MNEM.UNIT        API CODE    Curve Description
#---------    ------------    ------------------------------
DEPT.M                    :   DEPTH
CALI.MM       42 280  1  1:   2 DENSITY CALIPER
DPHI.V/V                  :   DPHI
GR  .GAPI     42 310  1  1:   3 GAMMA RAY
LLD .Ohmm                 :   LLD
NPHI.V/V      42 890  3  1:   4 NEUTRON POROSITY (SANDSTONE)
RHOB.K/M3     42 350  1  1:   5 BULK DENSITY
~A  Depth           CALI        DPHI          GR         LLD        NPHI        RHOB
# ...
53.0000         180.3750      0.2426     28.4100    294.4645      0.3816   2135.0000
53.2000         186.8250      0.2394     30.3150    294.2270      0.3824   2118.0000
53.4000         182.5250      0.2344     31.5150    292.2386      0.3934   2101.0000
53.6000         179.3000      0.2419     30.6150    292.1903      0.4208   2093.8999
53.8000         182.5250      0.2466     30.3150    290.5305      0.4326   2061.0000
54.0000         182.5250      0.2496     30.5100    290.2044      0.4352   2057.0000
54.2000         179.3000      0.2480     30.8100    290.1557      0.4244   2102.0000
54.4000         182.5250      0.2422     33.5100    290.1533      0.4168   2097.0000
54.6000         184.6750      0.2359     33.8100    288.1349      0.4276   2068.0000
54.8000         181.4500      0.2337     34.9050    286.5138      0.4222   2117.0000
55.0000         180.3750      0.2353     36.8100    282.7659      0.3928   2153.8999
55.2000         184.6750      0.2392     37.1100    278.5260      0.3850   2120.0000
55.4000         186.8250      0.2360     37.3050    274.1945      0.3778   2152.0000
55.6000         181.4500      0.2385     35.6100    271.8764      0.3724   2181.0000
55.8000         180.3750      0.2389     33.8100    265.3766      0.3824   2194.0000
56.0000         186.8250      0.2380     33.1050    258.8407      0.3956   2146.0000
56.2000         187.9000      0.2401     35.1150    250.4547      0.4040   2125.0000
56.4000         185.7500      0.2477     36.8100    239.7510      0.3990   2124.0000
56.6000         180.3750      0.2555     39.1050    231.4555      0.3970   2121.0000
56.8000         180.3750      0.2688     41.1150    219.3677      0.3956   2078.0000
57.0000         184.6750      0.2718     40.0050    209.9994      0.4026   2090.0000
57.2000         186.8250      0.2733     38.8050    197.2373      0.4138   2080.0000
57.4000         184.6750      0.2807     38.9100    187.2298      0.4234   2082.0000
57.6000         184.6750      0.2926     39.4050    176.4659      0.4282   2087.0000
57.8000         184.6750      0.3034     38.3100    167.3211      0.4174   2097.0000
58.0000         176.0750      0.3118     37.7100    156.5725      0.4122   2106.0000
58.2000         180.3750      0.3071     38.0100    147.6647      0.4256   2101.0000
58.4000         188.9750      0.3078     39.8100    139.4554      0.4138   2104.0000
58.6000         188.9750      0.3273     41.8200    132.5680      0.4028   2115.0000
58.8000         182.5250      0.3506     47.6100    124.0989      0.3966   2174.0000
59.0000         182.5250      0.3724     50.5200    117.3619      0.3982   2126.0000
59.2000         188.9750      0.3941     52.8150    109.1946      0.3994   2137.0000
59.4000         187.9000      0.4185     57.0150    105.6710      0.3704   2272.0000
59.6000         180.3750      0.4241     58.9200    103.7721      0.3246   2378.0000
59.8000         184.6750      0.4195     61.8300    102.9607      0.2798   2410.0000
60.0000         182.5250      0.4155     67.7250    104.8255      0.2622   2452.0000
60.2000         184.6750      0.4128     69.0300    106.4510      0.2758   2437.0000
60.4000         187.9000      0.4150     71.0250    110.0755      0.2892   2400.0000
60.6000         192.2000      0.4103     73.1250    114.2140      0.2914   2391.0000
60.8000         197.5750      0.4014     76.0350    116.7357      0.2902   2425.0000
61.0000         199.7250      0.3916     75.8250    122.5587      0.2892   2411.0000
61.2000         199.7250      0.3883     74.7300    130.7498      0.2878   2410.0000
61.4000         206.1750      0.3827     76.1250    143.0382      0.2912   2400.0000
61.6000         200.8000      0.3732     77.9250    153.6916      0.2918   2428.0000
61.8000         193.2750      0.3569     78.6300    161.6864      0.2914   2436.0000
62.0000         199.7250      0.3406     77.6250    165.7976      0.3042   2405.0000
62.2000         201.8750      0.3223     76.5300    167.7314      0.3106   2421.0000
62.4000         202.9500      0.3058     77.0250    169.8468      0.3126   2409.0000
62.6000         208.3250      0.3108     80.1300    168.2258      0.3166   2410.0000
62.8000         205.1000      0.3263     80.4300    166.6070      0.3168   2415.0000
63.0000         205.1000      0.3401     80.8350    167.7803      0.3182   2419.0000
63.2000         204.0250      0.3502     79.8300    176.2325      0.3144   2419.0000
63.4000         198.6500      0.3607     79.1250    184.7156      0.3144   2406.0000
63.6000         193.2750      0.3712     77.3250    191.4775      0.3186   2391.0000
63.8000         191.1250      0.3654     75.0300    199.7214      0.3258   2375.0000
64.0000         193.2750      0.3549     73.0350    206.3221      0.3170   2371.0000
64.2000         199.7250      0.3401     74.2350    224.1745      0.3224   2400.0000
64.4000         207.2500      0.3232     75.2250    240.9455      0.3222   2375.8999
64.6000         191.1250      0.3135     74.6250    269.1614      0.3208   2375.8999
64.8000         195.4250      0.3145     72.3300    290.0965      0.3230   2384.0000
65.0000         202.9500      0.3052     70.6350    307.3445      0.3290   2378.0000
65.2000         198.6500      0.2811     72.7350    322.6504      0.3456   2385.0000
65.4000         196.5000      0.2481     74.3250    331.0899      0.3438   2402.0000
65.6000         198.6500      0.2268     73.5300    339.5704      0.3326   2397.8999
65.8000         201.8750      0.2067     72.1350    344.5826      0.3218   2382.0000
66.0000         199.7250      0.2103     73.0350    345.2832      0.3262   2397.8999
66.2000         197.5750      0.2119     73.5300    343.3895      0.3302   2375.0000
66.4000         194.3500      0.2155     73.8300    346.4602      0.3304   2353.8999
66.6000         186.8250      0.2219     73.5300    350.4482      0.3292   2363.0000
66.8000         183.6000      0.2318     72.1350    354.6674      0.3260   2377.0000
67.0000         186.8250      0.2411     70.5300    355.2711      0.3222   2373.0000
67.2000         185.7500      0.2426     68.2200    353.6701      0.3236   2375.8999
67.4000         184.6750      0.2485     67.0200    335.2639      0.3268   2395.0000
67.6000         184.6750      0.2490     66.8250    315.1255      0.3284   2426.0000
67.8000         185.7500      0.2345     68.6250    296.8527      0.3204   2455.0000
68.0000         186.8250      0.2219     67.1250    280.9766      0.3132   2448.0000
68.2000         184.6750      0.2266     66.3300    269.2495      0.3102   2429.0000
68.4000         188.9750      0.2422     67.8300    254.6055      0.3146   2381.0000
68.6000         190.0500      0.2536     65.7300    242.9611      0.3218   2426.0000
68.8000         184.6750      0.2655     62.8200    231.8828      0.3298   2443.0000
69.0000         178.2250      0.2754     60.7200    221.9560      0.3406   2425.0000
69.2000         182.5250      0.2663     59.2200    209.4824      0.3476   2339.0000
69.4000         191.1250      0.2517     57.1200    196.3662      0.3432   2291.0000
69.6000         186.8250      0.2415     52.7250    189.2116      0.3400   2306.0000
69.8000         183.6000      0.2466     51.9150    186.5618      0.3424   2306.0000
70.0000         183.6000      0.2653     51.3150    184.9427      0.3444   2271.0000
70.2000         182.5250      0.2828     51.8250    186.2927      0.3426   2278.0000
70.4000         181.4500      0.3092     52.1250    193.5308      0.3434   2264.0000
70.6000         182.5250      0.3154     53.7150    200.0491      0.3520   2274.0000
70.8000         181.4500      0.3100     54.6150    202.0907      0.3562   2277.0000
71.0000         182.5250      0.3005     56.8200    204.8656      0.3166   2375.8999
71.2000         186.8250      0.2758     57.3150    208.0784      0.2822   2434.0000
71.4000         191.1250      0.2482     58.0200    212.1147      0.2678   2441.0000
71.6000         186.8250      0.2106     61.2300    216.3476      0.2742   2430.0000
71.8000         188.9750      0.1947     63.2250    218.8432      0.2734   2441.0000
