~VERSION INFORMATION
 VERS.                 2.0:   CWLS LOG ASCII STANDARD -VERSION 2.0
 WRAP.                  NO:   ONE LINE PER DEPTH STEP
~WELL INFORMATION BLOCK
#MNEM.UNIT           DATA                    DESCRIPTION OF MNEMONIC
#---------    -------------------            -------------------------------
# Generated from Intellog Unique Number	CN_91_93/WELL/3715
WELL.         10-12-093-07W4                 : Well_name    - WELL
LOC .         AA/10-12-093-07W4/0            : Location     - LOCATION
UWI .         AA/10-12-093-07W400            : Uwi          - UNIQUE WELL ID
ENTR.         JOETTE                         : Entered      - ENTERED BY
SRVC.         WESTERN ATLAS                  : Scn          - SERVICE COMPANY
DATE.         03/22/92                       : Date         - LOG DATE
STRT.F        50                             : top_depth    - START DEPTH
STOP.F        860.367                        : bot_depth    - STOP DEPTH
STEP.F        0.8202                         : increment    - STEP LENGTH
 NULL. -999.2500:NULL Value
~CURVE INFORMATION BLOCK
#MNEM UNIT       ERCB CURVE CODE    CURVE DESCRIPTION
#-----------   ------------------   ----------------------------------
DEPT.F        00 001 00 00         : DEPTH        - DEPTH
CALI.IN       00 280 01 00         : CAL          - CALIPER
GR  .API      00 310 00 00         : GR           - GAMMA RAY
NPHI.V/V      00 330 00 00         : PHIN         - NEUTRON POROSITY (SANDSTONE)
ILD .OHMM     00 120 00 00         : RESD         - DEEP RESISTIVITY (DIL)
~PARAMETER INFORMATION
#MNEM.UNIT           DATA             DESCRIPTION OF MNEMONIC
#---------         -----------     ------------------------------
GL  .M        520.111              : gl           - GROUND LEVEL ELEVATION
EREF.M        521.635              : kb           - ELEVATION OF DEPTH REFERENCE
DATM.M        521.635              : datum        - DATUM ELEVATION
TDD .M        267.31               : tdd          - TOTAL DEPTH DRILLER
RUN .         ONE                  : Run          - RUN NUMBER
ENG .         BILL                 : Engineer     - RECORDING ENGINEER
WIT .         JIM                  : Witness      - WITNESSED BY
MUD .         GEL                  : Mud_type     - MUD TYPE
MATR.         SANDSTONE            : Logunit      - NEUTRON MATRIX
TMAX.F        45                   : BHT          - MAXIMUM RECORDED TEMPERATURE
BHTD.F        877                  : BHTDEP       - MAXIMUM RECORDED TEMPERATURE
RMT .F        45                   : MDTP         - TEMPERATURE OF MUD
MUDD.LB/G     1.07                 : MWT          - MUD DENSITY
NEUT.         1                    : NEUTRON      - NEUTRON TYPE
RESI.         0                    : RESIST       - RESISTIVITY TYPE
RM  .OHMM     8.9                  : RM           - RESISTIVITY OF MUD
RMC .OHMM     8.9                  : RMC          - RESISTIVITY OF MUD CAKE
RMF .OHMM     8.9                  : RMF          - RESISTIVITY OF MUD FILTRATE
SUFT.F        39.2                 : SUFT         - SURFACE TEMPERATURE
~A  DEPTH      CAL       GR     PHIN     RESD
# ...
  763.583    6.397   86.861    0.330   18.476
  764.403    6.358   88.707    0.331   18.823
  765.223    6.358   89.933    0.328   18.826
  766.043    6.400   82.624    0.327   18.830
  766.864    6.442   77.145    0.325   18.490
  767.684    6.443   77.771    0.324   18.159
  768.504    6.403   81.444    0.323   18.163
  769.324    6.403   86.338    0.321   18.504
  770.144    6.404   90.011    0.321   18.506
  770.965    6.406   88.803    0.320   18.511
  771.785    6.406   85.158    0.320   19.207
  772.605    6.407   80.287    0.319   19.930
  773.425    6.449   78.475    0.319   21.063
  774.245    6.449   80.925    0.319   21.066
  775.066    6.491   85.822    0.319   20.313
  775.886    6.532   90.105    0.322   19.947
  776.706    6.533   90.724    0.324   19.231
  777.526    6.534   88.913    0.327   18.884
  778.346    6.535   88.312    0.327   18.210
  779.167    6.536   87.104    0.324   17.879
  779.987    6.537   87.727    0.321   17.884
  780.807    6.456   87.739    0.319   17.888
  781.627    6.376   87.142    0.316   17.891
  782.448    6.377   81.663    0.309   17.895
  783.268    6.296   73.744    0.302   18.230
  784.088    6.216   45.690    0.295   19.267
  784.908    6.176   40.821    0.287   21.126
  785.728    6.136   43.274    0.283   22.326
  786.549    6.096   39.016    0.281   24.478
  787.369    6.056   34.764    0.277   26.837
  788.189    6.057   33.550    0.274   28.887
  789.009    6.058   32.955    0.269   31.672
  789.829    6.059   34.798    0.267   34.727
  790.650    6.019   36.638    0.264   38.074
  791.470    6.020   40.928    0.264   52.036
  792.290    6.021   43.377    0.265   52.047
  793.110    6.022   45.831    0.270   52.047
  793.930    6.023   48.897    0.277   50.198
  794.751    6.023   50.740    0.284   50.205
  795.571    6.024   50.752    0.294   49.302
  796.391    5.984   49.541    0.289   49.312
  797.211    5.985   45.289    0.283   49.319
  798.031    5.945   46.519    0.278   52.123
  798.852    5.946   50.195    0.276   58.207
  799.672    5.907   53.869    0.278   61.516
  800.492    5.907   55.708    0.282   45.865
  801.312    5.908   50.840    0.288   41.847
  802.133    5.868   47.802    0.292   38.185
  802.953    5.870   44.156    0.297   37.496
  803.773    5.870   42.946    0.301   37.508
  804.593    5.871   37.467    0.303   38.210
  805.413    5.872   31.994    0.308   38.216
  806.234    5.873   31.397    0.311   40.389
  807.054    5.874   31.406    0.314   55.200
  807.874    5.874   32.035    0.317   67.572
  808.694    5.876   32.651    0.319   78.281
  809.514    5.876   33.274    0.322   90.689
  810.335    5.877   36.343    0.324  113.077
  811.155    5.837   37.570    0.325  101.299
  811.975    5.838   38.809    0.325   89.106
  812.795    5.839   38.825    0.327   85.905
  813.615    5.799   38.221    0.326   81.312
  814.436    5.800   37.626    0.325   85.944
  815.256    5.801   37.642    0.324   89.169
  816.076    5.761   37.651    0.323  119.656
  816.896    5.762   38.271    0.322  124.158
  817.717    5.722   40.120    0.316  138.663
  818.537    5.723   41.349    0.312  136.154
  819.357    5.724   45.023    0.305   79.949
  820.177    5.725   47.476    0.299   61.836
  820.997    5.725   49.929    0.289   52.426
  821.818    5.727   48.724    0.278   46.111
  822.638    5.727   46.293    0.282   46.977
  823.458    5.728   41.428    0.285   52.457
  824.278    5.729   38.389    0.292   65.404
  825.098    5.730   37.182    0.304  117.745
  825.919    5.771   37.194    0.314  146.806
  826.739    5.772   38.430    0.323  204.360
  827.559    5.732   39.056    0.327  215.990
  828.379    5.692   39.065    0.329  220.027
  829.199    5.693   37.250    0.330  212.145
  830.020    5.694   37.257    0.332   89.501
  830.840    5.654   37.269    0.332   78.720
  831.660    5.655   38.505    0.331   70.524
  832.480    5.656   39.128    0.331   65.539
  833.301    5.698   37.923    0.329   57.647
  834.121    5.780   36.712    0.318   56.615
  834.941    5.903   34.897    0.308   56.621
  835.761    5.944   32.469    0.303   58.751
  836.581    6.067   33.092    0.295   63.242
  837.402    6.068   36.765    0.288   68.077
  838.222    6.069   39.825    0.279   73.281
  839.042    5.988   50.823    0.266   81.838
  839.862    5.867   59.378    0.255   80.365
  840.682    5.746   73.424    0.245   48.062
  841.503    5.462  111.264    0.234   31.512
  842.323    5.097  134.465    0.261   30.944
  843.143    5.504  154.002    0.280   31.524
  843.963    5.953  122.288    0.279   33.316
  844.783    6.198   95.454    0.278   31.537
  845.604    6.239   84.484    0.281   27.738
  846.424    6.281   94.259    0.345   21.063
  847.244    6.281   94.881    0.379   15.418
  848.064    6.283   90.626    0.414   10.486
  848.885    6.243   87.588    0.405    8.111
  849.705    6.203   85.160    0.327    8.416
  850.525    5.960   82.732    0.307    8.894
  851.345    5.716   79.084    0.289    9.933
  852.165    5.717   74.215    0.269   11.507
  852.986    5.799   68.736    0.247   13.089
  853.806    5.963   64.481    0.237   13.833
  854.626    6.086   61.443    0.226   14.353
  855.446    6.087   64.503    0.215   15.451
  856.266    6.047   72.450    0.210   16.032
  857.087    6.007   74.293    0.204   16.634
  857.907    5.927   73.695    0.198   17.581
  858.727    5.765   67.606    0.176   18.243
  859.547    5.644   63.348    0.129   19.636
  860.367    5.563   57.869    0.119   22.750
