~VERSION INFORMATION
 VERS.                 2.0:   CWLS LOG ASCII STANDARD -VERSION 2.0
 WRAP.                  NO:   ONE LINE PER DEPTH STEP
~WELL INFORMATION BLOCK
#MNEM.UNIT           DATA                    DESCRIPTION OF MNEMONIC
#---------    -------------------            -------------------------------
# Generated from Intellog Unique Number	CC_88_90/WELL/1183
WELL.         10-26-089-14W4                 : Well_name    - WELL
LOC .         AA/10-26-089-14W4/0            : Location     - LOCATION
UWI .         AA/10-26-089-14W400            : Uwi          - UNIQUE WELL ID
ENTR.         DW                             : Entered      - ENTERED BY
SRVC.         SCHLUMBERGER                   : Scn          - SERVICE COMPANY
STRT.M        70                             : top_depth    - START DEPTH
STOP.M        219.75                         : bot_depth    - STOP DEPTH
STEP.M        0.25                           : increment    - STEP LENGTH
 NULL. -999.2500:NULL Value
~CURVE INFORMATION BLOCK
#MNEM UNIT       ERCB CURVE CODE    CURVE DESCRIPTION
#-----------   ------------------   ----------------------------------
DEPT.M        00 001 00 00         : DEPTH        - DEPTH
GR  .API      00 310 00 00         : GR           - GAMMA RAY
DPHI.V/V      00 890 00 00         : PHID         - DENSITY POROSITY (SANDSTONE)
NPHI.V/V      00 330 00 00         : PHIN         - NEUTRON POROSITY (SANDSTONE)
ILD .OHMM     00 120 00 00         : RESD         - DEEP RESISTIVITY (DIL)
~PARAMETER INFORMATION
#MNEM.UNIT           DATA             DESCRIPTION OF MNEMONIC
#---------         -----------     ------------------------------
GL  .M        500.2                : gl           - GROUND LEVEL ELEVATION
EREF.M        503.2                : kb           - ELEVATION OF DEPTH REFERENCE
DATM.M        503.2                : datum        - DATUM ELEVATION
TDD .M        227                  : tdd          - TOTAL DEPTH DRILLER
RUN .         ONE                  : Run          - RUN NUMBER
ENG .         BILL                 : Engineer     - RECORDING ENGINEER
WIT .         JIM                  : Witness      - WITNESSED BY
MUD .         GEL                  : Mud_type     - MUD TYPE
MATR.         SANDSTONE            : Logunit      - NEUTRON MATRIX
TMAX.C        25                   : BHT          - MAXIMUM RECORDED TEMPERATURE
BHTD.M        227                  : BHTDEP       - MAXIMUM RECORDED TEMPERATURE
MATR.         1                    : LOGUNIT      - NEUTRON MATRIX
RMT .C        25                   : MDTP         - TEMPERATURE OF MUD
NEUT.         1                    : NEUTRON      - NEUTRON TYPE
RESI.         0                    : RESIST       - RESISTIVITY TYPE
RMC .OHMM     0.25                 : RMC          - RESISTIVITY OF MUD CAKE
RMF .OHMM     0.25                 : RMF          - RESISTIVITY OF MUD FILTRATE
SUFT.C        15                   : SUFT         - SURFACE TEMPERATURE
~A  DEPTH       GR     PHID     PHIN     RESD
# ...
  157.000  105.863    0.239    0.470    6.669
  157.250  102.077    0.214    0.461    6.611
  157.500   95.400    0.225    0.516    7.226
  157.750   90.306    0.238    0.524    8.188
  158.000   88.897    0.216    0.472    9.380
  158.250   89.129    0.183    0.455   10.432
  158.500   90.286    0.182    0.477   10.502
  158.750   95.159    0.216    0.488   10.171
  159.000  101.108    0.237    0.497    9.891
  159.250  102.627    0.238    0.514    9.342
  159.500   95.541    0.237    0.498    8.526
  159.750   85.750    0.239    0.453    8.235
  160.000   85.206    0.228    0.444    8.838
  160.250   92.731    0.217    0.439    9.275
  160.500   99.796    0.244    0.447    9.730
  160.750  104.201    0.247    0.461   10.061
  161.000  107.146    0.229    0.462   10.037
  161.250  107.697    0.224    0.448    9.882
  161.500  104.835    0.214    0.432    9.893
  161.750  102.163    0.218    0.423    9.882
  162.000  100.077    0.225    0.424    9.999
  162.250   98.090    0.231    0.434   10.192
  162.500  100.438    0.215    0.446   10.280
  162.750  106.144    0.193    0.458   10.264
  163.000  108.376    0.210    0.470   10.073
  163.250  111.389    0.227    0.479    9.210
  163.500  114.070    0.233    0.478    8.155
  163.750  114.185    0.235    0.480    7.696
  164.000  112.551    0.237    0.476    7.752
  164.250  110.142    0.237    0.456    7.897
  164.500  107.017    0.230    0.442    8.161
  164.750  105.143    0.229    0.456    8.551
  165.000  101.126    0.224    0.476    8.979
  165.250  101.197    0.192    0.475    9.332
  165.500  105.554    0.196    0.460    9.121
  165.750  107.529    0.244    0.458    8.303
  166.000  106.253    0.252    0.468    7.281
  166.250  107.310    0.260    0.475    5.739
  166.500  112.191    0.242    0.490    4.878
  166.750  113.437    0.228    0.503    4.826
  167.000  110.618    0.215    0.501    5.092
  167.250  110.147    0.208    0.485    5.441
  167.500  112.290    0.242    0.484    5.896
  167.750  110.110    0.238    0.530    6.405
  168.000  105.720    0.207    0.517    6.621
  168.250  108.049    0.204    0.485    6.505
  168.500  112.813    0.230    0.491    6.261
  168.750  112.501    0.249    0.520    6.103
  169.000  110.301    0.244    0.535    6.117
  169.250  107.737    0.212    0.522    6.210
  169.500  105.195    0.186    0.502    6.394
  169.750  105.122    0.193    0.521    7.086
  170.000  109.304    0.225    0.501    7.646
  170.250  115.693    0.242    0.441    7.699
  170.500  120.015    0.223    0.451    7.819
  170.750  120.805    0.220    0.442    7.467
  171.000  118.999    0.228    0.444    7.216
  171.250  114.600    0.232    0.459    7.421
  171.500  110.916    0.226    0.458    7.806
  171.750  108.906    0.208    0.436    8.208
  172.000  108.159    0.202    0.414    8.747
  172.250  115.112    0.219    0.407    9.165
  172.500  115.718    0.205    0.422    9.671
  172.750  110.220    0.189    0.453    9.775
  173.000  109.890    0.160    0.443    9.504
  173.250  115.899    0.142    0.396    9.172
  173.500  118.525    0.198    0.405    8.577
  173.750  117.608    0.222    0.457    7.774
  174.000  115.993    0.218    0.464    7.406
  174.250  114.387    0.217    0.448    7.339
  174.500  111.489    0.222    0.447    7.777
  174.750  107.993    0.227    0.451    8.496
  175.000  106.664    0.231    0.452    8.726
  175.250  107.069    0.222    0.455    9.150
  175.500  107.472    0.215    0.465    9.421
  175.750  103.939    0.202    0.430    9.267
  176.000  104.657    0.212    0.399    8.933
  176.250  108.038    0.237    0.416    8.667
  176.500  101.605    0.217    0.419    8.552
  176.750  101.452    0.206    0.414    8.831
  177.000  105.424    0.209    0.413    8.951
  177.250  106.509    0.233    0.430    9.320
  177.500  105.628    0.235    0.452    8.698
  177.750  104.846    0.209    0.460    7.599
  178.000  101.474    0.215    0.460    8.377
  178.250   97.003    0.226    0.470    8.403
  178.500   96.701    0.219    0.494    8.439
  178.750   99.688    0.191    0.470    7.938
  179.000  105.124    0.184    0.438    6.637
  179.250  110.748    0.220    0.456    5.270
  179.500  110.585    0.253    0.488    4.311
  179.750  105.419    0.267    0.517    3.846
  180.000  107.137    0.272    0.548    3.454
  180.250  109.106    0.284    0.584    3.122
  180.500  107.063    0.280    0.608    2.961
  180.750  105.355    0.283    0.614    3.044
  181.000  104.879    0.315    0.605    3.556
  181.250  103.244    0.247    0.550    4.540
  181.500  103.068    0.214    0.497    5.313
  181.750  104.403    0.209    0.465    6.157
  182.000  101.290    0.195    0.447    7.176
  182.250   92.551    0.195    0.441    8.034
  182.500   84.421    0.213    0.448    8.506
  182.750   76.286    0.228    0.464    7.818
  183.000   67.404    0.292    0.492    4.242
  183.250   62.455    0.381    0.534    2.324
  183.500   64.029    0.485    0.567    2.485
  183.750   68.329    0.568    0.592    2.275
  184.000   70.054    0.584    0.637    2.428
  184.250   68.802    0.598    0.665    2.861
  184.500   64.919    0.508    0.677    3.774
  184.750   61.118    0.373    0.730    5.881
  185.000   57.108    0.303    0.624    8.310
  185.250   56.486    0.297    0.405   10.892
  185.500   64.950    0.292    0.425   13.890
  185.750   74.261    0.299    0.431   13.442
  186.000   82.826    0.322    0.423    9.701
  186.250   89.829    0.323    0.440    6.051
  186.500   95.330    0.345    0.486    3.891
  186.750   97.453    0.400    0.545    2.813
  187.000   95.077    0.414    0.593    2.664
  187.250   95.397    0.424    0.628    2.622
  187.500   96.494    0.408    0.644    2.618
  187.750   97.408    0.357    0.677    2.791
  188.000   96.999    0.324    0.653    2.984
  188.250   95.307    0.330    0.566    3.143
  188.500   94.938    0.342    0.551    3.534
  188.750   96.664    0.370    0.583    4.053
  189.000  101.112    0.340    0.630    4.091
  189.250  104.601    0.341    0.561    3.703
  189.500  105.403    0.363    0.511    3.374
  189.750  102.371    0.357    0.579    3.251
  190.000   94.825    0.372    0.602    3.212
  190.250   89.614    0.384    0.624    3.519
  190.500   89.542    0.397    0.639    3.980
  190.750   89.132    0.298    0.689    5.241
  191.000   87.276    0.208    0.601    7.077
  191.250   83.659    0.234    0.411    9.020
  191.500   76.177    0.244    0.432   11.212
  191.750   69.246    0.278    0.467   13.142
  192.000   53.527    0.320    0.452   15.690
  192.250   41.404    0.327    0.434   20.867
  192.500   36.805    0.314    0.415   29.959
  192.750   33.661    0.309    0.388   46.429
  193.000   32.228    0.310    0.384   70.475
  193.250   30.180    0.320    0.377   85.330
  193.500   28.436    0.321    0.363   73.309
  193.750   29.741    0.319    0.367   46.992
  194.000   34.125    0.315    0.376   29.660
  194.250   43.197    0.309    0.373   24.287
  194.500   56.715    0.309    0.376   19.047
  194.750   63.614    0.312    0.393   18.009
  195.000   69.971    0.306    0.400   17.316
  195.250   73.650    0.294    0.400   16.865
  195.500   75.583    0.283    0.405   16.995
  195.750   78.804    0.278    0.409   16.973
  196.000   81.286    0.273    0.398   16.966
  196.250   83.904    0.266    0.392   16.501
  196.500   85.416    0.274    0.393   15.500
  196.750   85.280    0.280    0.397   14.801
  197.000   83.258    0.274    0.400   14.368
  197.250   81.857    0.265    0.397   13.985
  197.500   83.010    0.263    0.390   14.016
  197.750   81.062    0.265    0.394   14.159
  198.000   79.706    0.269    0.398   15.168
  198.250   86.086    0.247    0.394   16.355
  198.500   95.287    0.230    0.380   17.307
  198.750   99.364    0.245    0.369   18.561
  199.000   99.524    0.256    0.377   20.835
  199.250   97.254    0.250    0.388   24.446
  199.500   91.444    0.278    0.405   27.727
  199.750   81.150    0.307    0.407   29.947
  200.000   73.312    0.311    0.401   30.232
  200.250   72.333    0.296    0.399   27.367
