~VERSION INFORMATION
 VERS.                 2.0:   CWLS LOG ASCII STANDARD -VERSION 2.0
 WRAP.                  NO:   ONE LINE PER DEPTH STEP
~WELL INFORMATION BLOCK
#MNEM.UNIT           DATA                    DESCRIPTION OF MNEMONIC
#---------    -------------------            -------------------------------
# Generated from Intellog Unique Number	CC_80_83/WELL/2438
NULL.         -999.25                        : NULL_VALUE
WELL.         GULF RESDELN                   : Well_name    - WELL              
LOC .         14-36-082-07W4                 : Location     - LOCATION          
UWI .         AA/14-36-082-07W4/0            : Uwi          - UNIQUE WELL ID    
ENTR.         DW                             : Entered      - ENTERED BY        
SRVC.         SCHLUMBERGER                   : Scn          - SERVICE COMPANY   
DATE.         01 MAR 81                      : Date         - LOG DATE
STRT.M        160                            : top_depth    - START DEPTH       
STOP.M        419.794                        : bot_depth    - STOP DEPTH        
STEP.M        0.3                            : increment    - STEP LENGTH       
~CURVE INFORMATION BLOCK
#MNEM UNIT       ERCB CURVE CODE    CURVE DESCRIPTION
#-----------   ------------------   ----------------------------------
DEPT.M        00 001 00 00         : DEPTH        - DEPTH                       
DPHI.V/V      00 890 00 00         : PHID         - DENSITY POROSITY (LIMESTONE)
NPHI.V/V      00 330 00 00         : PHIN         - NEUTRON POROSITY (LIMESTONE)
GR  .API      00 310 00 00         : GR           - GAMMA RAY                   
ILD .OHMM     00 120 00 00         : RESD         - DEEP RESISTIVITY (DIL)      
~PARAMETER INFORMATION       
#MNEM.UNIT           DATA             DESCRIPTION OF MNEMONIC
#---------         -----------     ------------------------------
GL  .M        627.75               : gl           - GROUND LEVEL ELEVATION      
EREF.M        631.5                : kb           - ELEVATION OF DEPTH REFERENCE
DATM.M        631.5                : datum        - DATUM ELEVATION             
TDD .M        461                  : tdd          - TOTAL DEPTH DRILLER         
RUN .         ONE                  : Run          - RUN NUMBER                  
ENG .         BILL                 : Engineer     - RECORDING ENGINEER          
WIT .         JIM                  : Witness      - WITNESSED BY                
MUD .         GEL                  : Mud_type     - MUD TYPE                    
MATR.         LIMESTONE            : Logunit      - NEUTRON MATRIX              
TMAX.C        17.8                 : BHT          - MAXIMUM RECORDED TEMPERATURE
BHTD.M        461                  : BHTDEP       - MAXIMUM RECORDED TEMPERATURE
MATR.         1                    : LOGUNIT      - NEUTRON MATRIX              
RMT .C        25                   : MDTP         - TEMPERATURE OF MUD          
NEUT.         1                    : NEUTRON      - NEUTRON TYPE                
RESI.         0                    : RESIST       - RESISTIVITY TYPE            
RMC .OHMM     0.25                 : RMC          - RESISTIVITY OF MUD CAKE     
RMF .OHMM     0.25                 : RMF          - RESISTIVITY OF MUD FILTRATE 
SUFT.C        4                    : SUFT         - SURFACE TEMPERATURE         
~A  DEPTH     PHID     PHIN       GR     RESD
# ...
  316.599    0.301    0.475   87.992    6.528
  316.898    0.298    0.430   86.752    7.176
  317.198    0.270    0.440   87.359    7.889
  317.498    0.262    0.439   87.969    8.509
  317.798    0.270    0.428   89.194    8.669
  318.098    0.276    0.429   90.420    8.831
  318.398    0.250    0.470   89.795    8.661
  318.698    0.246    0.489   86.088    7.722
  318.998    0.287    0.510   86.697    6.025
  319.298    0.297    0.505   91.005    4.885
  319.598    0.284    0.479   91.614    4.611
  319.898    0.268    0.476   85.441    4.609
  320.198    0.254    0.500   90.981    4.520
  320.498    0.294    0.517   94.056    4.518
  320.798    0.306    0.488   87.266    4.781
  321.098    0.319    0.463   81.094    5.256
  321.398    0.301    0.465   76.772    6.235
  321.698    0.309    0.449   73.682    7.982
  321.998    0.291    0.442   76.138    9.116
  322.298    0.298    0.439   80.446    9.111
  322.598    0.289    0.473   85.371    7.672
  322.898    0.306    0.504   85.363    6.462
  323.198    0.320    0.540   85.971    3.317
  323.498    0.330    0.496   89.046    3.252
  323.798    0.315    0.448   87.806    3.644
  324.098    0.306    0.421   82.249    5.230
  324.398    0.311    0.443   77.310    7.797
  324.698    0.319    0.458   73.602    8.252
  324.998    0.313    0.443   69.281    8.874
  325.298    0.294    0.418   64.341    8.848
  325.598    0.253    0.384   60.635    9.704
  325.898    0.216    0.339   56.311   12.868
  326.198    0.092    0.269   48.290   20.626
  326.498    0.033    0.244   45.199   25.337
  326.798    0.018    0.239   48.274   22.552
  327.098    0.058    0.233   55.048   17.237
  327.398    0.148    0.313   67.985   14.490
  327.698    0.282    0.452   70.444   10.866
  327.998    0.300    0.458   70.436   10.433
  328.298    0.299    0.453   67.346   10.599
  328.598    0.257    0.440   64.254   10.982
  328.898    0.220    0.427   66.097   11.376
  329.198    0.228    0.436   73.487   10.316
  329.498    0.296    0.427   81.493    8.188
  329.798    0.231    0.456   82.102    7.015
  330.098    0.231    0.482   79.011    6.243
  330.398    0.262    0.486   79.619    5.761
  330.698    0.275    0.482   80.845    5.640
  330.998    0.281    0.466   81.453    5.630
  331.298    0.302    0.439   84.527    6.056
  331.598    0.324    0.414   87.603    7.028
  331.898    0.219    0.415   89.444    7.855
  332.198    0.230    0.419   90.668    7.980
  332.498    0.244    0.427   90.046    7.963
  332.798    0.234    0.427   87.570    7.356
  333.098    0.227    0.450   85.714    6.187
  333.398    0.260    0.531   81.391    4.301
  333.698    0.333    0.554   77.686    2.991
  333.998    0.344    0.570   75.211    2.199
  334.298    0.343    0.561   71.505    2.071
  334.598    0.322    0.543   69.648    2.145
  334.898    0.315    0.518   69.640    2.353
  335.198    0.289    0.472   72.714    2.839
  335.498    0.259    0.445   74.555    3.982
  335.798    0.269    0.425   76.398    4.367
  336.098    0.249    0.423   80.088    5.265
  336.398    0.234    0.428   82.546    5.998
  336.698    0.240    0.435   81.923    6.213
  336.998    0.246    0.428   78.215    6.432
  337.298    0.281    0.422   76.974    6.417
  337.598    0.268    0.446   79.433    6.162
  337.898    0.299    0.475   82.508    4.621
  338.198    0.284    0.481   84.966    3.959
  338.498    0.239    0.483   81.257    3.518
  338.798    0.265    0.486   80.018    3.382
  339.098    0.279    0.486   78.777    3.246
  339.398    0.276    0.491   81.234    3.298
  339.698    0.269    0.520   83.693    3.349
  339.998    0.268    0.531   86.151    3.278
  340.298    0.283    0.527   87.377    3.150
  340.598    0.283    0.527   84.287    3.261
  340.898    0.274    0.535   84.278    3.506
  341.198    0.289    0.525   84.887    3.432
  341.497    0.305    0.513   84.878    3.359
  341.797    0.262    0.510   85.489    3.350
  342.097    0.239    0.513   84.247    3.470
  342.397    0.270    0.488   82.391    3.876
  342.697    0.267    0.462   81.766    4.500
  342.997    0.274    0.480   80.526    5.225
  343.297    0.255    0.460   77.436    6.063
  343.597    0.201    0.428   74.346    6.165
  343.897    0.167    0.432   74.954    6.143
  344.197    0.098    0.472   81.728    6.245
  344.497    0.258    0.456   77.404    6.721
  344.797    0.287    0.436   65.068    7.230
  345.097    0.287    0.417   62.594    7.211
  345.397    0.280    0.412   65.052    7.182
  345.697    0.263    0.400   69.976    7.169
  345.997    0.273    0.408   76.132    6.626
  346.297    0.269    0.459   77.975    5.678
  346.597    0.287    0.472   76.734    5.659
  346.897    0.309    0.448   71.178    5.752
  347.197    0.246    0.417   68.088    5.523
  347.497    0.277    0.456   69.930    4.731
  347.797    0.294    0.517   77.319    3.828
  348.097    0.301    0.543   83.476    3.039
  348.397    0.289    0.544   84.085    2.862
  348.697    0.291    0.491   85.926    3.139
  348.997    0.262    0.430   89.001    3.858
  349.297    0.221    0.440   88.992    5.313
  349.597    0.230    0.442   87.135    6.653
  349.897    0.244    0.414   79.650    7.580
  350.197    0.241    0.396   74.066    8.798
  350.497    0.302    0.364   70.950   10.018
  350.797    0.280    0.352   75.204   10.575
  351.097    0.276    0.384   76.413   10.347
  351.397    0.237    0.398   78.226    9.747
  351.697    0.227    0.401   78.177    8.829
  351.997    0.236    0.395   76.294    8.161
  352.297    0.241    0.393   71.948    7.993
  352.597    0.284    0.388   66.987    8.440
  352.897    0.259    0.378   66.329    9.432
  353.197    0.224    0.372   72.449    9.583
  353.497    0.241    0.408   79.181    9.377
  353.797    0.241    0.422   81.607    9.177
  354.097    0.227    0.402   80.954    8.645
  354.397    0.197    0.401   78.452    8.457
  354.697    0.188    0.410   80.261    8.425
  354.997    0.230    0.415   84.532    8.572
  355.297    0.224    0.411   82.646    8.873
  355.597    0.214    0.399   75.216    9.017
  355.897    0.235    0.395   75.789    9.170
  356.197    0.212    0.414   79.451    8.799
  356.497    0.196    0.427   84.955    8.291
  356.797    0.196    0.436   91.071    7.661
  357.097    0.191    0.449   84.873    7.500
  357.397    0.214    0.441   81.760    7.909
  357.697    0.235    0.434   80.485    8.189
  357.997    0.253    0.419   74.289    8.325
  358.297    0.219    0.424   73.636    8.629
  358.597    0.266    0.419   71.131    9.107
  358.897    0.255    0.377   66.787    9.439
  359.197    0.260    0.392   63.670    9.591
  359.497    0.307    0.401   65.476    9.565
  359.797    0.295    0.387   74.673    9.001
  360.097    0.203    0.415   83.868    8.476
  360.397    0.219    0.444   78.293    8.304
  360.697    0.216    0.405   73.321    8.126
  360.997    0.201    0.422   76.982    8.102
  361.297    0.212    0.447   84.948    8.076
  361.597    0.202    0.436   88.597    8.363
  361.897    0.215    0.430   86.103    8.339
  362.197    0.190    0.419   78.053    8.638
  362.497    0.219    0.397   74.943    9.124
  362.797    0.248    0.381   68.122   10.186
  363.097    0.247    0.382   66.242   10.965
  363.397    0.251    0.387   66.204   11.355
  363.697    0.237    0.391   69.238   11.105
  363.997    0.236    0.392   69.207   11.083
  364.297    0.260    0.387   63.010   11.694
  364.597    0.244    0.381   65.433   12.576
  364.897    0.254    0.374   69.084   12.556
  365.197    0.254    0.406   70.282   12.754
  365.497    0.247    0.399   66.549   12.720
  365.797    0.231    0.389   72.048   12.203
  366.096    0.233    0.408   73.236   11.499
  366.396    0.241    0.413   73.817   11.045
  366.696    0.238    0.405   79.936   11.433
  366.996    0.237    0.393   80.516   11.627
  367.296    0.256    0.378   74.317   11.369
  367.596    0.263    0.391   73.046   11.556
  367.896    0.253    0.406   68.703   11.959
  368.196    0.250    0.371   59.419   12.164
  368.496    0.261    0.370   56.921   12.608
