~VERSION INFORMATION
 VERS.                 2.0:   CWLS LOG ASCII STANDARD -VERSION 2.0
 WRAP.                  NO:   ONE LINE PER DEPTH STEP
~WELL INFORMATION BLOCK
#MNEM.UNIT           DATA                    DESCRIPTION OF MNEMONIC
#---------    -------------------            -------------------------------
# Generated from Intellog Unique Number	CC_80_83/WELL/2426
NULL.         -999.25                        : NULL_VALUE
WELL.         ARCO ACI MCMURRAY OV           : Well_name    - WELL
LOC .         12-08-083-10W4                 : Location     - LOCATION          
UWI .         AA/12-08-083-10W400            : Uwi          - UNIQUE WELL ID    
ENTR.         DW                             : Entered      - ENTERED BY        
SRVC.         SCHLUMBERGER                   : Scn          - SERVICE COMPANY   
DATE.         12 MAR 74                      : Date         - LOG DATE
STRT.M        262.128                        : top_depth    - START DEPTH       
STOP.M        499.879                        : bot_depth    - STOP DEPTH        
STEP.M        0.305                          : increment    - STEP LENGTH       
~CURVE INFORMATION BLOCK
#MNEM UNIT       ERCB CURVE CODE    CURVE DESCRIPTION
#-----------   ------------------   ----------------------------------
DEPT.M        00 001 00 00         : DEPTH        - DEPTH                       
DPHI.V/V      00 890 00 00         : PHID         - DENSITY POROSITY (LIMESTONE)
GR  .API      00 310 00 00         : GR           - GAMMA RAY                   
ILD .OHMM     00 120 00 00         : RESD         - DEEP RESISTIVITY (DIL)      
NPHI.V/V      00 330 00 00         : PHIN         - NEUTRON POROSITY (LIMESTONE)
~PARAMETER INFORMATION       
#MNEM.UNIT           DATA             DESCRIPTION OF MNEMONIC
#---------         -----------     ------------------------------
GL  .M        729.844              : gl           - GROUND LEVEL ELEVATION      
EREF.M        732.892              : kb           - ELEVATION OF DEPTH REFERENCE
DATM.M        732.892              : datum        - DATUM ELEVATION             
TDD .M        501.701              : tdd          - TOTAL DEPTH DRILLER         
RUN .         ONE                  : Run          - RUN NUMBER                  
ENG .         BILL                 : Engineer     - RECORDING ENGINEER          
WIT .         JIM                  : Witness      - WITNESSED BY                
MUD .         GEL                  : Mud_type     - MUD TYPE                    
MATR.         LIMESTONE            : Logunit      - NEUTRON MATRIX              
TMAX.C        28.8889              : BHT          - MAXIMUM RECORDED TEMPERATURE
BHTD.M        501.701              : BHTDEP       - MAXIMUM RECORDED TEMPERATURE
MATR.         1                    : LOGUNIT      - NEUTRON MATRIX              
RMT .C        25                   : MDTP         - TEMPERATURE OF MUD          
NEUT.         1                    : NEUTRON      - NEUTRON TYPE                
RESI.         0                    : RESIST       - RESISTIVITY TYPE            
RMC .OHMM     0.25                 : RMC          - RESISTIVITY OF MUD CAKE     
RMF .OHMM     0.25                 : RMF          - RESISTIVITY OF MUD FILTRATE 
SUFT.C        15                   : SUFT         - SURFACE TEMPERATURE         
~A  DEPTH     PHID       GR     RESD     PHIN
  262.128    0.269   92.499    3.668    0.456
  262.433    0.276   92.121    3.601    0.444
  262.738    0.286   92.958    3.601    0.473
  263.042    0.278   93.386    3.600    0.474
  263.347    0.265   93.818    3.534    0.515
  263.652    0.273   92.235    3.534    0.486
  263.957    0.262   89.427    3.534    0.469
  264.262    0.266   92.690    3.533    0.445
  264.566    0.268   90.290    3.533    0.470
  264.871    0.250   88.703    3.468    0.493
  265.176    0.238   91.159    3.404    0.481
  265.481    0.256   93.612    3.341    0.454
  265.786    0.261   93.236    3.341    0.465
  266.091    0.280   90.028    3.279    0.446
  266.395    0.281   87.221    3.279    0.437
  266.700    0.282   86.035    3.219    0.447
  267.005    0.286   90.516    3.218    0.456
  267.310    0.286   85.693    3.279    0.430
  267.615    0.269   84.903    3.466    0.425
  267.919    0.253   87.761    3.597    0.422
  268.224    0.265   83.349    3.597    0.434
  268.529    0.254   82.964    3.402    0.472
  268.834    0.294   82.590    3.278    0.505
  269.139    0.302   84.234    3.100    0.499
  269.443    0.291   87.499    2.987    0.476
  269.748    0.308   86.322    2.878    0.475
  270.053    0.301   85.127    2.877    0.512
  270.358    0.291   87.576    2.877    0.498
  270.663    0.285   90.839    3.042    0.495
  270.967    0.265   85.204    3.157    0.472
  271.272    0.248   84.020    3.338    0.446
  271.577    0.235   87.281    3.464    0.415
  271.882    0.248   81.245    3.528    0.425
  272.187    0.270   80.869    3.662    0.421
  272.492    0.293   85.749    3.800    0.403
  272.796    0.272   81.734    3.871    0.391
  273.101    0.260   80.555    4.092    0.384
  273.406    0.240   81.392    4.092    0.383
  273.711    0.227   82.626    3.943    0.433
  274.016    0.231   84.679    3.943    0.440
  274.320    0.257   87.532    3.870    0.420
  274.625    0.263   93.222    3.870    0.438
  274.930    0.246   91.629    4.091    0.463
  275.235    0.229   92.870    4.168    0.476
  275.540    0.247   92.492    4.325    0.446
  275.844    0.230   84.838    4.245    0.437
  276.149    0.215   84.464    3.941    0.443
  276.454    0.259   84.894    3.659    0.458
  276.759    0.272   84.522    3.658    0.453
  277.064    0.255   85.350    3.797    0.436
  277.368    0.259   88.612    4.089    0.412
  277.673    0.279   92.281    4.323    0.421
  277.978    0.289   89.883    4.404    0.441
  278.283    0.245   85.061    4.323    0.414
  278.588    0.250   83.063    4.088    0.433
  278.893    0.264   80.669    4.088    0.449
  279.197    0.275   85.545    4.164    0.398
  279.502    0.281   88.807    4.485    0.381
  279.807    0.258   85.599    4.569    0.390
  280.112    0.271   79.163    4.164    0.403
  280.417    0.281   77.564    4.241    0.416
  280.721    0.282   80.423    4.741    0.397
  281.026    0.235   81.664    6.500    0.306
  281.331    0.177   77.243    9.080    0.357
  281.636    0.330   66.351   15.271    0.369
  281.941    0.340   55.460   18.385    0.346
  282.245    0.336   52.666   18.729    0.369
  282.550    0.312   56.335   17.387    0.383
  282.855    0.301   58.782   16.444    0.374
  283.160    0.294   60.831   14.709    0.354
  283.465    0.298   62.880   14.709    0.353
  283.769    0.304   66.952   14.708    0.374
  284.074    0.316   66.571   15.841    0.377
  284.379    0.329   71.859   18.721    0.379
  284.684    0.341   72.289   20.926    0.405
  284.989    0.373   63.419   23.391    0.402
  285.294    0.383   56.167   24.275    0.382
  285.598    0.339   56.602   23.389    0.381
  285.903    0.315   64.310   19.067    0.380
  286.208    0.307   74.447   12.438    0.408
  286.513    0.327   82.564   11.335    0.442
  286.818    0.348   77.335   12.670    0.389
  287.122    0.370   73.724   15.254    0.401
  287.427    0.409   62.425   16.430    0.400
  287.732    0.518   48.703   18.709    0.454
  288.037    0.452   62.885   19.416    0.507
  288.342    0.346   62.511   19.415    0.399
  288.646    0.336   52.021   20.526    0.386
  288.951    0.344   69.036   20.910    0.388
  289.256    0.354   74.725   21.300    0.377
  289.561    0.371   75.969   19.774    0.382
  289.866    0.384   63.862   17.363    0.407
  290.170    0.355   80.871   15.245    0.410
  290.475    0.293   87.773   14.689    0.347
  290.780    0.269   85.374   13.386    0.364
  291.085    0.260   78.532   13.636    0.365
  291.390    0.300   78.149   14.151    0.373
  291.695    0.335   66.045   13.890    0.378
  291.999    0.314   60.009   12.895    0.383
  292.304    0.251   55.182   11.114    0.393
  292.609    0.246   62.490   10.708    0.383
  292.914    0.257   80.311   10.909    0.352
  293.219    0.238   83.573   11.969    0.355
  293.523    0.213   81.582   13.379    0.358
  293.828    0.233   76.350   13.884    0.337
  294.133    0.293   71.934   14.144    0.359
  294.438    0.299   67.506   14.408    0.359
  294.743    0.265   68.348   13.882    0.360
  295.047    0.263   68.376   13.626    0.364
  295.352    0.280   76.889   13.374    0.368
  295.657    0.273   85.814   13.879    0.354
  295.962    0.285   77.353   14.404    0.361
  296.267    0.322   76.573   15.514    0.359
  296.571    0.328   77.814   15.803    0.347
  296.876    0.325   65.703   15.803    0.356
  297.181    0.300   64.114   14.945    0.367
  297.486    0.245   71.830   13.875    0.347
  297.791    0.206   77.111   13.618    0.315
  298.096    0.196   82.798   13.873    0.342
  298.400    0.268   80.001   14.942    0.370
  298.705    0.304   72.747   15.507    0.405
  299.010    0.312   71.557   17.014    0.424
  299.315    0.310   71.186   18.325    0.371
  299.620    0.318   72.421   20.483    0.371
  299.924    0.332   77.305   21.257    0.383
  300.229    0.329   76.925   22.474    0.393
  300.534    0.321   61.588   22.472    0.386
  300.839    0.317   69.300   22.058    0.400
  301.144    0.311   66.498   21.252    0.360
  301.448    0.302   70.161   19.730    0.367
  301.753    0.277   75.852   17.649    0.362
  302.058    0.253   75.075   15.497    0.352
  302.363    0.262   75.906   14.386    0.363
  302.668    0.287   77.954   14.121    0.374
  302.972    0.288   87.692   14.655    0.362
  303.277    0.273   87.716   13.605    0.369
  303.582    0.240   84.101   10.886    0.390
  303.887    0.191   76.040    8.875    0.415
  304.192    0.146   86.988    7.235    0.396
  304.497    0.133  101.573    6.353    0.419
  304.801    0.207   97.152    5.682    0.406
  305.106    0.242   86.670    5.178    0.396
  305.411    0.231  100.849    4.632    0.443
  305.716    0.210  104.517    4.143    0.447
  306.021    0.203  102.527    3.847    0.449
  306.325    0.289   99.715    3.706    0.475
  306.630    0.302   95.296    3.918    0.492
  306.935    0.315  103.819    4.380    0.465
  307.240    0.339  107.486    5.680    0.418
  307.545    0.334  106.299    8.082    0.379
  307.849    0.351  101.876   12.160    0.393
  308.154    0.338   95.435   15.479    0.361
  308.459    0.316   87.374   16.984    0.357
  308.764    0.298   83.359   16.670    0.372
  309.069    0.277   83.382   15.476    0.390
  309.373    0.276   83.818   15.190    0.401
  309.678    0.293   84.249   15.190    0.422
  309.983    0.314   86.298   15.473    0.380
  310.288    0.308   86.728   15.762    0.361
  310.593    0.282   80.697   12.613    0.353
  310.898    0.247   82.742    9.725    0.413
  311.202    0.268   86.004    7.928    0.439
  311.507    0.308   93.712    8.539    0.419
  311.812    0.318  101.827   10.281    0.399
  312.117    0.286   94.982   12.378    0.373
  312.422    0.287   86.518   14.628    0.373
  312.726    0.294   85.735   16.657    0.397
  313.031    0.327   94.262   17.611    0.379
  313.336    0.326   96.709   17.940    0.386
  313.641    0.312   93.501   18.275    0.421
  313.946    0.298   80.589   17.938    0.392
  314.250    0.288   66.865   17.283    0.374
  314.555    0.268   66.087   15.175    0.376
  314.860    0.263   72.184   13.325    0.382
