~VERSION INFORMATION
 VERS.                 2.0:   CWLS LOG ASCII STANDARD -VERSION 2.0
 WRAP.                  NO:   ONE LINE PER DEPTH STEP
~WELL INFORMATION BLOCK
#MNEM.UNIT           DATA                    DESCRIPTION OF MNEMONIC
#---------    -------------------            -------------------------------
# Generated from Intellog Unique Number	CX_WELLS/WELL/1076
WELL.         10-08-088-15W4                 : Well_name    - WELL
LOC .         AA/10-08-088-15W4/0            : Location     - LOCATION
UWI .         AA/10-08-088-15W400            : Uwi          - UNIQUE WELL ID
ENTR.         T                              : Entered      - ENTERED BY
SRVC.         SCHLUMBERGER                   : Scn          - SERVICE COMPANY
STRT.M        75                             : top_depth    - START DEPTH
STOP.M        275                            : bot_depth    - STOP DEPTH
STEP.M        0.25                           : increment    - STEP LENGTH
 NULL. -999.2500:NULL Value
~CURVE INFORMATION BLOCK
#MNEM UNIT       ERCB CURVE CODE    CURVE DESCRIPTION
#-----------   ------------------   ----------------------------------
DEPT.M        00 001 00 00         : DEPTH        - DEPTH
GR  .API      00 310 00 00         : GR           - GAMMA RAY
NPHI.V/V      00 330 00 00         : PHIN         - NEUTRON POROSITY (SANDSTONE)
DPHI.V/V      00 890 00 00         : PHID         - DENSITY POROSITY (SANDSTONE)
ILD .OHMM     00 120 00 00         : RESD         - DEEP RESISTIVITY (DIL)
~PARAMETER INFORMATION
#MNEM.UNIT           DATA             DESCRIPTION OF MNEMONIC
#---------         -----------     ------------------------------
GL  .M        535.9                : gl           - GROUND LEVEL ELEVATION
EREF.M        535.9                : kb           - ELEVATION OF DEPTH REFERENCE
DATM.M        535.9                : datum        - DATUM ELEVATION
TDD .M        283                  : tdd          - TOTAL DEPTH DRILLER
RUN .         ONE                  : Run          - RUN NUMBER
ENG .         BILL                 : Engineer     - RECORDING ENGINEER
WIT .         JIM                  : Witness      - WITNESSED BY
MUD .         GEL                  : Mud_type     - MUD TYPE
MATR.         SANDSTONE            : Logunit      - NEUTRON MATRIX
TMAX.C        8                    : BHT          - MAXIMUM RECORDED TEMPERATURE
BHTD.M        1.28367e+06          : BHTDEP       - MAXIMUM RECORDED TEMPERATURE
MATR.         1                    : LOGUNIT      - NEUTRON MATRIX
RMT .C        9                    : MDTP         - TEMPERATURE OF MUD
NEUT.         1                    : NEUTRON      - NEUTRON TYPE
RESI.         0                    : RESIST       - RESISTIVITY TYPE
RMC .OHMM     8.86                 : RMC          - RESISTIVITY OF MUD CAKE
RMF .OHMM     7.09                 : RMF          - RESISTIVITY OF MUD FILTRATE
SUFT.C        4                    : SUFT         - SURFACE TEMPERATURE
~A  DEPTH       GR     PHIN     PHID     RESD
# ...
  162.000  103.178    0.514    0.237    6.456
  162.250   96.642    0.536    0.244    6.956
  162.500   91.899    0.509    0.244    7.493
  162.750   87.754    0.493    0.232   10.629
  163.000   87.801    0.458    0.225   12.105
  163.250   89.034    0.449    0.231   12.807
  163.500   90.267    0.452    0.259   13.560
  163.750   90.903    0.460    0.266   13.570
  164.000   91.539    0.466    0.264   13.841
  164.250   91.577    0.456    0.261   13.862
  164.500   92.810    0.457    0.253   13.883
  164.750   93.445    0.451    0.248   13.913
  165.000   94.081    0.445    0.245   13.924
  165.250   94.119    0.446    0.242   14.475
  165.500   93.559    0.446    0.254   14.759
  165.750   93.606    0.445    0.261   15.048
  166.000   94.840    0.448    0.257   15.360
  166.250   97.268    0.451    0.254   15.372
  166.500   98.492    0.451    0.252   15.121
  166.750  100.930    0.447    0.249   14.599
  167.000  101.556    0.455    0.244   13.342
  167.250  102.191    0.465    0.235   12.877
  167.500  102.836    0.476    0.232   12.437
  167.750  102.874    0.483    0.222   12.230
  168.000  102.931    0.488    0.227   12.026
  168.250  102.950    0.484    0.235   11.825
  168.500  102.988    0.477    0.240   11.417
  168.750  103.624    0.468    0.244   11.231
  169.000  104.259    0.453    0.242   11.252
  169.250  105.492    0.453    0.235   11.268
  169.500  103.747    0.459    0.228   11.281
  169.750  100.199    0.467    0.228   11.097
  170.000   97.240    0.477    0.233   10.908
  170.250   94.906    0.476    0.229   10.722
  170.500   95.523    0.464    0.230   10.171
  170.750   96.775    0.453    0.235    9.994
  171.000   96.215    0.456    0.240    9.649
  171.250   93.265    0.464    0.246    9.496
  171.500   90.315    0.483    0.253    9.506
  171.750   87.972    0.501    0.261    9.181
  172.000   86.796    0.488    0.267    8.704
  172.250   84.443    0.474    0.269    8.248
  172.500   82.698    0.456    0.269    8.416
  172.750   82.736    0.445    0.265    9.577
  173.000   82.764    0.416    0.251   11.104
  173.250   83.997    0.382    0.239   12.874
  173.500   87.023    0.366    0.224   14.661
  173.750   93.056    0.392    0.202   15.236
  174.000   95.475    0.433    0.214   15.540
  174.250   96.718    0.455    0.227   14.470
  174.500   96.158    0.466    0.232   13.458
  174.750   95.599    0.474    0.226   11.224
  175.000   95.627    0.469    0.223    9.889
  175.250   96.263    0.469    0.223    8.558
  175.500   96.300    0.469    0.217    8.259
  175.750   98.150    0.467    0.222    7.690
  176.000   99.972    0.465    0.243    7.559
  176.250   97.031    0.470    0.237    7.573
  176.500   92.876    0.475    0.232    7.728
  176.750   91.121    0.490    0.231    7.733
  177.000   95.352    0.490    0.222    7.745
  177.250   96.585    0.483    0.221    7.902
  177.500   96.623    0.473    0.220    8.215
  177.750   98.454    0.468    0.217    8.221
  178.000  101.470    0.475    0.226    8.386
  178.250  105.094    0.478    0.239    8.715
  178.500  111.117    0.473    0.250    8.889
  178.750  114.751    0.481    0.252    8.273
  179.000  114.181    0.494    0.246    7.558
  179.250  113.034    0.505    0.248    6.659
  179.500  112.464    0.513    0.250    5.453
  179.750  110.719    0.508    0.253    4.632
  180.000  109.552    0.501    0.248    4.473
  180.250  107.797    0.491    0.238    4.561
  180.500  106.640    0.484    0.230    5.009
  180.750  106.080    0.474    0.218    5.296
  181.000  107.323    0.464    0.215    5.920
  181.250  109.154    0.462    0.226    7.119
  181.500  109.789    0.461    0.216    8.888
  181.750  109.827    0.459    0.205    9.403
  182.000  110.463    0.461    0.204    9.417
  182.250  112.294    0.470    0.206    9.428
  182.500  114.124    0.484    0.207    9.274
  182.750  115.358    0.481    0.207    8.954
  183.000  115.993    0.474    0.205    8.805
  183.250  112.464    0.466    0.204    8.821
  183.500  108.907    0.465    0.203    8.827
  183.750  106.545    0.448    0.207    9.174
  184.000  105.995    0.435    0.212    9.889
  184.250  109.021    0.416    0.216   10.463
  184.500  110.254    0.402    0.217   11.278
  184.750  109.097    0.403    0.218   11.495
  185.000  106.754    0.406    0.220   11.941
  185.250  104.999    0.417    0.221   11.968
  185.500  103.235    0.429    0.225   12.203
  185.750  100.892    0.436    0.227   12.004
  186.000   99.137    0.435    0.229   12.017
  186.250   97.382    0.432    0.232   11.821
  186.500   95.636    0.431    0.236   11.838
  186.750   93.872    0.431    0.242   12.303
  187.000   92.705    0.433    0.242   12.316
  187.250   90.969    0.435    0.226   12.572
  187.500   90.988    0.422    0.230   12.586
  187.750   91.643    0.395    0.244   12.600
  188.000   95.257    0.394    0.240   12.852
  188.250  103.064    0.418    0.213   13.597
  188.500  110.273    0.433    0.217   14.391
  188.750  110.909    0.442    0.228   14.674
  189.000  107.361    0.442    0.241   14.701
  189.250  103.813    0.445    0.235   14.450
  189.500  100.275    0.452    0.228   13.962
  189.750   99.715    0.461    0.232   13.475
  190.000   99.753    0.452    0.231   13.255
  190.250   98.596    0.426    0.230   13.275
  190.500   96.244    0.427    0.231   13.285
  190.750   94.498    0.426    0.238   13.550
  191.000   92.743    0.425    0.251   13.570
  191.250   92.193    0.425    0.256   13.857
  191.500   91.615    0.435    0.251   13.867
  191.750   91.055    0.449    0.247   13.636
  192.000   90.495    0.460    0.249   11.591
  192.250   88.143    0.476    0.250   11.393
  192.500   83.409    0.468    0.247   11.621
  192.750   79.852    0.460    0.245   12.749
  193.000   76.902    0.447    0.184   14.250
  193.250   73.952    0.441    0.115   16.222
  193.500   82.356    0.433    0.020   20.244
  193.750   93.758    0.415    0.025   20.656
  194.000   99.772    0.389    0.071   18.871
  194.250   99.820    0.415    0.104   17.564
  194.500   97.458    0.451    0.139   15.194
  194.750   95.703    0.461    0.180   12.906
  195.000   98.131    0.441    0.212   11.371
  195.250   99.364    0.446    0.212   10.025
  195.500  101.214    0.440    0.206    9.851
  195.750  103.045    0.437    0.222    9.511
  196.000  104.278    0.449    0.232    9.183
  196.250  105.511    0.457    0.226    9.196
  196.500  106.137    0.463    0.220    9.210
  196.750  107.371    0.467    0.219    9.224
  197.000  110.415    0.464    0.209    9.237
  197.250  112.237    0.465    0.208    9.251
  197.500  112.891    0.469    0.206    9.268
  197.750  112.910    0.478    0.211    9.110
  198.000  113.555    0.485    0.211    8.965
  198.250  114.181    0.486    0.204    8.812
  198.500  115.424    0.484    0.185    8.829
  198.750  117.852    0.481    0.175    8.685
  199.000  114.902    0.473    0.163    8.691
  199.250  108.955    0.466    0.171    8.552
  199.500  102.419    0.456    0.187    8.404
  199.750  100.066    0.454    0.199    8.416
  200.000  101.300    0.452    0.210    8.429
  200.250  103.728    0.451    0.236    8.444
  200.500  108.556    0.451    0.235    8.454
  200.750  112.777    0.451    0.223    8.785
  201.000  114.608    0.452    0.222    8.957
  201.250  114.665    0.451    0.223    9.656
  201.500  111.696    0.451    0.218    9.852
  201.750  108.148    0.458    0.213    9.692
  202.000  105.796    0.468    0.214    9.702
  202.250  104.648    0.477    0.217    9.548
  202.500  105.284    0.459    0.222    9.558
  202.750  107.124    0.436    0.228    9.565
  203.000  108.348    0.432    0.228    9.583
  203.250  108.386    0.431    0.222    9.597
  203.500  108.433    0.428    0.215    9.612
  203.750  109.078    0.422    0.215    9.629
  204.000  109.695    0.417    0.215    9.640
  204.250  110.928    0.413    0.215    9.658
  204.500  112.161    0.411    0.212    9.851
  204.750  112.199    0.411    0.209    9.866
  205.000  113.432    0.412    0.204    9.880
  205.250  115.860    0.412    0.201    9.891
