~VERSION INFORMATION
 VERS.                 2.0:   CWLS LOG ASCII STANDARD -VERSION 2.0
 WRAP.                  NO:   ONE LINE PER DEPTH STEP
~WELL INFORMATION BLOCK
#MNEM.UNIT           DATA                    DESCRIPTION OF MNEMONIC
#---------    -------------------            -------------------------------
# Generated from Intellog Unique Number	CC_88_90/WELL/2308
WELL.         11-29-090-15W4                 : Well_name    - WELL
LOC .         AA/11-29-090-15W4/0            : Location     - LOCATION
UWI .         AA/11-29-090-15W400            : Uwi          - UNIQUE WELL ID
ENTR.         DW                             : Entered      - ENTERED BY
SRVC.         SCHLUMBERGER                   : Scn          - SERVICE COMPANY
STRT.M        75                             : top_depth    - START DEPTH
STOP.M        199.75                         : bot_depth    - STOP DEPTH
STEP.M        0.25                           : increment    - STEP LENGTH
 NULL. -999.2500:NULL Value
~CURVE INFORMATION BLOCK
#MNEM UNIT       ERCB CURVE CODE    CURVE DESCRIPTION
#-----------   ------------------   ----------------------------------
DEPT.M        00 001 00 00         : DEPTH        - DEPTH
GR  .API      00 310 00 00         : GR           - GAMMA RAY
DPHI.V/V      00 890 00 00         : PHID         - DENSITY POROSITY (SANDSTONE)
NPHI.V/V      00 330 00 00         : PHIN         - NEUTRON POROSITY (SANDSTONE)
ILD .OHMM     00 120 00 00         : RESD         - DEEP RESISTIVITY (DIL)
~PARAMETER INFORMATION
#MNEM.UNIT           DATA             DESCRIPTION OF MNEMONIC
#---------         -----------     ------------------------------
GL  .M        470                  : gl           - GROUND LEVEL ELEVATION
EREF.M        473.35               : kb           - ELEVATION OF DEPTH REFERENCE
DATM.M        473.35               : datum        - DATUM ELEVATION
TDD .M        210                  : tdd          - TOTAL DEPTH DRILLER
RUN .         ONE                  : Run          - RUN NUMBER
ENG .         BILL                 : Engineer     - RECORDING ENGINEER
WIT .         JIM                  : Witness      - WITNESSED BY
MUD .         GEL                  : Mud_type     - MUD TYPE
MATR.         SANDSTONE            : Logunit      - NEUTRON MATRIX
TMAX.C        25                   : BHT          - MAXIMUM RECORDED TEMPERATURE
BHTD.M        210                  : BHTDEP       - MAXIMUM RECORDED TEMPERATURE
MATR.         1                    : LOGUNIT      - NEUTRON MATRIX
RMT .C        25                   : MDTP         - TEMPERATURE OF MUD
NEUT.         1                    : NEUTRON      - NEUTRON TYPE
RESI.         0                    : RESIST       - RESISTIVITY TYPE
RMC .OHMM     0.25                 : RMC          - RESISTIVITY OF MUD CAKE
RMF .OHMM     0.25                 : RMF          - RESISTIVITY OF MUD FILTRATE
SUFT.C        15                   : SUFT         - SURFACE TEMPERATURE
~A  DEPTH       GR     PHID     PHIN     RESD
# ...
  162.000   88.032    0.260    0.454   17.425
  162.250   93.764    0.205    0.443   16.032
  162.500  103.886    0.130    0.396   10.565
  162.750  116.325    0.182    0.402    5.976
  163.000  123.434    0.270    0.456    4.545
  163.250  121.612    0.285    0.507    3.961
  163.500  118.747    0.303    0.568    3.375
  163.750  123.918    0.272    0.618    3.047
  164.000  125.542    0.279    0.652    2.951
  164.250  123.817    0.270    0.639    2.999
  164.500  119.502    0.240    0.599    3.133
  164.750  111.564    0.180    0.572    3.477
  165.000  107.649    0.076    0.569    4.232
  165.250  116.931    0.129    0.570    5.100
  165.500  124.684    0.209    0.475    5.379
  165.750  111.165    0.253    0.459    5.606
  166.000   90.534    0.277    0.457    6.565
  166.250   80.971    0.290    0.355    8.520
  166.500   76.291    0.288    0.302   12.652
  166.750   78.760    0.264    0.299   19.804
  167.000   85.523    0.238    0.319   20.733
  167.250   90.055    0.257    0.343   17.848
  167.500   91.431    0.258    0.358   15.217
  167.750   91.468    0.221    0.363   13.059
  168.000   87.354    0.237    0.372   11.554
  168.250   76.144    0.264    0.389   10.619
  168.500   66.637    0.292    0.371   10.285
  168.750   60.746    0.320    0.374    9.671
  169.000   57.460    0.334    0.406    9.065
  169.250   58.503    0.329    0.417    9.059
  169.500   66.349    0.322    0.405    9.216
  169.750   78.234    0.310    0.401    9.952
  170.000   81.778    0.298    0.425   12.627
  170.250   79.779    0.285    0.466   16.024
  170.500   75.059    0.268    0.470   23.658
  170.750   68.209    0.273    0.436   40.759
  171.000   63.308    0.312    0.423   62.076
  171.250   60.809    0.317    0.416   73.461
  171.500   62.669    0.318    0.422   81.802
  171.750   65.016    0.307    0.425   92.038
  172.000   64.590    0.301    0.423  100.580
  172.250   61.133    0.316    0.418  103.868
  172.500   58.341    0.319    0.404  103.594
  172.750   62.682    0.302    0.394  100.871
  173.000   62.332    0.293    0.388   93.295
  173.250   64.124    0.287    0.386   82.581
  173.500   69.242    0.293    0.386   73.606
  173.750   68.541    0.305    0.395   69.200
  174.000   62.633    0.295    0.416   67.178
  174.250   62.200    0.283    0.415   63.970
  174.500   64.168    0.279    0.408   63.066
  174.750   64.047    0.279    0.403   64.526
  175.000   66.014    0.285    0.404   67.014
  175.250   69.512    0.289    0.408   68.559
  175.500   66.299    0.286    0.406   67.248
  175.750   62.514    0.297    0.405   65.895
  176.000   66.135    0.294    0.401   67.746
  176.250   68.940    0.285    0.397   68.861
  176.500   65.684    0.280    0.393   71.846
  176.750   61.374    0.280    0.389   77.660
  177.000   61.322    0.286    0.392   79.776
  177.250   64.855    0.294    0.390   81.139
  177.500   67.729    0.306    0.383   81.491
  177.750   67.761    0.285    0.379   80.906
  178.000   67.817    0.263    0.380   78.613
  178.250   69.628    0.274    0.381   74.684
  178.500   69.914    0.280    0.386   71.327
  178.750   67.010    0.288    0.391   69.100
  179.000   63.199    0.278    0.400   66.969
  179.250   60.470    0.277    0.405   65.228
  179.500   58.948    0.285    0.404   65.204
  179.750   60.057    0.283    0.395   66.354
  180.000   64.334    0.283    0.378   66.200
  180.250   65.630    0.285    0.374   64.284
  180.500   64.733    0.275    0.386   61.498
  180.750   61.758    0.275    0.387   58.285
  181.000   64.351    0.287    0.376   53.987
  181.250   72.110    0.288    0.369   48.988
  181.500   73.537    0.280    0.367   44.591
  181.750   73.366    0.280    0.375   40.376
  182.000   70.821    0.276    0.384   38.808
  182.250   79.975    0.272    0.385   36.964
  182.500   92.204    0.264    0.379   35.097
  182.750   94.725    0.259    0.381   33.814
  183.000   95.638    0.267    0.403   31.179
  183.250   94.315    0.251    0.413   30.650
  183.500   97.357    0.248    0.398   29.873
  183.750  104.193    0.151    0.377   29.133
  184.000  111.099    0.068    0.360   28.669
  184.250  116.024    0.141    0.353   25.920
  184.500  114.692    0.240    0.371   20.611
  184.750  102.209    0.257    0.399   18.795
  185.000   96.095    0.265    0.408   19.044
  185.250   99.985    0.274    0.414   22.037
  185.500  105.109    0.267    0.423   25.477
  185.750  107.921    0.260    0.422   26.377
  186.000  112.763    0.264    0.412   25.385
  186.250  118.228    0.246    0.410   22.712
  186.500  118.937    0.235    0.405   21.237
  186.750  112.122    0.236    0.410   20.768
  187.000  102.298    0.237    0.419   20.653
  187.250   94.984    0.236    0.407   21.200
  187.500   91.252    0.227    0.371   23.103
  187.750   91.527    0.203    0.346   27.110
  188.000   93.021    0.241    0.351   30.746
  188.250   92.243    0.277    0.373   35.899
  188.500   92.637    0.285    0.387   40.775
  188.750   96.128    0.298    0.393   43.819
  189.000   96.757    0.303    0.400   46.540
  189.250   93.825    0.287    0.388   44.689
  189.500   96.588    0.278    0.378   40.650
  189.750  105.837    0.268    0.376   31.797
  190.000  115.589    0.241    0.371   23.574
  190.250  122.533    0.199    0.367   20.509
  190.500  128.045    0.173    0.380   17.461
  190.750  130.526    0.196    0.389   15.579
  191.000  123.341    0.179    0.399   14.288
  191.250  115.767    0.187    0.396   13.648
  191.500  118.054    0.203    0.385   13.781
  191.750  125.401    0.183    0.384   13.873
  192.000  125.594    0.196    0.385   13.165
  192.250  119.435    0.236    0.380   12.345
  192.500  115.202    0.260    0.435   11.888
  192.750  114.220    0.288    0.515   12.534
  193.000  118.056    0.282    0.544   14.104
  193.250  123.770    0.236    0.482   17.480
  193.500  124.318    0.227    0.389   24.535
  193.750  123.342    0.230    0.415   33.438
  194.000  115.849    0.264    0.450   41.261
  194.250  104.604    0.309    0.468   49.010
  194.500   92.135    0.319    0.475   66.220
  194.750   82.629    0.301    0.467   89.231
  195.000   82.483    0.308    0.439  101.347
  195.250   86.943    0.320    0.385  106.082
  195.500   91.950    0.324    0.378   96.073
  195.750   95.016    0.327    0.396   85.099
  196.000   93.319    0.324    0.400   81.700
  196.250   84.407    0.296    0.388   83.061
  196.500   67.798    0.231    0.325   90.569
  196.750   47.198    0.151    0.165  106.210
  197.000   35.063    0.132    0.116  121.642
  197.250   30.307    0.066    0.120  147.744
  197.500   28.528    0.007    0.112  199.367
  197.750   26.420    0.027    0.115  247.802
  198.000   22.216    0.027    0.118  251.535
  198.250   21.445    0.032    0.122  241.603
  198.500   22.302    0.036    0.132  214.757
  198.750   23.735    0.042    0.145  180.135
  199.000   25.097    0.045    0.155  155.095
  199.250   26.081    0.049    0.163  144.118
  199.500   27.089    0.066    0.175  140.216
  199.750   27.185    0.082    0.182  146.578
