~VERSION INFORMATION
 VERS.                 2.0:   CWLS LOG ASCII STANDARD -VERSION 2.0
 WRAP.                  NO:   ONE LINE PER DEPTH STEP
~WELL INFORMATION BLOCK
#MNEM.UNIT           DATA                    DESCRIPTION OF MNEMONIC
#---------    -------------------            -------------------------------
# Generated from Intellog Unique Number	CC_88_90/WELL/1168
WELL.         10-08-090-14W4                 : Well_name    - WELL
LOC .         AA/10-08-090-14W4/0            : Location     - LOCATION
UWI .         AA/10-08-090-14W400            : Uwi          - UNIQUE WELL ID
ENTR.         DW                             : Entered      - ENTERED BY
SRVC.         SCHLUMBERGER                   : Scn          - SERVICE COMPANY
STRT.M        80                             : top_depth    - START DEPTH
STOP.M        214.75                         : bot_depth    - STOP DEPTH
STEP.M        0.25                           : increment    - STEP LENGTH
 NULL. -999.2500:NULL Value
~CURVE INFORMATION BLOCK
#MNEM UNIT       ERCB CURVE CODE    CURVE DESCRIPTION
#-----------   ------------------   ----------------------------------
DEPT.M        00 001 00 00         : DEPTH        - DEPTH
GR  .API      00 310 00 00         : GR           - GAMMA RAY
DPHI.V/V      00 890 00 00         : PHID         - DENSITY POROSITY (SANDSTONE)
NPHI.V/V      00 330 00 00         : PHIN         - NEUTRON POROSITY (SANDSTONE)
ILD .OHMM     00 120 00 00         : RESD         - DEEP RESISTIVITY (DIL)
~PARAMETER INFORMATION
#MNEM.UNIT           DATA             DESCRIPTION OF MNEMONIC
#---------         -----------     ------------------------------
GL  .M        477.8                : gl           - GROUND LEVEL ELEVATION
EREF.M        480.8                : kb           - ELEVATION OF DEPTH REFERENCE
DATM.M        480.8                : datum        - DATUM ELEVATION
TDD .M        225                  : tdd          - TOTAL DEPTH DRILLER
RUN .         ONE                  : Run          - RUN NUMBER
ENG .         BILL                 : Engineer     - RECORDING ENGINEER
WIT .         JIM                  : Witness      - WITNESSED BY
MUD .         GEL                  : Mud_type     - MUD TYPE
MATR.         SANDSTONE            : Logunit      - NEUTRON MATRIX
TMAX.C        10                   : BHT          - MAXIMUM RECORDED TEMPERATURE
BHTD.M        225                  : BHTDEP       - MAXIMUM RECORDED TEMPERATURE
MATR.         1                    : LOGUNIT      - NEUTRON MATRIX
RMT .C        25                   : MDTP         - TEMPERATURE OF MUD
NEUT.         1                    : NEUTRON      - NEUTRON TYPE
RESI.         0                    : RESIST       - RESISTIVITY TYPE
RMC .OHMM     0.25                 : RMC          - RESISTIVITY OF MUD CAKE
RMF .OHMM     0.25                 : RMF          - RESISTIVITY OF MUD FILTRATE
SUFT.C        4                    : SUFT         - SURFACE TEMPERATURE
~A  DEPTH       GR     PHID     PHIN     RESD
# ...
  123.500  125.410    0.282    0.600    2.986
  123.750  119.665    0.268    0.612    3.319
  124.000  115.801    0.245    0.608    3.787
  124.250  110.282    0.181    0.625    4.593
  124.500  105.782    0.122    0.573    6.262
  124.750  109.157    0.139    0.441    8.339
  125.000  116.456    0.199    0.397    9.629
  125.250  119.627    0.215    0.421   10.162
  125.500  122.275    0.223    0.437   10.124
  125.750  120.713    0.230    0.444    9.794
  126.000  115.404    0.227    0.454    9.631
  126.250  113.223    0.220    0.474    9.918
  126.500  116.133    0.217    0.485   10.602
  126.750  117.601    0.205    0.425   11.644
  127.000  114.250    0.182    0.391   12.904
  127.250  110.026    0.194    0.395   14.698
  127.500  109.582    0.223    0.404   15.507
  127.750  110.019    0.231    0.407   14.766
  128.000  106.564    0.234    0.412   14.364
  128.250  104.877    0.247    0.427   14.344
  128.500  103.138    0.272    0.439   14.611
  128.750   97.833    0.313    0.434   15.701
  129.000   93.857    0.213    0.426   16.658
  129.250   92.948    0.042    0.392   18.293
  129.500   88.389    0.082    0.312   22.610
  129.750   82.429    0.127    0.293   25.919
  130.000   80.106    0.157    0.310   26.964
  130.250   83.705    0.212    0.339   26.237
  130.500   91.522    0.263    0.374   24.744
  130.750   98.278    0.271    0.398   22.559
  131.000  100.390    0.265    0.398   19.878
  131.250  101.822    0.268    0.398   18.931
  131.500  103.854    0.183    0.392   17.869
  131.750  107.899    0.150    0.371   16.930
  132.000  112.029    0.197    0.373   14.500
  132.250  112.003    0.246    0.409   11.424
  132.500  106.885    0.260    0.448   11.739
  132.750  100.231    0.127    0.508   12.670
  133.000   93.144    0.026    0.489   14.983
  133.250   88.040    0.052    0.328   24.534
  133.500   85.577    0.115    0.234   30.908
  133.750   86.096    0.165    0.309   26.363
  134.000   92.315    0.212    0.358   21.525
  134.250  102.486    0.153    0.388   18.567
  134.500  100.865    0.127    0.423   17.068
  134.750   96.738    0.189    0.403   16.919
  135.000   99.598    0.249    0.387   17.276
  135.250  104.438    0.257    0.428   17.088
  135.500  105.009    0.251    0.442   15.947
  135.750  104.672    0.215    0.412   13.806
  136.000  107.355    0.191    0.385   12.670
  136.250  109.386    0.232    0.411   11.220
  136.500  110.154    0.276    0.456    9.719
  136.750  109.957    0.261    0.461    9.409
  137.000  106.557    0.230    0.437    9.598
  137.250  103.348    0.186    0.437   10.066
  137.500  100.431    0.114    0.435   10.454
  137.750   96.807    0.129    0.387   10.643
  138.000   98.385    0.209    0.356   10.371
  138.250  109.673    0.254    0.386    9.649
  138.500  121.625    0.267    0.424    8.922
  138.750  121.125    0.244    0.457    8.327
  139.000  118.392    0.237    0.441    8.392
  139.250  116.860    0.213    0.437    8.997
  139.500  110.612    0.164    0.453    9.735
  139.750  104.604    0.156    0.426   10.269
  140.000  110.207    0.207    0.376   10.392
  140.250  115.487    0.215    0.410   10.225
  140.500  113.254    0.215    0.450   10.163
  140.750  107.031    0.168    0.479    9.485
  141.000  108.844    0.145    0.487    8.356
  141.250  116.238    0.209    0.460    7.584
  141.500  114.250    0.267    0.440    7.278
  141.750  110.522    0.268    0.460    7.367
  142.000  107.641    0.250    0.475    7.732
  142.250  105.474    0.200    0.475    8.581
  142.500  103.184    0.156    0.455    9.810
  142.750  101.501    0.184    0.423   10.746
  143.000  103.406    0.235    0.418   11.038
  143.250  109.546    0.178    0.434   11.275
  143.500  114.086    0.183    0.417   10.805
  143.750  115.677    0.214    0.403    9.897
  144.000  113.552    0.231    0.414    9.420
  144.250  109.260    0.255    0.439    9.839
  144.500  107.427    0.248    0.467   10.652
  144.750  108.067    0.191    0.485   10.838
  145.000  111.785    0.209    0.541   11.033
  145.250  115.266    0.243    0.492   10.938
  145.500  115.594    0.248    0.418   10.474
  145.750  115.500    0.247    0.431    9.985
  146.000  119.446    0.242    0.422    9.534
  146.250  124.338    0.242    0.417    9.337
  146.500  125.250    0.243    0.432    9.660
  146.750  122.073    0.229    0.442   10.305
  147.000  120.637    0.213    0.415   10.876
  147.250  122.596    0.222    0.378   10.785
  147.500  124.083    0.244    0.389    9.922
  147.750  126.206    0.237    0.413    9.441
  148.000  121.434    0.237    0.427    9.125
  148.250  120.260    0.234    0.435    8.982
  148.500  125.419    0.223    0.435    9.122
  148.750  129.246    0.218    0.424    9.462
  149.000  128.116    0.220    0.412    9.751
  149.250  120.482    0.213    0.428    9.625
  149.500  114.125    0.176    0.455    9.307
  149.750  116.198    0.175    0.463    8.455
  150.000  121.618    0.213    0.461    7.424
  150.250  122.815    0.238    0.465    6.687
  150.500  119.769    0.244    0.469    6.101
  150.750  113.396    0.249    0.477    5.975
  151.000  110.115    0.170    0.494    6.059
  151.250  112.348    0.125    0.553    6.164
  151.500  118.691    0.202    0.523    6.260
  151.750  124.623    0.275    0.428    6.366
  152.000  123.781    0.219    0.483    6.466
  152.250  115.345    0.184    0.515    6.475
  152.500  111.172    0.187    0.509    6.415
  152.750  112.563    0.246    0.483    6.190
  153.000  118.570    0.332    0.477    5.900
  153.250  125.735    0.328    0.527    5.781
  153.500  126.529    0.206    0.568    5.895
  153.750  122.004    0.181    0.477    6.163
  154.000  117.833    0.194    0.456    6.636
  154.250  120.131    0.213    0.470    7.176
  154.500  126.116    0.232    0.456    7.463
  154.750  130.845    0.239    0.449    7.363
  155.000  133.018    0.234    0.458    7.269
  155.250  128.612    0.222    0.462    7.732
  155.500  123.340    0.209    0.466    8.307
  155.750  119.875    0.133    0.471    9.936
  156.000  115.076    0.067    0.403   11.333
  156.250  113.908    0.109    0.308   11.142
  156.500  122.177    0.185    0.331   10.622
  156.750  123.110    0.207    0.355   10.137
  157.000  121.960    0.231    0.371    9.652
  157.250  122.757    0.223    0.408    9.323
  157.500  123.015    0.202    0.424    8.965
  157.750  121.747    0.213    0.403    8.350
  158.000  122.483    0.229    0.402    7.869
  158.250  126.170    0.234    0.420    8.080
  158.500  127.110    0.222    0.446    8.584
  158.750  123.464    0.217    0.460    9.188
  159.000  120.487    0.223    0.486    9.661
  159.250  120.296    0.230    0.487    9.942
  159.500  121.552    0.224    0.406   10.076
  159.750  128.774    0.202    0.394    9.620
  160.000  127.164    0.211    0.401    9.357
  160.250  121.322    0.201    0.404    9.369
  160.500  117.723    0.192    0.407    9.299
  160.750  118.330    0.224    0.412    9.175
  161.000  124.322    0.219    0.420    9.359
  161.250  126.771    0.134    0.424    9.825
  161.500  119.991    0.126    0.391   10.030
  161.750  111.898    0.101    0.388    9.499
  162.000  110.281    0.078    0.388    8.800
  162.250  115.686    0.147    0.365    7.970
  162.500  123.388    0.223    0.388    6.088
  162.750  126.402    0.257    0.423    4.010
  163.000  125.216    0.266    0.454    3.336
  163.250  121.392    0.260    0.466    3.774
  163.500  117.654    0.261    0.464    3.684
  163.750  114.313    0.252    0.466    4.901
  164.000  108.315    0.203    0.475    9.741
  164.250  100.117    0.198    0.472   12.287
  164.500   91.449    0.220    0.397   12.607
  164.750   82.117    0.239    0.368   12.261
  165.000   73.473    0.258    0.398   11.867
  165.250   66.662    0.276    0.402   11.882
  165.500   61.690    0.280    0.392   12.034
  165.750   60.203    0.289    0.414   12.500
  166.000   56.790    0.301    0.458   24.182
  166.250   54.550    0.308    0.419   42.675
  166.500   54.954    0.311    0.370   59.717
  166.750   54.252    0.313    0.388   73.381
