~VERSION INFORMATION
 VERS.                 2.0:   CWLS LOG ASCII STANDARD -VERSION 2.0
 WRAP.                  NO:   ONE LINE PER DEPTH STEP
~WELL INFORMATION BLOCK
#MNEM.UNIT           DATA                    DESCRIPTION OF MNEMONIC
#---------    -------------------            -------------------------------
# Generated from Intellog Unique Number	CS_71_72/WELL/908
WELL.         ET AL KIRBY                    : Well_name    - WELL
LOC .         AA/11-30-071-05W4/0            : Location     - LOCATION
UWI .         AA/11-30-071-05W4/0            : Uwi          - UNIQUE WELL ID
ENTR.         SP                             : Entered      - ENTERED BY
SRVC.         SCHLUMBERGER                   : Scn          - SERVICE COMPANY
STRT.M        340                            : top_depth    - START DEPTH
STOP.M        507                            : bot_depth    - STOP DEPTH
STEP.M        0.25                           : increment    - STEP LENGTH
 NULL. -999.2500:NULL Value
~CURVE INFORMATION BLOCK
#MNEM UNIT       ERCB CURVE CODE    CURVE DESCRIPTION
#-----------   ------------------   ----------------------------------
DEPT.M        00 001 00 00         : DEPTH        - DEPTH
ILD .OHMM     00 120 00 00         : RESD         - DEEP RESISTIVITY (DIL)
DPHI.V/V      00 890 00 00         : PHID         - DENSITY POROSITY (LIMESTONE)
NPHI.V/V      00 330 00 00         : PHIN         - NEUTRON POROSITY (LIMESTONE)
GR  .API      00 310 00 00         : GR           - GAMMA RAY
~PARAMETER INFORMATION
#MNEM.UNIT           DATA             DESCRIPTION OF MNEMONIC
#---------         -----------     ------------------------------
GL  .M        684.1                : gl           - GROUND LEVEL ELEVATION
EREF.M        687.4                : kb           - ELEVATION OF DEPTH REFERENCE
DATM.M        684.1                : datum        - DATUM ELEVATION
TDD .M        507                  : tdd          - TOTAL DEPTH DRILLER
RUN .         ONE                  : Run          - RUN NUMBER
ENG .         BILL                 : Engineer     - RECORDING ENGINEER
WIT .         JIM                  : Witness      - WITNESSED BY
MUD .         GEL                  : Mud_type     - MUD TYPE
MATR.         LIMESTONE            : Logunit      - NEUTRON MATRIX
TMAX.C        22                   : BHT          - MAXIMUM RECORDED TEMPERATURE
BHTD.M        507                  : BHTDEP       - MAXIMUM RECORDED TEMPERATURE
MATR.         1                    : LOGUNIT      - NEUTRON MATRIX
RMT .C        25                   : MDTP         - TEMPERATURE OF MUD
NEUT.         1                    : NEUTRON      - NEUTRON TYPE
RESI.         0                    : RESIST       - RESISTIVITY TYPE
RMC .OHMM     0.25                 : RMC          - RESISTIVITY OF MUD CAKE
RMF .OHMM     0.25                 : RMF          - RESISTIVITY OF MUD FILTRATE
SUFT.C        15                   : SUFT         - SURFACE TEMPERATURE
~A  DEPTH     RESD     PHID     PHIN       GR
  340.000    4.358    0.225    0.512  105.842
  340.250    4.168    0.228    0.528  106.525
  340.500    3.868    0.226    0.539  106.717
  340.750    3.609    0.235    0.546  106.727
  341.000    3.407    0.243    0.548  107.592
  341.250    3.314    0.251    0.553  109.439
  341.500    3.457    0.257    0.557  109.080
  341.750    3.926    0.260    0.563   97.819
  342.000    5.487    0.257    0.503   84.475
  342.250    7.771    0.256    0.456   76.093
  342.500    9.339    0.261    0.427   72.793
  342.750   11.035    0.283    0.417   72.436
  343.000   12.250    0.328    0.419   72.444
  343.250   12.875    0.403    0.446   66.450
  343.500   13.405    0.540    0.529   61.682
  343.750   13.391    0.612    0.571   72.716
  344.000   12.735    0.358    0.610   83.505
  344.250   11.728    0.310    0.622   91.415
  344.500   10.965    0.293    0.464   87.626
  344.750   10.407    0.279    0.443   92.229
  345.000   10.144    0.268    0.434   87.767
  345.250   10.405    0.260    0.429   76.934
  345.500   10.670    0.273    0.425   70.144
  345.750   10.518    0.292    0.419   64.640
  346.000   10.136    0.283    0.406   70.591
  346.250    9.420    0.265    0.397   77.583
  346.500    9.113    0.253    0.428   79.367
  346.750    9.088    0.265    0.447   71.108
  347.000    9.495    0.280    0.446   66.828
  347.250   10.020    0.286    0.435   63.224
  347.500   10.374    0.302    0.431   59.741
  347.750   10.206    0.318    0.441   54.911
  348.000   10.022    0.324    0.444   51.857
  348.250    9.914    0.311    0.436   60.198
  348.500    9.943    0.305    0.442   64.799
  348.750   10.159    0.309    0.459   64.563
  349.000   10.538    0.321    0.469   60.652
  349.250   10.988    0.330    0.466   58.640
  349.500   11.210    0.329    0.443   61.651
  349.750   11.368    0.318    0.443   65.272
  350.000   11.355    0.306    0.441   68.589
  350.250   10.942    0.292    0.435   71.415
  350.500   10.505    0.280    0.426   73.629
  350.750   10.354    0.271    0.418   74.985
  351.000   11.195    0.264    0.410   73.525
  351.250   11.924    0.275    0.415   72.308
  351.500   12.627    0.240    0.419   74.523
  351.750   13.296    0.242    0.413   76.798
  352.000   13.279    0.258    0.434   78.399
  352.250   13.092    0.276    0.450   79.571
  352.500   12.263    0.281    0.462   77.988
  352.750   11.640    0.266    0.470   74.567
  353.000   11.259    0.258    0.452   73.228
  353.250   11.013    0.258    0.450   72.686
  353.500   10.753    0.263    0.450   73.307
  353.750   10.482    0.264    0.439   75.092
  354.000   10.046    0.263    0.431   77.920
  354.250    9.199    0.259    0.438   80.746
  354.500    8.766    0.250    0.454   84.246
  354.750    8.415    0.244    0.465   87.810
  355.000    8.453    0.250    0.474   89.043
  355.250    8.884    0.269    0.483   87.579
  355.500    9.319    0.291    0.484   74.480
  355.750    9.502    0.318    0.463   67.446
  356.000    9.657    0.331    0.437   64.637
  356.250    9.501    0.311    0.435   71.996
  356.500    9.019    0.295    0.437   83.643
  356.750    8.544    0.269    0.427   90.635
  357.000    8.125    0.245    0.419   96.216
  357.250    7.772    0.233    0.430   99.901
  357.500    7.377    0.242    0.443  100.521
  357.750    6.989    0.252    0.454   99.612
  358.000    6.696    0.262    0.469   97.477
  358.250    6.464    0.267    0.498   93.199
  358.500    6.312    0.264    0.520   90.757
  358.750    6.353    0.244    0.528   88.928
  359.000    6.540    0.250    0.524   88.325
  359.250    6.772    0.280    0.518   89.436
  359.500    6.907    0.308    0.513   89.813
  359.750    7.177    0.308    0.512   89.576
  360.000    7.557    0.285    0.509   87.934
  360.250    7.973    0.269    0.473   86.715
  360.500    8.334    0.272    0.450   83.420
  360.750    8.660    0.284    0.442   82.385
  361.000    8.965    0.290    0.442   81.658
  361.250    8.871    0.281    0.438   82.708
  361.500    8.828    0.274    0.432   83.820
  361.750    8.900    0.274    0.429   84.749
  362.000    9.005    0.275    0.424   85.186
  362.250    9.050    0.271    0.424   83.847
  362.500    9.122    0.255    0.441   81.160
  362.750    8.961    0.217    0.461   77.678
  363.000    8.668    0.196    0.474   74.930
  363.250    8.658    0.227    0.475   72.060
  363.500    8.812    0.272    0.471   68.272
  363.750    9.071    0.296    0.468   64.606
  364.000    9.340    0.296    0.464   62.348
  364.250    9.778    0.288    0.459   64.317
  364.500   10.049    0.283    0.457   66.103
  364.750   10.582    0.280    0.468   65.927
  365.000   11.313    0.210    0.472   65.569
  365.250   13.017    0.162    0.440   62.761
  365.500   15.644    0.120    0.403   59.952
  365.750   18.071    0.088    0.303   57.388
  366.000   20.367    0.077    0.274   54.887
  366.250   21.610    0.164    0.313   54.098
  366.500   18.840    0.207    0.359   55.149
  366.750   16.551    0.206    0.414   55.956
  367.000   14.848    0.198    0.459   56.391
  367.250   13.268    0.260    0.472   57.384
  367.500   12.127    0.300    0.483   57.941
  367.750   10.856    0.311    0.492   60.033
  368.000   10.018    0.317    0.511   61.633
  368.250    9.260    0.321    0.524   63.479
  368.500    8.857    0.328    0.529   64.959
  368.750    8.549    0.341    0.528   65.947
  369.000    8.348    0.361    0.538   65.956
  369.250    8.185    0.380    0.535   64.067
  369.500    8.112    0.359    0.521   61.319
  369.750    8.166    0.339    0.505   59.123
  370.000    8.294    0.316    0.495   57.906
  370.250    8.428    0.312    0.458   56.446
  370.500    8.499    0.328    0.443   54.802
  370.750    8.456    0.348    0.443   53.340
  371.000    8.353    0.359    0.448   53.839
  371.250    8.233    0.354    0.449   57.338
  371.500    8.146    0.349    0.435   60.472
  371.750    8.029    0.349    0.429   61.888
  372.000    7.974    0.352    0.441   62.388
  372.250    7.859    0.351    0.455   62.153
  372.500    7.823    0.347    0.469   61.364
  372.750    7.783    0.339    0.450   61.069
  373.000    7.819    0.331    0.438   61.689
  373.250    7.869    0.328    0.436   63.658
  373.500    7.950    0.322    0.426   65.811
  373.750    8.091    0.319    0.416   66.678
  374.000    8.221    0.321    0.413   67.237
  374.250    8.378    0.316    0.425   67.063
  374.500    8.406    0.311    0.433   67.072
  374.750    8.456    0.313    0.437   67.018
  375.000    8.434    0.320    0.425   66.169
  375.250    8.469    0.328    0.428   64.402
  375.500    8.429    0.333    0.436   63.981
  375.750    8.370    0.331    0.440   64.664
  376.000    8.316    0.317    0.444   68.225
  376.250    8.306    0.301    0.448   72.278
  376.500    8.234    0.290    0.455   75.716
  376.750    8.142    0.277    0.461   78.849
  377.000    8.107    0.266    0.439   81.187
  377.250    8.052    0.259    0.420   82.051
  377.500    8.027    0.271    0.419   81.080
  377.750    7.973    0.285    0.432   74.597
  378.000    7.874    0.300    0.446   70.563
  378.250    7.746    0.311    0.460   67.572
  378.500    7.579    0.313    0.479   65.864
  378.750    7.344    0.311    0.487   64.098
  379.000    7.186    0.307    0.485   63.127
  379.250    7.030    0.307    0.478   62.768
  379.500    6.955    0.308    0.478   62.593
  379.750    6.896    0.306    0.493   62.480
  380.000    6.822    0.306    0.506   62.856
  380.250    6.776    0.311    0.488   63.966
  380.500    6.730    0.316    0.449   64.159
  380.750    6.710    0.320    0.463   63.433
  381.000    6.675    0.322    0.471   61.972
  381.250    6.654    0.322    0.472   61.370
  381.500    6.622    0.322    0.478   60.460
  381.750    6.564    0.323    0.487   58.936
  382.000    6.519    0.329    0.492   56.495
  382.250    6.450    0.333    0.484   54.972
  382.500    6.369    0.327    0.473   55.961
  382.750    6.315    0.327    0.463   57.624
  383.000    6.249    0.331    0.461   58.980
  383.250    6.196    0.334    0.469   57.705
