~VERSION INFORMATION
 VERS.                 2.0:   CWLS LOG ASCII STANDARD -VERSION 2.0
 WRAP.                  NO:   ONE LINE PER DEPTH STEP
~WELL INFORMATION BLOCK
#MNEM.UNIT           DATA                    DESCRIPTION OF MNEMONIC
#---------    -------------------            -------------------------------
# Generated from Intellog Unique Number	CS_77_79/WELL/936
WELL.         PEX PCEJ THORNBURY OV          : Well_name    - WELL
LOC .         AA/10-08-079-14W4/0            : Location     - LOCATION
UWI .         AA/10-08-079-14W4/0            : Uwi          - UNIQUE WELL ID
ENTR.         JHS                            : Entered      - ENTERED BY
SRVC.         SCHLUMBERGER                   : Scn          - SERVICE COMPANY
STRT.M        275                            : top_depth    - START DEPTH
STOP.M        525                            : bot_depth    - STOP DEPTH
STEP.M        0.25                           : increment    - STEP LENGTH
 NULL. -999.2500:NULL Value
~CURVE INFORMATION BLOCK
#MNEM UNIT       ERCB CURVE CODE    CURVE DESCRIPTION
#-----------   ------------------   ----------------------------------
DEPT.M        00 001 00 00         : DEPTH        - DEPTH
DPHI.V/V      00 890 00 00         : PHID         - DENSITY POROSITY (LIMESTONE)
NPHI.V/V      00 330 00 00         : PHIN         - NEUTRON POROSITY (LIMESTONE)
GR  .API      00 310 00 00         : GR           - GAMMA RAY
ILD .OHMM     00 120 00 00         : RESD         - DEEP RESISTIVITY (DIL)
RHOB.KG/M3    00 350 00 00         : DENS         - BULK DENSITY
~PARAMETER INFORMATION
#MNEM.UNIT           DATA             DESCRIPTION OF MNEMONIC
#---------         -----------     ------------------------------
GL  .M        700.7                : gl           - GROUND LEVEL ELEVATION
EREF.M        703.6                : kb           - ELEVATION OF DEPTH REFERENCE
DATM.M        703.6                : datum        - DATUM ELEVATION
TDD .M        527                  : tdd          - TOTAL DEPTH DRILLER
RUN .         ONE                  : Run          - RUN NUMBER
ENG .         BILL                 : Engineer     - RECORDING ENGINEER
WIT .         JIM                  : Witness      - WITNESSED BY
MUD .         GEL                  : Mud_type     - MUD TYPE
MATR.         LIMESTONE            : Logunit      - NEUTRON MATRIX
TMAX.C        22                   : BHT          - MAXIMUM RECORDED TEMPERATURE
BHTD.M        527                  : BHTDEP       - MAXIMUM RECORDED TEMPERATURE
MATR.         1                    : LOGUNIT      - NEUTRON MATRIX
RMT .C        25                   : MDTP         - TEMPERATURE OF MUD
NEUT.         1                    : NEUTRON      - NEUTRON TYPE
RESI.         0                    : RESIST       - RESISTIVITY TYPE
RMC .OHMM     0.25                 : RMC          - RESISTIVITY OF MUD CAKE
RMF .OHMM     0.25                 : RMF          - RESISTIVITY OF MUD FILTRATE
SUFT.C        15                   : SUFT         - SURFACE TEMPERATURE
~A  DEPTH     PHID     PHIN       GR     RESD     DENS
# ...
  384.500    0.304    0.415   47.496   14.116    0.000
  384.750    0.294    0.410   51.210   14.129    0.000
  385.000    0.290    0.402   52.443   14.135    0.000
  385.250    0.287    0.398   53.676   13.629    0.000
  385.500    0.292    0.393   58.008   13.380    0.000
  385.750    0.291    0.388   54.904   12.899    0.000
  386.000    0.281    0.390   56.755   12.667    0.000
  386.250    0.287    0.408   56.132   12.438    0.000
  386.500    0.306    0.416   56.124   12.688    0.000
  386.750    0.286    0.412   52.400   12.941    0.000
  387.000    0.287    0.401   49.295   13.197    0.000
  387.250    0.298    0.409   51.148   12.959    0.000
  387.500    0.282    0.398   56.101   12.258    0.000
  387.750    0.286    0.408   58.572   11.376    0.000
  388.000    0.291    0.407   62.906   10.167    0.000
  388.250    0.267    0.400   67.857    9.615    0.000
  388.500    0.238    0.409   71.571    8.923    0.000
  388.750    0.232    0.411   75.903    8.281    0.000
  389.000    0.223    0.411   77.138    7.127    0.000
  389.250    0.227    0.417   82.709    6.368    0.000
  389.500    0.219    0.446   87.662    5.082    0.000
  389.750    0.235    0.451   94.474    4.211    0.000
  390.000    0.233    0.469   98.188    3.360    0.000
  390.250    0.223    0.480   93.222    2.892    0.000
  390.500    0.232    0.475   86.398    2.634    0.000
  390.750    0.228    0.489   82.053    2.539    0.000
  391.000    0.229    0.481   85.765    2.541    0.000
  391.250    0.227    0.490   91.338    2.692    0.000
  391.500    0.231    0.512   91.951    2.744    0.000
  391.750    0.242    0.505   91.946    2.962    0.000
  392.000    0.261    0.513   92.558    3.383    0.000
  392.250    0.254    0.486   93.172    4.247    0.000
  392.500    0.238    0.466   80.150    5.133    0.000
  392.750    0.217    0.442   80.144    6.323    0.000
  393.000    0.211    0.437   85.096    7.499    0.000
  393.250    0.222    0.427   83.850    8.404    0.000
  393.500    0.218    0.408   77.646    9.072    0.000
  393.750    0.216    0.411   78.258    9.252    0.000
  394.000    0.222    0.417   80.732    8.752    0.000
  394.250    0.234    0.434   80.727    8.277    0.000
  394.500    0.234    0.432   85.678    7.976    0.000
  394.750    0.223    0.433   84.434    7.686    0.000
  395.000    0.215    0.428   75.750    7.549    0.000
  395.250    0.218    0.420   83.800    7.141    0.000
  395.500    0.205    0.421   85.654    6.882    0.000
  395.750    0.204    0.426   86.888    6.507    0.000
  396.000    0.202    0.420   80.683    6.156    0.000
  396.250    0.195    0.425   87.495    5.933    0.000
  396.500    0.197    0.429   88.729    5.939    0.000
  396.750    0.209    0.434   88.722    5.942    0.000
  397.000    0.237    0.443   91.814    6.062    0.000
  397.250    0.243    0.438   90.568    6.181    0.000
  397.500    0.226    0.422   84.985    6.548    0.000
  397.750    0.225    0.410   79.400    6.676    0.000
  398.000    0.212    0.415   83.112    6.938    0.000
  398.250    0.218    0.434   81.247    7.349    0.000
  398.500    0.242    0.454   76.902    7.638    0.000
  398.750    0.243    0.441   76.896    7.789    0.000
  399.000    0.243    0.435   71.311    7.944    0.000
  399.250    0.246    0.441   71.304    7.950    0.000
  399.500    0.242    0.432   75.019    7.809    0.000
  399.750    0.257    0.446   72.533    7.525    0.000
  400.000    0.287    0.450   64.693    8.270    0.000
  400.250    0.300    0.433   64.012    8.260    0.000
  400.500    0.257    0.431   64.574    7.942    0.000
  400.750    0.227    0.445   74.469    7.080    0.000
  401.000    0.222    0.462   85.608    6.196    0.000
  401.250    0.212    0.439   91.770    4.934    0.000
  401.500    0.230    0.450   95.450    3.575    0.000
  401.750    0.248    0.483   96.015    2.186    0.000
  402.000    0.250    0.504   89.118    1.708    0.000
  402.250    0.259    0.492   94.036    1.334    0.000
  402.500    0.259    0.480   89.005    1.259    0.000
  402.750    0.266    0.484   97.035    1.382    0.000
  403.000    0.245    0.499   92.002    1.730    0.000
  403.250    0.242    0.526   93.184    2.336    0.000
  403.500    0.254    0.520   90.638    2.870    0.000
  403.750    0.264    0.509   92.450    3.150    0.000
  404.000    0.268    0.510   96.126    3.146    0.000
  404.250    0.248    0.502   90.465    3.025    0.000
  404.500    0.226    0.501   80.460    3.136    0.000
  404.750    0.221    0.496   87.867    3.314    0.000
  405.000    0.231    0.484   92.164    3.636    0.000
  405.250    0.215    0.485   97.704    3.916    0.000
  405.500    0.215    0.460   90.805    4.297    0.000
  405.750    0.209    0.454   83.911    4.804    0.000
  406.000    0.206    0.473   85.706    5.077    0.000
  406.250    0.220    0.488   85.028    5.366    0.000
  406.500    0.210    0.467   83.740    5.461    0.000
  406.750    0.199    0.457   88.034    5.768    0.000
  407.000    0.196    0.462   93.577    6.210    0.000
  407.250    0.243    0.424   87.301    6.689    0.000
  407.500    0.252    0.431   83.510    7.069    0.000
  407.750    0.263    0.414   82.827    7.329    0.000
  408.000    0.280    0.397   77.795    7.318    0.000
  408.250    0.302    0.358   72.142    7.731    0.000
  408.500    0.279    0.326   62.756    8.021    0.000
  408.750    0.034    0.297   66.430    9.139    0.000
  409.000    0.006    0.216   71.352   11.231    0.000
  409.250    0.042    0.168   60.714   14.063    0.000
  409.500    0.090    0.201   44.488   16.957    0.000
  409.750    0.139    0.269   37.580   17.582    0.000
  410.000    0.211    0.336   41.882   15.097    0.000
  410.250    0.297    0.375   50.526   12.020    0.000
  410.500    0.282    0.403   55.454    9.940    0.000
  410.750    0.289    0.409   54.776    9.033    0.000
  411.000    0.285    0.382   55.341    8.206    0.000
  411.250    0.286    0.389   55.909    8.043    0.000
  411.500    0.300    0.371   54.608    8.178    0.000
  411.750    0.302    0.379   57.028    8.481    0.000
  412.000    0.296    0.395   58.843    8.474    0.000
  412.250    0.277    0.388   60.025    8.623    0.000
  412.500    0.282    0.379   66.200    8.774    0.000
  412.750    0.293    0.395   61.786    8.755    0.000
  413.000    0.300    0.397   59.857    8.747    0.000
  413.250    0.283    0.413   66.650    8.730    0.000
  413.500    0.281    0.407   67.822    8.889    0.000
  413.750    0.270    0.391   69.641    8.873    0.000
  414.000    0.267    0.401   66.470    8.858    0.000
  414.250    0.263    0.408   67.664    8.849    0.000
  414.500    0.257    0.414   70.081    8.833    0.000
  414.750    0.252    0.403   66.919    8.651    0.000
  415.000    0.264    0.405   69.968    8.645    0.000
  415.250    0.259    0.419   75.527    8.469    0.000
  415.500    0.245    0.410   77.955    8.297    0.000
  415.750    0.234    0.418   73.542    8.133    0.000
  416.000    0.246    0.417   69.135    8.119    0.000
  416.250    0.262    0.435   77.163    8.109    0.000
  416.500    0.255    0.413   72.753    8.097    0.000
  416.750    0.256    0.401   69.586    8.087    0.000
  417.000    0.264    0.406   73.260    8.074    0.000
  417.250    0.269    0.427   73.201    7.909    0.000
  417.500    0.260    0.449   73.140    7.750    0.000
  417.750    0.257    0.437   76.195    7.314    0.000
  418.000    0.248    0.427   81.733    6.902    0.000
  418.250    0.240    0.446   84.170    6.513    0.000
  418.500    0.229    0.461   77.269    6.031    0.000
  418.750    0.218    0.466   80.941    5.583    0.000
  419.000    0.223    0.455   83.377    5.471    0.000
  419.250    0.218    0.439   88.921    5.464    0.000
  419.500    0.234    0.444   81.395    5.561    0.000
  419.750    0.249    0.429   78.231    5.873    0.000
  420.000    0.231    0.421   83.150    5.979    0.000
  420.250    0.242    0.416   83.699    6.317    0.000
  420.500    0.252    0.400   78.674    6.800    0.000
  420.750    0.262    0.403   75.511    7.055    0.000
