~VERSION INFORMATION
 VERS.                 2.0:   CWLS LOG ASCII STANDARD -VERSION 2.0
 WRAP.                  NO:   ONE LINE PER DEPTH STEP
~WELL INFORMATION BLOCK
#MNEM.UNIT           DATA                    DESCRIPTION OF MNEMONIC
#---------    -------------------            -------------------------------
# Generated from Intellog Unique Number	CN_94_101/WELL/5041
WELL.         MOBIL OIL OF CANADA LTD.       : Well_name    - WELL
LOC .         AA/15-15-097-13W4/0            : Location     - LOCATION
UWI .         AA/15-15-097-13W400            : Uwi          - UNIQUE WELL ID
ENTR.         JOETTE                         : Entered      - ENTERED BY
SRVC.         SCHLUMBERGER                   : Scn          - SERVICE COMPANY
DATE.         08/17/92                       : Date         - LOG DATE
STRT.M        45.72                          : top_depth    - START DEPTH
STOP.M        283.47                         : bot_depth    - STOP DEPTH
STEP.M        0.25                           : increment    - STEP LENGTH
 NULL. -999.2500:NULL Value
~CURVE INFORMATION BLOCK
#MNEM UNIT       ERCB CURVE CODE    CURVE DESCRIPTION
#-----------   ------------------   ----------------------------------
DEPT.M        00 001 00 00         : DEPTH        - DEPTH
ILD .OHMM     00 120 00 00         : RESD         - DEEP RESISTIVITY (DIL)
GR  .API      00 310 00 00         : GR           - GAMMA RAY
NPHI.V/V      00 330 00 00         : PHIN         - NEUTRON POROSITY (SANDSTONE)
~PARAMETER INFORMATION
#MNEM.UNIT           DATA             DESCRIPTION OF MNEMONIC
#---------         -----------     ------------------------------
GL  .M        484.632              : gl           - GROUND LEVEL ELEVATION
EREF.M        484.632              : kb           - ELEVATION OF DEPTH REFERENCE
DATM.M        484.632              : datum        - DATUM ELEVATION
TDD .M        281.026              : tdd          - TOTAL DEPTH DRILLER
RUN .         ONE                  : Run          - RUN NUMBER
ENG .         BILL                 : Engineer     - RECORDING ENGINEER
WIT .         JIM                  : Witness      - WITNESSED BY
MUD .         GEL                  : Mud_type     - MUD TYPE
MATR.         SANDSTONE            : Logunit      - NEUTRON MATRIX
TMAX.C        12.2222              : BHT          - MAXIMUM RECORDED TEMPERATURE
BHTD.M        281.026              : BHTDEP       - MAXIMUM RECORDED TEMPERATURE
RMT .C        12.2222              : MDTP         - TEMPERATURE OF MUD
MUDD.KG/M     0                    : MWT          - MUD DENSITY
NEUT.         1                    : NEUTRON      - NEUTRON TYPE
RESI.         0                    : RESIST       - RESISTIVITY TYPE
RM  .OHMM     5.2                  : RM           - RESISTIVITY OF MUD
RMC .OHMM     5.2                  : RMC          - RESISTIVITY OF MUD CAKE
RMF .OHMM     5.2                  : RMF          - RESISTIVITY OF MUD FILTRATE
SUFT.C        4                    : SUFT         - SURFACE TEMPERATURE
~A  DEPTH     RESD       GR     PHIN
   45.720    8.732   95.283    0.500
   45.970    8.748   92.213    0.494
   46.220    8.779   88.267    0.500
   46.470    9.180   98.504    0.507
   46.720    9.211   99.430    0.516
   46.970    8.879   96.380    0.519
   47.220    8.199   95.535    0.510
   47.470    7.860   96.471    0.507
   47.720    7.883   97.397    0.510
   47.970    7.558   97.880    0.513
   48.220    7.219   96.592    0.517
   48.470    6.887   93.522    0.510
   48.720    9.103   90.462    0.485
   48.970    8.770   86.959    0.496
   49.220    6.987   85.228    0.515
   49.470    6.300   87.483    0.519
   49.720    7.056   89.305    0.513
   49.970    7.450   90.684    0.511
   50.220    6.392   91.157    0.516
   50.470    5.697   92.536    0.515
   50.720    5.728   93.010    0.506
   50.970    6.122   94.379    0.501
   51.220    5.790   94.882    0.503
   51.470    5.095   94.469    0.508
   51.720    5.134   91.872    0.511
   51.970    6.608   90.574    0.518
   52.220    7.365   89.286    0.522
   52.470    6.678   89.769    0.519
   52.720    5.620   89.356    0.507
   52.970    5.651   90.725    0.501
   53.220    7.133   89.890    0.504
   53.470   24.227   86.387    0.504
   53.720   35.878   91.299    0.499
   53.970   11.951   92.668    0.492
   54.220    7.256   91.823    0.486
   54.470    6.214   94.088    0.479
   54.720    6.237   94.581    0.469
   54.970    6.631   92.407    0.477
   55.220    6.662   90.676    0.498
   55.470    6.338   92.045    0.505
   55.720    7.457   92.518    0.511
   55.970    9.302   94.793    0.517
   56.220    8.978   95.719    0.512
   56.470    7.557   94.884    0.511
   56.720    6.507   92.257    0.511
   56.970    6.523   88.311    0.511
   57.220    6.191   85.684    0.505
   57.470    5.133   82.181    0.477
   57.720    4.438   80.460    0.483
   57.970    5.928   84.919    0.492
   58.220    4.862   90.274    0.495
   58.470    6.345   92.539    0.498
   58.720    8.561   97.451    0.505
   58.970    4.600   95.730    0.514
   59.220    4.638   92.670    0.526
   59.470    5.766   89.600    0.531
   59.720    6.507   89.640    0.524
   59.970    9.441   99.002    0.520
   60.220   14.204  102.142    0.519
   60.470    9.147  107.054    0.511
   60.720   10.267  114.191    0.480
   60.970   15.030  109.792    0.461
   61.220   16.505  105.404    0.463
   61.470   21.979   98.358    0.482
   61.720   26.728   94.865    0.485
   61.970   30.765   96.224    0.464
   62.220   29.700  102.022    0.459
   62.470   29.368  101.640    0.445
   62.720   30.850   99.023    0.412
   62.970   30.889   97.281    0.386
   63.220   30.194   92.903    0.383
   63.470   30.225   88.947    0.393
   63.720   29.893   85.454    0.405
   63.970   30.294   84.156    0.409
   64.220   30.325   79.757    0.414
   64.470   30.348   68.725    0.418
   64.720   31.105   70.104    0.406
   64.970   28.959   71.020    0.391
   65.220   26.812   72.852    0.384
   65.470   28.294   73.768    0.407
   65.720   10.536   74.262    0.416
   65.970   13.856   74.302    0.416
   66.220   14.597   72.561    0.417
   66.470   12.814   63.321    0.421
   66.720   10.675   62.455    0.435
   66.970   11.795   62.052    0.448
   67.220   26.704   63.864    0.458
   67.470   32.911   67.911    0.460
   67.720   33.668   70.166    0.465
   67.970   11.192   72.420    0.480
   68.220   10.134   75.118    0.480
   68.470    8.714   77.816    0.444
   68.720    9.833   81.852    0.430
   68.970    7.695   85.003    0.425
   69.220    9.169   85.919    0.438
   69.470    9.571   87.298    0.460
   69.720    8.513   87.791    0.484
   69.970   31.050   87.379    0.496
   70.220   32.895   85.648    0.491
   70.470   29.660   83.020    0.484
   70.720   27.151   78.189    0.481
   70.970   31.536   71.143    0.475
   71.220   29.390   68.083    0.442
   71.470   16.357   70.781    0.412
   71.720    9.848   86.775    0.417
   71.970   12.064   86.826    0.415
   72.220   10.281   84.642    0.402
   72.470    9.593   83.806    0.421
   72.720    9.624   86.071    0.460
   72.970    8.567   88.769    0.486
   73.220    9.315   88.356    0.480
   73.470   11.161   83.525    0.464
   73.720    9.385   72.050    0.466
   73.970    9.053   67.661    0.474
   74.220    9.091   64.168    0.490
   74.470   11.292   64.199    0.497
   74.720   17.855   66.011    0.490
   74.970   11.354   68.708    0.479
   75.220    8.852   70.973    0.482
   75.470    9.964   72.805    0.484
   75.720    6.373   73.711    0.484
   75.970    9.307   74.637    0.486
   76.220    7.524   75.564    0.488
   76.470   10.095   77.849    0.492
   76.720   12.666   78.765    0.495
   76.970   12.334   81.019    0.496
   77.220   12.365   80.607    0.498
   77.470   11.670   77.104    0.469
   77.720   10.990   74.044    0.439
   77.970   15.368   72.756    0.422
   78.220   15.399   76.792    0.431
   78.470   13.978   87.905    0.444
   78.720   12.557   91.499    0.455
   78.970   12.951   95.092    0.453
   79.220   12.982   93.794    0.448
   79.470   19.915   91.177    0.444
   79.720   16.317   85.902    0.439
   79.970   14.904   82.400    0.442
   80.220   18.919   82.883    0.446
   80.470   25.127   79.823    0.447
   80.720   15.352   80.306    0.431
   80.970   14.657   79.913    0.420
   81.220   28.848   77.296    0.430
   81.470   27.790   77.347    0.424
   81.720   18.023   79.149    0.422
   81.970   10.434   81.857    0.423
   82.220   18.811   81.011    0.433
   82.470   17.035   78.384    0.464
   82.720   13.429   73.995    0.476
   82.970   11.291   70.946    0.473
   83.220   12.410   72.757    0.460
   83.470   15.707   71.459    0.457
   83.720   14.649   71.510    0.455
   83.970   20.849   74.217    0.439
   84.220   13.259   74.248    0.425
   84.470    8.943   70.745    0.448
   84.720    9.692   64.142    0.475
   84.970    9.360   65.068    0.481
   85.220   10.850   68.661    0.487
   85.470    8.696   71.802    0.494
   85.720   13.815   74.510    0.498
   85.970   24.740   74.107    0.491
   86.220   18.602   71.923    0.465
   86.470   14.996   66.649    0.459
   86.720    9.221   64.042    0.454
   86.970    7.075   66.729    0.447
   87.220    6.380   72.990    0.441
   87.470    6.418   79.674    0.442
   87.720    6.449   80.590    0.475
   87.970    6.850   81.104    0.509
   88.220    7.607   80.248    0.518
   88.470    7.630   78.517    0.520
   88.720    6.943   75.447    0.512
   88.970    6.982   63.529    0.500
   89.220    7.360   63.126    0.492
   89.470    8.842   67.153    0.500
   89.720    9.977   76.494    0.504
   89.970    9.645   87.174    0.502
   90.220    8.950   93.858    0.501
   90.470    6.804  100.109    0.498
   90.720    6.101  102.363    0.491
   90.970    6.132  100.189    0.483
   91.220    5.808   98.015    0.493
   91.470    5.468   97.612    0.495
   91.720   10.224   94.573    0.497
   91.970   10.981   91.936    0.504
   92.220   10.286   88.443    0.513
   92.470   20.493   86.712    0.522
   92.720   16.887   86.309    0.513
   92.970   12.926   87.245    0.486
   93.220    9.683   88.624    0.452
   93.470    8.996   89.530    0.452
   93.720    8.664   91.362    0.446
   93.970    9.421   94.493    0.446
   94.220   22.160   98.076    0.474
   94.470   23.280   95.912    0.497
   94.720   24.762   93.728    0.509
   94.970   17.898   90.678    0.495
   95.220   16.840   87.165    0.436
   95.470   26.314   81.005    0.416
   95.720   15.450   75.288    0.432
   95.970   12.215   74.885    0.458
   96.220   16.246   81.126    0.468
   96.470   12.277   88.716    0.471
   96.720   10.494   86.975    0.478
   96.970   24.684   82.586    0.487
   97.220   23.264   67.568    0.490
   97.470   27.294   64.941    0.486
   97.720   11.351   63.663    0.461
   97.970   15.373   64.599    0.435
   98.220   13.227   65.968    0.431
   98.470   13.620   68.223    0.437
   98.720   15.836   72.249    0.440
   98.970   12.964   72.289    0.448
   99.220   12.269   74.544    0.474
   99.470   10.486   76.356    0.480
   99.720   18.870   68.867    0.470
