~VERSION INFORMATION
 VERS.                 2.0:   CWLS LOG ASCII STANDARD -VERSION 2.0
 WRAP.                  NO:   ONE LINE PER DEPTH STEP
~WELL INFORMATION BLOCK
#MNEM.UNIT           DATA                    DESCRIPTION OF MNEMONIC
#---------    -------------------            -------------------------------
# Generated from Intellog Unique Number	CN_91_93/WELL/2975
WELL.         10-11-092-16W4                 : Well_name    - WELL
LOC .         AA/10-11-092-16W4/0            : Location     - LOCATION
UWI .         AA/10-11-092-16W400            : Uwi          - UNIQUE WELL ID
ENTR.         JOETTE                         : Entered      - ENTERED BY
SRVC.         SCHLUMBERGER                   : Scn          - SERVICE COMPANY
DATE.         04/07/92                       : Date         - LOG DATE
STRT.F        400                            : top_depth    - START DEPTH
STOP.F        760.072                        : bot_depth    - STOP DEPTH
STEP.F        0.82                           : increment    - STEP LENGTH
 NULL. -999.2500:NULL Value
~CURVE INFORMATION BLOCK
#MNEM UNIT       ERCB CURVE CODE    CURVE DESCRIPTION
#-----------   ------------------   ----------------------------------
DEPT.F        00 001 00 00         : DEPTH        - DEPTH
CALI.IN       00 280 01 00         : CAL          - CALIPER
GR  .API      00 310 00 00         : GR           - GAMMA RAY
NPHI.V/V      00 330 00 00         : PHIN         - NEUTRON POROSITY (SANDSTONE)
DPHI.V/V      00 890 00 00         : PHID         - DENSITY POROSITY (SANDSTONE)
ILD .OHMM     00 120 00 00         : RESD         - DEEP RESISTIVITY (DIL)
~PARAMETER INFORMATION
#MNEM.UNIT           DATA             DESCRIPTION OF MNEMONIC
#---------         -----------     ------------------------------
GL  .M        483.413              : gl           - GROUND LEVEL ELEVATION
EREF.M        487.07               : kb           - ELEVATION OF DEPTH REFERENCE
DATM.M        487.07               : datum        - DATUM ELEVATION
TDD .M        233.172              : tdd          - TOTAL DEPTH DRILLER
RUN .         ONE                  : Run          - RUN NUMBER
ENG .         BILL                 : Engineer     - RECORDING ENGINEER
WIT .         JIM                  : Witness      - WITNESSED BY
MUD .         GEL                  : Mud_type     - MUD TYPE
MATR.         SANDSTONE            : Logunit      - NEUTRON MATRIX
TMAX.F        66                   : BHT          - MAXIMUM RECORDED TEMPERATURE
BHTD.F        765                  : BHTDEP       - MAXIMUM RECORDED TEMPERATURE
RMT .F        67                   : MDTP         - TEMPERATURE OF MUD
MUDD.LB/G     930                  : MWT          - MUD DENSITY
NEUT.         1                    : NEUTRON      - NEUTRON TYPE
RESI.         0                    : RESIST       - RESISTIVITY TYPE
RM  .OHMM     0.76                 : RM           - RESISTIVITY OF MUD
RMC .OHMM     0.76                 : RMC          - RESISTIVITY OF MUD CAKE
RMF .OHMM     0.76                 : RMF          - RESISTIVITY OF MUD FILTRATE
SUFT.F        39.2                 : SUFT         - SURFACE TEMPERATURE
~A  DEPTH      CAL       GR     PHIN     PHID     RESD
# ...
  519.751    7.957   98.929    0.473    0.247    9.070
  520.571    7.148   98.065    0.475    0.248    9.406
  521.391    6.992   92.752    0.476    0.211    9.578
  522.211    6.934   93.077    0.478    0.193    9.664
  523.031    6.916   98.437    0.448    0.199   10.115
  523.852    7.017  101.725    0.445    0.209   10.113
  524.672    6.939   98.488    0.443    0.203    9.928
  525.492    6.743   93.769    0.439    0.201    9.926
  526.312    6.804   95.277    0.430    0.212   11.281
  527.133    7.043  101.236    0.416    0.245   10.579
  527.953    6.966  100.072    0.430    0.283   10.674
  528.773    6.770  100.394    0.447    0.258   11.695
  529.593    6.752   93.896    0.480    0.071   12.240
  530.413    6.734   88.880    0.398    0.077   12.464
  531.234    6.756   85.646    0.394    0.085   13.782
  532.054    6.777   89.820    0.441    0.080   13.529
  532.874    7.114   96.672    0.466    0.126   12.343
  533.694    8.461   99.660    0.493    0.233   10.370
  534.514    7.612  103.544    0.490    0.273   10.088
  535.335    7.100  105.345    0.471    0.319   10.952
  536.155    7.003  106.260    0.446    0.328   10.949
  536.975    6.668  100.651    0.430    0.302   10.362
  537.795    6.788   99.197    0.433    0.200   10.455
  538.615    7.937   96.850    0.465    0.330   10.264
  539.436    9.600   98.358    0.495    0.356    8.945
  540.256    9.522   99.270    0.531    0.322    8.161
  541.076   10.018   96.923    0.547    0.336    8.160
  541.896    8.794   98.134    0.540    0.326    8.385
  542.717    7.768   98.166    0.506    0.289    8.461
  543.537    7.058   99.968    0.466    0.236    8.305
  544.357    7.909  103.848    0.458    0.213    8.304
  545.177    7.733  104.173    0.449    0.252    8.691
  545.997    7.675  101.823    0.477    0.218    9.013
  546.818    7.420   97.693    0.503    0.152    8.929
  547.638    6.809   94.163    0.452    0.109    8.847
  548.458    7.424   95.075    0.493    0.271    9.008
  549.278    8.631   95.400    0.516    0.323    9.007
  550.098    9.938   95.129    0.534    0.351    8.523
  550.919    9.841   96.937    0.548    0.362    8.291
  551.739    7.944   99.631    0.569    0.339    8.442
  552.559    6.859  101.732    0.506    0.250    8.519
  553.379    6.781  102.944    0.433    0.218    8.439
  554.199    6.803  102.076    0.445    0.289    8.593
  555.020    7.417   96.764    0.478    0.351    8.359
  555.840    8.843   95.310    0.513    0.348    8.512
  556.660   10.446   94.442    0.534    0.339    9.674
  557.480    8.431   91.209    0.553    0.307   10.312
  558.301    6.594   93.310    0.489    0.187   10.992
  559.121    6.734   96.001    0.341    0.237   11.504
  559.941    7.210   93.951    0.411    0.308   11.608
  560.761    7.508   89.234    0.468    0.385   10.786
  561.581    9.131   90.146    0.504    0.441   10.023
  562.402   10.873   90.175    0.537    0.455    9.485
  563.222    9.708   89.307    0.554    0.405    9.570
  564.042    8.662   90.226    0.574    0.357    9.569
  564.862    9.593   89.065    0.463    0.343    9.655
  565.682   10.544   87.607    0.496    0.374    9.831
  566.503    9.062   86.443    0.518    0.388    9.740
  567.323    8.748   86.469    0.565    0.382   10.101
  568.143    8.631   85.308    0.559    0.378   10.007
  568.963    9.245   86.816    0.537    0.417    8.964
  569.783    9.267   86.248    0.552    0.394    7.463
  570.604    9.901   78.270    0.540    0.423    7.128
  571.424   11.129   70.879    0.538    0.494    7.192
  572.244   10.320   61.711    0.561    0.489    7.459
  573.064    7.831   58.477    0.505    0.477    8.400
  573.885    6.982   56.724    0.485    0.455   10.655
  574.705    6.667   54.074    0.488    0.422   11.567
  575.525    6.531   51.137    0.473    0.372   14.145
  576.345    6.157   49.380    0.437    0.317   15.357
  577.165    5.783   48.519    0.428    0.311   17.294
  577.986    5.705   52.696    0.425    0.295   18.949
  578.806    5.687   54.204    0.405    0.284   23.172
  579.626    5.728   52.450    0.400    0.300   30.210
  580.446    5.809   49.806    0.421    0.262   35.616
  581.266    5.910   49.835    0.429    0.238   36.599
  582.087    5.991   49.857    0.385    0.216   31.897
  582.907    6.111   49.296    0.391    0.237   36.921
  583.727    6.607   49.914    0.435    0.238   40.825
  584.547    7.222   51.416    0.468    0.237   19.987
  585.367    7.599   57.372    0.511    0.253   10.432
  586.188    6.454   57.990    0.535    0.266    8.528
  587.008    6.120   51.788    0.482    0.227    5.912
  587.828    6.220   59.227    0.288    0.209    7.296
  588.648    6.479   69.338    0.427    0.291    7.295
  589.469    7.449   75.001    0.506    0.348    6.903
  590.289    8.914   75.323    0.551    0.477    6.356
  591.109   10.577   77.128    0.556    0.499    5.799
  591.929    9.155   78.040    0.591    0.528    5.101
  592.749    8.880   75.103    0.576    0.492    4.208
  593.570    8.367   71.866    0.570    0.520    4.131
  594.390    7.934   68.923    0.587    0.540    4.245
  595.210    7.916   62.721    0.615    0.324    5.637
  596.030    7.522   52.367    0.622    0.279    7.623
  596.850    5.606   49.427    0.555    0.251    8.743
  597.671    5.390   51.528    0.371    0.270   12.378
  598.491    5.353   55.112    0.416    0.307   15.417
  599.311    5.295   54.841    0.420    0.321   19.735
  600.131    5.257   53.980    0.418    0.346   19.913
  600.951    5.279   54.895    0.433    0.336   20.088
  601.772    5.320   51.958    0.447    0.309   20.647
  602.592    5.440   51.680    0.453    0.315   22.830
  603.412    5.620   52.595    0.457    0.305   27.412
  604.232    5.760   52.621    0.453    0.296   29.758
  605.052    5.742   50.873    0.438    0.310   29.213
  605.873    5.546   51.485    0.432    0.308   28.417
  606.693    5.370   52.400    0.440    0.305   27.141
  607.513    5.253   49.460    0.440    0.318   26.159
  608.333    5.156   45.930    0.456    0.321   25.680
  609.154    5.118   42.990    0.467    0.327   26.876
  609.974    5.080   40.047    0.438    0.336   32.866
  610.794    5.062   40.665    0.426    0.362   39.103
  611.614    5.063   39.508    0.422    0.357   44.037
  612.434    5.045   41.312    0.422    0.351   54.345
  613.255    5.048   41.631    0.420    0.360   61.203
  614.075    5.049   40.767    0.421    0.345   71.492
  614.895    5.051   40.202    0.417    0.341   71.478
  615.715    5.051   41.117    0.433    0.346   70.168
  616.535    5.054   41.146    0.437    0.332   70.168
  617.356    5.055   39.685    0.432    0.326   68.239
  618.176    5.058   37.341    0.429    0.328   62.256
  618.996    5.059   36.477    0.434    0.343   58.384
  619.816    5.080   36.499    0.433    0.359   54.249
  620.636    5.102   36.228    0.426    0.333   53.746
  621.457    5.143   35.954    0.420    0.325   54.227
  622.277    5.164   35.985    0.415    0.330   54.216
  623.097    5.206   36.607    0.415    0.308   50.379
  623.917    5.247   37.815    0.397    0.296   44.719
  624.738    5.288   39.620    0.385    0.297   36.222
  625.558    5.389   42.015    0.376    0.297   31.858
  626.378    5.529   51.233    0.382    0.306   31.562
  627.198    5.807   61.047    0.404    0.345   23.328
  628.018    6.995   65.817    0.441    0.383   11.421
  628.839    8.974   65.549    0.559    0.433    7.703
  629.659    6.801   64.089    0.596    0.498    4.529
  630.479    5.953   62.928    0.626    0.534    3.805
  631.299    6.172   63.250    0.647    0.556    3.409
  632.119    7.399   64.758    0.631    0.558    3.377
  632.940    8.251   62.115    0.607    0.451    4.651
  633.760    6.394   55.319    0.548    0.325    6.585
  634.580    5.842   51.786    0.467    0.306    8.430
  635.400    5.607   54.184    0.394    0.313    9.407
  636.220    5.688   63.109    0.391    0.319    9.667
  637.041    6.065   70.844    0.436    0.346    9.577
  637.861    5.988   69.980    0.481    0.284   13.809
  638.681    5.436   63.182    0.392    0.199   16.887
