~VERSION INFORMATION
 VERS.                 2.0:   CWLS LOG ASCII STANDARD -VERSION 2.0
 WRAP.                  NO:   ONE LINE PER DEPTH STEP
~WELL INFORMATION BLOCK
#MNEM.UNIT           DATA                    DESCRIPTION OF MNEMONIC
#---------    -------------------            -------------------------------
# Generated from Intellog Unique Number	CS_77_79/WELL/943
WELL.         PEX PCEJ THORNBURY OV          : Well_name    - WELL
LOC .         AA/10-10-079-14W4/0            : Location     - LOCATION
UWI .         AA/10-10-079-14W4/0            : Uwi          - UNIQUE WELL ID
ENTR.         JHS                            : Entered      - ENTERED BY
SRVC.         SCHLUMBERGER                   : Scn          - SERVICE COMPANY
STRT.M        265                            : top_depth    - START DEPTH
STOP.M        505                            : bot_depth    - STOP DEPTH
STEP.M        0.25                           : increment    - STEP LENGTH
 NULL. -999.2500:NULL Value
~CURVE INFORMATION BLOCK
#MNEM UNIT       ERCB CURVE CODE    CURVE DESCRIPTION
#-----------   ------------------   ----------------------------------
DEPT.M        00 001 00 00         : DEPTH        - DEPTH
DPHI.V/V      00 890 00 00         : PHID         - DENSITY POROSITY (LIMESTONE)
NPHI.V/V      00 330 00 00         : PHIN         - NEUTRON POROSITY (LIMESTONE)
GR  .API      00 310 00 00         : GR           - GAMMA RAY
ILD .OHMM     00 120 00 00         : RESD         - DEEP RESISTIVITY (DIL)
~PARAMETER INFORMATION
#MNEM.UNIT           DATA             DESCRIPTION OF MNEMONIC
#---------         -----------     ------------------------------
GL  .M        690.52               : gl           - GROUND LEVEL ELEVATION
EREF.M        693.42               : kb           - ELEVATION OF DEPTH REFERENCE
DATM.M        693.42               : datum        - DATUM ELEVATION
TDD .M        504.5                : tdd          - TOTAL DEPTH DRILLER
RUN .         ONE                  : Run          - RUN NUMBER
ENG .         BILL                 : Engineer     - RECORDING ENGINEER
WIT .         JIM                  : Witness      - WITNESSED BY
MUD .         GEL                  : Mud_type     - MUD TYPE
MATR.         LIMESTONE            : Logunit      - NEUTRON MATRIX
TMAX.C        19                   : BHT          - MAXIMUM RECORDED TEMPERATURE
BHTD.M        504.5                : BHTDEP       - MAXIMUM RECORDED TEMPERATURE
MATR.         1                    : LOGUNIT      - NEUTRON MATRIX
RMT .C        25                   : MDTP         - TEMPERATURE OF MUD
NEUT.         1                    : NEUTRON      - NEUTRON TYPE
RESI.         0                    : RESIST       - RESISTIVITY TYPE
RMC .OHMM     0.25                 : RMC          - RESISTIVITY OF MUD CAKE
RMF .OHMM     0.25                 : RMF          - RESISTIVITY OF MUD FILTRATE
SUFT.C        15                   : SUFT         - SURFACE TEMPERATURE
~A  DEPTH     PHID     PHIN       GR     RESD
# ...
  439.000    0.239    0.396   81.675    6.819
  439.250    0.240    0.386   80.439    7.351
  439.500    0.234    0.393   79.203    7.775
  439.750    0.229    0.389   78.591    8.223
  440.000    0.159    0.372   71.130    8.535
  440.250    0.100    0.360   66.782    8.692
  440.500    0.173    0.357   77.994    8.684
  440.750    0.208    0.392   86.094    8.516
  441.000    0.233    0.408   79.256    8.042
  441.250    0.232    0.407   84.870    7.736
  441.500    0.218    0.407   86.121    7.732
  441.750    0.208    0.407   78.038    7.874
  442.000    0.202    0.410   84.272    8.019
  442.250    0.208    0.399   80.546    8.168
  442.500    0.209    0.414   88.646    8.318
  442.750    0.220    0.429   89.901    8.312
  443.000    0.208    0.410   81.817    8.467
  443.250    0.209    0.394   82.448    8.621
  443.500    0.222    0.405   83.701    8.616
  443.750    0.211    0.398   88.690    8.775
  444.000    0.212    0.410   86.832    8.936
  444.250    0.211    0.408   90.577    9.100
  444.500    0.207    0.403   90.584    9.268
  444.750    0.203    0.394   87.481    9.619
  445.000    0.192    0.400   88.112    9.797
  445.250    0.171    0.409   90.610   10.168
  445.500    0.118    0.400   82.528   10.354
  445.750    0.144    0.396   87.516   10.350
  446.000    0.192    0.413   88.147    9.958
  446.250    0.207    0.410   92.515    9.581
  446.500    0.196    0.432   93.766    9.220
  446.750    0.214    0.440   98.132    8.870
  447.000    0.235    0.420   95.653    8.536
  447.250    0.229    0.412   96.910    8.059
  447.500    0.225    0.404   94.425    7.610
  447.750    0.242    0.422   94.433    7.185
  448.000    0.252    0.447   93.820    6.656
  448.250    0.242    0.452   91.341    6.167
  448.500    0.247    0.468   92.593    5.197
  448.750    0.236    0.470   98.204    4.636
  449.000    0.231    0.484   99.462    4.058
  449.250    0.262    0.505   95.110    3.553
  449.500    0.278    0.506   82.048    2.994
  449.750    0.266    0.492   80.811    2.722
  450.000    0.276    0.494   80.198    2.475
  450.250    0.284    0.501   82.074    2.381
  450.500    0.257    0.478   85.818    2.717
  450.750    0.232    0.459   84.583    3.343
  451.000    0.218    0.436   77.121    3.961
  451.250    0.224    0.437   75.263    4.606
  451.500    0.231    0.433   79.006    5.456
  451.750    0.219    0.418   79.637    5.883
  452.000    0.205    0.407   84.625    6.969
  452.250    0.197    0.392   80.278    7.656
  452.500    0.182    0.384   75.933    8.098
  452.750    0.183    0.387   74.695    8.093
  453.000    0.196    0.415   85.907    7.936
  453.250    0.203    0.417   91.519    7.492
  453.500    0.210    0.426   86.547    7.074
  453.750    0.194    0.422   83.446    6.680
  454.000    0.190    0.416   82.829    6.427
  454.250    0.205    0.422   79.727    6.423
  454.500    0.222    0.419   85.337    6.180
  454.750    0.214    0.410   89.702    5.835
  455.000    0.226    0.439   91.578    5.205
  455.250    0.235    0.448   89.721    4.732
  455.500    0.246    0.440   95.331    4.302
  455.750    0.237    0.437  102.187    3.985
  456.000    0.233    0.430  104.684    3.835
  456.250    0.216    0.434   91.623    3.760
  456.500    0.191    0.423   91.632    3.830
  456.750    0.186    0.412   89.775    3.901
  457.000    0.202    0.435   97.874    4.047
  457.250    0.222    0.448  103.486    4.201
  457.500    0.222    0.445  104.116    4.443
  457.750    0.215    0.449   94.788    4.613
  458.000    0.210    0.460  101.645    4.787
  458.250    0.189    0.438  106.633    5.258
  458.500    0.216    0.428  108.510    5.457
  458.750    0.233    0.414  112.251    5.559
  459.000    0.233    0.409  109.149    5.660
  459.250    0.221    0.401   94.842    5.657
  459.500    0.212    0.380   96.718    5.871
  459.750    0.217    0.364   69.963    5.980
  460.000    0.265    0.354   61.881    5.975
  460.250    0.279    0.408   73.092    6.202
  460.500    0.245    0.376   83.682    7.210
  460.750    0.217    0.354   83.693    8.384
  461.000    0.224    0.346   79.966   10.513
  461.250    0.218    0.335   79.975   13.186
  461.500    0.217    0.312   70.025   17.500
  461.750    0.160    0.292   63.810   19.225
  462.000    0.079    0.258   56.350   17.149
  462.250    0.067    0.298   62.582   15.010
  462.500    0.158    0.354   73.795   15.282
  462.750    0.190    0.356   68.203   15.568
  463.000    0.244    0.338   56.385   16.466
  463.250    0.228    0.338   62.618   16.773
  463.500    0.198    0.354   74.454   16.760
  463.750    0.190    0.365   83.176   15.235
  464.000    0.186    0.373   91.277   14.387
  464.250    0.177    0.383   99.376   15.213
  464.500    0.188    0.376  107.476   16.399
  464.750    0.217    0.358  109.353   17.681
  465.000    0.233    0.352   90.067   21.349
  465.250    0.266    0.358   67.046   26.771
  465.500    0.277    0.377   60.831   31.123
  465.750    0.283    0.365   61.463   34.838
  466.000    0.276    0.376   68.317   35.488
  466.250    0.238    0.363   74.550   29.909
  466.500    0.228    0.368   73.939   25.690
  466.750    0.223    0.360   77.060   24.259
  467.000    0.212    0.360   81.424   23.337
  467.250    0.207    0.368   77.699   23.322
  467.500    0.208    0.371   78.330   25.134
  467.750    0.205    0.372   63.401   26.092
  468.000    0.215    0.357   59.052   28.667
  468.250    0.191    0.350   52.215   35.275
  468.500    0.176    0.340   47.866   41.009
  468.750    0.196    0.358   52.232   43.372
  469.000    0.295    0.374   50.374   41.735
  469.250    0.263    0.367   53.495   38.671
  469.500    0.244    0.356   62.220   30.793
  469.750    0.240    0.363   69.073   24.989
  470.000    0.225    0.358   77.173   21.876
  470.250    0.210    0.356   77.805   19.150
  470.500    0.208    0.359   81.547   17.741
  470.750    0.193    0.356   84.669   16.750
  471.000    0.184    0.357   84.677   17.058
  471.250    0.162    0.365   91.533   18.044
  471.500    0.171    0.367   81.584   20.198
  471.750    0.242    0.376   60.431   22.186
  472.000    0.263    0.356   52.348   23.916
  472.250    0.231    0.354   54.846   24.824
  472.500    0.210    0.362   62.947   25.281
  472.750    0.218    0.355   71.670   22.552
  473.000    0.178    0.347   76.036   20.503
  473.250    0.150    0.344   74.177   22.095
  473.500    0.162    0.332   62.981   23.819
  473.750    0.301    0.325   43.696   25.678
  474.000    0.320    0.370   39.348   28.745
  474.250    0.309    0.371   48.695   31.576
  474.500    0.284    0.366   56.173   33.394
  474.750    0.275    0.375   52.448   32.134
  475.000    0.256    0.364   55.567   29.767
  475.250    0.224    0.363   63.046   29.752
  475.500    0.207    0.371   64.299   29.733
  475.750    0.212    0.368   64.930   28.604
  476.000    0.220    0.359   64.316   27.526
  476.250    0.212    0.352   71.170   28.026
  476.500    0.227    0.345   75.537   28.016
  476.750    0.239    0.353   69.945   28.526
  477.000    0.241    0.356   64.352   27.981
  477.250    0.174    0.327   74.318   26.923
  477.500    0.066    0.305   82.418   24.475
  477.750    0.015    0.299   73.714   21.422
  478.000    0.120    0.326   83.058   18.752
  478.250    0.196    0.350   91.161   17.049
  478.500    0.197    0.342   93.657   16.099
  478.750    0.178    0.345   95.533   15.195
  479.000    0.157    0.363   93.052   14.904
  479.250    0.154    0.363   98.041   14.068
  479.500    0.173    0.351   98.673   13.799
  479.750    0.183    0.353  104.904   13.532
  480.000    0.186    0.375  114.250   13.521
  480.250    0.196    0.356  121.729   13.259
  480.500    0.190    0.369  128.584   13.503
  480.750    0.196    0.351  127.348   14.012
  481.000    0.200    0.362  113.040   14.274
  481.250    0.205    0.362  105.581   14.812
  481.500    0.200    0.366  108.701   15.371
  481.750    0.187    0.367  109.333   15.659
  482.000    0.195    0.372  104.986   15.948
  482.250    0.175    0.357   96.280   16.550
