~Version : LASO    vs 4.00
VERS.                2.00:   CWLS Log ASCII Standard -VERSION 2.0
WRAP.                  NO:
~Well Information Block
#MNEM.UNIT       Data                        Description of Mnemonic
#----.----      -------------------------- : -----------------------------
STRT.M            15.0000:
STOP.M           203.4000:
STEP.M             0.1000:
NULL.           -999.2500:
COMP.  MOBIL OIL CANADA LTD.     :COMPANY
WELL.  MOBIL CLARKE OV 12-34     :WELL
FLD.   CLARKE                    :FIELD
LOC.   12-34-089-08W4            :LOCATION
CTRY.  CANADA                    :COUNTRY
PROV.  ALBERTA                   :PROVINCE
SRVC.  SCHLUMBERGER              :SERVICE COMPANY
DATE.  20-FEB-81                 :LOG DATE
UWI.   AA/12-34-089-08W400       :UNIQUE WELL ID
~Parameter Information Block
#MNEM.UNIT       Data                        Description of Mnemonic
#----.----      -------------------------- : -----------------------------
RUN .                   1                 : Run Number
GL  .M           415.1000                 : Ground Level Elevation
DREF.                  KB                 : Depth Reference
EREF.M           418.1000                 : Elevation of Depth Reference
TDL .M           203.0000                 : Total Depth Logger
TDD .M           200.0000                 : Total Depth Driller
CSGL.M            18.0000                 : Casing Bottom Logger
CSGD.M            15.0000                 : Casing Bottom Driller
CSGS.MM          219.0000                 : Casing Size
CSGW.KG/M          0.0000                 : Casing Weight
BHT .DEGC         12.0000                 : Bottom Hole Temperature
BS  .MM          159.0000                 : Bit Size
DFD .           1110.0000                 : Mud Weight (Density)
DFV .             90.0000                 : Mud Viscosity
DFPH.             10.0000                 : Mud pH
RM  .OHMM          1.9600                 : Mud Resistivity
RMT .DEGC         20.0000                 : Mud Resistivity Temperature
~Curve Information Block
#MNEM.UNIT        API CODE    Curve Description
#---------    ------------    -------------------------------------------
DEPT.M                    :   DEPTH
CALI.MM       42 280  1  1:   3 DENSITY CALIPER
DPHI.V/V                  :   DPHI
DT  .US/M     60 520  0  1:   2 SONIC INTERVAL TRANSIT TIME (COMPENSATED)
GR  .GAPI     42 310  1  1:   4 GAMMA RAY
ILD .OHMM      7 120 46  1:   7 DEEP INDUCTION
ILM .OHMM      7 120 44  1:   8 MEDIUM INDUCTION
NPHI.V/V      42 890  3  1:   5 NEUTRON POROSITY (SANDSTONE)
RHOB.K/M3     42 350  1  1:   6 BULK DENSITY
SFLU.OHMM      7 220  1  1:   9 FOCUSSED RESISTIVITY
SP  .MV        7  10  1  1:   10 SPONTANEOUS POTENTIAL
~A  Depth           CALI        DPHI          DT          GR         ILD         ILM        NPHI        RHOB        SFLU          SP
# ...
185.8000        155.9500      0.1637    418.0000     78.7050     14.9359     15.6686      0.3924   2578.1001     14.4887    -63.2300
185.9000        155.9500      0.1664    396.8800     78.6150     14.9359     15.6686      0.3924   2578.1001     14.4887    -63.2300
186.0000        155.7250      0.1438    371.2000     78.4950     15.1715     16.0779      0.4217   2605.3999     12.1515    -63.0500
186.1000        155.7250      0.0878    351.6000     78.1350     15.1715     16.0779      0.4217   2605.3999     12.1515    -63.0500
186.2000        156.8500      0.0572    336.0000     77.6700     15.9159     17.0071      0.4447   2582.6001     14.0291    -64.7200
186.3000        156.8500      0.0358    330.3200     77.3400     15.9159     17.0071      0.4447   2582.6001     14.0291    -64.7200
186.4000        156.7250      0.0264    329.2000     82.5600     16.6659     17.5966      0.4481   2549.8000     47.3184    -71.5700
186.5000        156.7250      0.0188    329.9200     89.7750     16.6659     17.5966      0.4481   2549.8000     47.3184    -71.5700
186.6000        155.1500      0.0081    324.0800     95.1000     17.6291     17.9734      0.4482   2507.8000     52.4119    -73.4400
186.7000        155.1500      0.0080    316.6000    101.7900     17.6291     17.9734      0.4482   2507.8000     52.4119    -73.4400
186.8000        152.2500      0.0263    310.5200    108.0000     17.6129     17.7595      0.4589   2395.0000     53.7811    -74.2900
186.9000        152.2500      0.0787    309.1600    114.3450     17.6129     17.7595      0.4589   2395.0000     53.7811    -74.2900
187.0000        157.9750      0.1375    499.0400    124.9350     16.8667     17.1013      0.4708   2256.8000     29.8834    -67.5100
187.1000        157.9750      0.1846    502.6400    135.5250     16.8667     17.1013      0.4708   2256.8000     29.8834    -67.5100
187.2000        163.8500      0.2093    449.7600    146.1150     16.0483     16.1819      0.4790   2213.7000     18.4090    -60.8000
187.3000        163.8500      0.2383    399.4000    163.1550     16.0483     16.1819      0.4790   2213.7000     18.4090    -60.8000
187.4000        165.2250      0.2573    352.9600    163.1550     14.2899     13.9133      0.4952   2216.6001     13.1169    -56.1600
187.5000        165.2250      0.2700    331.5200    165.8400     14.2899     13.9133      0.4952   2216.6001     13.1169    -56.1600
187.6000        164.5750      0.2726    330.1600    172.1400     13.3977     12.4460      0.5132   2239.5000      9.8046    -50.6700
187.7000        164.5750      0.2596    330.0800    174.7500     13.3977     12.4460      0.5132   2239.5000      9.8046    -50.6700
187.8000        170.2500      0.2546    407.8800    176.4300     12.9727     11.3823      0.5286   2251.8000     10.2856    -47.4400
187.9000        170.2500      0.2494    459.5600    176.8500     12.9727     11.3823      0.5286   2251.8000     10.2856    -47.4400
188.0000        174.8750      0.2426    458.2800    176.6100     12.9012     11.1232      0.5388   2234.8000      9.5903    -46.7900
188.1000        174.8750      0.2454    437.0000    174.1800     12.9012     11.1232      0.5388   2234.8000      9.5903    -46.7900
188.2000        173.9750      0.2511    404.8000    171.7500     13.0206     11.4559      0.4959   2259.3999      9.0580    -47.0000
188.3000        173.9750      0.2559    381.0000    164.2650     13.0206     11.4559      0.4959   2259.3999      9.0580    -47.0000
188.4000        173.5250      0.2496    361.8800    156.7800     12.4690     11.4138      0.4795   2300.8000      8.7303    -47.4800
188.5000        173.5250      0.2373    344.7200    151.7700     12.4690     11.4138      0.4795   2300.8000      8.7303    -47.4800
188.6000        173.1500      0.2186    335.1200    149.3400     11.9187     11.0517      0.4753   2338.5000      8.8436    -47.0000
188.7000        173.1500      0.1948    340.6000    149.3400     11.9187     11.0517      0.4753   2338.5000      8.8436    -47.0000
188.8000        172.8500      0.1841    368.6400    149.3400     11.7444     10.4961      0.4785   2362.7000      9.0830    -45.9300
188.9000        172.8500      0.1792    386.9200    145.0500     11.7444     10.4961      0.4785   2362.7000      9.0830    -45.9300
189.0000        172.7000      0.1747    385.2400    141.3300     12.0069     10.4672      0.4794   2365.2000     10.5738    -43.4700
189.1000        172.7000      0.1696    404.1200    139.8300     12.0069     10.4672      0.4794   2365.2000     10.5738    -43.4700
189.2000        172.5000      0.1587    414.2400    138.3300     12.1291     10.5835      0.4784   2407.3999      9.6790    -43.6200
189.3000        172.5000      0.1349    422.1200    136.2150     12.1291     10.5835      0.4784   2407.3999      9.6790    -43.6200
189.4000        167.1750      0.1205    424.8000    133.9200     11.6582     11.1437      0.4800   2511.5000      8.5080    -44.1800
189.5000        167.1750      0.1052    412.9600    131.6250     11.6582     11.1437      0.4800   2511.5000      8.5080    -44.1800
189.6000        164.7000      0.0847    397.8800    127.6650     11.5939     11.5726      0.4726   2547.8999      7.1487    -44.7000
189.7000        164.7000      0.0718    365.6000    123.6900     11.5939     11.5726      0.4726   2547.8999      7.1487    -44.7000
189.8000        163.2000      0.0684    345.3200    119.8950     11.5832     12.0069      0.4718   2509.7000      7.5968    -44.4600
189.9000        163.2000      0.0772    326.4000    116.2050     11.5832     12.0069      0.4718   2509.7000      7.5968    -44.4600
190.0000        161.0250      0.0872    307.4800    114.7800     12.2639     13.0086      0.4829   2547.2000      8.6742    -43.8600
190.1000        161.0250      0.0957    288.5600    115.4700     12.2639     13.0086      0.4829   2547.2000      8.6742    -43.8600
190.2000        160.9250      0.1035    253.5200    115.9650     12.9607     13.5217      0.4849   2631.3999      9.9961    -43.0000
190.3000        160.9250      0.1042    234.5200    113.0400     12.9607     13.5217      0.4849   2631.3999      9.9961    -43.0000
190.4000        160.5250      0.0574    223.3600    109.8600     13.5092     14.0939      0.4787   2710.0000     10.6324    -43.8900
190.5000        160.5250      0.0404    215.3600    106.0500     13.5092     14.0939      0.4787   2710.0000     10.6324    -43.8900
190.6000        159.3250      0.0177    212.8400    102.6450     14.0033     14.7717      0.4517   2669.5000     10.2195    -44.4500
190.7000        159.3250      0.0073    217.1200     99.4050     14.0033     14.7717      0.4517   2669.5000     10.2195    -44.4500
190.8000        158.5000      0.0033    218.2400     94.5900     14.9221     16.6353      0.4013   2620.2000      9.4587    -44.0900
190.9000        158.5000      0.0075    219.0800     89.3250     14.9221     16.6353      0.4013   2620.2000      9.4587    -44.0900
191.0000        158.7250      0.0101    217.8400     84.6300     15.5249     17.5643      0.3575   2628.6001      8.0729    -43.4900
191.1000        158.7250      0.0115    216.7200     78.4950     15.5249     17.5643      0.3575   2628.6001      8.0729    -43.4900
191.2000        158.9250      0.0096    213.0400     70.1550     16.0779     18.3413      0.3128   2610.3999      9.2604    -43.8600
191.3000        158.9250      0.0115    210.8800     62.7150     16.0779     18.3413      0.3128   2610.3999      9.2604    -43.8600
191.4000        157.0750      0.0150    210.0400     59.6700     17.4032     19.5267      0.2713   2601.8999     10.8101    -44.4100
191.5000        157.0750      0.0186    214.6000     57.9600     17.4032     19.5267      0.2713   2601.8999     10.8101    -44.4100
191.6000        155.4000      0.0207    218.4000     57.3750     17.6129     19.8715      0.2516   2620.3999     14.0033    -42.1500
191.7000        155.4000      0.0227    222.0400     56.7900     17.6129     19.8715      0.2516   2620.3999     14.0033    -42.1500
191.8000        156.2500      0.0169    225.2400     55.9050     17.5481     20.2037      0.2488   2638.5000     16.0336    -40.4800
