~VERSION INFORMATION
 VERS.                 2.0:   CWLS LOG ASCII STANDARD -VERSION 2.0
 WRAP.                  NO:   ONE LINE PER DEPTH STEP
~WELL INFORMATION BLOCK
#MNEM.UNIT           DATA                    DESCRIPTION OF MNEMONIC
#---------    -------------------            -------------------------------
# Generated from Intellog Unique Number	CN_94_101/WELL/5018
WELL.         11-16-099-13W4                 : Well_name    - WELL
LOC .         AA/11-16-099-13W4/0            : Location     - LOCATION
UWI .         AA/11-16-099-13W400            : Uwi          - UNIQUE WELL ID
ENTR.         TIM                            : Entered      - ENTERED BY
SRVC.         SCHLUMBERGER                   : Scn          - SERVICE COMPANY
DATE.         08/13/92                       : Date         - LOG DATE
STRT.M        393.192                        : top_depth    - START DEPTH
STOP.M        594.442                        : bot_depth    - STOP DEPTH
STEP.M        0.25                           : increment    - STEP LENGTH
 NULL. -999.2500:NULL Value
~CURVE INFORMATION BLOCK
#MNEM UNIT       ERCB CURVE CODE    CURVE DESCRIPTION
#-----------   ------------------   ----------------------------------
DEPT.M        00 001 00 00         : DEPTH        - DEPTH
GR  .API      00 310 00 00         : GR           - GAMMA RAY
ILD .OHMM     00 120 00 00         : RESD         - DEEP RESISTIVITY (DIL)
NPHI.V/V      00 330 00 00         : PHIN         - NEUTRON POROSITY (SANDSTONE)
~PARAMETER INFORMATION
#MNEM.UNIT           DATA             DESCRIPTION OF MNEMONIC
#---------         -----------     ------------------------------
GL  .M        829.97               : gl           - GROUND LEVEL ELEVATION
EREF.M        833.323              : kb           - ELEVATION OF DEPTH REFERENCE
DATM.M        833.323              : datum        - DATUM ELEVATION
TDD .M        596.189              : tdd          - TOTAL DEPTH DRILLER
RUN .         ONE                  : Run          - RUN NUMBER
ENG .         BILL                 : Engineer     - RECORDING ENGINEER
WIT .         JIM                  : Witness      - WITNESSED BY
MUD .         GEL                  : Mud_type     - MUD TYPE
MATR.         SANDSTONE            : Logunit      - NEUTRON MATRIX
TMAX.C        33.3333              : BHT          - MAXIMUM RECORDED TEMPERATURE
BHTD.M        596.189              : BHTDEP       - MAXIMUM RECORDED TEMPERATURE
RMT .C        21.1111              : MDTP         - TEMPERATURE OF MUD
MUDD.KG/M     1090                 : MWT          - MUD DENSITY
NEUT.         1                    : NEUTRON      - NEUTRON TYPE
RESI.         0                    : RESIST       - RESISTIVITY TYPE
RM  .OHMM     6                    : RM           - RESISTIVITY OF MUD
RMC .OHMM     6                    : RMC          - RESISTIVITY OF MUD CAKE
RMF .OHMM     6                    : RMF          - RESISTIVITY OF MUD FILTRATE
SUFT.C        4                    : SUFT         - SURFACE TEMPERATURE
~A  DEPTH       GR     RESD     PHIN
  393.192  117.675    4.005    0.377
  393.442  118.298    3.788    0.376
  393.692  119.546    3.517    0.377
  393.942  121.381    3.326    0.378
  394.192  121.471    3.146    0.376
  394.442  120.369    3.034    0.371
  394.692  118.091    2.926    0.366
  394.942  114.638    2.877    0.360
  395.192  110.615    2.832    0.351
  395.442  107.731    3.128    0.340
  395.692  105.490    3.451    0.329
  395.942  104.956    3.960    0.334
  396.192  104.423    4.457    0.341
  396.442  105.707    5.114    0.349
  396.692  106.349    5.993    0.354
  396.942  107.596    6.236    0.364
  397.192  109.431    6.251    0.371
  397.442  113.065    5.803    0.374
  397.692  114.900    5.180    0.380
  397.942  116.735    4.714    0.386
  398.192  117.413    4.128    0.391
  398.442  118.073    3.481    0.393
  398.692  118.145    3.293    0.393
  398.942  117.648    3.297    0.393
  399.192  117.096    3.505    0.393
  399.442  116.030    3.652    0.391
  399.692  116.690    3.663    0.390
  399.942  118.525    3.528    0.391
  400.192  118.597    3.469    0.393
  400.442  118.082    3.220    0.393
  400.692  117.567    3.105    0.393
  400.942  117.639    2.996    0.396
  401.192  116.536    2.890    0.401
  401.442  116.021    2.787    0.407
  401.692  116.681    2.687    0.408
  401.942  117.377    2.591    0.409
  402.192  115.099    2.499    0.408
  402.442  112.233    2.457    0.404
  402.692  109.350    2.418    0.403
  402.942  107.090    2.423    0.400
  403.192  107.768    2.474    0.398
  403.442  108.392    2.681    0.394
  403.692  108.500    3.017    0.391
  403.942  107.379    3.398    0.387
  404.192  103.926    3.542    0.381
  404.442  100.473    3.617    0.377
  404.692   97.038    3.847    0.374
  404.942   94.173    4.005    0.378
  405.192   92.464    4.427    0.383
  405.442   90.774    4.696    0.387
  405.692   89.084    5.088    0.391
  405.942   89.174    5.301    0.393
  406.192   90.440    5.212    0.393
  406.442   91.082    4.748    0.397
  406.692   92.916    4.319    0.403
  406.942   97.138    3.930    0.409
  407.192  100.130    3.577    0.412
  407.442  103.728    3.385    0.406
  407.692  106.774    3.204    0.393
  407.942  106.846    3.092    0.369
  408.192  107.506    3.097    0.364
  408.442  108.148    3.041    0.356
  408.692  108.238    3.425    0.349
  408.942  108.916    3.855    0.341
  409.192  110.182    4.256    0.337
  409.442  110.218    4.523    0.336
  409.692  110.896    4.809    0.334
  409.942  111.574    4.912    0.333
  410.192  112.216    4.829    0.338
  410.442  112.876    4.748    0.346
  410.692  113.554    4.408    0.356
  410.942  114.213    4.169    0.369
  411.192  114.873    3.870    0.378
  411.442  115.551    3.730    0.385
  411.692  116.229    3.595    0.387
  411.942  116.302    3.339    0.389
  412.192  115.786    3.285    0.387
  412.442  115.841    3.226    0.379
  412.692  115.325    3.237    0.372
  412.942  114.223    3.243    0.357
  413.192  112.550    3.314    0.347
  413.442  110.860    3.387    0.334
  413.692  107.425    3.528    0.328
  413.942  105.147    3.750    0.322
  414.192  102.282    4.144    0.316
  414.442   99.416    4.312    0.314
  414.692   93.613    4.764    0.310
  414.942   87.791    5.259    0.309
  415.192   78.445    5.919    0.309
  415.442   76.167    6.538    0.307
  415.692   76.275    7.363    0.307
  415.942   76.917    8.287    0.307
  416.192   77.577    8.979    0.309
  416.442   75.887    9.531    0.314
  416.692   75.390    9.930    0.321
  416.942   77.830    9.398    0.335
  417.192   79.078    8.719    0.359
  417.442   79.719    7.935    0.371
  417.692   82.160    7.371    0.384
  417.942   84.583    6.968    0.398
  418.192   87.005    6.720    0.405
  418.442   87.665    6.603    0.407
  418.692   88.379    6.491    0.407
  418.942   87.828    6.386    0.413
  419.192   87.313    6.404    0.417
  419.442   87.991    6.423    0.411
  419.692   88.063    6.431    0.406
  419.942   86.373    6.579    0.400
  420.192   84.682    6.594    0.401
  420.442   84.755    6.743    0.407
  420.692   85.433    6.754    0.408
  420.942   87.267    6.910    0.402
  421.192   89.708    7.053    0.388
  421.442   92.113    6.943    0.382
  421.692   95.159    6.691    0.381
  421.942   97.563    6.575    0.380
  422.192   99.416    5.994    0.380
  422.442  101.839    5.886    0.384
  422.692  103.692    5.360    0.386
  422.942  105.527    4.970    0.391
  423.192  107.380    4.354    0.393
  423.442  108.004    4.037    0.400
  423.692  111.050    3.606    0.407
  423.942  112.298    3.409    0.411
  424.192  113.545    3.047    0.407
  424.442  114.205    2.936    0.398
  424.692  114.277    2.885    0.388
  424.942  114.368    2.785    0.382
  425.192  113.834    2.792    0.382
  425.442  113.925    2.799    0.379
  425.692  113.410    2.803    0.372
  425.942  113.482    2.924    0.362
  426.192  112.967    2.929    0.354
  426.442  112.452    2.936    0.348
  426.692  113.129    2.943    0.348
  426.942  113.771    2.953    0.351
  427.192  116.212    2.903    0.359
  427.442  118.634    2.912    0.366
  427.692  121.645    2.860    0.374
  427.942  126.472    2.866    0.383
  428.192  127.095    2.713    0.387
  428.442  128.930    2.517    0.385
  428.692  129.608    2.429    0.378
  428.942  130.268    2.530    0.370
  429.192  130.341    2.584    0.362
  429.442  130.413    2.694    0.351
  429.692  130.521    2.753    0.345
  429.942  129.988    2.814    0.336
  430.192  128.885    2.874    0.325
  430.442  126.020    2.829    0.314
  430.692  123.172    2.836    0.310
  430.942  120.325    2.786    0.311
  431.192  119.186    2.741    0.316
  431.442  119.258    2.746    0.324
  431.692  119.367    2.703    0.334
  431.942  117.107    2.760    0.320
  432.192  114.793    2.993    0.297
  432.442  111.928    3.114    0.268
  432.692  106.712    3.507    0.252
  432.942  101.514    3.797    0.251
  433.192   99.218    4.534    0.254
  433.442  102.228    5.100    0.258
  433.692  106.414    5.974    0.264
  433.942  108.267    6.598    0.265
  434.192  108.945    6.870    0.265
  434.442  108.999    6.882    0.272
  434.692  109.659    6.911    0.281
  434.942  110.355    6.919    0.287
  435.192  109.840    6.806    0.293
  435.442  109.306    6.691    0.299
  435.692  108.222    6.453    0.300
  435.942  106.531    6.226    0.294
  436.192  106.016    6.241    0.284
  436.442  108.438    6.259    0.285
  436.692  111.467    6.267    0.286
  436.942  113.284    6.536    0.290
  437.192  115.742    6.548    0.290
  437.442  113.446    6.833    0.289
  437.692  111.187    6.845    0.291
  437.942  108.927    6.999    0.290
  438.192  108.375    7.011    0.290
  438.442  107.860    6.893    0.290
  438.692  105.582    6.651    0.291
  438.942  103.910    6.532    0.292
  439.192  107.526    5.951    0.294
  439.442  109.930    5.626    0.298
  439.692  114.133    5.226    0.303
  439.942  118.906    4.940    0.311
  440.192  122.540    4.493    0.321
  440.442  121.455    3.937    0.328
  440.692  119.747    3.794    0.335
  440.942  118.626    3.732    0.341
  441.192  118.111    3.888    0.345
  441.442  117.614    3.978    0.353
  441.692  116.511    3.987    0.349
  441.942  116.583    3.918    0.298
  442.192  121.356    3.778    0.294
  442.442  127.322    3.510    0.296
  442.692  131.507    3.451    0.301
  442.942  133.930    3.455    0.308
  443.192  135.783    3.398    0.315
  443.442  137.048    3.408    0.325
  443.692  139.471    3.414    0.336
  443.942  140.113    3.361    0.349
  444.192  141.415    3.365    0.362
  444.442  141.451    3.247    0.363
  444.692  141.523    3.190    0.361
  444.942  141.008    3.078    0.358
  445.192  141.116    2.968    0.357
  445.442  139.444    2.864    0.357
  445.692  138.323    2.814    0.355
  445.942  137.790    2.716    0.353
  446.192  136.723    2.668    0.346
  446.442  136.172    2.575    0.340
  446.692  135.675    2.581    0.334
  446.942  135.177    2.539    0.332
  447.192  135.232    2.496    0.332
