~VERSION INFORMATION
 VERS.                 2.0:   CWLS LOG ASCII STANDARD -VERSION 2.0
 WRAP.                  NO:   ONE LINE PER DEPTH STEP
~WELL INFORMATION BLOCK
#MNEM.UNIT           DATA                    DESCRIPTION OF MNEMONIC
#---------    -------------------            -------------------------------
# Generated from Intellog Unique Number	CN_94_101/WELL/3574
WELL.         11-09-096-11W4                 : Well_name    - WELL
LOC .         AA/11-09-096-11W4/0            : Location     - LOCATION
UWI .         AA/11-09-096-11W400            : Uwi          - UNIQUE WELL ID
ENTR.         JOETTE                         : Entered      - ENTERED BY
SRVC.         SCHLUMBERGER                   : Scn          - SERVICE COMPANY
DATE.         07/31/92                       : Date         - LOG DATE
STRT.F        20                             : top_depth    - START DEPTH
STOP.F        330.039                        : bot_depth    - STOP DEPTH
STEP.F        0.8202                         : increment    - STEP LENGTH
 NULL. -999.2500:NULL Value
~CURVE INFORMATION BLOCK
#MNEM UNIT       ERCB CURVE CODE    CURVE DESCRIPTION
#-----------   ------------------   ----------------------------------
DEPT.F        00 001 00 00         : DEPTH        - DEPTH
GR  .API      00 310 00 00         : GR           - GAMMA RAY
ILD .OHMM     00 120 00 00         : RESD         - DEEP RESISTIVITY (DIL)
RHOB.G/CC     00 350 00 00         : DENS         - BULK DENSITY
DPHI.V/V      00 890 00 00         : PHID         - DENSITY POROSITY (SANDSTONE)
~PARAMETER INFORMATION
#MNEM.UNIT           DATA             DESCRIPTION OF MNEMONIC
#---------         -----------     ------------------------------
GL  .M        284.074              : gl           - GROUND LEVEL ELEVATION
EREF.M        285.293              : kb           - ELEVATION OF DEPTH REFERENCE
DATM.M        285.293              : datum        - DATUM ELEVATION
TDD .M        103.632              : tdd          - TOTAL DEPTH DRILLER
RUN .         ONE                  : Run          - RUN NUMBER
ENG .         BILL                 : Engineer     - RECORDING ENGINEER
WIT .         JIM                  : Witness      - WITNESSED BY
MUD .         GEL                  : Mud_type     - MUD TYPE
MATR.         SANDSTONE            : Logunit      - NEUTRON MATRIX
TMAX.F        30                   : BHT          - MAXIMUM RECORDED TEMPERATURE
BHTD.F        340                  : BHTDEP       - MAXIMUM RECORDED TEMPERATURE
RMT .F        30                   : MDTP         - TEMPERATURE OF MUD
MUDD.LB/G     8.9                  : MWT          - MUD DENSITY
NEUT.         1                    : NEUTRON      - NEUTRON TYPE
RESI.         0                    : RESIST       - RESISTIVITY TYPE
RM  .OHMM     3.69                 : RM           - RESISTIVITY OF MUD
RMC .OHMM     3.69                 : RMC          - RESISTIVITY OF MUD CAKE
RMF .OHMM     3.69                 : RMF          - RESISTIVITY OF MUD FILTRATE
SUFT.F        5                    : SUFT         - SURFACE TEMPERATURE
~A  DEPTH       GR     RESD     DENS     PHID
# ...
  162.717   66.622   81.207    2.306    0.209
  163.537   70.958   60.729    2.319    0.200
  164.357   74.888   45.415    2.339    0.188
  165.177   74.854   43.011    2.389    0.158
  165.997   76.020   37.198    2.374    0.167
  166.818   79.967   32.758    2.362    0.174
  167.638   74.361   27.820    2.356    0.178
  168.458   63.995   24.060    2.354    0.180
  169.278   30.566   21.972    2.347    0.183
  170.098   26.955   18.660    2.329    0.194
  170.919   27.698   22.790    2.289    0.219
  171.739   27.266   36.554    2.235    0.252
  172.559   25.253   52.575    2.209    0.267
  173.379   25.616   75.619    2.202    0.271
  174.199   31.152  142.836    2.200    0.273
  175.020   37.475  128.098    2.220    0.261
  175.840   48.963  123.540    2.235    0.251
  176.660   55.295  142.881    2.283    0.222
  177.480   57.247  140.327    2.307    0.208
  178.301   51.640  121.355    2.364    0.173
  179.121   46.837   85.939    2.378    0.165
  179.941   41.240   69.113    2.312    0.205
  180.761   30.071   49.841    2.260    0.236
  181.581   27.643   37.956    2.226    0.257
  182.402   33.171   34.664    2.217    0.262
  183.222   37.913   43.903    2.261    0.236
  184.042   63.326   74.362    2.283    0.223
  184.862   70.443   95.908    2.292    0.217
  185.682   58.480   54.616    2.320    0.200
  186.503   46.127   54.622    2.358    0.177
  187.323   36.150   48.103    2.337    0.189
  188.143   35.718   29.457    2.273    0.228
  188.963   38.862   23.263    2.195    0.276
  189.783   38.033   22.032    2.173    0.289
  190.604   31.640   25.022    2.167    0.293
  191.424   28.807  117.223    2.180    0.285
  192.244   26.794   75.805    2.188    0.280
  193.064   22.777   53.683    2.182    0.284
  193.885   21.162   52.722    2.174    0.289
  194.705   19.935   62.095    2.167    0.292
  195.525   19.892  111.070    2.165    0.294
  196.345   19.459   97.816    2.171    0.290
  197.165   19.036  111.090    2.171    0.291
  197.986   19.001  213.680    2.164    0.294
  198.806   18.958  296.367    2.160    0.297
  199.626   18.517  307.366    2.154    0.301
  200.446   17.282  307.406    2.152    0.302
  201.266   16.461  324.660    2.147    0.305
  202.087   15.631  330.638    2.143    0.307
  202.907   17.195  336.745    2.139    0.310
  203.727   19.544  355.645    2.135    0.312
  204.547   20.304  330.752    2.126    0.317
  205.367   19.069  307.594    2.124    0.319
  206.188   17.047  270.897    2.138    0.311
  207.008   15.423  242.940    2.145    0.306
  207.828   15.388  238.592    2.145    0.306
  208.648   15.751  291.401    2.145    0.306
  209.469   17.297  337.030    2.145    0.306
  210.289   18.074  319.178    2.150    0.303
  211.109   18.428  296.838    2.156    0.299
  211.929   18.402  319.271    2.140    0.309
  212.749   17.166  319.305    2.123    0.319
  213.570   17.140  302.384    2.129    0.316
  214.390   16.699  256.800    2.141    0.309
  215.210   16.665  276.186    2.147    0.305
  216.030   16.621  281.279    2.152    0.302
  216.850   16.595  281.316    2.158    0.298
  217.671   16.552  286.504    2.164    0.295
  218.491   16.906  286.534    2.161    0.296
  219.311   16.880  286.557    2.159    0.297
  220.131   17.242  286.595    2.169    0.292
  220.951   17.207  281.465    2.169    0.292
  221.772   17.173  281.495    2.160    0.297
  222.592   17.138  297.294    2.162    0.296
  223.412   17.112  297.326    2.176    0.287
  224.232   17.077  286.754    2.170    0.291
  225.052   17.440  286.769    2.161    0.296
  225.873   17.802  286.807    2.171    0.290
  226.693   17.759  281.674    2.177    0.287
  227.513   17.724  257.242    2.182    0.283
  228.333   19.287  243.617    2.202    0.271
  229.154   25.213  222.486    2.222    0.260
  229.974   28.745  199.535    2.206    0.269
  230.794   30.300  185.564    2.183    0.283
  231.614   32.261  113.635    2.179    0.285
  232.434   35.802   83.450    2.207    0.269
  233.255   37.348   68.341    2.196    0.275
  234.075   34.938   54.960    2.182    0.283
  234.895   32.908   54.967    2.158    0.298
  235.715   31.689   49.297    2.128    0.316
  236.535   32.449   44.210    2.162    0.296
  237.356   34.004   40.375    2.263    0.235
  238.176   31.585   39.652    2.203    0.271
  238.996   29.158   49.317    2.173    0.289
  239.816   27.542   55.002    2.166    0.293
  240.636   25.115   50.232    2.168    0.292
  241.457   25.071   44.239    2.162    0.296
  242.277   25.037   41.142    2.160    0.297
  243.097   24.604   50.248    2.177    0.286
  243.917   24.181   68.437    2.199    0.273
  244.738   22.954   72.280    2.245    0.246
  245.558   21.727   73.613    2.306    0.208
  246.378   21.295   83.603    2.366    0.172
  247.198   24.042  107.827    2.339    0.188
  248.018   34.347  141.623    2.349    0.182
  248.839   60.943   67.248    2.371    0.169
  249.659   72.431   62.542    2.357    0.178
  250.479   75.186   61.423    2.287    0.220
  251.299   29.034   56.095    2.244    0.246
  252.119   24.231   39.724    2.266    0.233
  252.940   18.616   16.915    2.224    0.258
  253.760   16.197   14.106    2.178    0.286
  254.580   15.368   36.951    2.156    0.300
  255.400   15.341   98.571    2.179    0.285
  256.220   16.075  186.185    2.235    0.252
  257.041   16.455  147.035    2.290    0.218
  257.861   18.010  129.490    2.310    0.206
  258.681   26.734  122.634    2.308    0.207
  259.501   40.606  147.081    2.284    0.222
  260.322   52.501  118.283    2.225    0.257
  261.142   91.025   33.772    2.181    0.284
  261.962   98.143   14.380    2.225    0.258
  262.782  102.479    7.897    2.292    0.217
  263.602   83.760    6.706    2.362    0.175
  264.423   79.752    7.479    2.402    0.151
  265.243   82.499    7.899    2.413    0.143
  266.063   85.634    8.496    2.417    0.141
  266.883   88.389    8.972    2.439    0.128
  267.703   90.730    9.476    2.464    0.113
  268.524   89.115   10.191    2.480    0.103
  269.344   79.932   10.379    2.488    0.098
  270.164   77.125   10.381    2.436    0.130
  270.984   65.558   10.766    2.385    0.160
  271.804   54.389   17.584    2.345    0.185
  272.625   47.997   22.271    2.319    0.201
  273.445   47.168   29.786    2.269    0.231
  274.265   53.093   33.829    2.293    0.217
  275.085   60.210   22.686    2.318    0.201
  275.906   59.778   16.660    2.340    0.188
  276.726   63.726   11.586    2.330    0.194
  277.546   75.611   20.351    2.389    0.158
  278.366   87.505   19.626    2.437    0.129
  279.186   90.641   16.973    2.440    0.127
  280.007   89.803   14.415    2.452    0.120
  280.827   88.990   13.164    2.464    0.113
  281.647   86.960   11.594    2.490    0.097
  282.467   82.555   10.782    2.535    0.070
  283.287   78.944   10.027    2.553    0.059
  284.108   75.333   10.399    2.505    0.088
  284.928   75.687   12.248    2.453    0.120
  285.748   76.447   12.029    2.416    0.142
  286.568   78.010   11.187    2.414    0.143
  287.388   78.364   10.987    2.442    0.126
  288.209   76.351   11.189    2.434    0.131
  289.029   70.745   11.191    2.405    0.148
  289.849   65.148   10.407    2.379    0.164
  290.669   65.907    9.505    2.317    0.202
  291.490   68.248   10.794    2.317    0.202
  292.310   65.441   12.713    2.340    0.188
  293.130   61.424   13.185    2.338    0.189
  293.950   64.179   12.262    2.342    0.187
  294.770   68.912   11.404    2.334    0.192
  295.591   67.280   11.200    2.341    0.187
  296.411   63.660   11.000    2.347    0.184
  297.231   61.647   11.203    2.329    0.195
  298.051   58.036   11.409    2.303    0.210
  298.871   54.028   11.620    2.290    0.218
  299.692   47.230   11.834    2.260    0.236
  300.512   41.235   12.727    2.252    0.241
  301.332   39.214   14.720    2.258    0.238
  302.152   44.742   18.985    2.255    0.239
  302.972   47.480   25.857    2.245    0.245
  303.793   44.275   22.362    2.223    0.259
  304.613   37.883   24.491    2.199    0.273
