~VERSION INFORMATION
 VERS.                 2.0:   CWLS LOG ASCII STANDARD -VERSION 2.0
 WRAP.                  NO:   ONE LINE PER DEPTH STEP
~WELL INFORMATION BLOCK
#MNEM.UNIT           DATA                    DESCRIPTION OF MNEMONIC
#---------    -------------------            -------------------------------
# Generated from Intellog Unique Number	CX_WELLS/WELL/3217
WELL.         ATLANTIC RICHFIELD             : Well_name    - WELL
LOC .         AA/10-11-083-11W4/0            : Location     - LOCATION
UWI .         AA/10-11-083-11W4/0            : Uwi          - UNIQUE WELL ID
ENTR.         T                              : Entered      - ENTERED BY
SRVC.         SCHLUMBERGER                   : Scn          - SERVICE COMPANY
STRT.F        900                            : top_depth    - START DEPTH
STOP.F        1639.83                        : bot_depth    - STOP DEPTH
STEP.F        0.82                           : increment    - STEP LENGTH
 NULL. -999.2500:NULL Value
~CURVE INFORMATION BLOCK
#MNEM UNIT       ERCB CURVE CODE    CURVE DESCRIPTION
#-----------   ------------------   ----------------------------------
DEPT.F        00 001 00 00         : DEPTH        - DEPTH
GR  .API      00 310 00 00         : GR           - GAMMA RAY
NPHI.V/V      00 330 00 00         : PHIN         - NEUTRON POROSITY (SANDSTONE)
ILD .OHMM     00 120 00 00         : RESD         - DEEP RESISTIVITY (DIL)
~PARAMETER INFORMATION
#MNEM.UNIT           DATA             DESCRIPTION OF MNEMONIC
#---------         -----------     ------------------------------
GL  .F        2392                 : gl           - GROUND LEVEL ELEVATION
EREF.F        2402                 : kb           - ELEVATION OF DEPTH REFERENCE
DATM.F        2402                 : datum        - DATUM ELEVATION
TDD .F        1635                 : tdd          - TOTAL DEPTH DRILLER
RUN .         ONE                  : Run          - RUN NUMBER
ENG .         BILL                 : Engineer     - RECORDING ENGINEER
WIT .         JIM                  : Witness      - WITNESSED BY
MUD .         GEL                  : Mud_type     - MUD TYPE
MATR.         SANDSTONE            : Logunit      - NEUTRON MATRIX
TMAX.F        70                   : BHT          - MAXIMUM RECORDED TEMPERATURE
BHTD.F        1632                 : BHTDEP       - MAXIMUM RECORDED TEMPERATURE
MATR.         1                    : LOGUNIT      - NEUTRON MATRIX
RMT .F        43                   : MDTP         - TEMPERATURE OF MUD
NEUT.         1                    : NEUTRON      - NEUTRON TYPE
RESI.         4.68                 : RESIST       - RESISTIVITY TYPE
RMC .OHMM     4.68                 : RMC          - RESISTIVITY OF MUD CAKE
RMF .OHMM     4.68                 : RMF          - RESISTIVITY OF MUD FILTRATE
SUFT.F        32                   : SUFT         - SURFACE TEMPERATURE
~A  DEPTH       GR     PHIN     RESD
# ...
 1255.970   59.171    0.416   10.338
 1256.790   59.231    0.417   10.393
 1257.610   59.322    0.418   10.448
 1258.430   60.359    0.418   10.503
 1259.250   61.366    0.419   10.573
 1260.070   61.907    0.419   10.629
 1260.890   61.983    0.418   10.685
 1261.710   61.052    0.416   10.756
 1262.530   59.687    0.414   10.607
 1263.350   61.669    0.414   10.502
 1264.170   62.691    0.413   10.543
 1264.990   63.713    0.412   10.585
 1265.810   64.269    0.411   10.466
 1266.630   65.786    0.409   10.362
 1267.450   66.793    0.410   10.390
 1268.270   66.869    0.410   10.445
 1269.090   65.473    0.413   10.314
 1269.910   62.650    0.411   10.368
 1270.730   60.309    0.410   10.238
 1271.560   58.943    0.411   10.306
 1272.380   58.042    0.413   10.177
 1273.200   58.614    0.414   10.217
 1274.020   59.140    0.415   10.299
 1274.840   59.201    0.416   10.156
 1275.660   59.246    0.416   10.210
 1276.480   58.826    0.411   10.264
 1277.300   57.941    0.404   10.318
 1278.120   57.521    0.348   10.560
 1278.940   57.582    0.329   11.032
 1279.760   57.658    0.339   11.495
 1280.580   57.703    0.358   11.780
 1281.400   58.245    0.390   12.040
 1282.220   59.266    0.410   12.120
 1283.040   60.799    0.424   12.168
 1283.860   61.805    0.425   11.818
 1284.680   62.857    0.419   11.463
 1285.500   62.888    0.409   10.921
 1286.320   63.940    0.404   10.405
 1287.140   64.466    0.404   10.092
 1287.960   65.533    0.395    9.952
 1288.780   66.059    0.399   10.005
 1289.600   65.624    0.405    9.892
 1290.420   64.709    0.411    9.932
 1291.240   64.289    0.418    9.833
 1292.060   63.884    0.426    9.885
 1292.880   63.945    0.425    9.748
 1293.700   64.005    0.422    9.813
 1294.520   64.547    0.420    9.852
 1295.340   64.623    0.417   10.096
 1296.160   64.188    0.416   10.520
 1296.980   63.813    0.414   10.766
 1297.800   63.378    0.414   10.823
 1298.620   62.943    0.414   10.881
 1299.440   62.538    0.414   10.554
 1300.260   62.584    0.416   10.435
 1301.080   62.675    0.420   10.290
 1301.900   63.186    0.413    9.994
 1302.720   64.734    0.404   10.047
 1303.540   64.764    0.388    9.921
 1304.360   64.825    0.390    9.987
 1305.180   63.924    0.395    9.849
 1306.000   63.504    0.401    9.914
 1306.820   65.502    0.395    9.777
 1307.640   67.485    0.389    9.841
 1308.460   74.273    0.379    9.376
 1309.280   81.076    0.368    8.775
 1310.100   79.245    0.364    7.923
 1310.930   77.849    0.358    7.414
 1311.750   75.507    0.351    7.064
 1312.570   76.048    0.342    6.852
 1313.390   79.472    0.332    6.766
 1314.210   83.392    0.337    6.801
 1315.030   86.817    0.337    6.828
 1315.850   88.814    0.376    7.007
 1316.670   89.371    0.383    6.787
 1317.490   88.936    0.403    6.475
 1318.310   87.090    0.413    6.264
 1319.130   86.174    0.428    6.076
 1319.950   85.274    0.444    5.789
 1320.770   83.893    0.464    5.615
 1321.590   83.488    0.437    5.363
 1322.410   84.014    0.418    5.195
 1323.230   85.532    0.396    5.039
 1324.050   86.553    0.385    4.982
 1324.870   87.125    0.371    5.009
 1325.690   86.690    0.354    5.120
 1326.510   86.255    0.350    5.334
 1327.330   85.850    0.359    5.768
 1328.150   86.407    0.370    6.229
 1328.970   86.933    0.374    6.990
 1329.790   87.474    0.344    7.274
 1330.610   87.534    0.341    7.445
 1331.430   87.595    0.340    7.494
 1332.250   88.151    0.347    7.534
 1333.070   89.188    0.377    7.584
 1333.890   91.171    0.405    7.479
 1334.710   92.178    0.425    7.395
 1335.530   92.719    0.418    7.292
 1336.350   94.732    0.401    7.092
 1337.170   95.769    0.382    6.984
 1337.990   95.319    0.366    6.774
 1338.810   93.953    0.355    6.689
 1339.630   92.572    0.348    6.497
 1340.450   93.113    0.338    6.310
 1341.270   93.654    0.332    6.239
 1342.090   94.180    0.327    6.144
 1342.910   94.256    0.351    5.960
 1343.730   95.308    0.353    5.577
 1344.550   95.819    0.353    5.321
 1345.370   95.880    0.353    4.973
 1346.190   96.932    0.343    4.648
 1347.010   97.954    0.342    4.272
 1347.830   98.975    0.352    3.927
 1348.650   99.501    0.351    3.680
 1349.480  100.043    0.348    3.634
 1350.300   99.172    0.347    3.653
 1351.120   98.257    0.352    3.945
 1351.940   95.930    0.341    4.260
 1352.760   95.510    0.332    4.861
 1353.580   96.052    0.331    5.249
 1354.400   96.608    0.330    5.676
 1355.220   96.638    0.327    6.029
 1356.040   96.729    0.326    6.162
 1356.860   96.775    0.322    6.421
 1357.680   98.292    0.318    6.829
 1358.500  101.236    0.314    7.125
 1359.320  103.714    0.313    7.273
 1360.140  105.217    0.307    7.608
 1360.960  106.238    0.297    7.776
 1361.780  106.780    0.292    8.102
 1362.600  106.825    0.291    8.292
 1363.420  106.405    0.292    8.640
 1364.240  104.544    0.294    9.026
 1365.060  103.178    0.298    9.213
 1365.880   99.380    0.325    9.638
 1366.700   94.635    0.328    9.838
 1367.520   91.813    0.357   10.264
 1368.340   94.772    0.368   10.318
 1369.160  100.118    0.384   10.008
 1369.980  100.659    0.399    9.694
 1370.800   99.774    0.404    8.776
 1371.620   98.889    0.399    8.350
 1372.440   99.445    0.400    7.676
 1373.260   99.956    0.371    7.313
 1374.080   98.590    0.321    7.352
 1374.900   95.783    0.304    7.660
 1375.720   94.372    0.314    7.981
 1376.540   92.991    0.318    8.775
 1377.360   94.013    0.341    9.489
 1378.180   97.963    0.339   10.065
 1379.000   98.489    0.337   10.118
 1379.820   97.108    0.337    9.814
 1380.640   95.727    0.337    9.519
 1381.460   95.308    0.340    9.233
 1382.280   94.903    0.349    8.967
 1383.100   93.972    0.358    8.698
 1383.920   90.189    0.354    8.589
 1384.740   91.241    0.323    8.481
 1385.560   93.689    0.312    8.537
 1386.380   97.624    0.294    8.571
 1387.200   97.654    0.297    8.807
 1388.020   95.823    0.312    8.990
 1388.850   93.962    0.316    9.392
 1389.670   94.023    0.311    9.586
 1390.490   94.549    0.306    9.811
 1391.310   96.081    0.336    9.876
 1392.130   96.592    0.370    9.942
 1392.950   95.242    0.392    9.994
 1393.770   94.326    0.409    9.522
 1394.590   91.519    0.435    9.072
 1395.410   90.123    0.385    8.654
 1396.230   86.835    0.356    8.523
 1397.050   85.439    0.338    8.568
 1397.870   84.088    0.342    8.769
 1398.690   83.638    0.345    8.816
 1399.510   83.218    0.348    8.874
 1400.330   87.123    0.353    8.619
 1401.150   91.524    0.359    8.500
 1401.970   91.104    0.368    7.954
 1402.790   89.258    0.421    7.444
 1403.610   87.396    0.449    7.083
 1404.430   86.481    0.467    6.628
 1405.250   86.061    0.448    6.323
 1406.070   86.617    0.415    6.024
 1406.890   88.120    0.388    5.638
 1407.710   90.583    0.372    5.276
 1408.530   94.503    0.354    5.020
 1409.350   93.618    0.332    4.698
 1410.170   91.260    0.324    4.639
 1410.990   86.996    0.326    5.100
 1411.810   82.717    0.327    5.932
 1412.630   79.895    0.326    6.284
 1413.450   78.529    0.280    7.309
 1414.270   77.614    0.240    7.883
 1415.090   74.791    0.215    8.524
 1415.910   69.567    0.178    9.218
 1416.730   62.900    0.167   11.083
 1417.550   59.117    0.105   13.848
 1418.370   55.814    0.181   14.173
 1419.190   62.121    0.266   13.747
 1420.010   79.510    0.328   12.899
 1420.830   85.818    0.343   12.273
 1421.650   92.156    0.336   11.677
 1422.470   92.681    0.326   10.720
 1423.290   93.703    0.354    9.692
 1424.110   93.779    0.346    9.222
 1424.930   94.831    0.325    8.348
 1425.750   94.861    0.353    8.087
 1426.570   95.898    0.354    7.705
 1427.400   95.944    0.346    7.483
 1428.220   96.020    0.345    7.370
 1429.040   96.096    0.360    6.897
 1429.860   96.637    0.381    6.235
 1430.680   91.877    0.421    5.820
 1431.500   86.156    0.434    5.070
 1432.320   78.048    0.383    4.491
 1433.140   73.784    0.335    3.708
