~VERSION INFORMATION
 VERS.                 2.0:   CWLS LOG ASCII STANDARD -VERSION 2.0
 WRAP.                  NO:   ONE LINE PER DEPTH STEP
~WELL INFORMATION BLOCK
#MNEM.UNIT           DATA                    DESCRIPTION OF MNEMONIC
#---------    -------------------            -------------------------------
# Generated from Intellog Unique Number	CN_94_101/WELL/1071
WELL.         CHEVRON CANADA RESOURCES       : Well_name    - WELL
LOC .         AA/10-30-094-07W4/0            : Location     - LOCATION
UWI .         AA/10-30-094-07W400            : Uwi          - UNIQUE WELL ID
ENTR.         JOETTE                         : Entered      - ENTERED BY
SRVC.         SCHLUMBERGER                   : Scn          - SERVICE COMPANY
DATE.         04/12/92                       : Date         - LOG DATE
STRT.M        100                            : top_depth    - START DEPTH
STOP.M        207                            : bot_depth    - STOP DEPTH
STEP.M        0.25                           : increment    - STEP LENGTH
 NULL. -999.2500:NULL Value
~CURVE INFORMATION BLOCK
#MNEM UNIT       ERCB CURVE CODE    CURVE DESCRIPTION
#-----------   ------------------   ----------------------------------
DEPT.M        00 001 00 00         : DEPTH        - DEPTH
GR  .API      00 310 00 00         : GR           - GAMMA RAY
ILD .OHMM     00 120 00 00         : RESD         - DEEP RESISTIVITY (DIL)
DPHI.V/V      00 890 00 00         : PHID         - DENSITY POROSITY (SANDSTONE)
NPHI.V/V      00 330 00 00         : PHIN         - NEUTRON POROSITY (SANDSTONE)
CALI.MM       00 280 01 00         : CAL          - CALIPER
~PARAMETER INFORMATION
#MNEM.UNIT           DATA             DESCRIPTION OF MNEMONIC
#---------         -----------     ------------------------------
GL  .M        463.6                : gl           - GROUND LEVEL ELEVATION
EREF.M        463.6                : kb           - ELEVATION OF DEPTH REFERENCE
DATM.M        463.6                : datum        - DATUM ELEVATION
TDD .M        289.6                : tdd          - TOTAL DEPTH DRILLER
RUN .         ONE                  : Run          - RUN NUMBER
ENG .         BILL                 : Engineer     - RECORDING ENGINEER
WIT .         JIM                  : Witness      - WITNESSED BY
MUD .         GEL                  : Mud_type     - MUD TYPE
MATR.         SANDSTONE            : Logunit      - NEUTRON MATRIX
TMAX.C        14.2                 : BHT          - MAXIMUM RECORDED TEMPERATURE
BHTD.M        289.6                : BHTDEP       - MAXIMUM RECORDED TEMPERATURE
RMT .C        14.5                 : MDTP         - TEMPERATURE OF MUD
MUDD.KG/M     1022                 : MWT          - MUD DENSITY
NEUT.         1                    : NEUTRON      - NEUTRON TYPE
RESI.         0                    : RESIST       - RESISTIVITY TYPE
RM  .OHMM     14.6                 : RM           - RESISTIVITY OF MUD
RMC .OHMM     7.81                 : RMC          - RESISTIVITY OF MUD CAKE
RMF .OHMM     11.3                 : RMF          - RESISTIVITY OF MUD FILTRATE
SUFT.C        4                    : SUFT         - SURFACE TEMPERATURE
~A  DEPTH       GR     RESD     PHID     PHIN      CAL
  100.000   99.051   11.572    0.275    0.517  162.276
  100.250   97.790   12.672    0.261    0.488  162.256
  100.500  105.154   13.877    0.246    0.469  160.598
  100.750  113.127   14.113    0.243    0.468  160.170
  101.000  111.872   14.353    0.247    0.455  158.920
  101.250  105.075   14.611    0.241    0.447  158.487
  101.500  106.281   14.322    0.237    0.438  158.069
  101.750  103.186   13.536    0.236    0.428  158.044
  102.000   95.774   12.102    0.239    0.564  158.029
  102.250   99.446   11.229    0.240    0.576  157.999
  102.500  107.413   11.011    0.240    0.559  157.576
  102.750   98.167   12.058    0.243    0.533  157.153
  103.000   92.594   13.699    0.256    0.470  156.715
  103.250  106.110   13.433    0.274    0.498  156.292
  103.500  109.167   12.464    0.306    0.482  155.042
  103.750  101.754   11.780    0.324    0.455  154.624
  104.000   94.957   12.665    0.335    0.481  153.374
  104.250   91.863   14.928    0.335    0.498  152.129
  104.500   83.841   17.280    0.335    0.480  149.246
  104.750   69.661   21.132    0.329    0.469  147.588
  105.000   64.721   22.719    0.309    0.432  147.578
  105.250   69.003   20.319    0.286    0.439  147.558
  105.500   74.515   18.161    0.275    0.457  148.355
  105.750   73.260   18.150    0.283    0.476  147.519
  106.000   70.763   19.869    0.302    0.478  147.086
  106.250   75.666   18.784    0.315    0.465  146.662
  106.500   77.494   15.892    0.332    0.481  149.092
  106.750   76.233   15.025    0.331    0.502  151.114
  107.000   74.357   16.153    0.276    0.504  151.900
  107.250   75.569   18.692    0.261    0.486  151.890
  107.500   80.460   16.108    0.262    0.478  151.871
  107.750   84.742   14.678    0.272    0.524  153.076
  108.000   87.184   13.363    0.286    0.512  156.322
  108.250   89.620   13.595    0.295    0.463  156.705
  108.500   88.365   15.450    0.289    0.498  157.502
  108.750   84.035   16.312    0.249    0.529  155.849
  109.000   77.858   17.207    0.211    0.509  153.788
  109.250   73.528   18.167    0.274    0.460  152.543
  109.500   71.658   19.537    0.319    0.452  153.753
  109.750   71.633   23.021    0.301    0.459  157.816
  110.000   71.609   22.581    0.281    0.446  160.649
  110.250   82.043   15.893    0.269    0.442  160.634
  110.500   80.788   12.727    0.283    0.527  156.113
  110.750   78.303   10.968    0.287    0.553  153.638
  111.000   83.200   12.014    0.288    0.534  152.812
  111.250   88.706   13.903    0.292    0.491  151.567
  111.500   86.227   14.674    0.291    0.467  151.547
  111.750   88.048   14.656    0.291    0.478  151.527
  112.000   92.330   13.351    0.319    0.495  153.952
  112.250   99.066   12.849    0.332    0.487  153.529
  112.500   98.433   14.075    0.330    0.455  151.054
  112.750   91.026   16.585    0.318    0.439  148.182
  113.000   81.147   17.830    0.316    0.439  146.529
  113.250   81.737   18.145    0.323    0.513  145.692
  113.500   84.180   15.356    0.321    0.524  145.672
  113.750   83.540   12.294    0.317    0.544  147.280
  114.000   84.125   10.211    0.312    0.574  149.307
  114.250   95.795    9.305    0.309    0.601  152.962
  114.500  109.926    8.958    0.303    0.586  160.699
  114.750  118.514    9.110    0.310    0.551  160.679
  115.000  110.486    9.437    0.330    0.548  159.021
  115.250   92.006    9.432    0.316    0.523  156.965
  115.500   91.976    9.767    0.293    0.495  154.894
  115.750   90.721   10.507    0.289    0.464  157.328
  116.000   86.396   10.884    0.293    0.489  162.208
  116.250   90.063   10.290    0.304    0.547  160.147
  116.500  113.416    9.548    0.321    0.617  156.860
  116.750  123.234    8.081    0.351    0.632  155.202
  117.000  119.519    7.093    0.337    0.638  155.999
  117.250  111.497    6.702    0.364    0.671  155.566
  117.500  105.320    6.334    0.396    0.685  154.734
  117.750  115.139    6.099    0.401    0.665  152.678
  118.000  116.339    6.930    0.390    0.637  150.612
  118.250  110.784    7.586    0.369    0.619  149.367
  118.500  103.377    7.863    0.336    0.624  148.531
  118.750  108.274    8.451    0.326    0.604  148.103
  119.000  114.402    9.429    0.320    0.539  148.083
  119.250  110.686   10.517    0.328    0.451  148.063
  119.500   98.967   11.513    0.352    0.451  148.038
  119.750   92.169   12.378    0.339    0.472  148.426
  120.000   95.842   12.137    0.325    0.550  150.044
  120.250   98.894   11.258    0.311    0.573  152.474
  120.500  100.715   11.043    0.288    0.492  154.904
  120.750  104.376   11.033    0.249    0.435  154.874
  121.000  104.966   11.861    0.210    0.389  154.043
  121.250   95.720   13.981    0.053    0.337  153.211
  121.500   84.007   15.884    0.006    0.201  152.375
  121.750   63.675   23.357    0.016    0.199  152.763
  122.000   58.114   73.050    0.100    0.220  153.560
  122.250   62.396  136.418    0.204    0.297  154.760
  122.500   69.139   55.274    0.266    0.529  154.332
  122.750   77.112   29.526    0.287    0.546  153.082
  123.000   84.470   13.861    0.304    0.495  152.664
  123.250   89.982   11.307    0.307    0.477  153.042
  123.500   96.731   11.713    0.263    0.502  153.436
  123.750   96.091   11.916    0.240    0.488  155.049
  124.000   87.448   11.905    0.250    0.467  156.662
  124.250   78.811   13.279    0.264    0.478  157.454
  124.500   80.017   13.021    0.277    0.494  157.444
  124.750   86.760   11.641    0.277    0.495  156.602
  125.000   94.733   11.207    0.278    0.499  156.179
  125.250  101.463   10.589    0.289    0.511  153.700
  125.500   97.754   10.194    0.295    0.538  152.047
  125.750   94.659    9.998    0.291    0.564  151.215
  126.000   91.553    9.798    0.290    0.592  155.278
  126.250   89.068    9.792    0.304    0.488  158.524
  126.500   91.510    9.780    0.324    0.483  156.055
  126.750  107.474    9.765    0.338    0.497  154.805
  127.000  110.532    9.937    0.316    0.456  153.974
  127.250  119.120   10.294    0.289    0.434  151.091
  127.500  120.326   10.868    0.302    0.531  150.663
  127.750  113.535   11.681    0.332    0.577  150.643
  128.000  109.819    9.708    0.354    0.620  151.031
  128.250  115.940    9.008    0.368    0.608  152.236
  128.500  115.916    8.994    0.368    0.527  154.671
  128.750  112.200    8.986    0.344    0.576  154.243
  129.000  110.330    8.975    0.336    0.609  151.768
  129.250  114.003    8.320    0.325    0.597  152.565
  129.500  112.748    8.164    0.303    0.564  155.000
  129.750  104.727    8.457    0.317    0.517  158.241
  130.000  104.081    9.263    0.326    0.544  156.180
  130.250  111.445    9.252    0.325    0.586  154.527
  130.500  116.336    8.428    0.308    0.563  154.098
  130.750  110.775    7.963    0.313    0.518  155.707
  131.000  104.592    8.717    0.339    0.543  156.912
  131.250  106.420    9.207    0.348    0.563  158.933
  131.500  112.547    9.898    0.340    0.565  163.001
  131.750  116.829    9.017    0.318    0.577  165.436
  132.000  110.653    8.366    0.299    0.590  159.282
  132.250  105.091    8.828    0.290    0.589  156.812
  132.500  102.606    9.150    0.299    0.568  155.567
  132.750  101.351    9.482    0.335    0.530  154.731
  133.000   98.866    8.962    0.346    0.544  153.083
  133.250   95.760    8.625    0.333    0.504  151.430
  133.500   99.433    8.774    0.342    0.485  152.635
  133.750  106.175    9.611    0.348    0.473  155.473
  134.000  112.297   10.720    0.325    0.458  158.719
  134.250  111.663   11.108    0.278    0.467  162.374
  134.500  110.402   10.694    0.221    0.494  161.946
  134.750  115.921   11.284    0.190    0.465  157.027
  135.000  120.202   13.062    0.228    0.467  156.185
  135.250   90.028   17.838    0.261    0.513  158.620
  135.500   85.082   14.821    0.302    0.528  160.641
  135.750   93.670   12.315    0.317    0.476  163.480
  136.000   99.797   11.010    0.232    0.465  162.643
  136.250  102.849   11.837    0.188    0.439  161.807
