~VERSION INFORMATION
 VERS.                 2.0:   CWLS LOG ASCII STANDARD -VERSION 2.0
 WRAP.                  NO:   ONE LINE PER DEPTH STEP
~WELL INFORMATION BLOCK
#MNEM.UNIT           DATA                    DESCRIPTION OF MNEMONIC
#---------    -------------------            -------------------------------
# Generated from Intellog Unique Number	CC_80_83/WELL/2372
NULL.         -999.25                        : NULL_VALUE
WELL.         PEX PCEJU KEANE OV             : Well_name    - WELL              
LOC .         10-26-080-14W4                 : Location     - LOCATION          
UWI .         AA/10-26-080-14W4/0            : Uwi          - UNIQUE WELL ID    
ENTR.         DW                             : Entered      - ENTERED BY        
SRVC.         SCHLUMBERGER                   : Scn          - SERVICE COMPANY   
DATE.         25 JAN 81                      : Date         - LOG DATE
STRT.M        240                            : top_depth    - START DEPTH       
STOP.M        484.791                        : bot_depth    - STOP DEPTH        
STEP.M        0.3                            : increment    - STEP LENGTH       
~CURVE INFORMATION BLOCK
#MNEM UNIT       ERCB CURVE CODE    CURVE DESCRIPTION
#-----------   ------------------   ----------------------------------
DEPT.M        00 001 00 00         : DEPTH        - DEPTH                       
DPHI.V/V      00 890 00 00         : PHID         - DENSITY POROSITY (LIMESTONE)
NPHI.V/V      00 330 00 00         : PHIN         - NEUTRON POROSITY (LIMESTONE)
GR  .API      00 310 00 00         : GR           - GAMMA RAY                   
ILD .OHMM     00 120 00 00         : RESD         - DEEP RESISTIVITY (DIL)      
~PARAMETER INFORMATION       
#MNEM.UNIT           DATA             DESCRIPTION OF MNEMONIC
#---------         -----------     ------------------------------
GL  .M        669.37               : gl           - GROUND LEVEL ELEVATION      
EREF.M        672.27               : kb           - ELEVATION OF DEPTH REFERENCE
DATM.M        672.27               : datum        - DATUM ELEVATION             
TDD .M        492                  : tdd          - TOTAL DEPTH DRILLER         
RUN .         ONE                  : Run          - RUN NUMBER                  
ENG .         BILL                 : Engineer     - RECORDING ENGINEER          
WIT .         JIM                  : Witness      - WITNESSED BY                
MUD .         GEL                  : Mud_type     - MUD TYPE                    
MATR.         LIMESTONE            : Logunit      - NEUTRON MATRIX              
TMAX.C        28                   : BHT          - MAXIMUM RECORDED TEMPERATURE
BHTD.M        492                  : BHTDEP       - MAXIMUM RECORDED TEMPERATURE
MATR.         1                    : LOGUNIT      - NEUTRON MATRIX              
RMT .C        25                   : MDTP         - TEMPERATURE OF MUD          
NEUT.         1                    : NEUTRON      - NEUTRON TYPE                
RESI.         0                    : RESIST       - RESISTIVITY TYPE            
RMC .OHMM     0.25                 : RMC          - RESISTIVITY OF MUD CAKE     
RMF .OHMM     0.25                 : RMF          - RESISTIVITY OF MUD FILTRATE 
SUFT.C        4                    : SUFT         - SURFACE TEMPERATURE         
~A  DEPTH     PHID     PHIN       GR     RESD
  240.000    0.263    0.569  130.462    3.622
  240.300    0.264    0.574  129.829    3.625
  240.600    0.253    0.554  119.113    3.559
  240.900    0.247    0.550  122.892    3.562
  241.200    0.247    0.554  129.192    3.565
  241.500    0.247    0.565  129.820    3.638
  241.800    0.247    0.585  129.188    3.713
  242.100    0.246    0.583  129.185    3.716
  242.400    0.245    0.591  124.771    3.719
  242.700    0.243    0.595  126.029    3.722
  243.000    0.246    0.590  126.657    3.655
  243.300    0.256    0.598  136.739    3.520
  243.600    0.271    0.599  115.308    3.389
  243.900    0.278    0.590  129.171    3.201
  244.200    0.266    0.579  126.017    3.083
  244.500    0.263    0.580  109.628    3.146
  244.800    0.266    0.564  126.013    3.273
  245.100    0.266    0.570  119.708    3.404
  245.400    0.263    0.566  114.663    3.610
  245.700    0.274    0.558  107.098    3.756
  246.000    0.276    0.548  111.507    3.833
  246.300    0.271    0.560  112.766    3.836
  246.600    0.257    0.548  117.175    3.839
  246.900    0.248    0.545  112.761    3.843
  247.200    0.247    0.569  124.733    3.846
  247.500    0.256    0.580  128.512    3.925
  247.800    0.256    0.596  120.947    3.929
  248.100    0.257    0.574  122.205    3.932
  248.400    0.263    0.544  125.984    3.935
  248.700    0.273    0.534  111.486    3.939
  249.000    0.253    0.530  119.677    3.867
  249.300    0.243    0.553  118.414    3.797
  249.600    0.266    0.549  122.193    3.727
  249.900    0.279    0.548  115.258    3.731
  250.200    0.277    0.573  108.323    3.881
  250.500    0.281    0.590  111.472    4.116
  250.800    0.288    0.590  131.638    4.120
  251.100    0.275    0.540  113.988    4.124
  251.400    0.267    0.530  114.616    4.048
  251.700    0.255    0.543  119.025    3.974
  252.000    0.256    0.550  121.544    3.827
  252.300    0.243    0.564  129.735    3.758
  252.600    0.237    0.561  124.061    3.761
  252.900    0.241    0.546  125.949    3.764
  253.200    0.257    0.539  122.795    3.768
  253.500    0.278    0.551  130.986    3.845
  253.800    0.281    0.553  123.421    3.848
  254.100    0.277    0.569  113.964    3.852
  254.400    0.277    0.549  110.181    4.006
  254.700    0.311    0.554  111.439    4.168
  255.000    0.301    0.569  116.479    4.684
  255.300    0.371    0.507  114.585    6.767
  255.600    0.339    0.519  107.650    8.058
  255.900    0.280    0.440   95.043   10.985
  256.200    0.366    0.464  101.343   12.832
  256.500    0.334    0.444  101.341   13.610
  256.800    0.290    0.428   88.103   13.886
  257.100    0.296    0.447   86.210   13.633
  257.400    0.287    0.459   97.552   12.878
  257.700    0.275    0.455  105.113   11.932
  258.000    0.281    0.449  107.001   11.714
  258.300    0.290    0.464   88.091   11.723
  258.600    0.285    0.475   73.593   11.734
  258.900    0.278    0.480   67.288   12.207
  259.200    0.276    0.475  113.294   12.947
  259.500    0.263    0.480  120.855   12.960
  259.800    0.270    0.452   98.794   12.969
  260.100    0.283    0.460   85.556   12.981
  260.400    0.275    0.462   98.789   12.745
  260.700    0.261    0.463  101.308   12.039
  261.000    0.261    0.472   89.330   10.941
  261.300    0.265    0.477   84.286   10.333
  261.600    0.257    0.441   81.132    9.391
  261.900    0.256    0.474   91.844    8.212
  262.200    0.260    0.489  103.187    6.520
  262.500    0.260    0.479  105.075    5.591
  262.800    0.256    0.483  105.073    4.109
  263.100    0.253    0.514  119.566    4.443
  263.400    0.247    0.528  129.648    4.898
  263.700    0.237    0.524  132.797    5.295
  264.000    0.232    0.490  132.794    6.067
  264.300    0.237    0.480  106.321    6.818
  264.600    0.247    0.462   91.193    8.278
  264.900    0.262    0.452   99.384   11.069
  265.200    0.261    0.441  106.944   13.182
  265.500    0.272    0.448  111.354   14.815
  265.800    0.270    0.441   88.032   13.464
  266.100    0.172    0.364   69.753   12.716
  266.400    0.246    0.411   79.834   12.011
  266.700    0.228    0.419   93.067   10.916
  267.000    0.221    0.432  113.233    9.921
  267.300    0.231    0.439  103.146    9.190
  267.600    0.232    0.458  126.463    8.681
  267.900    0.265    0.474  108.184    8.360
  268.200    0.290    0.494  109.442    8.697
  268.500    0.253    0.493  132.129    9.405
  268.800    0.238    0.467  125.824   10.568
  269.100    0.263    0.442  110.695   15.265
  269.400    0.255    0.461  124.559   15.279
  269.700    0.246    0.458  114.472   15.001
  270.000    0.261    0.446  112.579   14.728
  270.300    0.265    0.448   91.778   14.742
  270.600    0.273    0.449   95.558   15.040
  270.900    0.281    0.474   98.706   15.348
  271.200    0.277    0.437   92.402   15.662
  271.500    0.278    0.437  104.374   15.982
  271.800    0.295    0.424   89.876   15.997
  272.100    0.298    0.419   79.789   16.009
  272.400    0.298    0.441   98.064   15.717
  272.699    0.297    0.446   94.280   15.732
  272.999    0.290    0.441   99.950   15.747
  273.299    0.283    0.432  103.729   15.761
  273.599    0.281    0.428  108.139   15.773
  273.899    0.288    0.434  120.742   15.788
  274.199    0.295    0.427  117.588   15.803
  274.499    0.296    0.418  118.846   14.927
  274.799    0.292    0.439  110.020   12.803
  275.099    0.285    0.451  106.236   11.411
  275.399    0.270    0.462  118.839    9.416
  275.699    0.246    0.449  128.921    7.922
  275.999    0.222    0.454  132.700    6.536
  276.299    0.197    0.482  115.051    5.605
  276.599    0.219    0.522  126.392    4.808
  276.899    0.211    0.540  118.197    4.455
  277.199    0.211    0.559  119.455    4.289
  277.499    0.222    0.539  122.604    4.293
  277.799    0.242    0.530  130.165    4.381
  278.099    0.250    0.535  124.490    4.558
  278.399    0.256    0.540  127.639    4.651
  278.699    0.256    0.539  130.158    4.746
  278.999    0.251    0.548  125.113    4.936
  279.299    0.236    0.544  133.304    5.338
  279.599    0.229    0.508  125.108    5.884
  279.899    0.227    0.487  128.887    6.486
  280.199    0.202    0.469  125.734    7.577
  280.499    0.202    0.453  121.950    7.732
  280.799    0.206    0.449  113.124    7.445
  281.099    0.225    0.441   96.735    7.032
  281.399    0.251    0.428   94.212    6.772
  281.699    0.231    0.453   98.621    6.778
  281.999    0.231    0.493  116.266    7.052
  282.299    0.230    0.482  108.700    7.335
  282.599    0.222    0.451  105.547    7.631
  282.899    0.190    0.453  115.629    7.638
  283.199    0.199    0.461  120.038    7.356
  283.499    0.210    0.453  113.103    7.084
  283.799    0.222    0.438  113.101    6.690
  284.099    0.240    0.437   96.712    6.442
  284.399    0.245    0.452  100.491    6.205
  284.699    0.247    0.492  108.682    6.210
  284.999    0.259    0.491  116.873    6.097
  285.299    0.297    0.478  109.307    6.220
  285.599    0.280    0.503  120.649    6.348
  285.899    0.284    0.483  108.042    6.864
  286.199    0.280    0.468  115.602    8.018
  286.499    0.281    0.454  119.382    9.186
  286.799    0.276    0.456  130.724   10.731
  287.099    0.254    0.464  130.091   11.829
  287.399    0.251    0.448  137.652   12.304
  287.699    0.256    0.437  135.128   13.050
  287.999    0.257    0.461  128.193   13.062
  288.299    0.257    0.479  126.301   12.825
  288.599    0.260    0.483  114.954   13.087
  288.899    0.261    0.454  114.321   13.352
  289.199    0.252    0.454  124.403   13.364
  289.499    0.244    0.425  135.115   12.870
  289.799    0.246    0.408  131.331   12.636
  290.099    0.251    0.429  126.917   12.171
  290.399    0.216    0.457  114.309   11.716
  290.699    0.209    0.469   97.920   11.283
  290.999    0.245    0.474   99.178   11.078
  291.299    0.256    0.444  104.218   11.088
  291.599    0.250    0.461   97.283   11.098
  291.899    0.246    0.469   96.020   11.107
