~VERSION INFORMATION
 VERS.                 2.0:   CWLS LOG ASCII STANDARD -VERSION 2.0
 WRAP.                  NO:   ONE LINE PER DEPTH STEP
~WELL INFORMATION BLOCK
#MNEM.UNIT           DATA                    DESCRIPTION OF MNEMONIC
#---------    -------------------            -------------------------------
# Generated from Intellog Unique Number	CN_94_101/WELL/5023
WELL.         11-27-101-13W4                 : Well_name    - WELL
LOC .         AA/11-27-101-13W4/0            : Location     - LOCATION
UWI .         AA/11-27-101-13W400            : Uwi          - UNIQUE WELL ID
ENTR.         TIM                            : Entered      - ENTERED BY
SRVC.         SCHLUMBERGER                   : Scn          - SERVICE COMPANY
DATE.         08/13/92                       : Date         - LOG DATE
STRT.M        330                            : top_depth    - START DEPTH
STOP.M        550                            : bot_depth    - STOP DEPTH
STEP.M        0.25                           : increment    - STEP LENGTH
NULL. -999.2500:NULL Value
~CURVE INFORMATION BLOCK
#MNEM UNIT       ERCB CURVE CODE    CURVE DESCRIPTION
#-----------   ------------------   ----------------------------------
DEPT.M        00 001 00 00         : DEPTH        - DEPTH
ILD .OHMM     00 120 00 00         : RESD         - DEEP RESISTIVITY (DIL)
NPHI.V/V      00 330 00 00         : PHIN         - NEUTRON POROSITY (SANDSTONE)
DPHI.V/V      00 890 00 00         : PHID         - DENSITY POROSITY (SANDSTONE)
GR  .API      00 310 00 00         : GR           - GAMMA RAY
~PARAMETER INFORMATION
#MNEM.UNIT           DATA             DESCRIPTION OF MNEMONIC
#---------         -----------     ------------------------------
GL  .M        766.7                : gl           - GROUND LEVEL ELEVATION
EREF.M        770.1                : kb           - ELEVATION OF DEPTH REFERENCE
DATM.M        770.1                : datum        - DATUM ELEVATION
TDD .M        555                  : tdd          - TOTAL DEPTH DRILLER
RUN .         ONE                  : Run          - RUN NUMBER
ENG .         BILL                 : Engineer     - RECORDING ENGINEER
WIT .         JIM                  : Witness      - WITNESSED BY
MUD .         GEL                  : Mud_type     - MUD TYPE
MATR.         SANDSTONE            : Logunit      - NEUTRON MATRIX
TMAX.C        28.4                 : BHT          - MAXIMUM RECORDED TEMPERATURE
BHTD.M        555                  : BHTDEP       - MAXIMUM RECORDED TEMPERATURE
RMT .C        28.4                 : MDTP         - TEMPERATURE OF MUD
MUDD.KG/M     1090                 : MWT          - MUD DENSITY
NEUT.         1                    : NEUTRON      - NEUTRON TYPE
RESI.         0                    : RESIST       - RESISTIVITY TYPE
RM  .OHMM     10                   : RM           - RESISTIVITY OF MUD
RMC .OHMM     4.6                  : RMC          - RESISTIVITY OF MUD CAKE
RMF .OHMM     4.6                  : RMF          - RESISTIVITY OF MUD FILTRATE
SUFT.C        4                    : SUFT         - SURFACE TEMPERATURE
~A  DEPTH     RESD     PHIN     PHID       GR
# ...
  373.500    4.036    0.527    0.254  121.844
  373.750    4.040    0.508    0.253  121.864
  374.000    4.242    0.490    0.248  120.037
  374.250    4.447    0.477    0.243  119.431
  374.500    4.455    0.488    0.244  116.364
  374.750    4.261    0.529    0.244  115.158
  375.000    3.675    0.537    0.244  115.171
  375.250    3.090    0.559    0.244  120.777
  375.500    2.702    0.579    0.245  128.862
  375.750    2.514    0.586    0.246  135.715
  376.000    2.518    0.588    0.250  137.601
  376.250    2.526    0.581    0.254  139.501
  376.500    2.530    0.571    0.249  140.134
  376.750    2.933    0.558    0.239  140.780
  377.000    3.137    0.539    0.240  140.187
  377.250    3.140    0.565    0.256  138.974
  377.500    2.755    0.569    0.287  136.521
  377.750    2.563    0.559    0.301  130.348
  378.000    2.370    0.521    0.305  122.929
  378.250    1.986    0.505    0.297  116.137
  378.500    1.988    0.504    0.277  112.451
  378.750    1.797    0.546    0.272  116.810
  379.000    2.003    0.556    0.268  124.282
  379.250    2.008    0.567    0.268  128.648
  379.500    2.210    0.569    0.267  124.955
  379.750    3.202    0.536    0.267  112.584
  380.000    4.588    0.507    0.265  108.884
  380.250    5.580    0.468    0.262   93.413
  380.500    6.574    0.429    0.292   83.528
  380.750    6.777    0.365    0.301   79.835
  381.000    5.995    0.359    0.260   78.615
  381.250    5.013    0.463    0.252   97.239
  381.500    4.231    0.558    0.244  116.489
  381.750    3.842    0.575    0.253  121.475
  382.000    3.454    0.584    0.263  125.848
  382.250    3.067    0.581    0.260  127.114
  382.500    2.679    0.570    0.260  129.000
  382.750    2.490    0.556    0.259  129.647
  383.000    2.297    0.553    0.261  130.293
  383.250    2.108    0.555    0.264  130.320
  383.500    1.913    0.562    0.268  130.347
  383.750    1.722    0.566    0.272  130.986
  384.000    1.531    0.571    0.276  131.640
  384.250    1.735    0.547    0.275  132.906
  384.500    1.938    0.546    0.267  132.926
  384.750    2.141    0.548    0.263  134.192
  385.000    2.147    0.551    0.259  134.226
  385.250    2.351    0.553    0.259  134.252
  385.500    2.357    0.554    0.263  134.286
  385.750    2.363    0.549    0.269  133.679
  386.000    2.371    0.547    0.274  131.846
  386.250    2.375    0.543    0.278  129.393
  386.500    2.582    0.543    0.269  127.566
  386.750    2.588    0.550    0.268  128.213
  387.000    2.592    0.559    0.266  129.486
  387.250    2.799    0.567    0.266  130.119
  387.500    2.802    0.576    0.265  130.772
  387.750    2.808    0.581    0.264  130.799
  388.000    2.617    0.584    0.256  130.205
  388.250    2.230    0.583    0.246  130.852
  388.500    2.038    0.576    0.229  132.118
  388.750    2.045    0.565    0.226  134.625
  389.000    2.053    0.546    0.240  137.138
  389.250    2.056    0.526    0.254  139.024
  389.500    2.064    0.536    0.263  142.770
  389.750    2.266    0.546    0.266  144.656
  390.000    2.275    0.554    0.268  144.070
  390.250    2.279    0.525    0.266  143.463
  390.500    2.287    0.521    0.263  142.263
  390.750    2.093    0.517    0.261  142.276
  391.000    2.099    0.520    0.261  142.303
  391.250    1.910    0.530    0.262  142.949
  391.500    1.916    0.535    0.264  143.603
  391.750    1.723    0.534    0.264  143.636
  392.000    1.729    0.534    0.263  144.269
  392.250    1.538    0.538    0.260  144.916
  392.500    1.544    0.539    0.259  144.942
  392.750    1.554    0.549    0.259  143.729
  393.000    1.558    0.570    0.258  142.516
  393.250    1.563    0.577    0.254  142.549
  393.500    1.572    0.586    0.249  142.569
  393.750    1.578    0.584    0.254  138.263
  394.000    1.583    0.584    0.260  137.056
  394.250    1.784    0.579    0.269  138.309
  394.500    1.791    0.550    0.266  138.962
  394.750    1.995    0.505    0.261  135.883
  395.000    2.200    0.504    0.254  130.950
  395.250    2.401    0.552    0.254  129.117
  395.500    2.607    0.566    0.251  132.243
  395.750    2.807    0.576    0.250  134.136
  396.000    3.012    0.568    0.248  135.396
  396.250    3.218    0.556    0.247  136.669
  396.500    3.223    0.538    0.246  137.935
  396.750    3.425    0.530    0.246  138.582
  397.000    3.630    0.522    0.251  139.842
  397.250    3.634    0.518    0.252  141.108
  397.500    3.640    0.515    0.248  144.248
  397.750    3.647    0.515    0.227  145.507
  398.000    3.457    0.519    0.222  147.394
  398.250    3.463    0.527    0.217  147.420
  398.500    3.274    0.537    0.219  146.820
  398.750    3.278    0.543    0.224  146.227
  399.000    3.087    0.550    0.235  145.634
  399.250    2.896    0.555    0.259  144.420
  399.500    2.705    0.564    0.264  143.827
  399.750    2.514    0.573    0.282  143.240
  400.000    1.927    0.578    0.287  143.267
  400.250    1.342    0.580    0.294  143.300
  400.500    1.152    0.581    0.300  143.320
  400.750    1.157    0.579    0.306  142.727
  401.000    0.966    0.584    0.310  140.281
  401.250    0.972    0.586    0.310  139.067
  401.500    0.979    0.590    0.301  138.474
  401.750    0.986    0.575    0.293  137.874
  402.000    1.187    0.573    0.289  137.907
  402.250    1.194    0.572    0.286  137.307
  402.500    1.201    0.575    0.288  136.714
  402.750    1.207    0.572    0.291  134.888
  403.000    1.213    0.568    0.294  133.668
  403.250    1.220    0.569    0.297  132.461
  403.500    1.226    0.574    0.300  131.241
  403.750    1.230    0.577    0.305  130.035
  404.000    1.434    0.582    0.309  128.815
  404.250    1.639    0.587    0.308  127.602
  404.500    1.842    0.590    0.304  126.388
  404.750    2.441    0.537    0.296  124.555
  405.000    3.037    0.508    0.296  120.862
  405.250    3.835    0.491    0.299  116.543
  405.500    4.430    0.467    0.302  108.511
  405.750    5.423    0.442    0.305  101.718
  406.000    6.021    0.457    0.306   98.025
  406.250    6.027    0.462    0.307  101.152
  406.500    5.835    0.488    0.307  106.757
  406.750    5.052    0.503    0.302  114.230
  407.000    4.074    0.473    0.270  110.537
  407.250    3.684    0.433    0.261  104.978
  407.500    3.100    0.504    0.263  106.244
  407.750    2.710    0.532    0.265  121.775
  408.000    2.126    0.537    0.264  126.141
  408.250    1.935    0.530    0.262  124.321
  408.500    1.940    0.516    0.258  123.714
  408.750    2.342    0.496    0.256  122.501
  409.000    2.938    0.486    0.257  123.774
  409.250    3.339    0.457    0.258  124.421
  409.500    3.938    0.451    0.260  124.441
  409.750    4.140    0.475    0.265  125.100
  410.000    4.345    0.483    0.270  124.494
  410.250    4.351    0.526    0.278  122.048
  410.500    4.355    0.528    0.285  117.735
  410.750    4.364    0.527    0.291  104.117
  411.000    4.369    0.493    0.288   99.184
  411.250    4.374    0.484    0.264   94.251
  411.500    4.973    0.477    0.244   91.812
  411.750    5.966    0.467    0.234   90.585
  412.000    6.563    0.457    0.225   88.139
  412.250    7.159    0.449    0.255   86.919
  412.500    7.955    0.440    0.298   88.192
  412.750    8.158    0.433    0.296   88.219
  413.000    7.969    0.443    0.295   88.865
  413.250    7.186    0.454    0.292   93.224
  413.500    6.797    0.459    0.288  100.070
  413.750    6.016    0.470    0.277  107.535
  414.000    5.036    0.543    0.262  113.141
  414.250    4.646    0.553    0.256  118.747
  414.500    3.863    0.566    0.251  123.733
  414.750    3.276    0.557    0.246  129.345
  415.000    2.301    0.556    0.242  134.331
  415.250    2.107    0.549    0.242  136.224
  415.500    1.919    0.539    0.242  135.624
  415.750    1.922    0.528    0.242  133.798
  416.000    2.126    0.519    0.242  131.958
  416.250    2.528    0.529    0.249  129.511
  416.500    2.731    0.539    0.251  128.298
  416.750    2.934    0.538    0.259  128.951
