~VERSION INFORMATION
 VERS.                 2.0:   CWLS LOG ASCII STANDARD -VERSION 2.0
 WRAP.                  NO:   ONE LINE PER DEPTH STEP
~WELL INFORMATION BLOCK
#MNEM.UNIT           DATA                    DESCRIPTION OF MNEMONIC
#---------    -------------------            -------------------------------
# Generated from Intellog Unique Number	CC_84_87/WELL/2300
NULL.         -999.25                        : NULL_VALUE
WELL.         PEX PCEJ HANGST OV             : Well_name    - WELL              
LOC .         10-09-084-11W4                 : Location     - LOCATION          
UWI .         AA/10-09-084-11W400            : Uwi          - UNIQUE WELL ID    
ENTR.         JHS                            : Entered      - ENTERED BY        
SRVC.         DRESSER ATLAS                  : Scn          - SERVICE COMPANY   
DATE.         05 MAR 80                      : Date         - LOG DATE
STRT.M        125                            : top_depth    - START DEPTH       
STOP.M        366.797                        : bot_depth    - STOP DEPTH        
STEP.M        0.3                            : increment    - STEP LENGTH       
~CURVE INFORMATION BLOCK
#MNEM UNIT       ERCB CURVE CODE    CURVE DESCRIPTION
#-----------   ------------------   ----------------------------------
DEPT.M        00 001 00 00         : DEPTH        - DEPTH                       
DPHI.V/V      00 890 00 00         : PHID         - DENSITY POROSITY (LIMESTONE)
NPHI.V/V      00 330 00 00         : PHIN         - NEUTRON POROSITY (LIMESTONE)
GR  .API      00 310 00 00         : GR           - GAMMA RAY                   
ILD .OHMM     00 120 00 00         : RESD         - DEEP RESISTIVITY (DIL)      
~PARAMETER INFORMATION       
#MNEM.UNIT           DATA             DESCRIPTION OF MNEMONIC
#---------         -----------     ------------------------------
GL  .M        603.7                : gl           - GROUND LEVEL ELEVATION      
EREF.M        607.35               : kb           - ELEVATION OF DEPTH REFERENCE
DATM.M        607.35               : datum        - DATUM ELEVATION             
TDD .M        376                  : tdd          - TOTAL DEPTH DRILLER         
RUN .         ONE                  : Run          - RUN NUMBER                  
ENG .         BILL                 : Engineer     - RECORDING ENGINEER          
WIT .         JIM                  : Witness      - WITNESSED BY                
MUD .         GEL                  : Mud_type     - MUD TYPE                    
MATR.         LIMESTONE            : Logunit      - NEUTRON MATRIX              
TMAX.C        60                   : BHT          - MAXIMUM RECORDED TEMPERATURE
BHTD.M        376                  : BHTDEP       - MAXIMUM RECORDED TEMPERATURE
MATR.         1                    : LOGUNIT      - NEUTRON MATRIX              
RMT .C        25                   : MDTP         - TEMPERATURE OF MUD          
NEUT.         1                    : NEUTRON      - NEUTRON TYPE                
RESI.         0                    : RESIST       - RESISTIVITY TYPE            
RMC .OHMM     0.25                 : RMC          - RESISTIVITY OF MUD CAKE     
RMF .OHMM     0.25                 : RMF          - RESISTIVITY OF MUD FILTRATE 
SUFT.C        15                   : SUFT         - SURFACE TEMPERATURE         
~A  DEPTH     PHID     PHIN       GR     RESD
# ...
  177.201    0.279    0.350   91.135   18.749
  177.501    0.273    0.347   86.201   17.400
  177.801    0.259    0.344   86.777   15.849
  178.101    0.227    0.357   90.412   13.398
  178.401    0.197    0.372  103.841   11.116
  178.701    0.198    0.377  111.769    9.223
  179.001    0.210    0.367  112.958    9.223
  179.301    0.237    0.347   98.842   10.910
  179.601    0.260    0.342   94.523   13.150
  179.901    0.253    0.344   85.912   15.556
  180.201    0.253    0.341   91.390   17.400
  180.501    0.259    0.330   90.737   17.727
  180.801    0.256    0.334   96.827   17.727
  181.101    0.252    0.329   91.279   16.762
  181.401    0.250    0.329   88.185   15.556
  181.701    0.241    0.342   80.193   14.436
  182.001    0.226    0.338   78.935   14.169
  182.301    0.231    0.332   83.183   14.436
  182.601    0.236    0.337   82.535   14.436
  182.901    0.238    0.340   74.541   14.436
  183.201    0.230    0.342   67.159   14.169
  183.501    0.221    0.348   72.018   13.650
  183.801    0.220    0.351   78.720   12.668
  184.101    0.214    0.350   85.420   11.978
  184.401    0.218    0.358   87.219   11.325
  184.701    0.224    0.353   90.240   10.910
  185.001    0.243    0.355   76.130   11.539
  185.301    0.259    0.352   67.525   12.668
  185.601    0.259    0.338   71.775   13.907
  185.901    0.255    0.339   72.352   14.436
  186.201    0.247    0.361   71.703   14.986
  186.501    0.215    0.364   71.056   14.709
  186.801    0.210    0.376   72.242   13.650
  187.101    0.226    0.367   74.657   12.668
  187.401    0.227    0.372   78.907   11.978
  187.701    0.214    0.375   78.870   11.539
  188.001    0.208    0.383   85.564   10.910
  188.301    0.204    0.374   95.322    9.938
  188.601    0.190    0.361   98.963    9.397
  188.901    0.184    0.372  103.823    8.720
  189.201    0.188    0.378  112.968    7.943
  189.501    0.190    0.365  114.772    7.511
  189.801    0.198    0.376  112.897    7.235
  190.101    0.208    0.361  114.697    6.970
  190.401    0.217    0.358  117.720    7.102
  190.701    0.231    0.371  114.019    7.652
  191.001    0.244    0.373   99.292    8.559
  191.301    0.244    0.386  104.759    9.397
  191.601    0.224    0.381  108.401    9.754
  191.901    0.228    0.377  102.857    9.938
  192.201    0.246    0.361   99.149   10.125
  192.501    0.249    0.352   88.708   10.709
  192.801    0.232    0.354   88.673   11.539
  193.101    0.193    0.378   94.145   12.668
  193.401    0.199    0.379   87.376   12.434
  193.701    0.226    0.368   88.564   11.756
  194.001    0.242    0.354   97.709   11.325
  194.301    0.243    0.350   98.282   11.539
  194.601    0.236    0.361   87.844   11.978
  194.901    0.239    0.355   91.480   12.668
  195.201    0.242    0.352   98.177   13.150
  195.501    0.239    0.347   92.636   13.650
  195.801    0.234    0.339   90.152   13.650
  196.101    0.241    0.325   87.663   13.650
  196.401    0.260    0.320   88.851   13.398
  196.701    0.282    0.329   91.878   13.398
  197.001    0.300    0.318   80.215   13.650
  197.301    0.312    0.290   71.612   14.709
  197.601    0.312    0.294   64.840   15.849
  197.901    0.287    0.312   61.134   18.062
  198.201    0.281    0.342   58.037   20.583
  198.501    0.287    0.326   51.259   20.971
  198.801    0.284    0.337   51.844   20.203
  199.101    0.280    0.343   54.255   18.749
  199.401    0.274    0.344   54.222   18.062
  199.701    0.269    0.336   61.533   17.400
  200.001    0.267    0.340   62.109   17.400
  200.301    0.275    0.336   64.519   17.727
  200.601    0.280    0.329   60.201   17.727
  200.901    0.274    0.339   57.715   17.727
  201.201    0.277    0.341   56.450   17.400
  201.501    0.267    0.337   63.765   17.400
  201.801    0.240    0.351   71.688   16.452
  202.101    0.235    0.358   71.651   15.849
  202.401    0.231    0.368   78.351   14.709
  202.701    0.225    0.366   83.214   13.650
  203.001    0.203    0.361  102.153   12.204
  203.301    0.185    0.373  107.623   10.316
  203.601    0.175    0.379  109.422    8.885
  203.901    0.175    0.382  106.942    8.093
  204.201    0.174    0.392  108.742    7.796
  204.501    0.170    0.384  105.644    7.796
  204.801    0.168    0.394  104.997    7.796
  205.101    0.164    0.391  105.573    7.796
  205.401    0.162    0.394  114.104    7.796
  205.701    0.167    0.390  112.847    7.796
  206.001    0.167    0.399  101.185    7.652
  206.301    0.163    0.391  107.270    7.511
  206.601    0.165    0.387  114.580    7.511
  206.901    0.161    0.378  110.868    7.102
  207.201    0.169    0.394  116.950    6.841
  207.501    0.176    0.389  119.364    6.715
  207.801    0.180    0.369  116.262    6.469
  208.101    0.172    0.390  117.455    6.349
  208.401    0.165    0.404  118.646    6.116
  208.701    0.177    0.415  114.937    6.003
  209.001    0.191    0.417  109.397    5.892
  209.301    0.199    0.406  100.791    5.783
  209.601    0.191    0.405   91.575    5.676
  209.901    0.196    0.403   98.885    5.783
  210.201    0.202    0.391   94.565    5.783
  210.501    0.205    0.397   96.979    5.676
  210.801    0.212    0.412  101.226    5.571
  211.101    0.224    0.409  103.635    5.170
  211.401    0.236    0.385  101.156    4.981
  211.701    0.252    0.381   95.000    4.889
  212.001    0.262    0.377   83.945    4.981
  212.301    0.261    0.353   73.503    5.676
  212.601    0.250    0.262   64.286    7.652
  212.901    0.204    0.231   63.023   10.511
  213.201    0.031    0.203   59.931   14.169
  213.501    0.057    0.188   52.547   18.402
  213.801    0.095    0.197   47.615   21.366
  214.101    0.212    0.276   53.701   22.597
  214.401    0.277    0.309   56.729   21.769
  214.701    0.277    0.375   53.631   19.102
  215.001    0.276    0.376   54.821   17.078
  215.301    0.276    0.365   61.510   15.556
  215.601    0.279    0.369   62.707   15.268
  215.901    0.276    0.367   59.608   15.268
  216.201    0.269    0.358   59.574   15.556
  216.501    0.268    0.357   63.206   15.556
  216.801    0.271    0.353   63.787   15.556
  217.101    0.267    0.350   62.525   15.556
  217.401    0.260    0.356   66.778   15.556
  217.701    0.249    0.357   58.173   15.849
  218.001    0.220    0.350   59.971   15.849
  218.301    0.220    0.346   56.265   16.452
  218.601    0.227    0.342   57.452   16.452
  218.901    0.254    0.345   51.909   16.452
  219.201    0.261    0.356   57.379   15.849
  219.501    0.259    0.353   62.855   13.650
  219.801    0.253    0.376   65.882   11.756
  220.101    0.248    0.360   73.187   10.709
  220.401    0.237    0.368   74.991    9.397
  220.701    0.230    0.376   86.582    8.401
  221.001    0.233    0.375   82.263    7.652
  221.301    0.228    0.379   83.455    7.102
  221.601    0.219    0.373   76.683    7.102
  221.901    0.188    0.359   69.916    7.943
  222.201    0.250    0.363   71.106    8.885
  222.501    0.281    0.371   69.230   10.511
  222.801    0.276    0.372   66.743   11.325
  223.101    0.279    0.376   72.833   11.325
  223.401    0.278    0.376   69.126   10.910
  223.701    0.265    0.355   66.643   10.316
  224.001    0.239    0.355   70.279   10.316
  224.301    0.232    0.361   75.142   10.511
  224.601    0.236    0.350   67.145   10.910
  224.901    0.230    0.361   65.886   11.325
  225.201    0.200    0.364   65.240   11.325
  225.501    0.224    0.364   66.430   10.910
  225.801    0.225    0.366   76.798   10.125
  226.101    0.222    0.381   74.922    9.223
  226.401    0.241    0.379   80.402    8.720
  226.701    0.238    0.384   81.590    8.559
  227.001    0.212    0.375   71.147    8.559
  227.301    0.179    0.357   69.273    8.720
  227.601    0.158    0.347   62.508    9.397
  227.901    0.193    0.340   59.411   10.316
  228.201    0.237    0.348   67.328   10.910
  228.501    0.231    0.349   66.071   11.116
  228.801    0.227    0.364   78.893   10.511
  229.101    0.224    0.381   84.364    9.223
