~VERSION INFORMATION
 VERS.                 2.0:   CWLS LOG ASCII STANDARD -VERSION 2.0
 WRAP.                  NO:   ONE LINE PER DEPTH STEP
~WELL INFORMATION BLOCK
#MNEM.UNIT           DATA                    DESCRIPTION OF MNEMONIC
#---------    -------------------            -------------------------------
# Generated from Intellog Unique Number	CN_91_93/WELL/3602
WELL.         AOSTRA AO-26                   : Well_name    - WELL
LOC .         AA/16-12-093-13W4/0            : Location     - LOCATION
UWI .         AA/16-12-093-13W400            : Uwi          - UNIQUE WELL ID
ENTR.         JHS                            : Entered      - ENTERED BY
SRVC.         SCHLUMBERGER                   : Scn          - SERVICE COMPANY
STRT.M        15                             : top_depth    - START DEPTH
STOP.M        164.75                         : bot_depth    - STOP DEPTH
STEP.M        0.25                           : increment    - STEP LENGTH
 NULL. -999.2500:NULL Value
~CURVE INFORMATION BLOCK
#MNEM UNIT       ERCB CURVE CODE    CURVE DESCRIPTION
#-----------   ------------------   ----------------------------------
DEPT.M        00 001 00 00         : DEPTH        - DEPTH
NPHI.V/V      00 330 00 00         : PHIN         - NEUTRON POROSITY (SANDSTONE)
DPHI.V/V      00 890 00 00         : PHID         - DENSITY POROSITY (SANDSTONE)
GR  .API      00 310 00 00         : GR           - GAMMA RAY
CALI.MM       00 280 01 00         : CAL          - CALIPER
ILD .OHMM     00 120 00 00         : RESD         - DEEP RESISTIVITY (DIL)
~PARAMETER INFORMATION
#MNEM.UNIT           DATA             DESCRIPTION OF MNEMONIC
#---------         -----------     ------------------------------
GL  .M        430.5                : gl           - GROUND LEVEL ELEVATION
EREF.M        430.5                : kb           - ELEVATION OF DEPTH REFERENCE
DATM.M        430.5                : datum        - DATUM ELEVATION
TDD .M        167                  : tdd          - TOTAL DEPTH DRILLER
RUN .         ONE                  : Run          - RUN NUMBER
ENG .         BILL                 : Engineer     - RECORDING ENGINEER
WIT .         JIM                  : Witness      - WITNESSED BY
MUD .         GEL                  : Mud_type     - MUD TYPE
MATR.         SANDSTONE            : Logunit      - NEUTRON MATRIX
TMAX.C        8.1                  : BHT          - MAXIMUM RECORDED TEMPERATURE
BHTD.M        167                  : BHTDEP       - MAXIMUM RECORDED TEMPERATURE
MATR.         1                    : LOGUNIT      - NEUTRON MATRIX
RMT .C        15                   : MDTP         - TEMPERATURE OF MUD
NEUT.         1                    : NEUTRON      - NEUTRON TYPE
RESI.         0                    : RESIST       - RESISTIVITY TYPE
RMC .OHMM     12.5                 : RMC          - RESISTIVITY OF MUD CAKE
RMF .OHMM     12.5                 : RMF          - RESISTIVITY OF MUD FILTRATE
SUFT.C        15                   : SUFT         - SURFACE TEMPERATURE
~A  DEPTH     PHIN     PHID       GR      CAL     RESD
# ...
  124.500    0.649    0.288  111.667    0.000   12.330
  124.750    0.716    0.319   98.791    0.000   11.168
  125.000    0.762    0.311  123.266    0.000   10.392
  125.250    0.755    0.303  113.453    0.000   10.307
  125.500    0.682    0.298  101.193    0.000   10.508
  125.750    0.677    0.241   98.728    0.000   11.313
  126.000    0.649    0.205   98.098    0.000   12.071
  126.250    0.652    0.213   80.940    0.000   12.877
  126.500    0.584    0.262   52.766    0.000   17.893
  126.750    0.497    0.341   40.503    0.000   20.910
  127.000    0.427    0.329   24.572    0.000   19.461
  127.250    0.449    0.331   31.901    0.000   29.083
  127.500    0.436    0.341   38.619    0.000   39.324
  127.750    0.450    0.344   40.436    0.000   44.309
  128.000    0.496    0.357   33.689    0.000   37.993
  128.250    0.504    0.347   56.324    0.000   28.674
  128.500    0.455    0.295   74.058    0.000   24.809
  128.750    0.431    0.266   73.427    0.000   15.322
  129.000    0.452    0.269   78.924    0.000   14.259
  129.250    0.432    0.269   89.927    0.000   14.405
  129.500    0.419    0.258   83.790    0.000   15.510
  129.750    0.455    0.258   61.123    0.000   14.699
  130.000    0.501    0.266  100.896    0.000   14.581
  130.250    0.485    0.276   96.594    0.000   15.554
  130.500    0.508    0.286   81.887    0.000   15.855
  130.750    0.477    0.269   72.688    0.000   15.730
  131.000    0.460    0.198   71.447    0.000   15.601
  131.250    0.487    0.190   73.266    0.000   16.048
  131.500    0.516    0.211   87.943    0.000   14.799
  131.750    0.541    0.263   77.520    0.000   14.550
  132.000    0.477    0.268   89.135    0.000   14.300
  132.250    0.497    0.273  101.362    0.000   13.430
  132.500    0.554    0.271   89.714    0.000   13.564
  132.750    0.591    0.278   81.126    0.000   14.875
  133.000    0.520    0.284   94.578    0.000   14.621
  133.250    0.503    0.289  103.745    0.000   14.902
  133.500    0.528    0.285   81.690    0.000   15.055
  133.750    0.515    0.268   92.077    0.000   14.140
  134.000    0.495    0.262  106.754    0.000   15.083
  134.250    0.463    0.268  100.618    0.000   15.101
  134.500    0.446    0.291   83.460    0.000   15.114
  134.750    0.458    0.267   96.299    0.000   15.132
  135.000    0.502    0.255   93.834    0.000   14.603
  135.250    0.517    0.268   98.715    0.000   12.868
  135.500    0.492    0.251   89.515    0.000   11.867
  135.750    0.512    0.242   88.885    0.000   11.662
  136.000    0.548    0.255  100.500    0.000   11.888
  136.250    0.515    0.233   99.261    0.000   14.409
  136.500    0.340    0.123   80.266    0.000   27.044
  136.750    0.331    0.132   58.824    0.000   36.901
  137.000    0.372    0.195   53.909    0.000   20.617
  137.250    0.401    0.270   73.482    0.000   15.279
  137.500    0.421    0.301   77.137    0.000   16.600
  137.750    0.435    0.314   80.798    0.000   17.234
  138.000    0.499    0.292   89.963    0.000   16.634
  138.250    0.527    0.275   81.375    0.000   17.427
  138.500    0.491    0.290   74.624    0.000   19.637
  138.750    0.460    0.302  100.933    0.000   23.157
  139.000    0.445    0.271   93.571    0.000   17.637
  139.250    0.480    0.269   90.494    0.000   15.828
  139.500    0.481    0.284   95.375    0.000   19.358
  139.750    0.463    0.289   84.950    0.000   20.468
  140.000    0.454    0.300   77.587    0.000   20.302
  140.250    0.436    0.316   67.776    0.000   29.799
  140.500    0.424    0.302   75.107    0.000   21.288
  140.750    0.444    0.256   97.741    0.000   14.272
  141.000    0.415    0.245   86.091    0.000   18.105
  141.250    0.372    0.250   90.361    0.000   13.916
  141.500    0.442    0.266   98.915    0.000   13.309
  141.750    0.498    0.271   92.777    0.000   16.576
  142.000    0.522    0.281  101.331    0.000   21.809
  142.250    0.469    0.300   70.094    0.000   41.684
  142.500    0.408    0.299   68.853    0.000   51.925
  142.750    0.451    0.286  103.119    0.000   30.641
  143.000    0.506    0.317   96.981    0.000   26.035
  143.250    0.518    0.319  105.534    0.000   23.578
  143.500    0.479    0.302   87.765    0.000   18.120
  143.750    0.448    0.289   88.973    0.000   16.259
  144.000    0.433    0.286   92.629    0.000   15.552
  144.250    0.467    0.301   79.755    0.000   16.290
  144.500    0.493    0.314   69.944    0.000   23.052
  144.750    0.456    0.342   76.656    0.000   20.314
  145.000    0.435    0.333   73.583    0.000   19.604
  145.250    0.513    0.288   95.607    0.000   21.108
  145.500    0.510    0.262   99.264    0.000   31.548
  145.750    0.433    0.224  109.042    0.000   16.387
  146.000    0.490    0.213  112.086    0.000   13.671
  146.250    0.564    0.265   90.032    0.000   18.654
  146.500    0.508    0.277   61.243    0.000   19.723
  146.750    0.464    0.285   93.059    0.000   20.475
  147.000    0.471    0.303   74.678    0.000   17.081
  147.250    0.473    0.290   80.784    0.000   14.382
  147.500    0.446    0.273   86.272    0.000   11.780
  147.750    0.460    0.272   72.180    0.000   27.262
  148.000    0.540    0.303   62.978    0.000   41.880
  148.250    0.440    0.323   54.393    0.000   67.933
  148.500    0.401    0.324   45.195    0.000  109.208
  148.750    0.437    0.319   59.871    0.000   69.322
  149.000    0.445    0.332   54.345    0.000  115.590
  149.250    0.427    0.362   72.693    0.000  114.638
  149.500    0.439    0.352   67.167    0.000  185.976
  149.750    0.429    0.341   47.560    0.000  165.366
  150.000    0.417    0.354   41.422    0.000  151.112
  150.250    0.414    0.349   73.239    0.000   71.010
  150.500    0.450    0.333   76.895    0.000   59.240
  150.750    0.422    0.339   51.168    0.000   75.151
  151.000    0.396    0.308   91.555    0.000   19.180
  151.250    0.447    0.277   86.029    0.000   23.038
  151.500    0.491    0.302   73.770    0.000   31.723
  151.750    0.488    0.285   98.241    0.000   23.724
  152.000    0.486    0.258   97.609    0.000   24.854
  152.250    0.552    0.308   65.150    0.000   36.475
  152.500    0.477    0.339   76.152    0.000   29.075
  152.750    0.419    0.323   62.667    0.000   33.061
  153.000    0.429    0.315   46.733    0.000   43.102
  153.250    0.455    0.322   68.144    0.000   68.662
  153.500    0.483    0.336   71.190    0.000  142.449
  153.750    0.496    0.344   47.909    0.000   35.381
  154.000    0.421    0.331   72.990    0.000   32.331
  154.250    0.410    0.322   79.097    0.000   47.450
  154.500    0.449    0.332   52.755    0.000   59.641
  154.750    0.545    0.353   55.183    0.000   58.628
  155.000    0.508    0.340   50.889    0.000   41.889
  155.250    0.474    0.320   78.419    0.000   29.661
  155.500    0.482    0.297   73.507    0.000   56.178
  155.750    0.567    0.309   60.630    0.000  123.110
  156.000    0.637    0.330   54.496    0.000  257.774
  156.250    0.528    0.364   55.090    0.000  194.522
  156.500    0.438    0.337   53.238    0.000   62.921
  156.750    0.422    0.325   53.222    0.000   23.543
  157.000    0.410    0.347   72.795    0.000   12.456
  157.250    0.400    0.265  104.000    0.000   12.133
  157.500    0.458    0.221  113.779    0.000   20.411
  157.750    0.510    0.260   99.070    0.000   39.730
  158.000    0.476    0.339   54.362    0.000  136.045
  158.250    0.412    0.350   56.797    0.000   81.023
  158.500    0.378    0.330   57.391    0.000   50.045
  158.750    0.410    0.335   69.619    0.000  114.766
  159.000    0.393    0.340   68.990    0.000   26.258
  159.250    0.371    0.301   94.073    0.000   19.283
  159.500    0.486    0.278   74.467    0.000   59.194
  159.750    0.535    0.308   54.248    0.000  119.494
  160.000    0.396    0.344   64.636    0.000   15.829
  160.250    0.370    0.262   79.927    0.000   13.205
  160.500    0.422    0.246  107.456    0.000   11.324
  160.750    0.487    0.233  120.299    0.000   20.488
