~VERSION INFORMATION
 VERS.                 2.0:   CWLS LOG ASCII STANDARD -VERSION 2.0
 WRAP.                  NO:   ONE LINE PER DEPTH STEP
~WELL INFORMATION BLOCK
#MNEM.UNIT           DATA                    DESCRIPTION OF MNEMONIC
#---------    -------------------            -------------------------------
# Generated from Intellog Unique Number	CS_77_79/WELL/962
WELL.         PEX PCEJ LEISMER OV            : Well_name    - WELL
LOC .         AA/10-26-078-08W4/0            : Location     - LOCATION
UWI .         AA/10-26-078-08W4/0            : Uwi          - UNIQUE WELL ID
ENTR.         JHS                            : Entered      - ENTERED BY
SRVC.         SCHLUMBERGER                   : Scn          - SERVICE COMPANY
STRT.M        120                            : top_depth    - START DEPTH
STOP.M        335                            : bot_depth    - STOP DEPTH
STEP.M        0.25                           : increment    - STEP LENGTH
 NULL. -999.2500:NULL Value
~CURVE INFORMATION BLOCK
#MNEM UNIT       ERCB CURVE CODE    CURVE DESCRIPTION
#-----------   ------------------   ----------------------------------
DEPT.M        00 001 00 00         : DEPTH        - DEPTH
DPHI.V/V      00 890 00 00         : PHID         - DENSITY POROSITY (LIMESTONE)
NPHI.V/V      00 330 00 00         : PHIN         - NEUTRON POROSITY (LIMESTONE)
GR  .API      00 310 00 00         : GR           - GAMMA RAY
ILD .OHMM     00 120 00 00         : RESD         - DEEP RESISTIVITY (DIL)
RHOB.KG/M3    00 350 00 00         : DENS         - BULK DENSITY
~PARAMETER INFORMATION
#MNEM.UNIT           DATA             DESCRIPTION OF MNEMONIC
#---------         -----------     ------------------------------
GL  .M        560                  : gl           - GROUND LEVEL ELEVATION
EREF.M        563.58               : kb           - ELEVATION OF DEPTH REFERENCE
DATM.M        563.58               : datum        - DATUM ELEVATION
TDD .M        342                  : tdd          - TOTAL DEPTH DRILLER
RUN .         ONE                  : Run          - RUN NUMBER
ENG .         BILL                 : Engineer     - RECORDING ENGINEER
WIT .         JIM                  : Witness      - WITNESSED BY
MUD .         GEL                  : Mud_type     - MUD TYPE
MATR.         LIMESTONE            : Logunit      - NEUTRON MATRIX
TMAX.C        16                   : BHT          - MAXIMUM RECORDED TEMPERATURE
BHTD.M        342                  : BHTDEP       - MAXIMUM RECORDED TEMPERATURE
MATR.         1                    : LOGUNIT      - NEUTRON MATRIX
RMT .C        25                   : MDTP         - TEMPERATURE OF MUD
NEUT.         1                    : NEUTRON      - NEUTRON TYPE
RESI.         0                    : RESIST       - RESISTIVITY TYPE
RMC .OHMM     0.25                 : RMC          - RESISTIVITY OF MUD CAKE
RMF .OHMM     0.25                 : RMF          - RESISTIVITY OF MUD FILTRATE
SUFT.C        15                   : SUFT         - SURFACE TEMPERATURE
~A  DEPTH     PHID     PHIN       GR     RESD     DENS
  120.000    0.328    0.606  122.336    3.982    0.000
  120.250    0.321    0.610  114.959    3.985    0.000
  120.500    0.320    0.611  124.180    3.988    0.000
  120.750    0.321    0.611  129.098    3.990    0.000
  121.000    0.322    0.611  127.254    3.918    0.000
  121.250    0.322    0.610  119.262    3.849    0.000
  121.500    0.316    0.604  121.107    3.780    0.000
  121.750    0.312    0.584  116.803    3.644    0.000
  122.000    0.318    0.574  113.730    3.513    0.000
  122.250    0.315    0.591  115.574    3.386    0.000
  122.500    0.313    0.601  121.107    3.264    0.000
  122.750    0.309    0.605  126.025    3.147    0.000
  123.000    0.307    0.587  120.492    3.034    0.000
  123.250    0.306    0.576  123.566    2.979    0.000
  123.500    0.307    0.596  120.492    2.981    0.000
  123.750    0.307    0.605  122.951    2.929    0.000
  124.000    0.312    0.599  125.410    2.931    0.000
  124.250    0.326    0.594  122.336    2.932    0.000
  124.500    0.339    0.601  117.418    2.990    0.000
  124.750    0.318    0.606  121.721    3.048    0.000
  125.000    0.302    0.611  111.885    3.108    0.000
  125.250    0.290    0.607  111.270    3.110    0.000
  125.500    0.287    0.578  117.418    3.231    0.000
  125.750    0.290    0.570  122.336    3.232    0.000
  126.000    0.298    0.577  116.803    3.358    0.000
  126.250    0.294    0.581  115.574    3.423    0.000
  126.500    0.290    0.583  113.115    3.490    0.000
  126.750    0.289    0.555  118.648    3.558    0.000
  127.000    0.287    0.549  131.557    3.696    0.000
  127.250    0.278    0.552  125.410    3.769    0.000
  127.500    0.279    0.556  123.566    3.841    0.000
  127.750    0.279    0.552  119.262    3.845    0.000
  128.000    0.278    0.513  120.492    3.919    0.000
  128.250    0.278    0.533  126.025    3.996    0.000
  128.500    0.279    0.529  124.180    3.999    0.000
  128.750    0.282    0.549  121.107    4.076    0.000
  129.000    0.277    0.529  124.795    4.157    0.000
  129.250    0.270    0.518  119.877    4.239    0.000
  129.500    0.270    0.527  127.254    4.241    0.000
  129.750    0.266    0.532  123.566    4.324    0.000
  130.000    0.260    0.516  119.877    4.326    0.000
  130.250    0.255    0.510  126.639    4.411    0.000
  130.500    0.254    0.523  123.566    4.582    0.000
  130.750    0.255    0.502  125.410    4.672    0.000
  131.000    0.256    0.528  130.328    4.675    0.000
  131.250    0.257    0.535  122.951    4.677    0.000
  131.500    0.260    0.517  116.189    4.680    0.000
  131.750    0.262    0.515  122.951    4.597    0.000
  132.000    0.262    0.531  122.336    4.515    0.000
  132.250    0.262    0.521  124.795    4.519    0.000
  132.500    0.263    0.545  124.180    4.438    0.000
  132.750    0.265    0.556  127.869    4.359    0.000
  133.000    0.262    0.509  121.721    4.361    0.000
  133.250    0.259    0.492  112.500    4.615    0.000
  133.500    0.262    0.476  111.885    5.070    0.000
  133.750    0.281    0.454  101.434    6.003    0.000
  134.000    0.292    0.417   87.295    6.593    0.000
  134.250    0.232    0.418   80.533    7.806    0.000
  134.500    0.193    0.404   87.295    8.417    0.000
  134.750    0.220    0.388   78.689    7.963    0.000
  135.000    0.267    0.404   81.762    6.863    0.000
  135.250    0.254    0.427  106.352    6.026    0.000
  135.500    0.245    0.477  121.721    5.493    0.000
  135.750    0.246    0.487  122.951    5.101    0.000
  136.000    0.249    0.477  123.566    4.918    0.000
  136.250    0.254    0.494  129.098    5.108    0.000
  136.500    0.260    0.494  115.574    5.406    0.000
  136.750    0.264    0.433   97.131    5.938    0.000
  137.000    0.272    0.448  107.582    6.900    0.000
  137.250    0.284    0.461  122.951    8.016    0.000
  137.500    0.293    0.465  123.566    8.973    0.000
  137.750    0.296    0.456  117.418    8.815    0.000
  138.000    0.293    0.454  113.730    8.339    0.000
  138.250    0.256    0.462  124.795    7.744    0.000
  138.500    0.235    0.471  135.861    7.467    0.000
  138.750    0.240    0.478  146.926    7.754    0.000
  139.000    0.253    0.448  145.697    8.518    0.000
  139.250    0.262    0.438  132.787    9.714    0.000
  139.500    0.272    0.450  134.631   11.078    0.000
  139.750    0.277    0.443  143.238   12.636    0.000
  140.000    0.282    0.422  137.705   13.372    0.000
  140.250    0.287    0.409  129.098   13.889    0.000
  140.500    0.279    0.405  126.639   13.641    0.000
  140.750    0.261    0.418  129.098   12.909    0.000
  141.000    0.255    0.432  135.861   12.443    0.000
  141.250    0.254    0.418  136.475   11.773    0.000
  141.500    0.254    0.400  142.623   11.566    0.000
  141.750    0.257    0.416  148.770   11.569    0.000
  142.000    0.264    0.387  141.393   12.244    0.000
  142.250    0.279    0.389  114.959   14.231    0.000
  142.500    0.299    0.384   95.902   15.632    0.000
  142.750    0.304    0.376   85.451   17.173    0.000
  143.000    0.290    0.376   81.762   18.514    0.000
  143.250    0.281    0.371   89.754   20.344    0.000
  143.500    0.277    0.354   91.598   21.127    0.000
  143.750    0.284    0.349   86.066   21.541    0.000
  144.000    0.298    0.386   99.590   21.960    0.000
  144.250    0.316    0.407   93.443   21.975    0.000
  144.500    0.321    0.411   90.369   22.407    0.000
  144.750    0.321    0.405   94.057   23.277    0.000
  145.000    0.322    0.422   90.369   23.292    0.000
  145.250    0.322    0.414   92.213   23.311    0.000
  145.500    0.325    0.401   93.443   23.320    0.000
  145.750    0.332    0.388   88.525   23.338    0.000
  146.000    0.339    0.404   93.443   23.350    0.000
  146.250    0.332    0.427   99.590   23.365    0.000
  146.500    0.332    0.443   87.910   22.950    0.000
  146.750    0.333    0.431   81.762   22.965    0.000
  147.000    0.329    0.439   86.680   22.556    0.000
  147.250    0.307    0.436   79.918   22.157    0.000
  147.500    0.309    0.411   76.230   21.361    0.000
  147.750    0.304    0.393   83.607   20.974    0.000
  148.000    0.289    0.371   89.139   19.852    0.000
  148.250    0.279    0.389   89.754   19.858    0.000
  148.500    0.282    0.403   92.213   19.874    0.000
  148.750    0.307    0.403   96.516   19.886    0.000
  149.000    0.331    0.411   90.369   20.655    0.000
  149.250    0.336    0.433   83.607   21.860    0.000
  149.500    0.339    0.444   84.221   22.706    0.000
  149.750    0.338    0.428   93.443   24.034    0.000
  150.000    0.333    0.420   95.287   24.047    0.000
  150.250    0.331    0.411  102.664   23.619    0.000
  150.500    0.332    0.427  104.508   22.768    0.000
  150.750    0.333    0.443   96.516   21.948    0.000
  151.000    0.338    0.417   95.902   21.157    0.000
  151.250    0.342    0.409  103.893   20.785    0.000
  151.500    0.347    0.407  108.811   20.414    0.000
  151.750    0.343    0.405  110.041   20.423    0.000
  152.000    0.323    0.405  100.205   20.823    0.000
  152.250    0.308    0.399  114.344   20.838    0.000
  152.500    0.306    0.389  130.943   21.648    0.000
  152.750    0.299    0.392  126.025   22.487    0.000
  153.000    0.299    0.377  110.041   23.794    0.000
  153.250    0.300    0.356   96.516   25.655    0.000
  153.500    0.300    0.340   52.869   27.665    0.000
  153.750    0.300    0.332   37.500   28.735    0.000
  154.000    0.290    0.342   50.410   29.849    0.000
  154.250    0.283    0.362   71.311   29.315    0.000
  154.500    0.279    0.347   79.918   25.743    0.000
  154.750    0.284    0.345   76.844   21.776    0.000
  155.000    0.294    0.426   89.754   19.120    0.000
  155.250    0.305    0.447  118.648   15.583    0.000
  155.500    0.300    0.456  123.566   13.940    0.000
  155.750    0.270    0.458  130.328   12.013    0.000
  156.000    0.208    0.466  136.475    9.789    0.000
  156.250    0.164    0.486  143.852    8.281    0.000
