~VERSION INFORMATION
 VERS.                 2.0:   CWLS LOG ASCII STANDARD -VERSION 2.0
 WRAP.                  NO:   ONE LINE PER DEPTH STEP
~WELL INFORMATION BLOCK
#MNEM.UNIT           DATA                    DESCRIPTION OF MNEMONIC
#---------    -------------------            -------------------------------
# Generated from Intellog Unique Number	CS_77_79/WELL/982
LOC .         AA/10-36-079-09W4/0            : Location     - LOCATION
UWI .         AA/10-36-079-09W4/0            : Uwi          - UNIQUE WELL ID
ENTR.         JHS                            : Entered      - ENTERED BY
SRVC.         SCHLUMBERGER                   : Scn          - SERVICE COMPANY
STRT.M        235                            : top_depth    - START DEPTH
STOP.M        455                            : bot_depth    - STOP DEPTH
STEP.M        0.25                           : increment    - STEP LENGTH
 NULL. -999.2500:NULL Value
~CURVE INFORMATION BLOCK
#MNEM UNIT       ERCB CURVE CODE    CURVE DESCRIPTION
#-----------   ------------------   ----------------------------------
DEPT.M        00 001 00 00         : DEPTH        - DEPTH
DPHI.V/V      00 890 00 00         : PHID         - DENSITY POROSITY (LIMESTONE)
NPHI.V/V      00 330 00 00         : PHIN         - NEUTRON POROSITY (LIMESTONE)
GR  .API      00 310 00 00         : GR           - GAMMA RAY
ILD .OHMM     00 120 00 00         : RESD         - DEEP RESISTIVITY (DIL)
RHOB.KG/M3    00 350 00 00         : DENS         - BULK DENSITY
~PARAMETER INFORMATION
#MNEM.UNIT           DATA             DESCRIPTION OF MNEMONIC
#---------         -----------     ------------------------------
GL  .M        672.8                : gl           - GROUND LEVEL ELEVATION
EREF.M        676.49               : kb           - ELEVATION OF DEPTH REFERENCE
DATM.M        676.49               : datum        - DATUM ELEVATION
TDD .M        434.08               : tdd          - TOTAL DEPTH DRILLER
RUN .         ONE                  : Run          - RUN NUMBER
ENG .         BILL                 : Engineer     - RECORDING ENGINEER
WIT .         JIM                  : Witness      - WITNESSED BY
MUD .         GEL                  : Mud_type     - MUD TYPE
MATR.         LIMESTONE            : Logunit      - NEUTRON MATRIX
TMAX.C        18                   : BHT          - MAXIMUM RECORDED TEMPERATURE
BHTD.M        434.08               : BHTDEP       - MAXIMUM RECORDED TEMPERATURE
MATR.         1                    : LOGUNIT      - NEUTRON MATRIX
RMT .C        25                   : MDTP         - TEMPERATURE OF MUD
NEUT.         1                    : NEUTRON      - NEUTRON TYPE
RESI.         0                    : RESIST       - RESISTIVITY TYPE
RMC .OHMM     0.25                 : RMC          - RESISTIVITY OF MUD CAKE
RMF .OHMM     0.25                 : RMF          - RESISTIVITY OF MUD FILTRATE
SUFT.C        15                   : SUFT         - SURFACE TEMPERATURE
~A  DEPTH     PHID     PHIN       GR     RESD     DENS
# ...
  308.000    0.304    0.293   87.201   14.542    0.000
  308.250    0.295    0.257   90.318   14.015    0.000
  308.500    0.279    0.227   95.287   14.027    0.000
  308.750    0.231    0.191   96.530   14.849    0.000
  309.000    0.062    0.162   89.149   16.016    0.000
  309.250    0.033    0.132   64.483   17.275    0.000
  309.500    0.070    0.111   61.430   18.288    0.000
  309.750    0.113    0.223   62.680   17.960    0.000
  310.000    0.162    0.259   73.815   16.059    0.000
  310.250    0.268    0.293   76.311   14.361    0.000
  310.500    0.248    0.267   79.416   14.644    0.000
  310.750    0.174    0.223   73.271   14.928    0.000
  311.000    0.069    0.168   70.205   16.102    0.000
  311.250    0.064    0.157   72.697   18.375    0.000
  311.500    0.092    0.179   78.276   19.457    0.000
  311.750    0.116    0.227   72.131   18.061    0.000
  312.000    0.160    0.261   77.093   15.845    0.000
  312.250    0.287    0.281   82.670   13.145    0.000
  312.500    0.293    0.440   78.993   11.753    0.000
  312.750    0.287    0.424   82.106   10.909    0.000
  313.000    0.285    0.415   83.362   10.318    0.000
  313.250    0.288    0.403   85.236    9.946    0.000
  313.500    0.290    0.409   90.194   10.145    0.000
  313.750    0.289    0.421   92.688   10.342    0.000
  314.000    0.286    0.394   88.392   10.349    0.000
  314.250    0.288    0.392   82.241   10.752    0.000
  314.500    0.296    0.408   83.503   10.963    0.000
  314.750    0.295    0.425   84.763   11.389    0.000
  315.000    0.299    0.440   86.634   11.832    0.000
  315.250    0.294    0.447   93.451   11.405    0.000
  315.500    0.287    0.455   92.853   10.196    0.000
  315.750    0.285    0.460   87.322    7.845    0.000
  316.000    0.285    0.449   96.606    6.507    0.000
  316.250    0.280    0.453  101.567    5.818    0.000
  316.500    0.277    0.439  105.916    5.822    0.000
  316.750    0.299    0.432  102.233    6.280    0.000
  317.000    0.313    0.424   92.998    7.582    0.000
  317.250    0.313    0.428   80.061    9.153    0.000
  317.500    0.310    0.433   74.529   11.052    0.000
  317.750    0.300    0.430   85.047   11.058    0.000
  318.000    0.289    0.421   92.481    8.834    0.000
  318.250    0.272    0.413  104.844    6.798    0.000
  318.500    0.255    0.418  117.214    6.192    0.000
  318.750    0.254    0.429  127.111    5.642    0.000
  319.000    0.249    0.429  119.114    5.439    0.000
  319.250    0.239    0.438  109.259    5.547    0.000
  319.500    0.233    0.452  116.693    5.655    0.000
  319.750    0.237    0.444  117.332    5.874    0.000
  320.000    0.247    0.432  122.912    6.103    0.000
  320.250    0.251    0.420  120.465    6.584    0.000
  320.500    0.252    0.424  121.107    6.839    0.000
  320.750    0.258    0.436  116.811    7.379    0.000
  321.000    0.270    0.424  108.192    7.665    0.000
  321.250    0.272    0.420  111.920    7.670    0.000
  321.500    0.262    0.442  113.797    7.535    0.000
  321.750    0.262    0.433  119.997    7.399    0.000
  322.000    0.251    0.462  129.279    7.267    0.000
  322.250    0.243    0.460  128.680    7.137    0.000
  322.500    0.239    0.460  117.594    7.275    0.000
  322.750    0.236    0.445  115.155    7.418    0.000
  323.000    0.248    0.431  120.727    7.424    0.000
  323.250    0.244    0.434  118.285    7.155    0.000
  323.500    0.232    0.428  121.393    6.768    0.000
  323.750    0.229    0.421  118.332    6.401    0.000
  324.000    0.239    0.486  115.268    6.055    0.000
  324.250    0.243    0.464  114.059    5.728    0.000
  324.500    0.249    0.455  109.762    5.731    0.000
  324.750    0.254    0.478  117.192    5.524    0.000
  325.000    0.257    0.501  120.921    5.225    0.000
  325.250    0.252    0.485  111.069    4.672    0.000
  325.500    0.244    0.479  118.499    4.100    0.000
  325.750    0.241    0.514  125.309    3.805    0.000
  326.000    0.239    0.498  130.272    3.600    0.000
  326.250    0.239    0.480  119.187    3.670    0.000
  326.500    0.242    0.461  113.657    3.742    0.000
  326.750    0.247    0.480  116.146    4.191    0.000
  327.000    0.258    0.515  117.410    5.059    0.000
  327.250    0.276    0.502  106.320    5.884    0.000
  327.500    0.292    0.495  110.667    6.113    0.000
  327.750    0.307    0.498  115.628    6.005    0.000
  328.000    0.282    0.470  119.352    6.009    0.000
  328.250    0.278    0.464  108.265    6.125    0.000
  328.500    0.279    0.492  109.530    6.246    0.000
  328.750    0.269    0.463  112.021    6.250    0.000
  329.000    0.274    0.465  115.127    6.373    0.000
  329.250    0.280    0.464  119.472    6.748    0.000
  329.500    0.287    0.480  112.091    6.627    0.000
  329.750    0.313    0.504  116.436    5.925    0.000
  330.000    0.359    0.535  118.926    5.297    0.000
  330.250    0.323    0.562  116.485    4.393    0.000
  330.500    0.277    0.592  119.591    3.644    0.000
  330.750    0.275    0.560  127.639    3.197    0.000
  331.000    0.281    0.575  138.772    2.913    0.000
  331.250    0.270    0.571  134.477    2.861    0.000
  331.500    0.260    0.549  125.246    2.917    0.000
  331.750    0.260    0.549  118.476    3.267    0.000
  332.000    0.304    0.577  122.205    3.524    0.000
  332.250    0.366    0.608  119.757    3.730    0.000
  332.500    0.353    0.572  120.406    3.664    0.000
  332.750    0.315    0.551  118.573    3.466    0.000
  333.000    0.279    0.567  114.892    3.340    0.000
  333.250    0.267    0.532  113.681    3.343    0.000
  333.500    0.267    0.506  117.410    3.539    0.000
  333.750    0.292    0.485  120.517    3.676    0.000
  334.000    0.280    0.460  125.479    4.041    0.000
  334.250    0.262    0.447  119.332    4.442    0.000
  334.500    0.252    0.443  123.062    4.528    0.000
  334.750    0.252    0.471  115.679    4.364    0.000
  335.000    0.248    0.447  112.620    4.888    0.000
  335.250    0.253    0.434  110.167    5.684    0.000
  335.500    0.261    0.425  108.959    5.907    0.000
  335.750    0.252    0.422  116.391    5.910    0.000
  336.000    0.253    0.429  121.350    6.140    0.000
  336.250    0.255    0.443  121.996    6.261    0.000
  336.500    0.254    0.449  124.484    5.597    0.000
  336.750    0.260    0.449  112.788    5.004    0.000
  337.000    0.322    0.446  110.951    4.645    0.000
  337.250    0.378    0.455  106.655    4.737    0.000
  337.500    0.351    0.451  104.210    5.306    0.000
  337.750    0.300    0.434  109.789    5.943    0.000
  338.000    0.239    0.427  103.644    6.410    0.000
  338.250    0.225    0.418  107.369    6.659    0.000
  338.500    0.225    0.408  109.865    6.790    0.000
  338.750    0.230    0.406  108.650    7.188    0.000
  339.000    0.228    0.404  103.120    7.902    0.000
  339.250    0.225    0.420  108.704    8.208    0.000
  339.500    0.229    0.416  111.809    8.529    0.000
  339.750    0.236    0.407  111.220    8.535    0.000
  340.000    0.231    0.411  105.687    8.227    0.000
  340.250    0.229    0.411  100.773    7.931    0.000
  340.500    0.227    0.400  100.795    7.933    0.000
  340.750    0.230    0.419  105.138    7.940    0.000
  341.000    0.233    0.435  114.422    7.653    0.000
  341.250    0.239    0.455  118.151    7.104    0.000
  341.500    0.244    0.479  114.466    6.595    0.000
  341.750    0.250    0.474  110.793    6.122    0.000
  342.000    0.254    0.471  110.202    6.011    0.000
  342.250    0.253    0.456  112.075    5.794    0.000
  342.500    0.250    0.469  112.093    5.691    0.000
  342.750    0.233    0.476  113.970    5.693    0.000
  343.000    0.242    0.444  113.994    5.591    0.000
  343.250    0.248    0.454  119.572    5.701    0.000
  343.500    0.260    0.484  114.051    5.600    0.000
  343.750    0.255    0.461  111.597    5.604    0.000
  344.000    0.246    0.460  111.001    5.607    0.000
  344.250    0.242    0.462  108.556    5.826    0.000
