~VERSION INFORMATION
 VERS.                 2.0:   CWLS LOG ASCII STANDARD -VERSION 2.0
 WRAP.                  NO:   ONE LINE PER DEPTH STEP
~WELL INFORMATION BLOCK
#MNEM.UNIT           DATA                    DESCRIPTION OF MNEMONIC
#---------    -------------------            -------------------------------
# Generated from Intellog Unique Number	CS_77_79/WELL/962
WELL.         PEX PCEJ LEISMER OV            : Well_name    - WELL
LOC .         AA/10-26-078-08W4/0            : Location     - LOCATION
UWI .         AA/10-26-078-08W4/0            : Uwi          - UNIQUE WELL ID
ENTR.         JHS                            : Entered      - ENTERED BY
SRVC.         SCHLUMBERGER                   : Scn          - SERVICE COMPANY
STRT.M        120                            : top_depth    - START DEPTH
STOP.M        335                            : bot_depth    - STOP DEPTH
STEP.M        0.25                           : increment    - STEP LENGTH
 NULL. -999.2500:NULL Value
~CURVE INFORMATION BLOCK
#MNEM UNIT       ERCB CURVE CODE    CURVE DESCRIPTION
#-----------   ------------------   ----------------------------------
DEPT.M        00 001 00 00         : DEPTH        - DEPTH
DPHI.V/V      00 890 00 00         : PHID         - DENSITY POROSITY (LIMESTONE)
NPHI.V/V      00 330 00 00         : PHIN         - NEUTRON POROSITY (LIMESTONE)
GR  .API      00 310 00 00         : GR           - GAMMA RAY
ILD .OHMM     00 120 00 00         : RESD         - DEEP RESISTIVITY (DIL)
RHOB.KG/M3    00 350 00 00         : DENS         - BULK DENSITY
~PARAMETER INFORMATION
#MNEM.UNIT           DATA             DESCRIPTION OF MNEMONIC
#---------         -----------     ------------------------------
GL  .M        560                  : gl           - GROUND LEVEL ELEVATION
EREF.M        563.58               : kb           - ELEVATION OF DEPTH REFERENCE
DATM.M        563.58               : datum        - DATUM ELEVATION
TDD .M        342                  : tdd          - TOTAL DEPTH DRILLER
RUN .         ONE                  : Run          - RUN NUMBER
ENG .         BILL                 : Engineer     - RECORDING ENGINEER
WIT .         JIM                  : Witness      - WITNESSED BY
MUD .         GEL                  : Mud_type     - MUD TYPE
MATR.         LIMESTONE            : Logunit      - NEUTRON MATRIX
TMAX.C        16                   : BHT          - MAXIMUM RECORDED TEMPERATURE
BHTD.M        342                  : BHTDEP       - MAXIMUM RECORDED TEMPERATURE
MATR.         1                    : LOGUNIT      - NEUTRON MATRIX
RMT .C        25                   : MDTP         - TEMPERATURE OF MUD
NEUT.         1                    : NEUTRON      - NEUTRON TYPE
RESI.         0                    : RESIST       - RESISTIVITY TYPE
RMC .OHMM     0.25                 : RMC          - RESISTIVITY OF MUD CAKE
RMF .OHMM     0.25                 : RMF          - RESISTIVITY OF MUD FILTRATE
SUFT.C        15                   : SUFT         - SURFACE TEMPERATURE
~A  DEPTH     PHID     PHIN       GR     RESD     DENS
# ...
  266.000    0.284    0.404   93.443   10.714    0.000
  266.250    0.301    0.441  106.967   10.137    0.000
  266.500    0.296    0.428  103.279    9.591    0.000
  266.750    0.283    0.430   97.746    8.743    0.000
  267.000    0.276    0.446   98.975    8.427    0.000
  267.250    0.276    0.459  101.434    8.277    0.000
  267.500    0.280    0.442  103.893    8.283    0.000
  267.750    0.278    0.433  109.426    8.135    0.000
  268.000    0.281    0.425  110.656    7.696    0.000
  268.250    0.296    0.456  107.582    7.015    0.000
  268.500    0.362    0.507  102.049    6.160    0.000
  268.750    0.322    0.512  119.262    5.614    0.000
  269.000    0.265    0.472  122.951    5.724 2256.030
  269.250    0.280    0.440  116.189    6.059 2231.010
  269.500    0.295    0.419  103.893    6.657 2205.980
  269.750    0.296    0.425  101.434    7.312 2203.890
  270.000    0.290    0.415  102.049    7.884 2214.320
  270.250    0.275    0.412  103.279    8.190 2239.340
  270.500    0.263    0.430  103.893    8.043 2260.190
  270.750    0.257    0.424   99.590    8.049 2270.610
  271.000    0.251    0.409  103.279    8.054 2281.040
  271.250    0.239    0.409   98.361    8.211 2301.890
  271.500    0.196    0.400   97.131    8.690 2374.870
  271.750    0.197    0.408   93.443    9.028 2372.790
  272.000    0.217    0.415   89.139    9.379 2339.420
  272.250    0.218    0.413   94.057    9.560 2337.330
  272.500    0.223    0.397  100.820    9.565 2328.990
  272.750    0.259    0.397  104.508    9.395 2266.420
  273.000    0.264    0.409  103.279    9.228 2258.080
  273.250    0.259    0.408   94.672    8.897 2266.420
  273.500    0.256    0.418  102.049    8.578 2272.670
  273.750    0.263    0.429  106.352    8.116 2260.160
  274.000    0.291    0.452  110.041    7.535 2212.190
  274.250    0.324    0.486  110.656    6.740 2155.880
  274.500    0.348    0.507  106.352    6.260 2114.170
  274.750    0.345    0.559  110.041    5.707 2120.430
  275.000    0.328    0.544  114.344    5.299 2149.620
  275.250    0.313    0.531  121.107    4.740 2174.640
  275.500    0.305    0.545  119.262    4.241 2189.240
  275.750    0.298    0.570  116.189    4.325 2199.660
  276.000    0.309    0.544  113.115    4.408 2180.890
  276.250    0.341    0.518  115.574    4.843 2126.670
  276.500    0.350    0.489  124.795    5.222 2112.070
  276.750    0.364    0.481  124.180    5.527 2087.040
  277.000    0.379    0.507  119.877    5.849 2062.020
  277.250    0.372    0.506  121.107    6.189 2074.530
  277.500    0.316    0.498  130.328    6.928 2170.450
  277.750    0.248    0.475  126.025    7.471 2285.140
  278.000    0.266    0.445  124.180    7.760 2255.950
  278.250    0.303    0.440  118.033    7.342 2191.300
  278.500    0.350    0.473  107.582    6.818 2112.050
  278.750    0.331    0.573  105.738    5.556 2143.330
  279.000    0.324    0.578  103.893    4.700 2155.840
  279.250    0.337    0.583  103.279    3.759 2132.900
  279.500    0.351    0.597   97.746    3.300 2109.960
  279.750    0.333    0.611   87.295    2.898 2141.230
  280.000    0.319    0.600   95.287    2.742 2164.170
  280.250    0.320    0.591   99.590    2.454 2162.080
  280.500    0.333    0.601  104.508    2.365 2141.230
  280.750    0.344    0.608   95.902    2.323 2122.460
  281.000    0.353    0.611   94.672    2.324 2105.770
  281.250    0.344    0.611  103.893    2.370 2122.450
  281.500    0.317    0.608  108.197    2.416 2168.330
  281.750    0.306    0.600  107.582    2.373 2187.090
  282.000    0.298    0.577  107.582    2.607 2199.600
  282.250    0.291    0.544  112.500    2.918 2212.110
  282.500    0.274    0.496  114.344    3.205 2241.300
  282.750    0.263    0.469  114.344    3.521 2260.070
  283.000    0.258    0.441  117.418    4.092 2268.410
  283.250    0.261    0.434  119.262    4.496 2264.240
  283.500    0.261    0.452  116.803    5.127 2264.230
  283.750    0.258    0.413  112.500    5.632 2268.400
  284.000    0.261    0.397  109.426    6.186 2264.230
  284.250    0.279    0.409  108.197    6.796 2232.950
  284.500    0.297    0.441  107.582    6.675 2201.660
  284.750    0.264    0.475  115.574    5.972 2257.960
  285.000    0.245    0.522  119.262    5.546 2291.330
  285.250    0.239    0.509  115.574    5.055 2301.750
  285.500    0.240    0.505  111.270    4.782 2299.670
  285.750    0.248    0.507  116.803    4.525 2285.060
  286.000    0.252    0.507  120.492    4.444 2278.810
  286.250    0.252    0.500  127.254    4.285 2278.800
  286.500    0.251    0.505  129.713    4.130 2280.890
  286.750    0.252    0.525  128.484    4.056 2278.800
  287.000    0.257    0.544  131.557    3.984 2270.450
  287.250    0.263    0.559  134.631    3.913 2260.030
  287.500    0.275    0.551  119.877    3.843 2239.170
  287.750    0.286    0.570  114.344    3.706 2220.400
  288.000    0.291    0.595  110.041    3.571 2212.060
  288.250    0.300    0.557  111.885    3.508 2197.460
  288.500    0.311    0.540  114.344    3.713 2178.690
  288.750    0.320    0.523  110.041    4.078 2162.000
  289.000    0.334    0.496  108.197    4.652 2139.060
  289.250    0.296    0.478  106.967    5.206 2203.700
  289.500    0.286    0.466  103.279    5.613 2220.380
  289.750    0.294    0.461  113.730    6.053 2207.870
  290.000    0.305    0.461  122.336    6.172 2189.100
  290.250    0.288    0.431  116.803    6.411 2218.290
  290.500    0.274    0.394  113.115    6.658 2241.230
  290.750    0.157    0.378  102.049    7.454 2441.420
  291.000    0.145    0.353   91.598    8.188 2462.270
  291.250    0.180    0.331   81.147    9.164 2401.790
  291.500    0.285    0.314   90.369   10.257 2222.450
  291.750    0.295    0.306   94.057   11.059 2205.760
  292.000    0.296    0.302   87.295   11.704 2203.680
  292.250    0.286    0.307   86.066   11.714 2220.360
  292.500    0.270    0.302   82.992   11.293 2247.460
  292.750    0.257    0.319   90.984   11.089 2270.400
  293.000    0.250    0.324   95.287   10.107 2282.910
  293.250    0.246    0.319   92.213    9.563 2289.160
  293.500    0.241    0.335   96.516    9.219 2297.500
  293.750    0.239    0.346  102.664    8.887 2301.670
  294.000    0.246    0.366  106.352    8.568 2289.160
  294.250    0.266    0.369   95.287    8.573 2255.790
  294.500    0.281    0.351   82.992    8.112 2228.680
  294.750    0.295    0.341   70.082    8.586 2205.730
  295.000    0.297    0.345   72.541    9.086 2201.560
  295.250    0.297    0.350   76.230   10.959 2201.560
  295.500    0.301    0.357   78.074   12.496 2195.300
  295.750    0.300    0.374   77.459   15.941 2197.380
  296.000    0.300    0.380   81.762   19.957 2197.380
  296.250    0.292    0.374   94.057   25.933 2209.890
  296.500    0.290    0.374   98.975   37.702 2214.060
  296.750    0.291    0.372   91.598   42.990 2211.970
  297.000    0.290    0.371   79.303   49.037 2214.050
  297.250    0.285    0.378   70.697   50.931 2222.390
  297.500    0.284    0.378   84.836   50.031 2224.480
  297.750    0.289    0.372   84.221   47.339 2216.130
  298.000    0.291    0.367   86.680   46.481 2211.960
  298.250    0.289    0.366   91.598   44.813 2216.130
  298.500    0.283    0.375  103.893   42.401 2226.550
  298.750    0.283    0.377  112.500   39.376 2226.550
  299.000    0.288    0.391  113.115   35.886 2218.210
  299.250    0.285    0.380  107.582   30.930 2222.370
  299.500    0.282    0.388   98.361   26.164 2228.630
  299.750    0.279    0.382  106.352   21.721 2232.800
  300.000    0.271    0.375  112.500   18.375 2247.390
  300.250    0.257    0.394  102.664   15.543 2270.330
  300.500    0.246    0.380  116.189   13.394 2289.090
  300.750    0.242    0.355  124.795   11.330 2295.350
  301.000    0.244    0.366  134.631    9.951 2293.260
  301.250    0.251    0.374  144.467    9.239 2280.740
  301.500    0.256    0.405  145.082    9.419 2272.400
  301.750    0.264    0.378  137.705   10.946 2257.800
  302.000    0.278    0.351  124.180   12.250 2234.860
  302.250    0.289    0.338   97.746   14.775 2216.090
