~VERSION INFORMATION
 VERS.                 2.0:   CWLS LOG ASCII STANDARD -VERSION 2.0
 WRAP.                  NO:   ONE LINE PER DEPTH STEP
~WELL INFORMATION BLOCK
#MNEM.UNIT           DATA                    DESCRIPTION OF MNEMONIC
#---------    -------------------            -------------------------------
# Generated from Intellog Unique Number	CW_82_90/WELL/3443
WELL.         CDN SUP MINK OV                : Well_name    - WELL
LOC .         AA/10-31-088-19W4/0            : Location     - LOCATION
UWI .         AA/10-31-088-19W400            : Uwi          - UNIQUE WELL ID
ENTR.         MAX                            : Entered      - ENTERED BY
SRVC.         SCHLUMBERGER                   : Scn          - SERVICE COMPANY
STRT.M        76.2                           : top_depth    - START DEPTH
STOP.M        269.45                         : bot_depth    - STOP DEPTH
STEP.M        0.25                           : increment    - STEP LENGTH
 NULL. -999.2500:NULL Value
~CURVE INFORMATION BLOCK
#MNEM UNIT       ERCB CURVE CODE    CURVE DESCRIPTION
#-----------   ------------------   ----------------------------------
DEPT.M        00 001 00 00         : DEPTH        - DEPTH
ILD .OHMM     00 120 00 00         : RESD         - DEEP RESISTIVITY (DIL)
NPHI.V/V      00 330 00 00         : PHIN         - NEUTRON POROSITY (SANDSTONE)
DPHI.V/V      00 890 00 00         : PHID         - DENSITY POROSITY (SANDSTONE)
CALI.MM       00 280 01 00         : CAL          - CALIPER
GR  .API      00 310 00 00         : GR           - GAMMA RAY
~PARAMETER INFORMATION
#MNEM.UNIT           DATA             DESCRIPTION OF MNEMONIC
#---------         -----------     ------------------------------
GL  .M        514.198              : gl           - GROUND LEVEL ELEVATION
EREF.M        518.465              : kb           - ELEVATION OF DEPTH REFERENCE
DATM.M        514.198              : datum        - DATUM ELEVATION
TDD .M        271.272              : tdd          - TOTAL DEPTH DRILLER
RUN .         ONE                  : Run          - RUN NUMBER
ENG .         BILL                 : Engineer     - RECORDING ENGINEER
WIT .         JIM                  : Witness      - WITNESSED BY
MUD .         GEL                  : Mud_type     - MUD TYPE
MATR.         SANDSTONE            : Logunit      - NEUTRON MATRIX
TMAX.C        23.8889              : BHT          - MAXIMUM RECORDED TEMPERATURE
BHTD.M        271.272              : BHTDEP       - MAXIMUM RECORDED TEMPERATURE
MATR.         1                    : LOGUNIT      - NEUTRON MATRIX
RMT .C        17.7778              : MDTP         - TEMPERATURE OF MUD
NEUT.         1                    : NEUTRON      - NEUTRON TYPE
RESI.         0                    : RESIST       - RESISTIVITY TYPE
RMC .OHMM     4.51                 : RMC          - RESISTIVITY OF MUD CAKE
RMF .OHMM     4.51                 : RMF          - RESISTIVITY OF MUD FILTRATE
SUFT.C        -15                  : SUFT         - SURFACE TEMPERATURE
~A  DEPTH     RESD     PHIN     PHID      CAL       GR
# ...
  222.200   13.452    0.482    0.190  217.278  106.734
  222.450   11.210    0.481    0.166  214.842  107.065
  222.700   10.238    0.477    0.150  212.406  104.746
  222.950    9.878    0.473    0.137  210.971  103.311
  223.200    9.618    0.477    0.148  212.021  106.573
  223.450    9.452    0.497    0.182  213.084  111.595
  223.700    9.374    0.508    0.189  213.630  113.393
  223.950    9.211    0.501    0.189  213.189  111.669
  224.200    9.135    0.491    0.184  213.252  112.583
  224.450    8.896    0.484    0.184  213.797  114.083
  224.700    8.663    0.486    0.166  213.867  113.525
  224.950    8.669    0.480    0.135  212.922  113.264
  225.200    8.599    0.467    0.185  213.475  116.526
  225.450    8.219    0.454    0.206  214.027  121.548
  225.700    7.787    0.443    0.202  214.580  121.296
  225.950    7.583    0.448    0.190  216.617  120.448
  226.200    7.588    0.460    0.167  218.164  119.303
  226.450    7.736    0.476    0.164  218.219  117.575
  226.700    8.107    0.469    0.153  216.294  115.847
  226.950    8.414    0.450    0.124  216.357  113.532
  227.200    8.979    0.438    0.093  217.897  110.919
  227.450    9.581    0.390    0.100  219.450  108.017
  227.700   10.509    0.385    0.172  221.494  111.287
  227.950   10.911    0.409    0.158  221.550  112.787
  228.200   11.021    0.439    0.134  219.611  113.114
  228.450   11.131    0.470    0.071  217.685  109.914
  228.700   11.557    0.470    0.047  216.747  102.899
  228.950   11.999    0.355    0.140  222.767   98.529
  229.200   12.117    0.339    0.196  230.277  107.078
  229.450   12.129    0.399    0.222  225.363  113.274
  229.700   11.596    0.448    0.248  219.945  115.068
  229.950   10.884    0.467    0.225  218.524  113.055
  230.200   10.310    0.442    0.211  218.580  114.547
  230.450   10.133    0.426    0.196  217.634  113.993
  230.700   10.142    0.431    0.181  218.194  111.384
  230.950   10.242    0.440    0.181  219.741  112.302
  231.200   10.160    0.449    0.190  220.294  114.683
  231.450    9.984    0.460    0.164  217.864  115.303
  231.700    9.900    0.445    0.124  217.430  108.879
  231.950    9.730    0.424    0.068  217.514  104.505
  232.200    9.649    0.409    0.103  206.111  102.487
  232.450    9.394    0.387    0.129  210.129  105.162
  232.700    8.982    0.407    0.233  215.168  109.304
  232.950    8.280    0.452    0.236  215.210  114.033
  233.200    7.423    0.512    0.229  214.776  116.711
  233.450    6.129    0.529    0.220  214.335  116.740
  233.700    5.496    0.473    0.212  214.887  116.785
  233.950    5.303    0.465    0.207  211.968  116.223
  234.200    5.211    0.455    0.201  212.024  112.147
  234.450    5.411    0.441    0.197  215.552  106.306
  234.700    6.043    0.454    0.232  215.117   98.708
  234.950    7.003    0.463    0.255  215.173   91.110
  235.200    8.976    0.455    0.242  215.719   79.696
  235.450   10.988    0.438    0.224  217.273   82.073
  235.700   10.798    0.450    0.201  218.322   89.741
  235.950    8.287    0.480    0.227  215.886   94.763
  236.200    7.097    0.543    0.234  207.500  103.899
  236.450    5.807    0.534    0.229  206.562  110.682
  236.700    4.416    0.522    0.227  209.593  112.774
  236.950    4.070    0.516    0.228  218.608  112.815
  237.200    3.821    0.510    0.222  218.174  112.836
  237.450    3.930    0.506    0.214  217.229  111.996
  237.700    4.194    0.501    0.209  216.794  110.558
  237.950    4.685    0.496    0.205  216.843  107.362
  238.200    6.005    0.487    0.205  216.402  102.695
  238.450    6.708    0.468    0.200  214.960  100.967
  238.700    7.159    0.452    0.197  215.015  103.641
  238.950    7.640    0.462    0.217  216.072  100.739
  239.200    8.380    0.468    0.244  216.128   96.370
  239.450    9.190    0.454    0.275  215.680   91.120
  239.700   10.079    0.447    0.267  216.246   80.880
  239.950   12.567    0.440    0.244  216.288   72.985
  240.200   15.814    0.443    0.213  216.351   70.083
  240.450   19.009    0.439    0.198  215.910   70.413
  240.700   28.729    0.434    0.174  216.462   71.616
  240.950   36.149    0.433    0.146  216.525   69.888
  241.200   38.227    0.430    0.130  215.580   66.403
  241.450   40.052    0.416    0.173  215.643   65.551
  241.700   42.743    0.403    0.243  216.195   68.523
  241.950   46.026    0.442    0.248  216.244   72.078
  242.200   42.806    0.462    0.238  215.803   76.807
  242.450   30.530    0.455    0.204  214.872   81.829
  242.700   22.177    0.450    0.217  214.438   84.214
  242.950   16.557    0.471    0.223  214.486   84.541
  243.200   12.823    0.474    0.231  214.542   82.817
  243.450   11.085    0.457    0.221  214.598   81.969
  243.700    9.154    0.440    0.212  214.661   81.411
  243.950    7.985    0.452    0.232  214.716   83.209
  244.200    6.841    0.461    0.240  214.765   82.068
  244.450    7.434    0.491    0.251  214.828   74.466
  244.700    8.535    0.488    0.260  214.884   67.157
  244.950   10.642    0.456    0.261  214.946   64.842
  245.200   14.149    0.421    0.257  215.485   66.640
  245.450   16.698    0.436    0.251  214.554   69.608
  245.700   21.402    0.445    0.247  214.113   73.750
  245.950   23.690    0.448    0.257  213.671   82.294
  246.200   21.046    0.448    0.261  213.223   87.615
  246.450   16.602    0.457    0.256  213.279   92.347
  246.700   11.521    0.474    0.272  213.335   84.452
  246.950   11.742    0.481    0.288  213.397   75.676
  247.200   16.492    0.470    0.304  213.446   66.610
  247.450   24.249    0.459    0.290  213.502   59.306
  247.700   35.327    0.452    0.281  213.558   56.114
  247.950   69.631    0.451    0.296  213.130   55.858
  248.200   96.038    0.451    0.298  213.179   57.057
  248.450   94.364    0.453    0.284  213.242   58.855
  248.700   91.057    0.453    0.268  213.305   60.057
  248.950   94.533    0.449    0.239  213.354   62.443
  249.200   88.729    0.433    0.197  212.905   65.410
  249.450   66.858    0.428    0.135  212.968   69.850
  249.700   37.236    0.397    0.164  212.527   74.575
  249.950   28.839    0.389    0.189  211.596   89.874
  250.200   23.171    0.401    0.196  211.637  125.134
  250.450   20.586    0.422    0.172  211.693  127.523
  250.700   18.291    0.425    0.115  211.259  126.378
  250.950   16.552    0.409    0.076  210.811  124.357
  251.200   15.823    0.394    0.139  210.376  129.375
  251.450   15.549    0.408    0.185  210.929  133.814
  251.700   15.425    0.426    0.188  211.482  122.397
  251.950   15.577    0.430    0.176  211.545  117.444
  252.200   15.459    0.424    0.158  210.599  118.945
  252.450   15.604    0.416    0.159  210.158  121.623
  252.700   15.332    0.420    0.165  209.220  123.413
  252.950   14.527    0.436    0.172  208.282  121.983
  253.200   13.762    0.441    0.189  207.344  120.246
  253.450   13.400    0.451    0.206  207.399  117.051
  253.700   13.533    0.458    0.228  208.449  111.507
  253.950   15.118    0.467    0.237  209.002  103.029
  254.200   20.284    0.428    0.238  209.058  111.284
  254.450   22.870    0.426    0.222  208.616  118.948
  254.700   24.852    0.432    0.195  208.679  123.970
  254.950   23.979    0.425    0.170  208.728  125.764
  255.200   22.718    0.418    0.147  208.301  128.149
  255.450   20.936    0.420    0.148  207.362  129.356
  255.700   19.474    0.416    0.147  206.914  125.573
  255.950   17.949    0.410    0.148  206.970  125.019
  256.200   16.544    0.411    0.150  206.529  126.230
  256.450   15.961    0.415    0.166  206.087  128.611
  256.700   15.400    0.423    0.172  206.143  130.112
  256.950   14.591    0.431    0.176  205.709  129.851
  257.200   14.468    0.439    0.179  205.275  126.651
  257.450   15.439    0.448    0.176  204.819  117.875
  257.700   16.933    0.440    0.167  204.385  108.516
  257.950   18.573    0.421    0.173  203.937  105.614
  258.200   19.108    0.417    0.180  204.000  112.104
  258.450   18.954    0.407    0.183  204.546  115.961
