~VERSION INFORMATION
 VERS.                 2.0:   CWLS LOG ASCII STANDARD -VERSION 2.0
 WRAP.                  NO:   ONE LINE PER DEPTH STEP
~WELL INFORMATION BLOCK
#MNEM.UNIT           DATA                    DESCRIPTION OF MNEMONIC
#---------    -------------------            -------------------------------
# Generated from Intellog Unique Number	CN_91_93/WELL/4010
WELL.         10-23-092-13W4                 : Well_name    - WELL
LOC .         AA/10-23-092-13W4/0            : Location     - LOCATION
UWI .         AA/10-23-092-13W400            : Uwi          - UNIQUE WELL ID
ENTR.         JOETTE                         : Entered      - ENTERED BY
SRVC.         SCHLUMBERGER                   : Scn          - SERVICE COMPANY
STRT.M        25                             : top_depth    - START DEPTH
STOP.M        177                            : bot_depth    - STOP DEPTH
STEP.M        0.25                           : increment    - STEP LENGTH
 NULL. -999.2500:NULL Value
~CURVE INFORMATION BLOCK
#MNEM UNIT       ERCB CURVE CODE    CURVE DESCRIPTION
#-----------   ------------------   ----------------------------------
DEPT.M        00 001 00 00         : DEPTH        - DEPTH
GR  .API      00 310 00 00         : GR           - GAMMA RAY
DPHI.V/V      00 890 00 00         : PHID         - DENSITY POROSITY (SANDSTONE)
ILD .OHMM     00 120 00 00         : RESD         - DEEP RESISTIVITY (DIL)
~PARAMETER INFORMATION
#MNEM.UNIT           DATA             DESCRIPTION OF MNEMONIC
#---------         -----------     ------------------------------
GL  .M        440.57               : gl           - GROUND LEVEL ELEVATION
EREF.M        440.57               : kb           - ELEVATION OF DEPTH REFERENCE
DATM.M        440.57               : datum        - DATUM ELEVATION
TDD .M        180.3                : tdd          - TOTAL DEPTH DRILLER
RUN .         ONE                  : Run          - RUN NUMBER
ENG .         BILL                 : Engineer     - RECORDING ENGINEER
WIT .         JIM                  : Witness      - WITNESSED BY
MUD .         GEL                  : Mud_type     - MUD TYPE
MATR.         SANDSTONE            : Logunit      - NEUTRON MATRIX
TMAX.C        17                   : BHT          - MAXIMUM RECORDED TEMPERATURE
BHTD.M        180                  : BHTDEP       - MAXIMUM RECORDED TEMPERATURE
RMT .C        17                   : MDTP         - TEMPERATURE OF MUD
MUDD.KG/M     9041.66              : MWT          - MUD DENSITY
NEUT.         1                    : NEUTRON      - NEUTRON TYPE
RESI.         0                    : RESIST       - RESISTIVITY TYPE
RM  .OHMM     5.65                 : RM           - RESISTIVITY OF MUD
RMC .OHMM     5.65                 : RMC          - RESISTIVITY OF MUD CAKE
RMF .OHMM     5.65                 : RMF          - RESISTIVITY OF MUD FILTRATE
SUFT.C        4                    : SUFT         - SURFACE TEMPERATURE
~A  DEPTH       GR     PHID     RESD
   25.000   94.061    0.122    2.042
   25.250   85.746    0.127    2.287
   25.500   88.145    0.145    2.421
   25.750   96.497    0.230    2.921
   26.000  109.015    0.285    3.938
   26.250  112.605    0.311    7.284
   26.500  106.075    0.306    8.311
   26.750  100.736    0.301    8.480
   27.000  103.140    0.345    9.144
   27.250   95.419    0.392   10.053
   27.500   88.294    0.417   10.453
   27.750   81.169    0.433   11.483
   28.000   78.211    0.428   12.624
   28.250   82.991    0.355   11.957
   28.500   83.014    0.346   11.534
   28.750   80.647    0.363   13.155
   29.000   74.117    0.377   16.471
   29.250   78.302    0.400   17.441
   29.500   84.868    0.377   13.981
   29.750   89.648    0.338   12.064
   30.000   90.861    0.302   10.221
   30.250   95.046    0.274    8.822
   30.500   99.236    0.235    9.342
   30.750  101.631    0.261    9.896
   31.000  103.435    0.287    9.545
   31.250  105.238    0.315    9.214
   31.500  104.066    0.328    9.054
   31.750  102.898    0.259    9.238
   32.000  102.916    0.284    9.085
   32.250  104.130    0.319    8.766
   32.500  105.933    0.344    8.782
   32.750  106.547    0.355    8.792
   33.000  106.560    0.349    8.812
   33.250  104.793    0.316    8.818
   33.500  104.811    0.295    8.672
   33.750  107.215    0.314    8.368
   34.000  104.252    0.348    8.074
   34.250   96.532    0.369    8.393
   34.500   85.835    0.402    8.883
   34.750   86.448    0.405    9.063
   35.000   86.466    0.289    9.424
   35.250   90.061    0.301    9.982
   35.500   95.441    0.312   10.376
   35.750   93.673    0.330   10.582
   36.000   91.306    0.341   10.403
   36.250   86.562    0.376   11.651
   36.500   82.418    0.331   12.332
   36.750   80.650    0.297   11.259
   37.000   80.668    0.307    9.897
   37.250   84.848    0.326    9.736
   37.500   92.014    0.333    9.934
   37.750   96.199    0.326    9.761
   38.000   98.599    0.369    9.596
   38.250   94.450    0.396    9.433
   38.500   88.515    0.429    9.805
   38.750   80.799    0.425   10.382
   39.000   77.841    0.404   11.846
   39.250   75.474    0.388   12.544
   39.500   71.925    0.360   11.237
   39.750   71.348    0.354   11.046
   40.000   73.156    0.363   10.863
   40.250   74.360    0.370   10.297
   40.500   78.545    0.360   10.115
   40.750   85.707    0.347    9.760
   41.000   88.110    0.345    9.595
   41.250   89.914    0.360    9.258
   41.500   93.499    0.325    9.443
   41.750   99.470    0.340    9.634
   42.000  102.465    0.342    9.300
   42.250  107.845    0.340    9.142
   42.500  110.249    0.356    9.155
   42.750  107.290    0.366    9.169
   43.000  103.732    0.314    9.358
   43.250   93.040    0.305    9.548
   43.500   90.677    0.330    9.562
   43.750   89.510    0.338    9.756
   44.000   90.709    0.362    9.766
   44.250   96.085    0.387    9.964
   44.500  101.465    0.289    9.983
   44.750  100.888    0.223    9.997
   45.000   98.529    0.259   10.012
   45.250   96.171    0.290   10.406
   45.500   95.585    0.313   10.230
   45.750   99.174    0.321    9.690
   46.000  100.388    0.324    9.350
   46.250   98.020    0.313    8.859
   46.500   92.085    0.279    8.546
   46.750   89.723    0.278    8.401
   47.000   91.526    0.305    9.062
   47.250   98.093    0.316    9.246
   47.500   98.710    0.321    9.089
   47.750   96.352    0.322    9.109
   48.000   98.751    0.337    8.955
   48.250   93.407    0.353    8.641
   48.500   92.835    0.371    8.185
   48.750   97.015    0.387    8.046
   49.000  102.986    0.381    7.909
   49.250   97.647    0.363    8.529
   49.500   88.141    0.327    9.549
   49.750   73.282    0.319   11.956
   50.000   82.224    0.322   13.144
   50.250   91.767    0.349   12.445
   50.500   81.665    0.278   11.149
   50.750   72.754    0.235   10.758
   51.000   64.444    0.132   12.271
   51.250   62.081    0.075   14.525
   51.500   61.503    0.157   19.590
   51.750   70.451    0.259   15.698
   52.000   87.136    0.315   12.348
   52.250   89.535    0.362   11.273
   52.500   85.391    0.370   11.294
   52.750   87.191    0.344   10.890
   53.000   88.999    0.339   10.319
   53.250   79.493    0.345   11.548
   53.500   81.892    0.334    9.784
   53.750   90.839    0.344    8.293
   54.000   92.643    0.345    7.852
   54.250   95.042    0.331    7.864
   54.500  103.394    0.313    7.875
   54.750  106.984    0.317    7.887
   55.000   98.073    0.322    7.899
   55.250   89.762    0.327    8.062
   55.500   97.519    0.324    9.029
   55.750  104.085    0.316    9.212
   56.000   99.941    0.299    9.575
   56.250   95.787    0.247   11.543
   56.500   92.234    0.296   11.347
   56.750   88.085    0.289   10.169
   57.000   83.346    0.273   10.565
   57.250   84.550    0.250   12.990
   57.500   86.949    0.245   15.371
   57.750   86.967    0.245   15.400
   58.000   84.604    0.204   16.000
   58.250   77.479    0.279   16.942
   58.500   82.859    0.356   19.694
   58.750   89.425    0.390   22.884
   59.000   91.229    0.359   75.293
   59.250   53.150    0.161  113.521
   59.500   52.573    0.057   13.164
   59.750   58.548    0.248    9.088
   60.000   64.515    0.293    8.294
   60.250   87.153    0.327    8.309
   60.500   98.486    0.334    8.637
   60.750   99.099    0.360    8.812
   61.000  108.646    0.370    8.825
   61.250  108.664    0.324    8.519
   61.500  109.273    0.301    8.220
   61.750  112.863    0.281    8.232
   62.000  118.834    0.273    8.244
   62.250  123.023    0.268    8.253
   62.500  120.065    0.286    8.266
   62.750  120.083    0.309    8.436
   63.000  119.510    0.278    8.775
   63.250  119.529    0.301    8.946
   63.500  122.528    0.319    9.127
   63.750  125.518    0.297    8.645
   64.000  127.912    0.268    8.189
   64.250  126.145    0.276    8.358
   64.500  121.401    0.291    8.850
   64.750  115.466    0.289    9.202
   65.000  108.341    0.273    9.385
   65.250  105.383    0.259    9.056
   65.500  110.168    0.250    9.589
   65.750  113.762    0.341    9.426
   66.000  111.994    0.380    8.606
   66.250  106.650    0.419   10.569
   66.500   91.787    0.403   13.477
   66.750   79.304    0.357   15.959
   67.000   79.323    0.311   13.273
   67.250   79.936    0.244   16.006
   67.500   81.149    0.248   18.263
   67.750   82.953    0.287   17.623
   68.000   84.162    0.327   15.497
   68.250   82.989    0.358   12.646
   68.500   79.436    0.344   12.432
   68.750   75.878    0.311   13.918
   69.000   67.562    0.296   15.594
   69.250   59.842    0.244   16.816
   69.500   70.579    0.236   18.841
   69.750   85.479    0.245   18.515
   70.000   84.902    0.288   17.214
   70.250   83.739    0.301   16.005
   70.500   83.752    0.284   14.068
   70.750   86.742    0.260   11.485
   71.000   93.908    0.242   11.502
   71.250   99.879    0.265   11.955
   71.500  102.878    0.279   11.752
   71.750  100.510    0.273   11.778
   72.000   93.981    0.268   11.787
   72.250   96.975    0.281   11.817
   72.500   98.184    0.297   11.826
   72.750   91.059    0.271   12.292
   73.000   83.938    0.241   13.260
   73.250   85.738    0.253   14.572
   73.500   94.689    0.271   12.814
   73.750   97.088    0.341   11.268
   74.000   83.415    0.323   11.931
   74.250   77.481    0.285   13.112
   74.500   80.475    0.269   14.160
   74.750   81.684    0.244   14.437
   75.000   71.583    0.225   15.287
   75.250   70.410    0.189   16.187
   75.500   72.809    0.197   18.122
   75.750   78.185    0.272   18.843
   76.000   81.184    0.322   18.871
   76.250   81.793    0.294   18.558
   76.500   81.225    0.304   18.585
   76.750   80.648    0.333   18.270
   77.000   79.475    0.384   16.980
   77.250   78.298    0.384   14.657
   77.500   77.126    0.381   12.190
   77.750   77.144    0.387   11.341
   78.000   78.948    0.389   11.780
   78.250   86.705    0.374   13.688
   78.500   92.080    0.371   16.816
   78.750   78.412    0.540   16.531
   79.000   75.449    0.592   15.957
