~VERSION INFORMATION
 VERS.                 2.0:   CWLS LOG ASCII STANDARD -VERSION 2.0
 WRAP.                  NO:   ONE LINE PER DEPTH STEP
~WELL INFORMATION BLOCK
#MNEM.UNIT           DATA                    DESCRIPTION OF MNEMONIC
#---------    -------------------            -------------------------------
# Generated from Intellog Unique Number	CN_91_93/WELL/4010
WELL.         10-23-092-13W4                 : Well_name    - WELL
LOC .         AA/10-23-092-13W4/0            : Location     - LOCATION
UWI .         AA/10-23-092-13W400            : Uwi          - UNIQUE WELL ID
ENTR.         JOETTE                         : Entered      - ENTERED BY
SRVC.         SCHLUMBERGER                   : Scn          - SERVICE COMPANY
STRT.M        25                             : top_depth    - START DEPTH
STOP.M        177                            : bot_depth    - STOP DEPTH
STEP.M        0.25                           : increment    - STEP LENGTH
 NULL. -999.2500:NULL Value
~CURVE INFORMATION BLOCK
#MNEM UNIT       ERCB CURVE CODE    CURVE DESCRIPTION
#-----------   ------------------   ----------------------------------
DEPT.M        00 001 00 00         : DEPTH        - DEPTH
GR  .API      00 310 00 00         : GR           - GAMMA RAY
DPHI.V/V      00 890 00 00         : PHID         - DENSITY POROSITY (SANDSTONE)
ILD .OHMM     00 120 00 00         : RESD         - DEEP RESISTIVITY (DIL)
~PARAMETER INFORMATION
#MNEM.UNIT           DATA             DESCRIPTION OF MNEMONIC
#---------         -----------     ------------------------------
GL  .M        440.57               : gl           - GROUND LEVEL ELEVATION
EREF.M        440.57               : kb           - ELEVATION OF DEPTH REFERENCE
DATM.M        440.57               : datum        - DATUM ELEVATION
TDD .M        180.3                : tdd          - TOTAL DEPTH DRILLER
RUN .         ONE                  : Run          - RUN NUMBER
ENG .         BILL                 : Engineer     - RECORDING ENGINEER
WIT .         JIM                  : Witness      - WITNESSED BY
MUD .         GEL                  : Mud_type     - MUD TYPE
MATR.         SANDSTONE            : Logunit      - NEUTRON MATRIX
TMAX.C        17                   : BHT          - MAXIMUM RECORDED TEMPERATURE
BHTD.M        180                  : BHTDEP       - MAXIMUM RECORDED TEMPERATURE
RMT .C        17                   : MDTP         - TEMPERATURE OF MUD
MUDD.KG/M     9041.66              : MWT          - MUD DENSITY
NEUT.         1                    : NEUTRON      - NEUTRON TYPE
RESI.         0                    : RESIST       - RESISTIVITY TYPE
RM  .OHMM     5.65                 : RM           - RESISTIVITY OF MUD
RMC .OHMM     5.65                 : RMC          - RESISTIVITY OF MUD CAKE
RMF .OHMM     5.65                 : RMF          - RESISTIVITY OF MUD FILTRATE
SUFT.C        4                    : SUFT         - SURFACE TEMPERATURE
~A  DEPTH       GR     PHID     RESD
# ...
  133.500   96.769    0.256    7.411
  133.750   99.759    0.209   10.183
  134.000  105.135    0.207    7.433
  134.250  108.139    0.232    6.786
  134.500  108.743    0.258    6.797
  134.750  108.770    0.258    6.934
  135.000  105.807    0.256    7.480
  135.250  101.659    0.258    8.535
  135.500   94.534    0.263    9.552
  135.750   71.332    0.277   11.524
  136.000   52.301    0.321   13.641
  136.250   46.962    0.349   19.445
  136.500   45.790    0.337   30.998
  136.750   49.389    0.319   36.032
  137.000   51.783    0.316   39.599
  137.250   54.182    0.316   46.012
  137.500   58.367    0.306   41.234
  137.750   65.529    0.283   34.924
  138.000   78.052    0.264   27.460
  138.250   84.023    0.247   21.202
  138.500   82.850    0.224   16.370
  138.750   66.796    0.200   14.130
  139.000   82.291    0.170   14.416
  139.250   89.457    0.182   13.161
  139.500   94.237    0.198   12.232
  139.750   96.037    0.222   11.373
  140.000   87.126    0.216   10.188
  140.250   91.906    0.212    9.831
  140.500  100.267    0.222    9.664
  140.750   98.495    0.235    9.501
  141.000   94.942    0.245    9.343
  141.250   91.983    0.255    9.015
  141.500   95.578    0.250    8.866
  141.750   97.972    0.245    8.876
  142.000   97.395    0.268    8.728
  142.250   93.842    0.274    8.741
  142.500   93.864    0.269    8.754
  142.750   96.859    0.249    8.931
  143.000   99.258    0.230    9.112
  143.250  100.476    0.215    9.468
  143.500   99.890    0.223   11.422
  143.750   99.912    0.254   11.232
  144.000   99.926    0.292   10.639
  144.250   99.944    0.306   10.655
  144.500   99.367    0.301   10.871
  144.750   98.195    0.295   11.295
  145.000   96.427    0.290   12.189
  145.250   89.302    0.280   13.400
  145.500   85.153    0.275   14.726
  145.750   78.028    0.286   15.880
  146.000   50.069    0.307   21.409
  146.250   43.543    0.325   31.102
  146.500   45.343    0.330   33.551
  146.750   48.932    0.322   33.600
  147.000   63.242    0.314   32.422
  147.250   70.403    0.310   16.634
  147.500   56.730    0.279   18.280
  147.750   43.652    0.232   22.880
  148.000   42.484    0.203   34.497
  148.250   46.669    0.212   37.911
  148.500   50.850    0.232   28.203
  148.750   54.444    0.274   21.768
  149.000   53.272    0.302   24.846
  149.250   50.909    0.302   27.295
  149.500   47.950    0.298   30.559
  149.750   44.397    0.285   26.882
  150.000   40.253    0.271   25.930
  150.250   37.290    0.277   24.561
  150.500   36.717    0.285   24.144
  150.750   41.498    0.296   24.189
  151.000   44.492    0.306   24.215
  151.250   45.701    0.308   24.260
  151.500   46.314    0.309   24.296
  151.750   43.356    0.309   25.253
  152.000   38.608    0.304   28.283
  152.250   33.868    0.299   32.852
  152.500   32.096    0.294   42.691
  152.750   31.523    0.291   35.505
  153.000   33.931    0.293   31.818
  153.250   34.536    0.293   36.278
  153.500   35.749    0.293   31.313
  153.750   36.367    0.288   30.215
  154.000   36.971    0.283   37.136
  154.250   39.380    0.278   30.873
  154.500   41.770    0.281   25.203
  154.750   47.150    0.296   23.002
  155.000   50.144    0.310   20.613
  155.250   50.758    0.302   19.165
  155.500   50.181    0.290   18.486
  155.750   50.199    0.289   17.188
  156.000   50.217    0.294   16.286
  156.250   50.235    0.303   16.010
  156.500   50.853    0.307   16.027
  156.750   52.062    0.310   16.057
  157.000   53.270    0.308   16.081
  157.250   53.884    0.305   17.040
  157.500   53.906    0.297   17.379
  157.750   53.329    0.287   18.064
  158.000   51.562    0.287   18.775
  158.250   49.794    0.301   19.515
  158.500   46.836    0.319   20.672
  158.750   43.282    0.319   21.873
  159.000   39.129    0.301   24.497
  159.250   34.980    0.303   29.543
  159.500   32.617    0.312   40.576
  159.750   32.040    0.319   39.168
  160.000   35.630    0.317   37.795
  160.250   39.819    0.312   41.536
  160.500   37.456    0.309   57.048
  160.750   33.903    0.309   58.225
  161.000   32.731    0.305   55.129
  161.250   35.134    0.299   54.215
  161.500   38.724    0.296   51.351
  161.750   42.904    0.287   50.480
  162.000   53.042    0.284   59.757
  162.250   63.780    0.277   74.792
  162.500   70.346    0.274  151.805
  162.750   73.940    0.269   99.160
  163.000   75.744    0.267   59.004
  163.250   73.376    0.276   32.007
  163.500   69.228    0.290   22.934
  163.750   62.103    0.298   28.715
  164.000   53.787    0.308  124.845
  164.250   49.043    0.314  202.755
  164.500   45.490    0.326  137.455
  164.750   43.127    0.332   96.678
  165.000   44.335    0.334   59.749
  165.250   49.129    0.334   65.639
  165.500   50.329    0.334   69.504
  165.750   54.514    0.330  151.955
  166.000   55.127    0.327  117.324
  166.250   53.360    0.324  133.817
  166.500   51.596    0.325  201.760
  166.750   49.229    0.325  243.315
  167.000   45.080    0.327  210.018
  167.250   38.550    0.327  184.677
  167.500   31.430    0.325  235.480
  167.750   29.658    0.323  273.721
  168.000   30.871    0.323  295.275
  168.250   32.080    0.325  312.662
  168.500   32.102    0.328  318.996
  168.750   32.120    0.333  325.579
  169.000   32.134    0.333  314.166
  169.250   32.157    0.328  292.203
  169.500   32.179    0.325  276.668
  169.750   32.188    0.326  266.969
  170.000   32.806    0.333  267.364
  170.250   33.420    0.339  277.896
  170.500   32.843    0.338  294.260
  170.750   30.480    0.328  311.587
  171.000   28.712    0.324  329.935
  171.250   28.730    0.324  362.590
  171.500   29.943    0.324  398.771
  171.750   31.157    0.323  384.650
  172.000   31.166    0.321  351.174
  172.250   32.374    0.316  345.219
  172.500   34.183    0.313  315.058
  172.750   35.987    0.309  266.937
  173.000   37.795    0.312  217.836
  173.250   37.813    0.319  181.100
  173.500   37.236    0.322  181.435
  173.750   36.654    0.325  199.392
  174.000   34.296    0.304  223.236
  174.250   31.929    0.097  227.759
  174.500   25.999    0.007  148.774
  174.750   21.255    0.002  154.634
  175.000   19.487   -0.003  251.041
  175.250   18.905   -0.004  378.501
  175.500   19.519   -0.006  491.673
  175.750   23.113   -0.010  627.389
  176.000   26.703   -0.010  521.587
  176.250   30.293   -0.010  402.569
  176.500   33.291   -0.010  139.811
  176.750   33.310   -0.010   53.263
  177.000   33.328   -0.010   50.450
