~VERSION INFORMATION
 VERS.                 2.0:   CWLS LOG ASCII STANDARD -VERSION 2.0
 WRAP.                  NO:   ONE LINE PER DEPTH STEP
~WELL INFORMATION BLOCK
#MNEM.UNIT           DATA                    DESCRIPTION OF MNEMONIC
#---------    -------------------            -------------------------------
# Generated from Intellog Unique Number	CC_80_83/WELL/2433
NULL.         -999.25                        : NULL_VALUE
WELL.         ARCO ACI McMUURAY              : Well_name    - WELL              
LOC .         12-29-083-10W4                 : Location     - LOCATION          
UWI .         AA/12-29-083-10W400            : Uwi          - UNIQUE WELL ID    
ENTR.         DW                             : Entered      - ENTERED BY        
SRVC.         SCHLUMBERGER                   : Scn          - SERVICE COMPANY   
DATE.         26 JAN 74                      : Date         - LOG DATE
STRT.M        259.08                         : top_depth    - START DEPTH       
STOP.M        502.928                        : bot_depth    - STOP DEPTH        
STEP.M        0.305                          : increment    - STEP LENGTH       
~CURVE INFORMATION BLOCK
#MNEM UNIT       ERCB CURVE CODE    CURVE DESCRIPTION
#-----------   ------------------   ----------------------------------
DEPT.M        00 001 00 00         : DEPTH        - DEPTH                       
NPHI.V/V      00 330 00 00         : PHIN         - NEUTRON POROSITY (LIMESTONE)
GR  .API      00 310 00 00         : GR           - GAMMA RAY                   
DPHI.V/V      00 890 00 00         : PHID         - DENSITY POROSITY (LIMESTONE)
ILD .OHMM     00 120 00 00         : RESD         - DEEP RESISTIVITY (DLL)      
~PARAMETER INFORMATION       
#MNEM.UNIT           DATA             DESCRIPTION OF MNEMONIC
#---------         -----------     ------------------------------
GL  .M        740.359              : gl           - GROUND LEVEL ELEVATION      
EREF.M        743.407              : kb           - ELEVATION OF DEPTH REFERENCE
DATM.M        743.407              : datum        - DATUM ELEVATION             
TDD .M        505.968              : tdd          - TOTAL DEPTH DRILLER         
RUN .         ONE                  : Run          - RUN NUMBER                  
ENG .         BILL                 : Engineer     - RECORDING ENGINEER          
WIT .         JIM                  : Witness      - WITNESSED BY                
MUD .         GEL                  : Mud_type     - MUD TYPE                    
MATR.         LIMESTONE            : Logunit      - NEUTRON MATRIX              
TMAX.C        23.3333              : BHT          - MAXIMUM RECORDED TEMPERATURE
BHTD.M        505.968              : BHTDEP       - MAXIMUM RECORDED TEMPERATURE
MATR.         1                    : LOGUNIT      - NEUTRON MATRIX              
RMT .C        25                   : MDTP         - TEMPERATURE OF MUD          
NEUT.         0                    : NEUTRON      - NEUTRON TYPE                
RESI.         1                    : RESIST       - RESISTIVITY TYPE            
RMC .OHMM     0.25                 : RMC          - RESISTIVITY OF MUD CAKE     
RMF .OHMM     0.25                 : RMF          - RESISTIVITY OF MUD FILTRATE 
SUFT.C        4                    : SUFT         - SURFACE TEMPERATURE         
~A  DEPTH     PHIN       GR     PHID     RESD
# ...
  365.154    0.408   47.964    0.290    9.192
  365.459    0.414   51.958    0.270    8.534
  365.763    0.411   50.728    0.276    8.072
  366.068    0.416   53.111    0.287    7.634
  366.373    0.435   56.314    0.285    7.493
  366.678    0.402   55.876    0.275    7.220
  366.983    0.401   55.455    0.268    7.087
  367.287    0.409   61.067    0.274    6.828
  367.592    0.420   57.814    0.286    6.703
  367.897    0.422   54.563    0.291    6.339
  368.202    0.431   56.550    0.300    5.885
  368.507    0.432   56.520    0.291    5.073
  368.811    0.428   58.510    0.291    4.979
  369.116    0.428   67.751    0.299    4.709
  369.421    0.438   66.510    0.290    4.292
  369.726    0.452   66.083    0.277    3.839
  370.031    0.463   77.739    0.271    3.499
  370.335    0.459   78.111    0.278    3.434
  370.640    0.478   77.687    0.292    3.309
  370.945    0.487   79.674    0.287    3.309
  371.250    0.501   79.240    0.286    3.434
  371.555    0.494   81.229    0.287    3.630
  371.860    0.510   82.007    0.287    3.698
  372.164    0.462   79.156    0.289    3.838
  372.469    0.446   73.490    0.295    3.838
  372.774    0.444   64.593    0.297    3.630
  373.079    0.468   62.151    0.294    2.851
  373.384    0.470   60.111    0.291    2.412
  373.688    0.466   69.751    0.298    2.240
  373.993    0.483   73.754    0.302    2.158
  374.298    0.471   76.949    0.304    2.240
  374.603    0.478   77.324    0.304    2.503
  374.908    0.507   71.254    0.303    2.798
  375.212    0.499   56.313    0.302    3.837
  375.517    0.476   57.094    0.294    4.451
  375.822    0.442   60.286    0.277    5.069
  376.127    0.452   59.859    0.247    6.218
  376.432    0.433   54.997    0.253    7.213
  376.736    0.417   51.742    0.220    8.525
  377.041    0.392   46.876    0.219   10.457
  377.346    0.353   39.598    0.272   12.131
  377.651    0.325   32.320    0.303   12.131
  377.956    0.340   29.062    0.310   11.688
  378.261    0.369   31.055    0.316   11.055
  378.565    0.393   34.651    0.327   10.651
  378.870    0.398   35.835    0.334   10.455
  379.175    0.393   35.001    0.337   11.054
  379.480    0.419   36.584    0.343   11.687
  379.785    0.413   35.753    0.353   11.686
  380.089    0.415   33.304    0.360   11.686
  380.394    0.434   31.665    0.363   11.260
  380.699    0.437   36.072    0.364   10.849
  381.004    0.435   38.460    0.365   10.072
  381.309    0.419   36.418    0.368   10.072
  381.613    0.413   35.585    0.369   10.071
  381.918    0.406   34.749    0.365   10.071
  382.223    0.422   34.320    0.355   10.071
  382.528    0.423   36.712    0.346   10.070
  382.833    0.419   37.079    0.345   10.070
  383.137    0.419   36.655    0.349    9.885
  383.442    0.416   38.239    0.355    9.884
  383.747    0.426   38.212    0.364   10.069
  384.052    0.427   35.765    0.369   10.069
  384.357    0.437   33.322    0.370   10.069
  384.662    0.438   30.472    0.369   10.257
  384.966    0.432   34.470    0.366   10.257
  385.271    0.429   36.059    0.363   10.449
  385.576    0.419   36.432    0.359   10.449
  385.881    0.425   35.593    0.358   10.644
  386.186    0.422   34.766    0.356   10.843
  386.490    0.429   32.320    0.341   12.121
  386.795    0.415   37.128    0.303   15.146
  387.100    0.396   40.325    0.094   17.901
  387.405    0.367   39.491    0.109   17.571
  387.710    0.119   34.222    0.177   16.312
  388.014    0.114   31.376    0.223   13.548
  388.319    0.194   30.135    0.339   11.462
  388.624    0.297   33.735    0.338   10.446
  388.929    0.374   36.128    0.299   10.445
  389.234    0.400   34.489    0.207   10.641
  389.538    0.395   32.446    0.219   10.445
  389.843    0.313   30.402    0.265   10.064
  390.148    0.239   30.774    0.358    9.878
  390.453    0.325   32.360    0.368    9.518
  390.758    0.365   34.348    0.367    9.518
  391.063    0.434   36.332    0.367    9.517
  391.367    0.418   37.519    0.366    9.877
  391.672    0.403   38.699    0.362   10.062
  391.977    0.411   34.641    0.360    9.877
  392.282    0.414   32.998    0.356    9.695
  392.587    0.390   36.196    0.362    9.516
  392.891    0.379   37.379    0.365    9.341
  393.196    0.383   36.944    0.358    9.340
  393.501    0.397   37.721    0.348    9.515
  393.806    0.402   36.087    0.348    9.515
  394.111    0.407   34.848    0.353    9.515
  394.415    0.423   36.024    0.363    9.514
  394.720    0.445   37.209    0.368    9.514
  395.025    0.415   35.977    0.373    9.339
  395.330    0.426   36.750    0.370    9.513
  395.635    0.416   34.709    0.367    9.691
  395.939    0.394   37.907    0.355    9.691
  396.244    0.425   35.461    0.336    9.691
  396.549    0.428   35.431    0.313    9.512
  396.854    0.404   37.014    0.312    9.165
  397.159    0.389   38.197    0.346    8.831
  397.464    0.365   43.408    0.364    8.668
  397.768    0.406   45.798    0.364    8.668
  398.073    0.429   44.557    0.360    8.668
  398.378    0.445   40.908    0.357    8.830
  398.683    0.434   39.673    0.353    8.995
  398.988    0.410   35.616    0.348    9.164
  399.292    0.398   41.223    0.347    9.163
  399.597    0.401   41.199    0.344    9.335
  399.902    0.400   38.753    0.341    9.335
  400.207    0.406   35.906    0.340    9.509
  400.512    0.415   37.486    0.344    9.509
  400.816    0.419   39.880    0.343    9.334
  401.121    0.402   36.629    0.340    9.162
  401.426    0.390   39.017    0.339    8.349
  401.731    0.396   40.605    0.332    7.751
  402.036    0.414   44.605    0.327    6.934
  402.340    0.419   47.798    0.322    6.437
  402.645    0.425   49.386    0.326    6.088
  402.950    0.425   51.372    0.312    5.758
  403.255    0.413   52.148    0.293    5.652
  403.560    0.410   47.686    0.286    5.866
  403.865    0.404   48.066    0.283    6.318
  404.169    0.401   50.456    0.275    7.195
  404.474    0.410   50.831    0.263    7.194
  404.779    0.399   52.011    0.261    6.804
  405.084    0.392   62.864    0.269    6.556
  405.389    0.399   64.847    0.290    6.317
  405.693    0.428   62.404    0.311    6.201
  405.998    0.404   64.394    0.297    5.865
  406.303    0.418   59.928    0.316    4.962
  406.608    0.442   59.501    0.304    4.781
  406.913    0.475   56.251    0.310    4.870
  407.217    0.486   55.418    0.335    5.444
  407.522    0.482   54.579    0.331    6.555
  407.827    0.459   54.148    0.313    7.327
  408.132    0.430   54.125    0.295    7.604
  408.437    0.415   52.083    0.272    7.464
  408.741    0.415   51.248    0.286    7.326
  409.046    0.400   52.027    0.290    7.191
  409.351    0.428   54.014    0.286    7.191
  409.656    0.415   53.180    0.293    7.191
  409.961    0.395   52.744    0.302    7.191
  410.266    0.424   53.929    0.296    7.325
  410.570    0.412   55.507    0.267    7.190
  410.875    0.414   57.099    0.288    7.190
  411.180    0.440   59.887    0.264    7.190
  411.485    0.457   60.260    0.263    7.058
  411.790    0.454   60.640    0.291    6.800
  412.094    0.456   61.411    0.295    6.313
  412.399    0.453   62.197    0.310    6.083
  412.704    0.453   66.201    0.319    5.753
  413.009    0.444   69.795    0.318    5.543
  413.314    0.454   64.533    0.330    5.146
  413.618    0.475   56.042    0.314    4.867
  413.923    0.496   58.427    0.324    4.354
  414.228    0.530   61.627    0.333    3.684
  414.533    0.531   67.645    0.312    3.357
  414.838    0.511   78.093    0.309    3.357
  415.142    0.510   83.307    0.311    3.484
  415.447    0.473   82.874    0.283    3.967
  415.752    0.493   66.326    0.280    4.435
  416.057    0.505   58.641    0.299    4.957
  416.362    0.491   57.404    0.307    5.339
  416.667    0.470   61.005    0.302    5.645
  416.971    0.473   64.199    0.312    5.751
  417.276    0.468   64.573    0.315    6.080
  417.581    0.470   64.537    0.294    6.549
  417.886    0.443   64.923    0.284    7.186
