~VERSION INFORMATION
 VERS.                 2.0:   CWLS LOG ASCII STANDARD -VERSION 2.0
 WRAP.                  NO:   ONE LINE PER DEPTH STEP
~WELL INFORMATION BLOCK
#MNEM.UNIT           DATA                    DESCRIPTION OF MNEMONIC
#---------    -------------------            -------------------------------
# Generated from Intellog Unique Number	CC_80_83/WELL/2364
NULL.         -999.25                        : NULL_VALUE
WELL.         PEX PCEJ HANGST OV             : Well_name    - WELL              
LOC .         10-23-081-08W4                 : Location     - LOCATION          
UWI .         AA/10-23-081-08W4/0            : Uwi          - UNIQUE WELL ID    
ENTR.         DW                             : Entered      - ENTERED BY        
SRVC.         SCHLUMBERGER                   : Scn          - SERVICE COMPANY   
DATE.         18 JAN 80                      : Date         - LOG DATE
STRT.M        250                            : top_depth    - START DEPTH       
STOP.M        494.79                         : bot_depth    - STOP DEPTH        
STEP.M        0.3                            : increment    - STEP LENGTH       
~CURVE INFORMATION BLOCK
#MNEM UNIT       ERCB CURVE CODE    CURVE DESCRIPTION
#-----------   ------------------   ----------------------------------
DEPT.M        00 001 00 00         : DEPTH        - DEPTH                       
DPHI.V/V      00 890 00 00         : PHID         - DENSITY POROSITY (LIMESTONE)
NPHI.V/V      00 330 00 00         : PHIN         - NEUTRON POROSITY (LIMESTONE)
GR  .API      00 310 00 00         : GR           - GAMMA RAY                   
ILD .OHMM     00 120 00 00         : RESD         - DEEP RESISTIVITY (DIL)      
~PARAMETER INFORMATION       
#MNEM.UNIT           DATA             DESCRIPTION OF MNEMONIC
#---------         -----------     ------------------------------
GL  .M        735.25               : gl           - GROUND LEVEL ELEVATION      
EREF.M        738.85               : kb           - ELEVATION OF DEPTH REFERENCE
DATM.M        738.85               : datum        - DATUM ELEVATION             
TDD .M        497                  : tdd          - TOTAL DEPTH DRILLER         
RUN .         ONE                  : Run          - RUN NUMBER                  
ENG .         BILL                 : Engineer     - RECORDING ENGINEER          
WIT .         JIM                  : Witness      - WITNESSED BY                
MUD .         GEL                  : Mud_type     - MUD TYPE                    
MATR.         LIMESTONE            : Logunit      - NEUTRON MATRIX              
TMAX.C        19                   : BHT          - MAXIMUM RECORDED TEMPERATURE
BHTD.M        497                  : BHTDEP       - MAXIMUM RECORDED TEMPERATURE
MATR.         1                    : LOGUNIT      - NEUTRON MATRIX              
RMT .C        25                   : MDTP         - TEMPERATURE OF MUD          
NEUT.         1                    : NEUTRON      - NEUTRON TYPE                
RESI.         0                    : RESIST       - RESISTIVITY TYPE            
RMC .OHMM     0.25                 : RMC          - RESISTIVITY OF MUD CAKE     
RMF .OHMM     0.25                 : RMF          - RESISTIVITY OF MUD FILTRATE 
SUFT.C        4                    : SUFT         - SURFACE TEMPERATURE         
~A  DEPTH     PHID     PHIN       GR     RESD
# ...
  302.198    0.370    0.486   86.766   20.616
  302.498    0.424    0.532   63.150   21.020
  302.798    0.513    0.572   51.980   20.263
  303.098    0.491    0.566   56.986   25.867
  303.398    0.328    0.505   68.217   34.927
  303.698    0.330    0.385   61.404   42.956
  303.998    0.328    0.388   69.522   44.626
  304.298    0.328    0.398   90.085   45.504
  304.598    0.335    0.389   57.134   43.873
  304.898    0.342    0.376   33.518   40.736
  305.198    0.341    0.367   38.526   37.127
  305.498    0.324    0.371   36.689   33.840
  305.798    0.305    0.333   53.520   31.424
  306.098    0.298    0.349   60.396   28.643
  306.398    0.296    0.389   67.272   26.106
  306.698    0.297    0.372   79.746   23.351
  306.998    0.288    0.349   98.442   20.507
  307.298    0.270    0.371  114.651   20.136
  307.598    0.250    0.382   97.881   20.538
  307.898    0.196    0.371   94.180   21.740
  308.198    0.279    0.393  105.407   23.449
  308.498    0.281    0.402  119.750   24.823
  308.798    0.280    0.407  119.780   25.312
  309.098    0.288    0.413  110.474   24.402
  309.398    0.287    0.419   91.214   22.238
  309.698    0.272    0.419   82.532   15.891
  309.998    0.251    0.417   93.763   11.571
  310.298    0.197    0.435  137.350    9.784
  310.598    0.173    0.439  128.046    8.752
  310.898    0.181    0.418  135.544    9.440
  311.198    0.240    0.426  139.308   11.608
  311.498    0.277    0.416  141.827   15.383
  311.798    0.317    0.367  128.166   21.562
  312.098    0.332    0.388  119.485   26.025
  312.398    0.331    0.398  135.070   25.567
  312.698    0.335    0.389  141.946   23.741
  312.998    0.333    0.404  125.174   21.238
  313.298    0.269    0.433  122.093   18.301
  313.598    0.276    0.407  119.011   16.991
  313.898    0.284    0.440  109.706   15.485
  314.198    0.282    0.459  126.537   14.928
  314.498    0.277    0.437  129.679   15.512
  314.798    0.270    0.408  129.708   16.732
  315.098    0.283    0.401  117.915   18.386
  315.398    0.288    0.383   97.410   20.208
  315.698    0.260    0.380   78.771   20.605
  315.998    0.233    0.378   84.402   19.138
  316.298    0.235    0.378   94.388   18.109
  316.598    0.265    0.360  103.751   17.460
  316.898    0.258    0.362  105.649   17.472
  317.198    0.263    0.381  115.636   17.816
  317.498    0.274    0.416  106.330   17.175
  317.798    0.282    0.424  101.386   16.251
  318.098    0.262    0.415  108.880   15.373
  318.398    0.237    0.421  126.333   14.011
  318.698    0.221    0.437  133.830   13.259
  318.997    0.226    0.418  144.438   12.546
  319.297    0.244    0.412  132.028   10.414
  319.597    0.252    0.450  131.430    8.805
  319.897    0.247    0.449  137.684    7.876
  320.197    0.239    0.458  137.716    8.656
  320.497    0.240    0.450  129.651   11.049
  320.797    0.269    0.433  110.391   14.920
  321.097    0.274    0.419  106.690   16.397
  321.397    0.265    0.408  109.208   16.409
  321.697    0.261    0.402  115.461   15.528
  321.997    0.256    0.398  118.601   13.381
  322.297    0.255    0.445  114.898   12.658
  322.597    0.279    0.460  122.393   11.325
  322.897    0.262    0.487  138.602   10.323
  323.197    0.249    0.473  136.149    9.952
  323.497    0.251    0.499  129.330    9.777
  323.797    0.277    0.495  125.626    9.966
  324.097    0.266    0.482  131.878   10.355
  324.397    0.267    0.466  130.040   11.170
  324.697    0.299    0.424  120.736   12.505
  324.997    0.302    0.406  103.964   16.266
  325.297    0.288    0.386  102.749   20.763
  325.597    0.286    0.381   99.667   20.781
  325.897    0.291    0.379   93.474   17.573
  326.197    0.279    0.370   77.326   14.586
  326.497    0.270    0.410   93.533   13.294
  326.797    0.259    0.402  107.256   13.309
  327.097    0.230    0.371  111.016   14.085
  327.397    0.049    0.323   88.022   16.682
  327.697    0.080    0.237   73.119   30.390
  327.997    0.115    0.224   84.970   34.031
  328.297    0.192    0.289  111.136   31.015
  328.597    0.284    0.418  121.745   26.725
  328.897    0.281    0.408  141.686   23.905
  329.197    0.283    0.395  147.943   24.839
  329.497    0.300    0.398  100.054   28.343
  329.797    0.303    0.381   95.106   31.147
  330.097    0.315    0.376  107.581   34.229
  330.397    0.325    0.409   70.897   35.562
  330.697    0.325    0.401   64.084   34.934
  330.997    0.322    0.398   59.755   33.679
  331.297    0.326    0.395   60.410   33.703
  331.597    0.327    0.393   59.817   34.384
  331.897    0.327    0.381   59.224   34.402
  332.197    0.323    0.376   64.231   35.082
  332.497    0.318    0.394   64.883   34.459
  332.797    0.321    0.391   59.933   33.842
  333.097    0.324    0.405   60.591   34.510
  333.397    0.327    0.413   61.240   35.196
  333.697    0.325    0.398   57.536   36.577
  333.997    0.324    0.382   60.675   37.287
  334.297    0.323    0.383   65.065   38.027
  334.597    0.324    0.365   57.626   38.773
  334.897    0.328    0.355   58.899   39.541
  335.197    0.328    0.378   76.975   39.569
  335.497    0.329    0.376   62.068   37.446
  335.797    0.328    0.390   66.458   36.778
  336.097    0.315    0.372   68.352   36.129
  336.397    0.313    0.359   79.582   36.851
  336.697    0.314    0.377   71.523   37.563
  336.997    0.319    0.390   71.552   39.038
  337.297    0.327    0.407   72.826   39.815
  337.597    0.333    0.422   64.143   39.100
  337.897    0.335    0.390   57.951   36.991
  338.197    0.322    0.359   64.827   37.027
  338.497    0.323    0.386   64.856   39.191
  338.797    0.321    0.370   65.508   42.279
  339.097    0.294    0.359   68.026   43.120
  339.397    0.221    0.351   66.816   42.346
  339.697    0.272    0.379   68.091   40.837
  339.997    0.313    0.406   71.852   40.107
  340.297    0.316    0.380   64.415   40.906
  340.597    0.315    0.375   64.442   41.709
  340.897    0.318    0.362   66.960   42.522
  341.197    0.322    0.356   76.324   42.549
  341.497    0.325    0.351   78.222   42.601
  341.797    0.328    0.376   82.607   41.830
  342.097    0.328    0.386   73.925   39.581
  342.397    0.324    0.388   75.199   38.879
  342.697    0.324    0.369   78.341   38.196
  342.997    0.325    0.382   80.860   37.522
  343.297    0.325    0.357   86.489   37.547
  343.596    0.322    0.373   85.276   35.524
  343.896    0.321    0.365   77.836   32.985
  344.196    0.325    0.384   82.223   31.799
  344.496    0.326    0.411   86.612   31.239
  344.796    0.326    0.404   82.283   31.262
  345.096    0.320    0.405   73.600   30.721
  345.396    0.313    0.426   77.987   30.734
  345.696    0.313    0.431   66.814   28.016
  345.996    0.316    0.412   69.339   25.528
  346.296    0.321    0.381   76.210   24.623
  346.596    0.322    0.395   82.463   25.101
  346.896    0.313    0.373   80.626   26.583
  347.196    0.298    0.366   82.521   26.596
  347.496    0.296    0.394   73.217   27.115
  347.796    0.271    0.377   70.134   27.141
  348.096    0.270    0.368   79.498   25.676
  348.396    0.276    0.363   76.423   27.695
  348.696    0.297    0.356   75.203   29.883
  348.996    0.304    0.361   77.721   29.898
  349.296    0.305    0.385   69.663   29.931
  349.596    0.306    0.380   67.827   29.950
  349.896    0.306    0.375   66.613   28.874
  350.196    0.299    0.375   70.995   27.318
  350.496    0.295    0.381   80.363   25.373
  350.796    0.299    0.399   81.635   24.923
  351.096    0.322    0.395   64.861   25.418
  351.396    0.323    0.394   74.225   25.430
  351.696    0.327    0.400   70.523   24.985
  351.996    0.328    0.397   73.662   23.202
  352.296    0.333    0.392   64.981   22.362
  352.596    0.340    0.419   67.507   23.675
  352.896    0.344    0.402   66.289   24.596
  353.196    0.286    0.372   63.831   24.618
  353.496    0.207    0.267   61.990   24.647
  353.796    0.259    0.338   63.270   24.204
  354.096    0.319    0.407   67.650   23.336
