~VERSION INFORMATION
 VERS.                 2.0:   CWLS LOG ASCII STANDARD -VERSION 2.0
 WRAP.                  NO:   ONE LINE PER DEPTH STEP
~WELL INFORMATION BLOCK
#MNEM.UNIT           DATA                    DESCRIPTION OF MNEMONIC
#---------    -------------------            -------------------------------
# Generated from Intellog Unique Number	CC_80_83/WELL/2429
NULL.         -999.25                        : NULL_VALUE
WELL.         ARCO ACI McMURRAY              : Well_name    - WELL              
LOC .         12-11-083-12W4                 : Location     - LOCATION          
UWI .         AA/12-11-083-12W400            : Uwi          - UNIQUE WELL ID    
ENTR.         DW                             : Entered      - ENTERED BY        
SRVC.         SCHLUMBERGER                   : Scn          - SERVICE COMPANY   
DATE.         17 MAR 74                      : Date         - LOG DATE
STRT.M        137.16                         : top_depth    - START DEPTH       
STOP.M        399.29                         : bot_depth    - STOP DEPTH        
STEP.M        0.305                          : increment    - STEP LENGTH       
~CURVE INFORMATION BLOCK
#MNEM UNIT       ERCB CURVE CODE    CURVE DESCRIPTION
#-----------   ------------------   ----------------------------------
DEPT.M        00 001 00 00         : DEPTH        - DEPTH                       
DPHI.V/V      00 890 00 00         : PHID         - DENSITY POROSITY (LIMESTONE)
GR  .API      00 310 00 00         : GR           - GAMMA RAY                   
NPHI.V/V      00 330 00 00         : PHIN         - NEUTRON POROSITY (LIMESTONE)
ILD .OHMM     00 120 00 00         : RESD         - DEEP RESISTIVITY (DLL)      
~PARAMETER INFORMATION       
#MNEM.UNIT           DATA             DESCRIPTION OF MNEMONIC
#---------         -----------     ------------------------------
GL  .M        630.631              : gl           - GROUND LEVEL ELEVATION      
EREF.M        632.308              : kb           - ELEVATION OF DEPTH REFERENCE
DATM.M        632.308              : datum        - DATUM ELEVATION             
TDD .M        399.288              : tdd          - TOTAL DEPTH DRILLER         
RUN .         ONE                  : Run          - RUN NUMBER                  
ENG .         BILL                 : Engineer     - RECORDING ENGINEER          
WIT .         JIM                  : Witness      - WITNESSED BY                
MUD .         GEL                  : Mud_type     - MUD TYPE                    
MATR.         LIMESTONE            : Logunit      - NEUTRON MATRIX              
TMAX.C        21.1111              : BHT          - MAXIMUM RECORDED TEMPERATURE
BHTD.M        399.288              : BHTDEP       - MAXIMUM RECORDED TEMPERATURE
MATR.         1                    : LOGUNIT      - NEUTRON MATRIX              
RMT .C        25                   : MDTP         - TEMPERATURE OF MUD          
NEUT.         0                    : NEUTRON      - NEUTRON TYPE                
RESI.         1                    : RESIST       - RESISTIVITY TYPE            
RMC .OHMM     0.25                 : RMC          - RESISTIVITY OF MUD CAKE     
RMF .OHMM     0.25                 : RMF          - RESISTIVITY OF MUD FILTRATE 
SUFT.C        4                    : SUFT         - SURFACE TEMPERATURE         
~A  DEPTH     PHID       GR     PHIN     RESD
# ...
  243.228    0.358   38.769    0.374   17.115
  243.533    0.362   38.358    0.377   17.079
  243.838    0.365   38.757    0.388   17.364
  244.143    0.364   40.371    0.402   17.988
  244.448    0.364   41.986    0.404   18.291
  244.752    0.368   41.980    0.385   17.908
  245.057    0.368   39.949    0.367   17.216
  245.362    0.359   40.348    0.368   16.549
  245.667    0.351   42.367    0.404   16.223
  245.972    0.350   41.956    0.404   16.180
  246.276    0.360   41.950    0.398   16.157
  246.581    0.367   41.944    0.418   16.432
  246.886    0.363   39.911    0.411   16.699
  247.191    0.358   39.094    0.411   16.361
  247.496    0.358   40.304    0.401   16.324
  247.800    0.360   43.134    0.372   15.998
  248.105    0.358   48.394    0.371   15.964
  248.410    0.362   52.437    0.370   15.624
  248.715    0.363   52.028    0.373   15.312
  249.020    0.364   49.184    0.401   15.274
  249.324    0.362   46.343    0.373   15.255
  249.629    0.358   46.337    0.349   14.940
  249.934    0.360   46.330    0.356   14.904
  250.239    0.363   45.516    0.361   14.868
  250.543    0.363   51.988    0.369   15.126
  250.848    0.371   49.958    0.376   15.093
  251.153    0.374   48.332    0.386   15.346
  251.458    0.367   50.757    0.391   15.318
  251.763    0.361   53.586    0.383   15.573
  252.067    0.355   51.960    0.384   15.836
  252.372    0.354   53.169    0.384   16.392
  252.677    0.354   54.783    0.366   16.370
  252.982    0.354   56.802    0.386   16.332
  253.287    0.351   58.821    0.396   15.986
  253.591    0.349   57.599    0.378   15.673
  253.896    0.348   53.542    0.382   14.252
  254.201    0.349   54.346    0.377   13.194
  254.506    0.354   55.150    0.372   13.177
  254.811    0.360   54.334    0.368   13.394
  255.115    0.352   53.517    0.370   14.139
  255.420    0.354   55.537    0.378   14.916
  255.725    0.358   59.986    0.388   15.448
  256.030    0.356   60.790    0.390   15.420
  256.335    0.355   59.569    0.388   15.106
  256.639    0.354   59.158    0.381   14.521
  256.944    0.354   59.962    0.372   14.219
  257.249    0.359   58.741    0.393   14.195
  257.554    0.370   58.329    0.414   14.153
  257.859    0.371   59.944    0.400   14.400
  258.163    0.361   61.557    0.418   14.911
  258.468    0.360   60.742    0.415   14.607
  258.773    0.358   59.116    0.412   14.311
  259.078    0.352   58.299    0.394   14.021
  259.383    0.357   59.103    0.358   13.231
  259.688    0.349   60.312    0.392   12.726
  259.992    0.343   59.901    0.386   11.789
  260.297    0.351   61.919    0.388   10.141
  260.602    0.353   65.559    0.391    7.942
  260.907    0.354   67.578    0.399    7.924
  261.212    0.351   67.166    0.421    8.211
  261.516    0.354   65.946    0.424    8.827
  261.821    0.356   58.244    0.407    9.315
  262.126    0.347   63.907    0.386    9.468
  262.431    0.339   65.117    0.389    9.277
  262.736    0.325   65.515    0.408    7.831
  263.040    0.315   67.940    0.406    6.990
  263.345    0.305   76.036    0.410    6.721
  263.650    0.295   78.460    0.422    6.960
  263.955    0.286   76.834    0.388    7.481
  264.260    0.295   56.978    0.367    7.751
  264.564    0.334   58.188    0.390    8.179
  264.869    0.363   66.284    0.418    8.468
  265.174    0.338   61.417    0.407    8.604
  265.479    0.329   55.335    0.398    8.435
  265.784    0.330   60.999    0.358    8.110
  266.089    0.312   66.664    0.380    7.373
  266.393    0.306   70.709    0.404    6.345
  266.698    0.311   81.234    0.413    4.879
  267.003    0.300   88.112    0.408    3.970
  267.308    0.285   88.106    0.418    2.941
  267.613    0.276   84.050    0.439    2.530
  267.917    0.282   81.209    0.443    2.431
  268.222    0.286   85.253    0.442    2.563
  268.527    0.283   82.007    0.425    2.706
  268.832    0.286   81.596    0.431    2.804
  269.137    0.285   86.046    0.418    3.013
  269.441    0.283   87.254    0.415    3.124
  269.746    0.293   79.957    0.414    3.295
  270.051    0.298   79.950    0.430    3.412
  270.356    0.296   82.779    0.416    3.407
  270.661    0.288   79.939    0.420    3.528
  270.965    0.284   77.501    0.428    3.655
  271.270    0.296   75.065    0.414    4.076
  271.575    0.305   77.085    0.416    4.385
  271.880    0.304   77.889    0.407    4.801
  272.185    0.317   81.123    0.406    4.702
  272.490    0.322   85.573    0.411    4.278
  272.794    0.305   85.160    0.430    3.611
  273.099    0.296   85.561    0.446    2.725
  273.404    0.301   87.983    0.430    2.476
  273.709    0.299   89.193    0.438    2.428
  274.014    0.298   82.302    0.435    2.468
  274.318    0.308   74.598    0.442    2.806
  274.623    0.315   69.732    0.408    3.771
  274.928    0.320   69.321    0.392    4.533
  275.233    0.349   75.391    0.392    5.153
  275.538    0.351   79.841    0.383    5.750
  275.842    0.313   73.757    0.389    5.426
  276.147    0.319   69.701    0.393    4.843
  276.452    0.309   67.265    0.406    4.322
  276.757    0.289   70.499    0.408    4.311
  277.062    0.332   72.114    0.401    4.725
  277.366    0.324   64.817    0.344    6.003
  277.671    0.320   60.760    0.345    6.697
  277.976    0.315   61.158    0.367    7.068
  278.281    0.329   56.292    0.370    7.885
  278.586    0.348   51.830    0.383    8.635
  278.891    0.344   49.798    0.359    9.288
  279.195    0.330   53.033    0.358    9.984
  279.500    0.352   53.837    0.353   10.153
  279.805    0.352   50.993    0.355    9.938
  280.110    0.350   51.392    0.356    9.740
  280.415    0.350   51.387    0.345    9.357
  280.719    0.353   51.382    0.352    9.339
  281.024    0.358   50.971    0.357    9.150
  281.329    0.359   50.963    0.356    9.134
  281.634    0.361   52.173    0.362    9.114
  281.939    0.359   56.623    0.363    9.100
  282.243    0.361   53.374    0.361    9.253
  282.548    0.366   53.370    0.355    9.580
  282.853    0.366   53.769    0.363    9.739
  283.158    0.364   53.761    0.371    9.535
  283.463    0.365   54.162    0.380    9.345
  283.767    0.366   56.585    0.370    9.154
  284.072    0.362   56.175    0.373    9.661
  284.377    0.362   49.283    0.377   10.389
  284.682    0.368   52.110    0.355   11.380
  284.987    0.379   51.699    0.339   13.928
  285.292    0.379   51.693    0.326   16.745
  285.596    0.364   52.093    0.302   20.132
  285.901    0.350   49.656    0.264   24.189
  286.206    0.323   46.815    0.121   26.496
  286.511    0.098   41.949    0.136   24.097
  286.816    0.098   39.512    0.168   18.190
  287.120    0.162   47.607    0.225   13.734
  287.425    0.284   51.246    0.336   10.563
  287.730    0.341   50.023    0.396    9.783
  288.035    0.344   51.234    0.385    9.947
  288.340    0.341   52.443    0.361   11.097
  288.644    0.322   44.741    0.333   12.616
  288.949    0.252   45.137    0.132   13.819
  289.254    0.115   47.563    0.151   13.795
  289.559    0.250   52.012    0.214   12.305
  289.864    0.337   52.817    0.318   11.190
  290.168    0.363   53.214    0.364   10.168
  290.473    0.368   52.805    0.389    9.781
  290.778    0.366   51.178    0.392    9.586
  291.083    0.362   50.768    0.394    9.747
  291.388    0.368   51.167    0.393    9.900
  291.693    0.369   53.185    0.383   10.071
  291.997    0.366   56.014    0.382    9.859
  292.302    0.372   56.819    0.357    9.663
  292.607    0.369   53.976    0.348    9.647
  292.912    0.373   51.946    0.358    9.618
  293.217    0.362   51.128    0.371    9.782
  293.521    0.355   51.121    0.371    9.770
  293.826    0.357   51.926    0.376    9.744
  294.131    0.368   53.946    0.383    9.730
  294.436    0.372   58.396    0.404    9.523
  294.741    0.381   58.389    0.415    9.509
  295.045    0.373   52.308    0.375    9.313
  295.350    0.365   52.705    0.374    9.119
  295.655    0.369   53.511    0.372    9.099
  295.960    0.363   54.315    0.358    9.261
