~VERSION INFORMATION
 VERS.                 2.0:   CWLS LOG ASCII STANDARD -VERSION 2.0
 WRAP.                  NO:   ONE LINE PER DEPTH STEP
~WELL INFORMATION BLOCK
#MNEM.UNIT           DATA                    DESCRIPTION OF MNEMONIC
#---------    -------------------            -------------------------------
# Generated from Intellog Unique Number	CN_91_93/WELL/1171
WELL.         12-08-091-14W4                 : Well_name    - WELL
LOC .         AA/12-08-091-14W4/0            : Location     - LOCATION
UWI .         AA/12-08-091-14W400            : Uwi          - UNIQUE WELL ID
ENTR.         JOETTE                         : Entered      - ENTERED BY
SRVC.         SCHLUMBERGER                   : Scn          - SERVICE COMPANY
STRT.F        246.063                        : top_depth    - START DEPTH
STOP.F        656.168                        : bot_depth    - STOP DEPTH
STEP.F        0.82                           : increment    - STEP LENGTH
 NULL. -999.2500:NULL Value
~CURVE INFORMATION BLOCK
#MNEM UNIT       ERCB CURVE CODE    CURVE DESCRIPTION
#-----------   ------------------   ----------------------------------
DEPT.F        00 001 00 00         : DEPTH        - DEPTH
ILD .OHMM     00 120 00 00         : RESD         - DEEP RESISTIVITY (DIL)
DPHI.V/V      00 890 00 00         : PHID         - DENSITY POROSITY (SANDSTONE)
CALI.IN       00 280 01 00         : CAL          - CALIPER
GR  .API      00 310 00 00         : GR           - GAMMA RAY
~PARAMETER INFORMATION
#MNEM.UNIT           DATA             DESCRIPTION OF MNEMONIC
#---------         -----------     ------------------------------
GL  .M        475.5                : gl           - GROUND LEVEL ELEVATION
EREF.M        478.5                : kb           - ELEVATION OF DEPTH REFERENCE
DATM.M        478.5                : datum        - DATUM ELEVATION
TDD .M        208.7                : tdd          - TOTAL DEPTH DRILLER
RUN .         ONE                  : Run          - RUN NUMBER
ENG .         BILL                 : Engineer     - RECORDING ENGINEER
WIT .         JIM                  : Witness      - WITNESSED BY
MUD .         GEL                  : Mud_type     - MUD TYPE
MATR.         SANDSTONE            : Logunit      - NEUTRON MATRIX
TMAX.F        140                  : BHT          - MAXIMUM RECORDED TEMPERATURE
BHTD.F        6797.9               : BHTDEP       - MAXIMUM RECORDED TEMPERATURE
RMT .F        77                   : MDTP         - TEMPERATURE OF MUD
MUDD.LB/G     9.5                  : MWT          - MUD DENSITY
NEUT.         1                    : NEUTRON      - NEUTRON TYPE
RESI.         0                    : RESIST       - RESISTIVITY TYPE
RM  .OHMM     1.43                 : RM           - RESISTIVITY OF MUD
RMC .OHMM     0.25                 : RMC          - RESISTIVITY OF MUD CAKE
RMF .OHMM     1.88                 : RMF          - RESISTIVITY OF MUD FILTRATE
SUFT.F        39.2                 : SUFT         - SURFACE TEMPERATURE
~A  DEPTH     RESD     PHID      CAL       GR
# ...
  388.780   32.785    0.170    7.403   70.781
  389.600   36.986    0.044    7.563   67.239
  390.420   36.366    0.036    7.803   63.991
  391.240   33.534    0.084    7.846   61.641
  392.060   30.090    0.176    7.850   65.301
  392.881   26.744    0.254    7.856   69.240
  393.701   22.296    0.289    7.896   77.984
  394.521   17.919    0.287    8.017   79.534
  395.341   17.141    0.278    8.139   78.994
  396.161   14.161    0.266    8.280   82.341
  396.982   13.422    0.244    8.480   83.897
  397.802   13.567    0.259    8.563   79.464
  398.622   13.835    0.259    8.586   81.301
  399.442   12.760    0.219    8.648   79.263
  400.262   12.896    0.135    8.691   80.214
  401.083   12.915    0.161    8.714   82.669
  401.903   12.700    0.178    8.717   78.822
  402.723   12.038    0.147    8.741   76.479
  403.543   11.306    0.175    8.744   78.634
  404.364   11.118    0.194    8.748   87.671
  405.184   10.828    0.222    8.712   95.517
  406.004   10.647    0.240    8.715   94.371
  406.824   10.865    0.225    8.700   94.431
  407.644   11.078    0.221    8.664   95.375
  408.465   11.299    0.212    8.609   94.536
  409.285   10.614    0.196    8.592   95.487
  410.105   10.725    0.112    8.595   94.641
  410.925    9.893    0.075    8.618   89.003
  411.745    9.036    0.119    8.642   88.457
  412.566    8.184    0.200    8.646   95.397
  413.386    7.617    0.181    8.669   99.949
  414.206    8.513    0.188    8.711   97.013
  415.026   10.338    0.222    8.773   97.059
  415.846   10.838    0.219    8.817   96.513
  416.667   10.851    0.202    8.859   92.972
  417.487   10.287    0.159    8.902   89.430
  418.307    9.660    0.142    8.926   87.094
  419.127    9.329    0.174    8.929   88.637
  419.948    9.870    0.203    8.893   97.082
  420.768   10.441    0.209    8.877   97.433
  421.588   11.047    0.211    8.883   93.593
  422.408   11.267    0.227    8.884   94.544
  423.228   11.289    0.231    8.884   96.699
  424.049   10.795    0.213    8.912   97.051
  424.869   10.712    0.226    8.915   92.918
  425.689   11.232    0.211    8.915   92.072
  426.509   12.328    0.212    8.902   93.316
  427.329   12.459    0.195    8.925   97.268
  428.150   12.479    0.126    8.889   99.723
  428.970   11.935    0.111    8.893   94.977
  429.790   10.613    0.148    8.896   94.431
  430.610   10.058    0.207    8.900  101.678
  431.430    9.446    0.197    8.923  106.522
  432.251    9.288    0.210    9.025  105.077
  433.071    9.387    0.223    9.028  110.227
  433.891    9.487    0.230    8.894  106.686
  434.711    8.910    0.226    8.760  102.253
  435.531    7.706    0.227    8.646  101.707
  436.352    6.666    0.227    8.551  103.257
  437.172    6.316    0.213    8.476  105.998
  437.992    5.721    0.220    8.460  107.255
  438.812    5.997    0.202    8.444  105.817
  439.633    6.642    0.137    8.447  103.167
  440.453    6.652    0.173    8.568  101.123
  441.273    6.662    0.242    8.808  105.968
  442.093    7.112    0.249    8.949  112.615
  442.913    7.458    0.233    8.991  112.069
  443.734    6.569    0.223    8.976  112.421
  444.554    6.228    0.206    9.235  111.276
  445.374    6.067    0.214    9.474  106.537
  446.194    5.750    0.244    9.144  103.601
  447.014    6.196    0.232    8.813  101.550
  447.835    7.186    0.205    8.502  101.011
  448.655    7.196    0.169    8.525   99.566
  449.475    7.274    0.221    8.568   96.018
  450.295    7.488    0.229    8.571  109.853
  451.115    7.361    0.229    8.556  116.501
  451.936    8.006    0.220    8.578  115.954
  452.756    8.628    0.207    8.641  109.418
  453.576    9.297    0.192    8.703  101.385
  454.396    9.572    0.171    8.589   98.137
  455.217   10.127    0.175    8.613   99.693
  456.037   11.217    0.184    8.613  102.741
  456.857   11.133    0.152    8.718  102.793
  457.677   10.552    0.143    8.799   97.455
  458.497    9.731    0.131    8.666   89.428
  459.318    8.340    0.212    8.590   93.075
  460.138    7.833    0.229    8.712   98.817
  460.958    8.063    0.219    8.775  103.662
  461.778    8.768    0.231    8.700  100.726
  462.598    9.536    0.224    8.820  101.071
  463.419   10.370    0.215    9.041   99.334
  464.239   10.675    0.217    9.044   98.494
  465.059   10.790    0.213    8.969   97.648
  465.879   10.516    0.191    8.894   98.293
  466.699    9.875    0.159    8.878   98.945
  467.520    8.858    0.123    8.842   94.512
  468.340    7.731    0.140    8.727   91.570
  469.160    6.624    0.168    8.790   94.311
  469.980    5.943    0.204    8.716   99.162
  470.801    5.139    0.244    8.679   99.520
  471.621    4.207    0.244    8.722  104.058
  472.441    3.881    0.247    8.726  102.015
  473.261    3.994    0.250    8.729   98.174
  474.081    4.674    0.222    8.713   92.536
  474.902    5.780    0.219    8.717   81.202
  475.722    7.081    0.223    8.740   65.382
  476.542    9.337    0.239    8.763   50.754
  477.362   13.007    0.256    8.845   39.120
  478.182   18.796    0.289    8.986   30.781
  479.003   24.558    0.300    9.127   29.043
  479.823   35.165    0.289    9.288   26.706
  480.643   41.913    0.295    9.527   23.165
  481.463   49.965    0.306    9.747   25.008
  482.283   52.883    0.300    9.947   25.659
  483.104   54.917    0.298   10.206   24.215
  483.924   58.114    0.300   10.682   28.766
  484.744   64.973    0.295   11.039   28.519
  485.564   68.105    0.298   11.416   27.380
  486.385   68.214    0.303   11.655   27.732
  487.205   62.925    0.304   11.915   28.091
  488.025   61.848    0.310   12.135   28.143
  488.845   59.162    0.313   12.315   28.502
  489.665   55.575    0.328   12.397   28.242
  490.486   51.710    0.336   12.480   27.702
  491.306   51.320    0.335   12.483   27.755
  492.126   54.318    0.336   12.447   29.305
  492.946   57.989    0.336   12.412   30.868
  493.766   58.071    0.336   12.356   31.213
  494.587   54.531    0.324   12.203   33.062
  495.407   50.285    0.325   12.029   34.007
  496.227   46.369    0.317   11.816   33.467
  497.047   39.374    0.329   11.505   33.826
  497.867   34.052    0.325   11.351   36.274
  498.688   33.487    0.319   11.217   38.716
  499.508   32.926    0.321   11.063   39.387
  500.328   35.151    0.330   10.831   38.535
  501.148   38.234    0.338   10.441   39.486
  501.969   31.012    0.340   10.071   41.328
  502.789   24.928    0.331    9.780   43.783
  503.609   20.586    0.302    9.509   45.939
  504.429   16.096    0.290    9.060   49.878
  505.249   14.051    0.272    8.513   58.323
  506.070   12.375    0.247    8.339   64.970
  506.890    7.981    0.227    8.205   69.222
  507.710    6.239    0.205    8.131   68.669
  508.530    4.174    0.186    8.055   70.825
  509.350    3.089    0.261    7.980   78.664
  510.171    2.902    0.285    7.904   98.495
  510.991    2.801    0.289    7.904  103.346
  511.811    2.910    0.282    7.835  101.901
  512.631    3.079    0.275    7.778  103.757
  513.451    3.228    0.266    7.762  104.701
  514.272    3.447    0.249    7.805  104.155
  515.092    3.681    0.247    7.828  100.913
  515.912    3.895    0.246    7.828   98.570
  516.732    3.625    0.241    7.855   96.826
  517.552    3.468    0.240    7.897   95.088
  518.373    3.635    0.249    7.882  101.130
  519.193    4.293    0.245    7.884  102.387
  520.013    5.358    0.244    7.890  100.343
  520.833    7.261    0.218    7.891   98.293
  521.654    8.043    0.146    7.935   88.762
  522.474    9.075    0.120    7.957   77.727
  523.294    9.604    0.158    7.863   72.988
  524.114    9.443    0.189    7.906   76.934
  524.934   10.364    0.231    7.871   80.287
  525.755   12.017    0.246    7.834   76.147
  526.575   14.195    0.275    7.818   71.109
  527.395   17.713    0.278    7.724   61.272
  528.215   36.601    0.309    7.628   51.734
  529.035   44.439    0.303    7.632   41.904
  529.856   45.326    0.310    7.635   41.957
  530.676   41.797    0.306    7.620   45.310
