~VERSION INFORMATION
 VERS.                 2.0:   CWLS LOG ASCII STANDARD -VERSION 2.0
 WRAP.                  NO:   ONE LINE PER DEPTH STEP
~WELL INFORMATION BLOCK
#MNEM.UNIT           DATA                    DESCRIPTION OF MNEMONIC
#---------    -------------------            -------------------------------
# Generated from Intellog Unique Number	CN_91_93/WELL/3123
WELL.         10-29-092-17W4                 : Well_name    - WELL
LOC .         AA/10-29-092-17W4/0            : Location     - LOCATION
UWI .         AA/10-29-092-17W400            : Uwi          - UNIQUE WELL ID
ENTR.         JOETTE                         : Entered      - ENTERED BY
SRVC.         SCHLUMBERGER                   : Scn          - SERVICE COMPANY
DATE.         04/12/92                       : Date         - LOG DATE
STRT.F        250                            : top_depth    - START DEPTH
STOP.F        850.394                        : bot_depth    - STOP DEPTH
STEP.F        0.82                           : increment    - STEP LENGTH
 NULL. -999.2500:NULL Value
~CURVE INFORMATION BLOCK
#MNEM UNIT       ERCB CURVE CODE    CURVE DESCRIPTION
#-----------   ------------------   ----------------------------------
DEPT.F        00 001 00 00         : DEPTH        - DEPTH
CALI.IN       00 280 01 00         : CAL          - CALIPER
GR  .API      00 310 00 00         : GR           - GAMMA RAY
NPHI.V/V      00 330 00 00         : PHIN         - NEUTRON POROSITY (SANDSTONE)
DPHI.V/V      00 890 00 00         : PHID         - DENSITY POROSITY (SANDSTONE)
ILD .OHMM     00 120 00 00         : RESD         - DEEP RESISTIVITY (DIL)
~PARAMETER INFORMATION
#MNEM.UNIT           DATA             DESCRIPTION OF MNEMONIC
#---------         -----------     ------------------------------
GL  .M        512.6                : gl           - GROUND LEVEL ELEVATION
EREF.M        514.807              : kb           - ELEVATION OF DEPTH REFERENCE
DATM.M        514.807              : datum        - DATUM ELEVATION
TDD .M        270.358              : tdd          - TOTAL DEPTH DRILLER
RUN .         ONE                  : Run          - RUN NUMBER
ENG .         BILL                 : Engineer     - RECORDING ENGINEER
WIT .         JIM                  : Witness      - WITNESSED BY
MUD .         GEL                  : Mud_type     - MUD TYPE
MATR.         SANDSTONE            : Logunit      - NEUTRON MATRIX
TMAX.F        75                   : BHT          - MAXIMUM RECORDED TEMPERATURE
BHTD.F        887                  : BHTDEP       - MAXIMUM RECORDED TEMPERATURE
RMT .F        53                   : MDTP         - TEMPERATURE OF MUD
MUDD.LB/G     9.2                  : MWT          - MUD DENSITY
NEUT.         1                    : NEUTRON      - NEUTRON TYPE
RESI.         0                    : RESIST       - RESISTIVITY TYPE
RM  .OHMM     6.23                 : RM           - RESISTIVITY OF MUD
RMC .OHMM     6.23                 : RMC          - RESISTIVITY OF MUD CAKE
RMF .OHMM     6.23                 : RMF          - RESISTIVITY OF MUD FILTRATE
SUFT.F        39.2                 : SUFT         - SURFACE TEMPERATURE
~A  DEPTH      CAL       GR     PHIN     PHID     RESD
# ...
  489.501    7.048   80.998    0.531    0.227    6.681
  490.322    6.503   83.503    0.487    0.238    7.329
  491.142    6.376   85.380    0.468    0.206    9.881
  491.962    6.376   80.972    0.455    0.175   10.642
  492.782    6.501   75.935    0.392    0.202   11.898
  493.602    6.793   75.293    0.473    0.239   13.553
  494.423    6.960   76.546    0.500    0.312   15.148
  495.243    7.044   82.193    0.517    0.347   13.529
  496.063    7.211   83.439    0.531    0.408    9.290
  496.883    7.797   87.832    0.535    0.417    8.616
  497.703    7.587   95.366    0.541    0.252    3.775
  498.524    7.335  102.270    0.548    0.201    3.308
  499.344    7.460  109.175    0.557    0.217    3.184
  500.164    8.004  112.938    0.560    0.199    3.302
  500.984    7.542  102.244    0.554    0.156    3.179
  501.804    7.667   97.834    0.552    0.109    2.946
  502.625    7.499   99.713    0.548    0.235    3.173
  503.445    7.247  107.246    0.538    0.224    3.482
  504.265    7.247  113.522    0.547    0.215    3.612
  505.085    7.623  114.138    0.562    0.210    3.286
  505.906    7.790  109.731    0.576    0.207    3.162
  506.726    7.831  105.323    0.584    0.215    3.280
  507.546    7.789   99.029    0.583    0.215    3.339
  508.366    7.244   99.020    0.527    0.184    3.463
  509.186    8.123   99.010    0.502    0.168    3.592
  510.007    8.919   97.115    0.491    0.161    3.657
  510.827    7.870   93.966    0.476    0.198    3.938
  511.647    6.822   97.728    0.455    0.218    5.829
  512.467    6.570   98.348    0.448    0.226    5.937
  513.287    6.528   93.311    0.435    0.212    6.514
  514.108    6.527   90.789    0.424    0.217    7.282
  514.928    6.527   92.037    0.429    0.204    8.295
  515.748    6.568   92.657    0.427    0.204    9.627
  516.568    6.651   92.646    0.416    0.195   10.762
  517.388    6.734   89.496    0.395    0.147   10.753
  518.209    6.818   85.717    0.378    0.122   10.744
  519.029    7.026   87.591    0.350    0.184   12.467
  519.849    7.277   95.124    0.390    0.206   13.940
  520.669    7.528   94.487    0.459    0.222   13.667
  521.490    7.611   92.591    0.468    0.220   11.980
  522.310    7.611   93.213    0.456    0.235   10.302
  523.130    7.903   91.318    0.471    0.282    9.373
  523.950    8.364   81.254    0.545    0.308    8.364
  524.770    9.076   82.502    0.560    0.339    8.207
  525.591    8.949   88.776    0.540    0.286    8.048
  526.411    8.572   90.024    0.514    0.304    7.743
  527.231    8.487   91.272    0.480    0.340    7.738
  528.051    7.816   90.007    0.446    0.365    8.179
  528.871    7.313   89.371    0.419    0.240    9.316
  529.692    6.767   88.104    0.390    0.130   11.437
  530.512    6.557   86.838    0.372    0.124   14.304
  531.332    6.473   88.717    0.382    0.175   14.565
  532.152    6.472   93.105    0.408    0.197   14.017
  532.972    6.472   90.582    0.420    0.204   12.753
  533.793    6.471   88.688    0.431    0.232   11.603
  534.613    6.429   87.422    0.427    0.227   11.167
  535.433    6.428   87.414    0.408    0.225   11.368
  536.253    6.427   88.662    0.433    0.247   11.573
  537.073    6.427   92.424    0.443    0.241   11.560
  537.894    6.468   95.556    0.441    0.246   11.338
  538.714    6.509   94.916    0.442    0.251   10.910
  539.534    6.634   93.655    0.445    0.246   10.111
  540.354    6.760   90.501    0.441    0.231    9.731
  541.175    6.843   92.378    0.410    0.226    9.190
  541.995    7.010   94.886    0.418    0.218    9.015
  542.815    7.261   98.019    0.446    0.199    9.005
  543.635    7.386   95.494    0.453    0.205    8.996
  544.455    7.595   93.600    0.445    0.210    8.992
  545.276    7.678   91.077    0.437    0.214    8.984
  546.096    7.719   88.557    0.430    0.220    9.144
  546.916    7.635   88.548    0.450    0.241    9.138
  547.736    7.467   90.425    0.473    0.252    9.476
  548.556    7.340   92.928    0.481    0.247    9.832
  549.377    7.340   96.692    0.481    0.256   10.009
  550.197    7.423   97.938    0.491    0.290    9.630
  551.017    7.925   96.046    0.521    0.322    9.098
  551.837    9.475   92.895    0.524    0.296    8.433
  552.657    8.636   92.253    0.496    0.305    7.817
  553.478    7.463   92.244    0.488    0.247    7.525
  554.298    7.001   77.778    0.478    0.236    7.661
  555.118    7.126   78.402    0.566    0.276   10.328
  555.938    7.503   80.907    0.601    0.391   11.122
  556.759    8.047   84.669    0.565    0.440    9.566
  557.579    7.376   89.058    0.511    0.385    8.075
  558.399    7.207   86.537    0.473    0.223    7.483
  559.219    7.291   83.384    0.447    0.244    8.367
  560.039    7.458   82.118    0.462    0.279    8.679
  560.860    7.751   83.366    0.488    0.304    6.926
  561.680    8.379   85.245    0.489    0.331    4.252
  562.500    9.509   90.263    0.489    0.335    3.458
  563.320    9.718   94.655    0.493    0.295    2.864
  564.140    8.502   95.273    0.490    0.222    2.916
  564.961    7.454   95.895    0.484    0.210    3.514
  565.781    7.412   95.884    0.473    0.205    5.203
  566.601    7.579   95.877    0.473    0.212    6.152
  567.421    7.662   99.009    0.472    0.221    6.502
  568.241    7.871  100.888    0.472    0.218    6.497
  569.062    8.080  100.246    0.472    0.216    6.368
  569.882    8.163   98.352    0.472    0.217    6.364
  570.702    8.330   97.086    0.476    0.218    6.240
  571.522    8.287   92.052    0.473    0.213    6.978
  572.343    8.496   88.898    0.454    0.185    8.099
  573.163    8.621   84.492    0.455    0.036   10.918
  573.983    8.118   75.684    0.422    0.044   16.165
  574.803    7.950   70.647    0.379    0.077   25.317
  575.623    7.991   71.267    0.331    0.107   31.081
  576.444    7.697   80.686    0.282    0.170   36.763
  577.264    7.152   90.733    0.288    0.207   23.866
  578.084    6.774   97.638    0.304    0.209   20.532
  578.904    6.564   94.487    0.410    0.196   14.372
  579.724    6.522   96.992    0.428    0.189   12.132
  580.545    6.521   99.495    0.395    0.185   11.897
  581.365    6.521  100.743    0.389    0.202   12.574
  582.185    6.646   98.851    0.408    0.209   13.042
  583.005    6.729   95.698    0.418    0.207   12.546
  583.825    6.812   95.060    0.418    0.210   12.306
  584.646    6.937   95.052    0.417    0.218   12.064
  585.466    7.104   94.414    0.418    0.228   12.056
  586.286    6.852   93.148    0.422    0.231   11.822
  587.106    6.768   90.626    0.427    0.210   11.591
  587.927    6.767   84.960    0.423    0.193   11.583
  588.747    6.767   80.552    0.393    0.189   12.242
  589.567    6.724   78.027    0.366    0.203   14.750
  590.387    6.682   79.906    0.393    0.219   16.802
  591.207    6.681   86.811    0.403    0.222   15.280
  592.028    6.639   92.459    0.380    0.217   14.712
  592.848    6.638   88.050    0.374    0.208   14.696
  593.668    6.679   82.385    0.346    0.192   16.429
  594.488    6.762   75.463    0.289    0.047   18.718
  595.308    6.929   69.795    0.244    0.020   29.875
  596.129    6.845   66.018    0.219    0.047   66.783
  596.949    6.635   64.121    0.220    0.073  104.589
  597.769    6.509   68.514    0.352    0.099  128.403
  598.589    6.424   75.419    0.390    0.165   45.801
  599.409    6.298   77.296    0.409    0.229   21.631
  600.230    6.255   79.168    0.383    0.241   17.262
  601.050    6.255   79.161    0.379    0.232   15.414
  601.870    6.296   77.893    0.365    0.248   17.232
  602.690    6.338   77.258    0.376    0.233   20.378
  603.510    6.337   79.135    0.399    0.245   20.360
  604.331    6.336   81.640    0.405    0.231   18.177
  605.151    6.378   84.145    0.411    0.203   16.234
  605.971    6.461   84.137    0.411    0.200   14.224
  606.791    6.628   79.728    0.372    0.122   14.755
  607.612    6.795   78.463    0.384    0.069   17.452
  608.432    6.962   80.339    0.419    0.118   21.830
