~VERSION INFORMATION
 VERS.                 2.0:   CWLS LOG ASCII STANDARD -VERSION 2.0
 WRAP.                  NO:   ONE LINE PER DEPTH STEP
~WELL INFORMATION BLOCK
#MNEM.UNIT           DATA                    DESCRIPTION OF MNEMONIC
#---------    -------------------            -------------------------------
# Generated from Intellog Unique Number	CN_94_101/WELL/5021
WELL.         11-24-099-14W4                 : Well_name    - WELL
LOC .         AA/11-24-099-14W4/0            : Location     - LOCATION
UWI .         AA/11-24-099-14W400            : Uwi          - UNIQUE WELL ID
ENTR.         TIM                            : Entered      - ENTERED BY
SRVC.         SCHLUMBERGER                   : Scn          - SERVICE COMPANY
DATE.         08/13/92                       : Date         - LOG DATE
STRT.M        370                            : top_depth    - START DEPTH
STOP.M        570                            : bot_depth    - STOP DEPTH
STEP.M        0.25                           : increment    - STEP LENGTH
 NULL. -999.2500:NULL Value
~CURVE INFORMATION BLOCK
#MNEM UNIT       ERCB CURVE CODE    CURVE DESCRIPTION
#-----------   ------------------   ----------------------------------
DEPT.M        00 001 00 00         : DEPTH        - DEPTH
GR  .API      00 310 00 00         : GR           - GAMMA RAY
ILD .OHMM     00 120 00 00         : RESD         - DEEP RESISTIVITY (DIL)
NPHI.V/V      00 330 00 00         : PHIN         - NEUTRON POROSITY (SANDSTONE)
DPHI.V/V      00 890 00 00         : PHID         - DENSITY POROSITY (SANDSTONE)
~PARAMETER INFORMATION
#MNEM.UNIT           DATA             DESCRIPTION OF MNEMONIC
#---------         -----------     ------------------------------
GL  .M        815.9                : gl           - GROUND LEVEL ELEVATION
EREF.M        819.1                : kb           - ELEVATION OF DEPTH REFERENCE
DATM.M        819.1                : datum        - DATUM ELEVATION
TDD .M        573                  : tdd          - TOTAL DEPTH DRILLER
RUN .         ONE                  : Run          - RUN NUMBER
ENG .         BILL                 : Engineer     - RECORDING ENGINEER
WIT .         JIM                  : Witness      - WITNESSED BY
MUD .         GEL                  : Mud_type     - MUD TYPE
MATR.         SANDSTONE            : Logunit      - NEUTRON MATRIX
TMAX.C        25                   : BHT          - MAXIMUM RECORDED TEMPERATURE
BHTD.M        573                  : BHTDEP       - MAXIMUM RECORDED TEMPERATURE
RMT .C        25                   : MDTP         - TEMPERATURE OF MUD
MUDD.KG/M     1090                 : MWT          - MUD DENSITY
NEUT.         1                    : NEUTRON      - NEUTRON TYPE
RESI.         0                    : RESIST       - RESISTIVITY TYPE
RM  .OHMM     4.6                  : RM           - RESISTIVITY OF MUD
RMC .OHMM     4.6                  : RMC          - RESISTIVITY OF MUD CAKE
RMF .OHMM     4.6                  : RMF          - RESISTIVITY OF MUD FILTRATE
SUFT.C        4                    : SUFT         - SURFACE TEMPERATURE
~A  DEPTH       GR     RESD     PHIN     PHID
# ...
  457.000  140.055    2.521    0.535    0.256
  457.250  138.851    2.521    0.520    0.256
  457.500  134.625    2.731    0.501    0.255
  457.750  129.797    2.941    0.495    0.253
  458.000  127.988    2.941    0.485    0.253
  458.250  126.180    3.361    0.479    0.254
  458.500  124.371    3.571    0.466    0.259
  458.750  123.166    3.782    0.441    0.266
  459.000  122.567    3.992    0.440    0.266
  459.250  122.570    4.202    0.442    0.263
  459.500  118.346    4.202    0.446    0.260
  459.750  112.310    4.412    0.440    0.255
  460.000  114.125    4.412    0.415    0.253
  460.250  117.751    4.412    0.443    0.253
  460.500  120.776    4.412    0.487    0.259
  460.750  120.174    4.412    0.519    0.282
  461.000  118.366    3.992    0.554    0.281
  461.250  115.349    3.571    0.557    0.279
  461.500  108.709    3.571    0.526    0.280
  461.750  103.277    3.782    0.500    0.287
  462.000  100.865    3.992    0.459    0.296
  462.250  101.471    4.622    0.453    0.296
  462.500  103.286    4.832    0.479    0.276
  462.750  108.121    4.622    0.489    0.258
  463.000  112.352    4.202    0.497    0.258
  463.250  115.979    3.782    0.505    0.262
  463.500  119.607    3.571    0.518    0.264
  463.750  119.610    3.571    0.499    0.268
  464.000  119.613    3.571    0.487    0.274
  464.250  119.616    3.571    0.472    0.273
  464.500  120.223    3.571    0.481    0.263
  464.750  120.830    3.571    0.505    0.258
  465.000  119.021    3.571    0.509    0.260
  465.250  116.005    3.571    0.505    0.264
  465.500  113.593    3.782    0.499    0.270
  465.750  115.408    3.782    0.497    0.285
  466.000  119.639    3.782    0.503    0.281
  466.250  120.247    3.782    0.509    0.260
  466.500  120.250    3.782    0.516    0.245
  466.750  118.441    3.782    0.516    0.233
  467.000  114.217    3.782    0.486    0.232
  467.250  116.032    3.782    0.483    0.268
  467.500  120.867    3.571    0.488    0.284
  467.750  126.909    3.571    0.491    0.278
  468.000  126.309    3.571    0.493    0.276
  468.250  122.689    3.571    0.499    0.286
  468.500  124.504    3.361    0.530    0.275
  468.750  130.546    2.941    0.572    0.254
  469.000  139.005    2.731    0.585    0.248
  469.250  143.235    2.731    0.585    0.252
  469.500  145.051    2.521    0.588    0.253
  469.750  144.450    2.521    0.575    0.246
  470.000  143.849    2.521    0.577    0.234
  470.250  142.644    2.521    0.577    0.225
  470.500  137.816    2.311    0.546    0.215
  470.750  136.612    2.101    0.524    0.205
  471.000  139.635    2.101    0.529    0.200
  471.250  143.262    1.891    0.554    0.210
  471.500  145.680    1.891    0.556    0.220
  471.750  149.912    2.101    0.555    0.228
  472.000  149.311    2.311    0.550    0.234
  472.250  144.482    2.521    0.544    0.236
  472.500  139.052    2.731    0.539    0.236
  472.750  138.451    3.151    0.531    0.239
  473.000  140.266    3.782    0.470    0.237
  473.250  142.685    4.412    0.451    0.233
  473.500  143.292    5.252    0.457    0.228
  473.750  134.236    5.672    0.436    0.225
  474.000  130.012    6.092    0.423    0.222
  474.250  128.204    6.303    0.410    0.221
  474.500  129.416    6.303    0.413    0.220
  474.750  131.230    6.092    0.439    0.215
  475.000  133.044    5.882    0.462    0.220
  475.250  133.048    5.882    0.473    0.225
  475.500  131.240    5.882    0.472    0.233
  475.750  130.639    5.882    0.447    0.238
  476.000  129.435    5.882    0.440    0.228
  476.250  127.625    5.882    0.424    0.233
  476.500  119.174    5.882    0.413    0.239
  476.750  122.800    5.882    0.413    0.246
  477.000  126.428    5.882    0.414    0.253
  477.250  125.224    6.092    0.415    0.251
  477.500  124.622    5.882    0.418    0.225
  477.750  124.021    5.672    0.423    0.231
  478.000  121.610    5.252    0.430    0.246
  478.250  117.989    5.252    0.435    0.248
  478.500  113.764    5.252    0.430    0.251
  478.750  110.144    5.462    0.399    0.261
  479.000  113.167    6.092    0.387    0.253
  479.250  116.190    6.303    0.378    0.247
  479.500  118.609    6.513    0.387    0.244
  479.750  119.821    6.513    0.408    0.241
  480.000  120.429    6.092    0.408    0.243
  480.250  121.035    5.882    0.413    0.248
  480.500  121.642    5.882    0.425    0.242
  480.750  123.458    5.672    0.438    0.241
  481.000  125.273    5.252    0.444    0.243
  481.250  124.673    5.042    0.434    0.240
  481.500  125.281    4.832    0.413    0.247
  481.750  125.886    4.622    0.408    0.252
  482.000  128.307    4.622    0.413    0.263
  482.250  129.516    4.622    0.440    0.274
  482.500  131.332    5.042    0.444    0.267
  482.750  133.147    5.252    0.455    0.253
  483.000  133.754    5.252    0.478    0.250
  483.250  131.341    5.252    0.488    0.245
  483.500  127.117    4.832    0.497    0.237
  483.750  123.498    4.622    0.449    0.210
  484.000  119.877    4.412    0.429    0.201
  484.250  117.465    4.412    0.420    0.186
  484.500  116.864    5.042    0.407    0.168
  484.750  116.867    5.252    0.405    0.214
  485.000  118.682    5.672    0.414    0.267
  485.250  121.101    5.882    0.423    0.273
  485.500  123.520    5.882    0.435    0.281
  485.750  125.939    5.462    0.464    0.277
  486.000  129.566    5.042    0.512    0.261
  486.250  132.588    4.412    0.528    0.247
  486.500  133.801    3.571    0.545    0.261
  486.750  133.201    3.361    0.602    0.268
  487.000  133.204    2.731    0.611    0.282
  487.250  133.207    2.521    0.540    0.283
  487.500  133.814    2.311    0.508    0.260
  487.750  135.025    2.311    0.503    0.263
  488.000  136.237    2.311    0.559    0.273
  488.250  136.240    2.311    0.595    0.273
  488.500  135.035    2.311    0.589    0.268
  488.750  135.039    2.311    0.589    0.262
  489.000  133.230    2.311    0.594    0.260
  489.250  128.402    2.521    0.591    0.255
  489.500  125.989    2.941    0.566    0.248
  489.750  125.388    3.361    0.531    0.234
  490.000  125.995    3.782    0.501    0.221
  490.250  130.226    4.202    0.469    0.204
  490.500  136.268    4.622    0.424    0.187
  490.750  139.291    4.832    0.393    0.147
  491.000  139.899    5.042    0.437    0.209
  491.250  138.694    5.042    0.453    0.229
  491.500  137.490    5.042    0.443    0.213
  491.750  137.494    5.042    0.445    0.195
  492.000  136.893    5.042    0.444    0.214
  492.250  139.311    5.042    0.422    0.219
  492.500  139.314    5.042    0.419    0.218
  492.750  134.487    5.042    0.420    0.224
  493.000  132.678    4.832    0.424    0.225
  493.250  133.285    4.832    0.442    0.225
  493.500  130.875    4.832    0.454    0.227
  493.750  130.274    4.832    0.434    0.230
  494.000  129.673    5.042    0.425    0.229
  494.250  129.071    5.252    0.412    0.229
  494.500  129.680    5.672    0.393    0.210
  494.750  129.682    5.882    0.390    0.220
  495.000  129.686    6.303    0.390    0.221
  495.250  130.294    6.303    0.391    0.218
  495.500  130.899    6.303    0.391    0.205
  495.750  132.715    6.303    0.391    0.200
  496.000  133.926    6.092    0.392    0.209
  496.250  134.534    6.092    0.395    0.218
  496.500  134.536    5.882    0.398    0.218
  496.750  134.541    5.672    0.403    0.215
  497.000  134.543    5.672    0.412    0.213
  497.250  133.942    5.672    0.423    0.211
  497.500  133.945    5.882    0.426    0.211
  497.750  132.741    6.092    0.424    0.215
  498.000  130.329    6.303    0.418    0.225
  498.250  128.520    6.723    0.413    0.237
  498.500  127.920    6.933    0.411    0.246
  498.750  126.111    7.563    0.411    0.242
  499.000  122.490    8.403    0.407    0.231
  499.250  115.246    9.034    0.312    0.215
  499.500  108.606    9.454    0.251    0.204
  499.750  100.154    9.454    0.215    0.188
  500.000   89.891    9.244    0.192    0.200
  500.250  103.180    8.824    0.230    0.229
