~VERSION INFORMATION
 VERS.                 2.0:   CWLS LOG ASCII STANDARD -VERSION 2.0
 WRAP.                  NO:   ONE LINE PER DEPTH STEP
~WELL INFORMATION BLOCK
#MNEM.UNIT           DATA                    DESCRIPTION OF MNEMONIC
#---------    -------------------            -------------------------------
# Generated from Intellog Unique Number	CN_94_101/WELL/1073
WELL.         11-14-096-14W4                 : Well_name    - WELL
LOC .         AA/11-14-096-14W4/0            : Location     - LOCATION
UWI .         AA/11-14-096-14W400            : Uwi          - UNIQUE WELL ID
ENTR.         JOETTE                         : Entered      - ENTERED BY
SRVC.         SCHLUMBERGER                   : Scn          - SERVICE COMPANY
DATE.         05/03/92                       : Date         - LOG DATE
STRT.M        60.5                           : top_depth    - START DEPTH
STOP.M        295                            : bot_depth    - STOP DEPTH
STEP.M        0.25                           : increment    - STEP LENGTH
 NULL. -999.2500:NULL Value
~CURVE INFORMATION BLOCK
#MNEM UNIT       ERCB CURVE CODE    CURVE DESCRIPTION
#-----------   ------------------   ----------------------------------
DEPT.M        00 001 00 00         : DEPTH        - DEPTH
ILD .OHMM     00 120 00 00         : RESD         - DEEP RESISTIVITY (DIL)
DPHI.V/V      00 890 00 00         : PHID         - DENSITY POROSITY (SANDSTONE)
NPHI.V/V      00 330 00 00         : PHIN         - NEUTRON POROSITY (SANDSTONE)
GR  .API      00 310 00 00         : GR           - GAMMA RAY
CALI.MM       00 280 01 00         : CAL          - CALIPER
~PARAMETER INFORMATION
#MNEM.UNIT           DATA             DESCRIPTION OF MNEMONIC
#---------         -----------     ------------------------------
GL  .M        530.78               : gl           - GROUND LEVEL ELEVATION
EREF.M        533.78               : kb           - ELEVATION OF DEPTH REFERENCE
DATM.M        533.78               : datum        - DATUM ELEVATION
TDD .M        296                  : tdd          - TOTAL DEPTH DRILLER
RUN .         ONE                  : Run          - RUN NUMBER
ENG .         BILL                 : Engineer     - RECORDING ENGINEER
WIT .         JIM                  : Witness      - WITNESSED BY
MUD .         GEL                  : Mud_type     - MUD TYPE
MATR.         SANDSTONE            : Logunit      - NEUTRON MATRIX
TMAX.C        25                   : BHT          - MAXIMUM RECORDED TEMPERATURE
BHTD.M        296                  : BHTDEP       - MAXIMUM RECORDED TEMPERATURE
RMT .C        10                   : MDTP         - TEMPERATURE OF MUD
MUDD.KG/M     1115                 : MWT          - MUD DENSITY
NEUT.         1                    : NEUTRON      - NEUTRON TYPE
RESI.         0                    : RESIST       - RESISTIVITY TYPE
RM  .OHMM     0.62                 : RM           - RESISTIVITY OF MUD
RMC .OHMM     0.62                 : RMC          - RESISTIVITY OF MUD CAKE
RMF .OHMM     0.62                 : RMF          - RESISTIVITY OF MUD FILTRATE
SUFT.C        4                    : SUFT         - SURFACE TEMPERATURE
~A  DEPTH     RESD     PHID     PHIN       GR      CAL
# ...
   97.000   19.855    0.336    0.433   59.900  169.177
   97.250   20.625    0.345    0.439   58.154  169.248
   97.500   21.022    0.358    0.442   56.979  169.277
   97.750   21.425    0.368    0.445   55.234  169.334
   98.000   22.256    0.364    0.447   54.664  169.420
   98.250   22.268    0.356    0.441   54.102  169.463
   98.500   22.279    0.361    0.409   53.549  169.506
   98.750   22.714    0.365    0.416   52.970  169.593
   99.000   22.730    0.359    0.421   53.004  169.636
   99.250   22.749    0.356    0.418   53.047  169.707
   99.500   22.756    0.376    0.416   52.494  169.750
   99.750   22.776    0.375    0.419   52.511  169.793
  100.000   22.795    0.362    0.425   52.554  169.879
  100.250   22.802    0.349    0.426   53.773  170.916
  100.500   22.818    0.344    0.420   55.595  170.945
  100.750   22.414    0.344    0.427   57.418  171.016
  101.000   21.617    0.343    0.426   55.077  171.074
  101.250   21.235    0.339    0.428   53.919  171.146
  101.500   21.249    0.364    0.443   58.118  171.174
  101.750   21.267    0.367    0.447   58.757  171.232
  102.000   21.274    0.367    0.435   55.214  171.289
  102.250   21.686    0.354    0.436   52.864  170.353
  102.500   22.524    0.337    0.442   52.294  170.410
  102.750   22.956    0.335    0.446   51.145  170.468
  103.000   23.846    0.331    0.446   51.758  170.525
  103.250   24.305    0.343    0.441   53.581  170.597
  103.500   24.313    0.355    0.430   54.816  170.654
  103.750   24.329    0.343    0.423   54.842  171.705
  104.000   24.349    0.323    0.428   54.877  172.770
  104.250   24.362    0.259    0.429   53.727  173.807
  104.500   24.378    0.212    0.389   52.561  174.858
  104.750   25.793    0.185    0.356   49.614  173.922
  105.000   27.289    0.310    0.328   47.264  172.957
  105.250   28.328    0.346    0.411   49.087  172.035
  105.500   29.972    0.365    0.433   52.111  171.113
  105.750   29.987    0.344    0.443   53.329  171.142
  106.000   27.363    0.310    0.437   51.575  171.228
  106.250   25.893    0.236    0.402   49.233  172.250
  106.500   23.619    0.237    0.380   46.883  172.308
  106.750   21.544    0.318    0.349   48.110  172.365
  107.000   19.298    0.354    0.396   51.134  170.449
  107.250   18.602    0.341    0.427   52.343  170.492
  107.500   18.276    0.337    0.423   54.762  169.571
  107.750   20.063    0.343    0.433   58.374  169.614
  108.000   22.024    0.339    0.435   60.793  169.700
  108.250   24.174    0.342    0.434   59.635  169.743
  108.500   25.572    0.349    0.441   57.276  169.800
  108.750   26.067    0.354    0.447   56.127  169.858
  109.000   25.615    0.356    0.439   56.757  169.901
  109.250   24.696    0.370    0.431   57.379  169.987
  109.500   23.814    0.361    0.432   57.414  170.030
  109.750   23.389    0.361    0.437   55.660  170.073
  110.000   22.553    0.357    0.437   52.722  170.116
  110.250   21.752    0.346    0.436   51.564  170.187
  110.500   21.367    0.352    0.432   51.002  170.230
  110.750   21.381    0.358    0.428   50.441  170.302
  111.000   21.392    0.355    0.422   50.466  170.345
  111.250   21.810    0.354    0.435   50.501  170.431
  111.500   22.648    0.361    0.434   51.140  171.468
  111.750   23.515    0.365    0.427   49.982  171.511
  112.000   23.531    0.371    0.428   47.623  171.597
  112.250   23.118    0.360    0.422   47.062  171.640
  112.500   21.486    0.348    0.417   47.692  171.683
  112.750   21.099    0.336    0.429   50.716  171.755
  113.000   21.116    0.324    0.440   51.925  171.798
  113.250   21.131    0.327    0.447   54.941  171.884
  113.500   21.939    0.336    0.447   57.965  171.927
  113.750   22.782    0.333    0.441   58.595  171.970
  114.000   23.658    0.345    0.454   57.437  171.970
  114.250   24.120    0.344    0.445   54.482  171.106
  114.500   24.136    0.341    0.434   53.921  173.136
  114.750   23.713    0.323    0.424   55.752  173.179
  115.000   23.721    0.295    0.432   56.383  173.236
  115.250   23.733    0.299    0.447   54.620  173.294
  115.500   23.314    0.313    0.448   54.663  173.351
  115.750   22.913    0.335    0.447   57.074  172.443
  116.000   22.920    0.342    0.447   58.897  172.472
  116.250   22.936    0.349    0.447   58.335  172.558
  116.500   22.530    0.348    0.447   58.378  172.587
  116.750   22.541    0.343    0.446   59.008  172.644
  117.000   20.950    0.353    0.442   59.639  172.730
  117.250   18.412    0.360    0.435   62.646  172.773
  117.500   15.028    0.360    0.425   66.257  172.831
  117.750   13.457    0.352    0.422   66.300  172.888
  118.000   12.275    0.352    0.430   65.730  172.960
  118.250   13.230    0.344    0.445   64.581  172.989
  118.500   14.792    0.350    0.457   64.598  173.060
  118.750   17.169    0.351    0.448   62.844  173.118
  119.000   19.559    0.358    0.438   61.090  173.161
  119.250   21.467    0.360    0.440   60.528  173.218
  119.500    9.687    0.347    0.418   61.167  173.275
  119.750    6.449    0.334    0.450   62.394  174.341
  120.000    4.979    0.311    0.477   65.400  175.363
  120.250    4.297    0.304    0.513   69.617  180.403
  120.500    4.299    0.260    0.489   67.258  185.414
  120.750    6.836    0.250    0.475   64.311  182.491
  121.000    7.787    0.280    0.464   61.374  177.594
  121.250    8.872    0.300    0.483   61.417  176.644
  121.500    9.563    0.316    0.496   62.039  175.736
  121.750   10.114    0.323    0.483   62.669  175.779
  122.000   10.313    0.313    0.467   64.492  175.851
  122.250   10.129    0.323    0.456   67.507  175.880
  122.500    9.949    0.336    0.461   68.743  174.943
  122.750    9.416    0.330    0.472   69.356  175.001
  123.000    8.431    0.337    0.457   69.391  175.058
  123.250    5.826    0.349    0.444   74.203  175.130
  123.500    5.217    0.332    0.482   77.806  175.187
  123.750    4.759    0.321    0.513   83.802  176.238
  124.000    4.505    0.296    0.530   88.606  178.268
  124.250    4.424    0.286    0.544   92.813  180.299
  124.500    4.428    0.303    0.558   98.809  186.332
  124.750    4.431    0.308    0.564   97.652  190.378
  125.000    4.601    0.303    0.571   92.917  190.407
  125.250    4.867    0.306    0.529   88.182  191.458
  125.500    5.054    0.303    0.500   85.227  191.544
  125.750    5.151    0.284    0.477   84.069  191.587
  126.000    4.788    0.268    0.510   85.900  191.630
  126.250    4.531    0.281    0.541   87.127  189.729
  126.500    3.983    0.308    0.561   87.758  188.764
  126.750    3.567    0.324    0.561   87.784  184.861
  127.000    3.569    0.316    0.567   77.087  181.938
  127.250    5.469    0.324    0.561   66.390  178.021
  127.500    8.856    0.312    0.520   59.858  176.077
  127.750   14.080    0.340    0.467   52.739  175.140
  128.000   15.745    0.362    0.442   45.023  174.218
  128.250   16.353    0.366    0.442   48.047  174.262
  128.500   16.364    0.364    0.440   51.062  174.319
  128.750   16.375    0.346    0.445   51.701  174.362
  129.000   16.083    0.339    0.454   51.122  174.434
  129.250   15.798    0.348    0.463   51.165  174.505
  129.500   14.682    0.353    0.466   52.383  175.542
  129.750   13.896    0.341    0.455   54.224  175.599
  130.000   12.912    0.341    0.447   54.846  175.671
  130.250   11.780    0.336    0.451   55.468  175.714
  130.500   11.151    0.328    0.455   55.502  175.786
  130.750   10.362    0.326    0.470   56.150  176.808
  131.000    9.453    0.334    0.474   56.176  176.880
  131.250    8.781    0.339    0.463   58.007  177.945
  131.500    7.577    0.344    0.481   59.830  177.974
  131.750    6.538    0.329    0.476   63.433  180.033
  132.000    5.537    0.296    0.492   65.256  180.105
  132.250    5.644    0.317    0.511   58.715  180.133
  132.500   12.297    0.333    0.537   43.249  177.210
  132.750   20.289    0.352    0.501   39.111  174.286
  133.000   23.113    0.368    0.465   37.970  174.329
  133.250   27.328    0.364    0.444   37.987  173.422
