~Version : LASO    vs 4.00
VERS.                2.00:   CWLS Log ASCII Standard -VERSION 2.0
WRAP.                  NO:
~Well Information Block
#MNEM.UNIT       Data                        Description of Mnemonic
#----.----      -------------------------- : -----------------------------
STRT.M            15.0000:
STOP.M           203.4000:
STEP.M             0.1000:
NULL.           -999.2500:
COMP.  MOBIL OIL CANADA LTD.     :COMPANY
WELL.  MOBIL CLARKE OV 12-34     :WELL
FLD.   CLARKE                    :FIELD
LOC.   12-34-089-08W4            :LOCATION
CTRY.  CANADA                    :COUNTRY
PROV.  ALBERTA                   :PROVINCE
SRVC.  SCHLUMBERGER              :SERVICE COMPANY
DATE.  20-FEB-81                 :LOG DATE
UWI.   AA/12-34-089-08W400       :UNIQUE WELL ID
~Parameter Information Block
#MNEM.UNIT       Data                        Description of Mnemonic
#----.----      -------------------------- : -----------------------------
RUN .                   1                 : Run Number
GL  .M           415.1000                 : Ground Level Elevation
DREF.                  KB                 : Depth Reference
EREF.M           418.1000                 : Elevation of Depth Reference
TDL .M           203.0000                 : Total Depth Logger
TDD .M           200.0000                 : Total Depth Driller
CSGL.M            18.0000                 : Casing Bottom Logger
CSGD.M            15.0000                 : Casing Bottom Driller
CSGS.MM          219.0000                 : Casing Size
CSGW.KG/M          0.0000                 : Casing Weight
BHT .DEGC         12.0000                 : Bottom Hole Temperature
BS  .MM          159.0000                 : Bit Size
DFD .           1110.0000                 : Mud Weight (Density)
DFV .             90.0000                 : Mud Viscosity
DFPH.             10.0000                 : Mud pH
RM  .OHMM          1.9600                 : Mud Resistivity
RMT .DEGC         20.0000                 : Mud Resistivity Temperature
~Curve Information Block
#MNEM.UNIT        API CODE    Curve Description
#---------    ------------    -------------------------------------------
DEPT.M                    :   DEPTH
CALI.MM       42 280  1  1:   3 DENSITY CALIPER
DPHI.V/V                  :   DPHI
DT  .US/M     60 520  0  1:   2 SONIC INTERVAL TRANSIT TIME (COMPENSATED)
GR  .GAPI     42 310  1  1:   4 GAMMA RAY
ILD .OHMM      7 120 46  1:   7 DEEP INDUCTION
ILM .OHMM      7 120 44  1:   8 MEDIUM INDUCTION
NPHI.V/V      42 890  3  1:   5 NEUTRON POROSITY (SANDSTONE)
RHOB.K/M3     42 350  1  1:   6 BULK DENSITY
SFLU.OHMM      7 220  1  1:   9 FOCUSSED RESISTIVITY
SP  .MV        7  10  1  1:   10 SPONTANEOUS POTENTIAL
~A  Depth           CALI        DPHI          DT          GR         ILD         ILM        NPHI        RHOB        SFLU          SP
# ...
27.2000         308.5250      0.3510    609.0400     53.2950     65.7400     45.1471      0.4136   2052.5000     43.5141    -63.2200
27.3000         308.5250      0.3513    606.8800     52.9350     65.7400     45.1471      0.4136   2052.5000     43.5141    -63.2200
27.4000         305.6500      0.3521    605.4800     50.9100     70.3769     54.6298      0.4060   2041.0000     38.8893    -64.9500
27.5000         305.6500      0.3525    606.0400     49.7700     70.3769     54.6298      0.4060   2041.0000     38.8893    -64.9500
27.6000         294.2750      0.3597    606.4400     48.9600     74.5126     61.6922      0.4037   2044.7000     40.6097    -63.1300
27.7000         294.2750      0.3630    606.9200     48.4950     74.5126     61.6922      0.4037   2044.7000     40.6097    -63.1300
27.8000         273.0500      0.3615    607.4000     48.0750     77.4515     67.7064      0.4051   2052.3999     46.2413    -63.0700
27.9000         273.0500      0.3588    607.8800     47.6850     77.4515     67.7064      0.4051   2052.3999     46.2413    -63.0700
28.0000         263.8000      0.3575    608.6400     47.4300     86.1053     70.3769      0.4328   2057.3000     54.0792    -63.3800
28.1000         263.8000      0.3564    609.5200     47.1300     86.1053     70.3769      0.4328   2057.3000     54.0792    -63.3800
28.2000         261.8750      0.3559    610.4000     47.2950     97.2366     70.8973      0.4465   2059.2000     51.6928    -63.2500
28.3000         261.8750      0.3577    611.1200     48.6300     97.2366     70.8973      0.4465   2059.2000     51.6928    -63.2500
28.4000         256.1500      0.3633    611.6800     49.6050     96.9683     73.2200      0.4542   2056.0000     51.4079    -62.9200
28.5000         256.1500      0.3677    612.2400     50.4900     96.9683     73.2200      0.4542   2056.0000     51.4079    -62.9200
28.6000         254.1250      0.3718    612.6400     51.4650     87.1425     73.2200      0.4536   2046.7000     56.7322    -62.2600
28.7000         254.1250      0.3758    610.8000     52.6050     87.1425     73.2200      0.4536   2046.7000     56.7322    -62.2600
28.8000         255.3500      0.3754    609.2800     54.0900     82.9908     71.1590      0.4457   2051.1001     56.8368    -61.8900
28.9000         255.3500      0.3728    607.5600     55.3200     82.9908     71.1590      0.4457   2051.1001     56.8368    -61.8900
29.0000         253.5250      0.3698    608.2800     54.4050     80.3582     69.0287      0.4435   2057.8999     55.9023    -61.5400
29.1000         253.5250      0.3675    609.1600     53.4900     80.3582     69.0287      0.4435   2057.8999     55.9023    -61.5400
29.2000         251.7000      0.3666    609.8800     53.1300     78.8914     68.5220      0.4466   2062.3000     55.0846    -61.1800
29.3000         251.7000      0.3655    609.1600     52.6950     78.8914     68.5220      0.4466   2062.3000     55.0846    -61.1800
29.4000         250.6000      0.3645    608.5600     52.9800     76.2483     68.5851      0.4484   2046.9000     57.4685    -60.1700
29.5000         250.6000      0.3635    607.9600     53.4150     76.2483     68.5851      0.4484   2046.9000     57.4685    -60.1700
29.6000         250.7750      0.3629    606.8000     52.9350     75.2714     66.5932      0.4261   2046.7000     59.3513    -59.4900
29.7000         250.7750      0.3614    605.4000     52.0350     75.2714     66.5932      0.4261   2046.7000     59.3513    -59.4900
29.8000         251.8750      0.3583    604.1600     49.9500     74.7877     64.6591      0.4150   2054.2000     60.1769    -58.6700
29.9000         251.8750      0.3553    603.2400     47.8650     74.7877     64.6591      0.4150   2054.2000     60.1769    -58.6700
30.0000         253.0750      0.3539    602.9600     45.9150     75.0637     61.2393      0.4147   2034.8000     57.5215    -57.6200
30.1000         253.0750      0.3584    602.9200     45.0900     75.0637     61.2393      0.4147   2034.8000     57.5215    -57.6200
30.2000         253.0750      0.3636    604.7600     44.9850     76.2483     60.5661      0.4120   2022.3000     58.1607    -58.0300
30.3000         253.0750      0.3625    607.8400     44.9100     76.2483     60.5661      0.4120   2022.3000     58.1607    -58.0300
30.4000         253.6500      0.3615    610.9200     45.9000     77.6658     61.6922      0.4059   2017.7000     59.1330    -58.1000
30.5000         253.6500      0.3599    614.0400     46.7250     77.6658     61.6922      0.4059   2017.7000     59.1330    -58.1000
30.6000         257.7250      0.3579    617.1600     47.5050     83.6816     64.7784      0.4259   2042.7000     56.9941    -58.5400
30.7000         257.7250      0.3574    619.2000     48.2700     83.6816     64.7784      0.4259   2042.7000     56.9941    -58.5400
30.8000         263.4000      0.3593    620.4000     49.0200     85.0022     65.4983      0.4492   2032.8000     55.8509    -58.5500
30.9000         263.4000      0.3577    619.4400     49.7100     85.0022     65.4983      0.4492   2032.8000     55.8509    -58.5500
31.0000         266.3250      0.3559    615.7600     50.4000     83.8359     65.6795      0.4667   2022.4000     55.6968    -58.5500
31.1000         266.3250      0.3558    611.8000     51.7500     83.8359     65.6795      0.4667   2022.4000     55.6968    -58.5500
31.2000         272.9750      0.3574    608.9600     53.1750     80.8035     64.8381      0.4879   2003.9000     60.4547    -58.4000
31.3000         272.9750      0.3602    607.5600     55.6350     80.8035     64.8381      0.4879   2003.9000     60.4547    -58.4000
31.4000         272.1250      0.3596    610.0000     57.9600     79.3286     62.7234      0.4922   2020.9000     60.1769    -58.2200
31.5000         272.1250      0.3581    611.6400     59.1900     79.3286     62.7234      0.4922   2020.9000     60.1769    -58.2200
31.6000         263.9750      0.3574    611.5200     59.7000     78.8914     63.5375      0.4843   2015.5000     58.6989    -58.0000
31.7000         263.9750      0.3570    611.4800     60.2850     78.8914     63.5375      0.4843   2015.5000     58.6989    -58.0000
31.8000         257.1500      0.3567    613.8800     60.2700     78.8188     68.0190      0.4606   2050.2000     52.9456    -57.4900
31.9000         257.1500      0.3558    617.8800     60.2400     78.8188     68.0190      0.4606   2050.2000     52.9456    -57.4900
32.0000         258.0250      0.3532    620.0400     60.2250     76.1079     69.4113      0.4616   2033.0000     51.7404    -57.2200
32.1000         258.0250      0.3540    610.8400     60.5100     76.1079     69.4113      0.4616   2033.0000     51.7404    -57.2200
32.2000         263.0000      0.3565    614.0800     60.7950     73.3550     68.3329      0.4632   2015.3000     53.5834    -56.9000
32.3000         263.0000      0.3576    617.2000     61.0800     73.3550     68.3329      0.4632   2015.3000     53.5834    -56.9000
32.4000         258.6750      0.3595    612.4000     62.2200     72.0825     65.8006      0.4649   2006.1000     53.1410    -56.4400
32.5000         258.6750      0.3650    609.2400     63.4350     72.0825     65.8006      0.4649   2006.1000     53.1410    -56.4400
32.6000         264.0500      0.3619    609.4000     63.8100     72.3486     61.1829      0.4642   2056.2000     49.8230    -55.5500
32.7000         264.0500      0.3606    609.6400     61.9050     72.3486     61.1829      0.4642   2056.2000     49.8230    -55.5500
32.8000         264.7250      0.3609    606.2400     63.5700     72.7495     60.3990      0.4615   2067.7000     50.3767    -55.9100
32.9000         264.7250      0.3638    601.9600     63.2100     72.7495     60.3990      0.4615   2067.7000     50.3767    -55.9100
33.0000         269.3750      0.3666    603.4000     62.4750     72.6825     59.8453      0.4579   2065.3000     53.5834    -56.0600
33.1000         269.3750      0.3700    605.8000     61.5900     72.6825     59.8453      0.4579   2065.3000     53.5834    -56.0600
33.2000         275.3750      0.3715    609.6400     60.3600     71.0935     56.9416      0.4523   2053.3000     54.0294    -53.8000
