~VERSION INFORMATION
 VERS.                 2.0:   CWLS LOG ASCII STANDARD -VERSION 2.0
 WRAP.                  NO:   ONE LINE PER DEPTH STEP
~WELL INFORMATION BLOCK
#MNEM.UNIT           DATA                    DESCRIPTION OF MNEMONIC
#---------    -------------------            -------------------------------
# Generated from Intellog Unique Number	CC_80_83/WELL/2370
COMP.         PETRO CANADA                   : COMPANY
WELL.         PEX PCEJ CHARD OV              : Well_name    - WELL
LOC .         10-26-080-07W4                 : Location     - LOCATION
UWI .         AA/10-26-080-07W400            : Uwi          - UNIQUE WELL ID
ENTR.         DW                             : Entered      - ENTERED BY
SRVC.         SCHLUMBERGER                   : Scn          - SERVICE COMPANY
STRT.M        145                            : top_depth    - START DEPTH
STOP.M        394.895                        : bot_depth    - STOP DEPTH
STEP.M        0.3                            : increment    - STEP LENGTH
 NULL. -999.2500:NULL Value
~CURVE INFORMATION BLOCK
#MNEM UNIT       ERCB CURVE CODE    CURVE DESCRIPTION
#-----------   ------------------   ----------------------------------
DEPT.M        00 001 00 00         : DEPTH        - DEPTH
DPHI.V/V      00 890 00 00         : PHID         - DENSITY POROSITY (LIMESTONE)
NPHI.V/V      00 330 00 00         : PHIN         - NEUTRON POROSITY (LIMESTONE)
GR  .API      00 310 00 00         : GR           - GAMMA RAY
ILD .OHMM     00 120 00 00         : RESD         - DEEP RESISTIVITY (DIL)
~PARAMETER INFORMATION
#MNEM.UNIT           DATA             DESCRIPTION OF MNEMONIC
#---------         -----------     ------------------------------
GL  .M        581.1                : gl           - GROUND LEVEL ELEVATION
EREF.M        584.75               : kb           - ELEVATION OF DEPTH REFERENCE
DATM.M        584.75               : datum        - DATUM ELEVATION
TDD .M        400                  : tdd          - TOTAL DEPTH DRILLER
RUN .         ONE                  : Run          - RUN NUMBER
ENG .         BILL                 : Engineer     - RECORDING ENGINEER
WIT .         JIM                  : Witness      - WITNESSED BY
MUD .         GEL                  : Mud_type     - MUD TYPE
MATR.         LIMESTONE            : Logunit      - NEUTRON MATRIX
TMAX.C        16                   : BHT          - MAXIMUM RECORDED TEMPERATURE
BHTD.M        400                  : BHTDEP       - MAXIMUM RECORDED TEMPERATURE
MATR.         1                    : LOGUNIT      - NEUTRON MATRIX
RMT .C        25                   : MDTP         - TEMPERATURE OF MUD
NEUT.         1                    : NEUTRON      - NEUTRON TYPE
RESI.         0                    : RESIST       - RESISTIVITY TYPE
RMC .OHMM     0.25                 : RMC          - RESISTIVITY OF MUD CAKE
RMF .OHMM     0.25                 : RMF          - RESISTIVITY OF MUD FILTRATE
SUFT.C        4                    : SUFT         - SURFACE TEMPERATURE
~A  DEPTH     PHID     PHIN       GR     RESD
# ...
  353.797    0.175    0.415  115.326    9.117
  354.097    0.179    0.443  119.034    9.276
  354.397    0.183    0.435  119.634    9.433
  354.697    0.188    0.418  110.896    9.604
  354.997    0.183    0.408  116.475    9.582
  355.297    0.177    0.428  121.429    9.572
  355.597    0.174    0.445  120.785    9.379
  355.897    0.177    0.417  112.047    9.540
  356.197    0.198    0.415  121.981    9.889
  356.497    0.206    0.406  108.889   10.069
  356.797    0.162    0.400   98.287    9.862
  357.097    0.164    0.389  111.952    9.658
  357.397    0.166    0.406  125.616    9.650
  357.697    0.167    0.400  121.239    9.819
  357.997    0.172    0.388  116.238   10.373
  358.297    0.219    0.391  104.389   11.599
  358.597    0.246    0.388  100.629   12.973
  358.897    0.248    0.390   90.652   13.976
  359.197    0.229    0.361   77.561   14.217
  359.497    0.202    0.341   87.492   13.154
  359.797    0.212    0.364   95.558   12.413
  360.097    0.218    0.381   99.891   11.711
  360.397    0.220    0.386  101.111   11.256
  360.697    0.220    0.381  104.198   11.455
  360.997    0.220    0.362   91.730   11.876
  361.297    0.220    0.356  101.039   12.542
  361.597    0.217    0.370   96.039   12.529
  361.897    0.211    0.377  100.992   12.750
  362.197    0.209    0.370  107.814   12.724
  362.497    0.210    0.351  107.166   12.464
  362.797    0.205    0.347  102.166   12.214
  363.097    0.200    0.354  100.896   11.966
  363.397    0.197    0.353   94.027   11.724
  363.697    0.196    0.358   94.000   12.155
  363.997    0.198    0.360  100.204   11.687
  364.297    0.210    0.370  100.798   10.816
  364.597    0.208    0.375   89.577   10.599
  364.897    0.204    0.378   82.085   10.785
  365.197    0.207    0.386   86.417   11.609
  365.497    0.245    0.399   91.373   12.744
  365.797    0.266    0.411   72.679   14.250
  366.097    0.276    0.415   70.167   15.643
  366.397    0.283    0.415   77.610   18.171
  366.697    0.302    0.414   70.117   21.921
  366.997    0.306    0.422   54.535   29.064
  367.297    0.317    0.432   53.892   40.787
  367.597    0.332    0.440   45.155   53.074
  367.897    0.335    0.445   44.510   50.061
  368.197    0.324    0.381   44.483   41.370
  368.497    0.311    0.394   46.949   34.829
  368.797    0.315    0.418   59.993   32.248
  369.097    0.310    0.442   62.458   30.415
  369.397    0.300    0.452   81.729   29.235
  369.697    0.298    0.454   72.992   27.572
  369.996    0.304    0.461   58.655   25.056
  370.296    0.298    0.456   62.365   22.331
  370.596    0.289    0.462   61.719   22.713
  370.896    0.288    0.469   67.297   24.464
  371.196    0.322    0.477   56.069   28.412
  371.496    0.314    0.458   51.689   36.283
  371.796    0.304    0.459   42.954   47.207
  372.096    0.305    0.457   54.132   44.525
  372.396    0.313    0.452   52.861   41.217
  372.696    0.326    0.446   54.084   36.726
  372.996    0.331    0.431   43.482   34.009
  373.296    0.328    0.431   49.058   30.886
  373.596    0.315    0.452   58.369   28.590
  373.896    0.311    0.453   53.990   25.006
  374.196    0.314    0.445   49.609   16.781
  374.496    0.257    0.413   56.431   13.100
  374.796    0.227    0.409   91.875   11.895
  375.096    0.286    0.422   88.121   13.056
  375.396    0.320    0.412   68.805   15.457
  375.696    0.336    0.415   58.203   24.302
  375.996    0.323    0.411   47.598   29.870
  376.296    0.312    0.401   59.400   32.173
  376.596    0.326    0.407   61.243   29.203
  376.896    0.332    0.408   47.528   26.538
  377.196    0.324    0.395   60.574   24.101
  377.496    0.311    0.386   56.194   21.082
  377.796    0.292    0.378   66.749   17.091
  378.096    0.279    0.364   84.772   14.666
  378.396    0.286    0.363   79.766   13.835
  378.696    0.289    0.364   79.123   13.303
  378.996    0.281    0.371   80.965   12.545
  379.296    0.250    0.360   84.049   11.836
  379.596    0.228    0.345   86.519   10.546
  379.896    0.227    0.339  110.764    9.950
  380.196    0.232    0.341  102.650    8.868
  380.496    0.248    0.351   90.802    7.902
  380.796    0.254    0.355   78.334    7.454
  381.096    0.221    0.349   72.085    7.445
  381.396    0.205    0.370   86.377    7.719
  381.696    0.214    0.386  111.245    8.157
  381.996    0.213    0.361  101.886    8.946
  382.296    0.214    0.354  101.862    9.282
  382.596    0.225    0.373  103.706    9.441
  382.896    0.214    0.371   94.970    9.428
  383.196    0.207    0.359   99.919    9.410
  383.496    0.207    0.342  103.632    9.397
  383.796    0.212    0.330  104.854    9.559
  384.096    0.220    0.333  108.562    9.366
  384.396    0.229    0.357  111.653    9.178
  384.696    0.254    0.380  115.985    8.496
  384.996    0.267    0.388   94.181    8.010
  385.296    0.256    0.371   86.067    7.849
  385.596    0.223    0.353   78.575    8.296
  385.896    0.199    0.344   77.304    9.453
  386.196    0.194    0.381   77.904   10.181
  386.496    0.200    0.377  105.262   10.965
  386.796    0.233    0.366   92.169   11.157
  387.096    0.266    0.394   79.076   10.725
  387.396    0.171    0.392   67.231   10.116
  387.696    0.208    0.311   52.272    9.727
  387.996    0.248    0.311   37.312    9.001
  388.296    0.278    0.323   42.266    8.821
  388.596    0.231    0.350   49.089    8.970
  388.896    0.203    0.347   59.645    9.302
  389.196    0.010    0.301   71.444   10.020
  389.496    0.005    0.262   81.374   11.419
  389.796    0.006    0.224   85.709   13.016
  390.096    0.006    0.187   80.085   14.286
  390.396    0.004    0.158   83.795   14.537
  390.696    0.005    0.136   90.616   14.784
  390.996    0.009    0.115   83.746   15.332
  391.296    0.016    0.082   58.830   16.202
  391.596    0.018    0.092   35.783   19.546
  391.896    0.015    0.103   24.556   27.958
  392.196    0.011    0.104   14.576   44.799
  392.496    0.006    0.102   14.552   50.081
  392.796    0.003    0.094   18.262   53.948
  393.096    0.001    0.086   21.349   55.941
  393.396    0.000    0.077   20.082   54.803
  393.696    0.000    0.071   21.918   55.761
  393.996    0.000    0.069   23.146   57.805
  394.296    0.005    0.067   24.360   59.937
  394.595    0.009    0.077   24.965   60.980
  394.895    0.009    0.084   26.807   60.897
