~VERSION INFORMATION
 VERS.                 2.0:   CWLS LOG ASCII STANDARD -VERSION 2.0
 WRAP.                  NO:   ONE LINE PER DEPTH STEP
~WELL INFORMATION BLOCK
#MNEM.UNIT           DATA                    DESCRIPTION OF MNEMONIC
#---------    -------------------            -------------------------------
# Generated from Intellog Unique Number	CN_91_93/WELL/2636
WELL.         10-08-091-17W4                 : Well_name    - WELL
LOC .         AA/10-08-091-17W4/0            : Location     - LOCATION
UWI .         AA/10-08-091-17W400            : Uwi          - UNIQUE WELL ID
ENTR.         JOETTE                         : Entered      - ENTERED BY
SRVC.         SCHLUMBERGER                   : Scn          - SERVICE COMPANY
DATE.         02/05/92                       : Date         - LOG DATE
STRT.M        100                            : top_depth    - START DEPTH
STOP.M        240                            : bot_depth    - STOP DEPTH
STEP.M        0.25                           : increment    - STEP LENGTH
 NULL. -999.2500:NULL Value
~CURVE INFORMATION BLOCK
#MNEM UNIT       ERCB CURVE CODE    CURVE DESCRIPTION
#-----------   ------------------   ----------------------------------
DEPT.M        00 001 00 00         : DEPTH        - DEPTH
GR  .API      00 310 00 00         : GR           - GAMMA RAY
CALI.MM       00 280 01 00         : CAL          - CALIPER
NPHI.V/V      00 330 00 00         : PHIN         - NEUTRON POROSITY (SANDSTONE)
DPHI.V/V      00 890 00 00         : PHID         - DENSITY POROSITY (SANDSTONE)
ILD .OHMM     00 120 00 00         : RESD         - DEEP RESISTIVITY (DIL)
~PARAMETER INFORMATION
#MNEM.UNIT           DATA             DESCRIPTION OF MNEMONIC
#---------         -----------     ------------------------------
GL  .M        505.57               : gl           - GROUND LEVEL ELEVATION
EREF.M        509.22               : kb           - ELEVATION OF DEPTH REFERENCE
DATM.M        509.22               : datum        - DATUM ELEVATION
TDD .M        246                  : tdd          - TOTAL DEPTH DRILLER
RUN .         ONE                  : Run          - RUN NUMBER
ENG .         BILL                 : Engineer     - RECORDING ENGINEER
WIT .         JIM                  : Witness      - WITNESSED BY
MUD .         GEL                  : Mud_type     - MUD TYPE
MATR.         SANDSTONE            : Logunit      - NEUTRON MATRIX
TMAX.C        25                   : BHT          - MAXIMUM RECORDED TEMPERATURE
BHTD.M        246                  : BHTDEP       - MAXIMUM RECORDED TEMPERATURE
RMT .C        24                   : MDTP         - TEMPERATURE OF MUD
MUDD.KG/M     1150                 : MWT          - MUD DENSITY
NEUT.         1                    : NEUTRON      - NEUTRON TYPE
RESI.         0                    : RESIST       - RESISTIVITY TYPE
RM  .OHMM     9.7                  : RM           - RESISTIVITY OF MUD
RMC .OHMM     2.6                  : RMC          - RESISTIVITY OF MUD CAKE
RMF .OHMM     13.4                 : RMF          - RESISTIVITY OF MUD FILTRATE
SUFT.C        4                    : SUFT         - SURFACE TEMPERATURE
~A  DEPTH       GR      CAL     PHIN     PHID     RESD
# ...
  173.000  101.310  227.930    0.443    0.181   25.302
  173.250   99.570  226.985    0.451    0.166   24.438
  173.500   99.003  223.592    0.450    0.143   23.612
  173.750   97.259  221.664    0.424    0.103   23.238
  174.000  105.259  220.725    0.406    0.120   23.513
  174.250  109.713  220.278    0.413    0.191   22.732
  174.500  108.855  220.328    0.436    0.215   19.829
  174.750  102.683  220.368    0.451    0.191   17.479
  175.000  102.713  217.461    0.500    0.175   16.882
  175.250  105.098  212.592    0.494    0.154   16.769
  175.500  109.556  211.647    0.460    0.124   16.973
  175.750  111.944  212.687    0.425    0.140   17.645
  176.000  111.381  213.722    0.433    0.169   19.230
  176.250  109.932  214.253    0.432    0.186   20.963
  176.500  108.779  213.806    0.432    0.197   21.593
  176.750  109.986  212.867    0.424    0.179   21.251
  177.000  108.242  211.923    0.413    0.163   20.363
  177.250  109.161  210.005    0.419    0.186   20.591
  177.500  109.775  207.099    0.404    0.203   21.028
  177.750  110.983  203.711    0.405    0.177   21.475
  178.000  108.062  202.269    0.413    0.099   21.736
  178.250  110.155  200.844    0.343    0.060   22.403
  178.500  114.904  200.883    0.362    0.062   24.198
  178.750  118.477  202.404    0.388    0.074   25.625
  179.000  120.862  204.909    0.415    0.157   25.462
  179.250  120.010  206.927    0.435    0.198   22.437
  179.500  119.145  206.972    0.437    0.192   20.503
  179.750  119.473  206.531    0.432    0.179   20.503
  180.000  120.383  205.586    0.422    0.173   19.508
  180.250  120.410  205.145    0.445    0.178   18.657
  180.500  118.967  205.676    0.461    0.187   16.892
  180.750  117.217  205.721    0.488    0.218   12.840
  181.000  113.702  206.263    0.502    0.189   10.894
  181.250  109.895  201.395    0.500    0.162    9.958
  181.500  107.265  194.547    0.470    0.145   10.552
  181.750  109.945  192.138    0.444    0.119   12.043
  182.000  114.994  194.156    0.432    0.176   13.493
  182.250  119.156  196.157    0.442    0.211   13.532
  182.500  116.818  197.689    0.442    0.200   13.074
  182.750  113.008  198.215    0.459    0.160   12.753
  183.000  110.972  197.785    0.473    0.156   12.904
  183.250  105.395  197.819    0.457    0.106   13.415
  183.500  100.987  194.420    0.385    0.083   13.832
  183.750   81.825  177.739    0.378    0.217   12.527
  184.000   53.811  168.431    0.333    0.233   12.793
  184.250   40.847  164.541    0.314    0.243   15.861
  184.500   31.429  163.121    0.279    0.304   75.222
  184.750   24.962  163.121    0.272    0.372  100.416
  185.000   24.399  162.725    0.269    0.378  335.040
  185.250   24.429  163.256    0.217    0.378  750.962
  185.500   24.748  163.787    0.211    0.382  931.370
  185.750   25.070  164.816    0.204    0.378 1014.670
  186.000   25.101  164.878    0.208    0.369 1075.900
  186.250   25.134  163.441    0.208    0.362 1108.580
  186.500   25.154  162.005    0.211    0.359 1121.710
  186.750   25.480  165.013    0.211    0.356 1054.140
  187.000   25.799  167.998    0.214    0.349  903.522
  187.250   26.121  167.562    0.217    0.349  905.526
  187.500   26.742  166.126    0.217    0.353  933.922
  187.750   27.067  165.684    0.221    0.356  927.388
  188.000   26.500  165.232    0.221    0.362  887.495
  188.250   26.232  163.801    0.230    0.362  693.131
  188.500   25.380  163.851    0.233    0.365  493.570
  188.750   25.404  164.880    0.237    0.365  399.986
  189.000   26.025  166.395    0.253    0.369  333.359
  189.250   26.347  167.435    0.256    0.369  246.472
  189.500   26.666  167.435    0.269    0.372  207.191
  189.750   25.512  166.575    0.279    0.372  163.318
  190.000   24.952  165.603    0.282    0.372  119.526
  190.250   24.680  167.123    0.295    0.372   79.050
  190.500   24.711  167.655    0.301    0.369   49.008
  190.750   25.029  166.224    0.308    0.365   34.887
  191.000   25.949  165.296    0.317    0.362   21.843
  191.250   26.861  165.341    0.320    0.362   20.332
  191.500   27.777  165.380    0.333    0.337   18.751
  191.750   28.686  165.425    0.340    0.333   17.460
  192.000   29.300  165.968    0.362    0.330   16.403
  192.250   31.105  166.013    0.372    0.332   15.558
  192.500   32.611  166.052    0.383    0.334   15.181
  192.750   34.110  165.622    0.393    0.336   15.498
  193.000   35.908  165.622    0.396    0.338   15.822
  193.250   37.408  165.701    0.380    0.326   16.465
  193.500   40.098  165.259    0.367    0.306   17.292
  193.750   41.302  165.259    0.366    0.305   17.817
  194.000   40.444  165.355    0.372    0.298   17.817
  194.250   37.522  165.388    0.372    0.289   18.253
  194.500   35.775  165.388    0.364    0.291   18.253
  194.750   34.916  166.004    0.364    0.304   19.213
  195.000   34.916  166.027    0.350    0.309   21.921
  195.250   34.974  166.071    0.347    0.318   25.713
  195.500   35.890  166.111    0.352    0.307   31.307
  195.750   36.802  166.156    0.358    0.304   74.193
  196.000   37.419  166.206    0.364    0.281   99.106
  196.250   36.853  166.749    0.370    0.289  137.279
  196.500   36.289  167.280    0.371    0.298  181.631
  196.750   37.202  168.320    0.370    0.320  203.565
  197.000   38.121  169.338    0.375    0.320  207.821
  197.250   39.325  170.367    0.375    0.321  195.426
  197.500   41.422  172.391    0.374    0.315  159.842
  197.750   44.102  175.382    0.382    0.303  134.410
  198.000   52.102  178.870    0.391    0.298  112.989
  198.250   53.608  182.856    0.420    0.292   90.752
  198.500   53.635  186.339    0.411    0.288   73.545
  198.750   53.658  191.807    0.399    0.296   63.017
  199.000   54.866  197.263    0.392    0.288   57.584
  199.250   52.834  202.228    0.393    0.279   64.538
  199.500   51.683  207.690    0.414    0.288   73.611
  199.750   51.415  212.168    0.417    0.304   84.792
  200.000   54.092  216.148    0.410    0.308   84.252
  200.250   60.911  218.642    0.408    0.295   80.679
  200.500   60.348  221.644    0.409    0.286   77.184
  200.750   61.264  224.646    0.404    0.286   76.011
  201.000   62.468  226.653    0.399    0.281   75.456
  201.250   63.675  229.163    0.408    0.285   70.281
  201.500   64.886  230.679    0.423    0.281   56.413
  201.750   66.097  232.211    0.416    0.276   44.909
  202.000   66.419  233.234    0.411    0.270   37.404
  202.250   65.853  233.771    0.403    0.269   37.154
  202.500   57.618  234.313    0.424    0.300   42.798
  202.750   60.007  234.353    0.439    0.313   59.339
  203.000   62.100  234.403    0.434    0.296   64.052
  203.250   63.599  234.443    0.440    0.284   64.052
  203.500   65.699  233.509    0.443    0.274   66.906
  203.750   68.084  232.084    0.434    0.265   68.197
  204.000   75.785  230.647    0.408    0.242   64.089
  204.250   80.247  228.730    0.307    0.094   24.790
  204.500   87.650  227.791    0.336    0.127   19.367
  204.750   95.941  227.344    0.353    0.206   13.787
  205.000  105.712  227.395    0.372    0.213    9.549
  205.250  106.329  226.948    0.397    0.212    8.332
  205.500  100.456  226.501    0.417    0.210    6.454
  205.750   96.941  225.562    0.425    0.213    6.287
  206.000   93.423  224.137    0.433    0.201    5.967
  206.250   94.932  222.695    0.438    0.210    5.761
  206.500   93.477  220.285    0.467    0.199    5.568
  206.750   88.784  217.373    0.459    0.196    5.687
  207.000   82.905  212.007    0.404    0.193    6.138
  207.250   78.799  203.197    0.389    0.223    8.430
  207.500   68.200  195.370    0.371    0.262   14.050
  207.750   72.064  193.448    0.359    0.287   20.968
  208.000   81.835  193.990    0.375    0.336   24.161
  208.250   84.224  194.527    0.387    0.315   22.071
  208.500   86.612  190.139    0.395    0.254   16.617
  208.750   90.188  190.189    0.388    0.268   15.473
  209.000   84.606  187.288    0.391    0.262   16.101
  209.250   81.091  181.916    0.371    0.241   17.535
