~VERSION INFORMATION
 VERS.                 2.0:   CWLS LOG ASCII STANDARD -VERSION 2.0
 WRAP.                  NO:   ONE LINE PER DEPTH STEP
~WELL INFORMATION BLOCK
#MNEM.UNIT           DATA                    DESCRIPTION OF MNEMONIC
#---------    -------------------            -------------------------------
# Generated from Intellog Unique Number	CC_80_83/WELL/2365
NULL.         -999.25                        : NULL_VALUE
WELL.         PEX PCEJ HANGST OV             : Well_name    - WELL
LOC .         10-23-082-08W4                 : Location     - LOCATION          
UWI .         AA/10-23-082-08W4/0            : Uwi          - UNIQUE WELL ID    
ENTR.         DW                             : Entered      - ENTERED BY        
SRVC.         DRESSER ATLAS                  : Scn          - SERVICE COMPANY   
DATE.         29 FEB 80                      : Date         - LOG DATE
STRT.M        275                            : top_depth    - START DEPTH       
STOP.M        509.89                         : bot_depth    - STOP DEPTH        
STEP.M        0.3                            : increment    - STEP LENGTH       
~CURVE INFORMATION BLOCK
#MNEM UNIT       ERCB CURVE CODE    CURVE DESCRIPTION
#-----------   ------------------   ----------------------------------
DEPT.M        00 001 00 00         : DEPTH        - DEPTH                       
DPHI.V/V      00 890 00 00         : PHID         - DENSITY POROSITY (LIMESTONE)
NPHI.V/V      00 330 00 00         : PHIN         - NEUTRON POROSITY (LIMESTONE)
GR  .API      00 310 00 00         : GR           - GAMMA RAY                   
ILD .OHMM     00 120 00 00         : RESD         - DEEP RESISTIVITY (DIL)      
~PARAMETER INFORMATION       
#MNEM.UNIT           DATA             DESCRIPTION OF MNEMONIC
#---------         -----------     ------------------------------
GL  .M        740.12               : gl           - GROUND LEVEL ELEVATION      
EREF.M        743.77               : kb           - ELEVATION OF DEPTH REFERENCE
DATM.M        743.77               : datum        - DATUM ELEVATION             
TDD .M        512                  : tdd          - TOTAL DEPTH DRILLER         
RUN .         ONE                  : Run          - RUN NUMBER                  
ENG .         BILL                 : Engineer     - RECORDING ENGINEER          
WIT .         JIM                  : Witness      - WITNESSED BY                
MUD .         GEL                  : Mud_type     - MUD TYPE                    
MATR.         LIMESTONE            : Logunit      - NEUTRON MATRIX              
TMAX.C        16.8                 : BHT          - MAXIMUM RECORDED TEMPERATURE
BHTD.M        512                  : BHTDEP       - MAXIMUM RECORDED TEMPERATURE
MATR.         1                    : LOGUNIT      - NEUTRON MATRIX              
RMT .C        25                   : MDTP         - TEMPERATURE OF MUD          
NEUT.         1                    : NEUTRON      - NEUTRON TYPE                
RESI.         0                    : RESIST       - RESISTIVITY TYPE            
RMC .OHMM     0.25                 : RMC          - RESISTIVITY OF MUD CAKE     
RMF .OHMM     0.25                 : RMF          - RESISTIVITY OF MUD FILTRATE 
SUFT.C        15                   : SUFT         - SURFACE TEMPERATURE         
~A  DEPTH     PHID     PHIN       GR     RESD
  275.000    0.213    0.434   94.232    2.675
  275.300    0.250    0.440  101.723    2.726
  275.600    0.223    0.478  106.711    2.777
  275.900    0.221    0.484  101.640    2.777
  276.200    0.229    0.449   99.714    2.724
  276.500    0.233    0.429   97.153    2.724
  276.800    0.241    0.452   93.356    2.672
  277.100    0.253    0.438   94.563    2.621
  277.400    0.261    0.459   92.640    2.621
  277.700    0.263    0.447   89.454    2.621
  278.000    0.270    0.463   90.050    2.620
  278.300    0.272    0.453   92.520    2.620
  278.600    0.276    0.428  100.016    2.619
  278.900    0.256    0.460   94.953    2.619
  279.200    0.250    0.452   92.394    2.618
  279.500    0.254    0.460   97.382    2.617
  279.800    0.244    0.441   95.452    2.617
  280.100    0.254    0.452  100.433    2.666
  280.400    0.281    0.448  103.538    2.616
  280.700    0.336    0.464   93.437    2.566
  281.000    0.391    0.473   89.635    2.470
  281.300    0.408    0.494   92.738    2.470
  281.600    0.395    0.503   92.059    2.517
  281.900    0.279    0.446   98.307    2.564
  282.200    0.278    0.426   98.259    2.613
  282.500    0.268    0.451   92.573    2.765
  282.800    0.277    0.459   86.245    2.817
  283.100    0.281    0.452   88.719    2.870
  283.400    0.266    0.436   94.958    2.925
  283.700    0.264    0.428   90.520    2.980
  284.000    0.301    0.426   81.691    2.980
  284.300    0.287    0.452   87.928    3.213
  284.600    0.285    0.462  101.707    3.337
  284.900    0.315    0.449   96.007    3.465
  285.200    0.322    0.458   85.919    3.530
  285.500    0.308    0.449   95.297    3.398
  285.800    0.305    0.438   95.263    3.150
  286.100    0.314    0.438   87.676    2.920
  286.400    0.290    0.438   82.611    2.864
  286.700    0.245    0.431   85.087    2.918
  287.000    0.250    0.443   91.948    3.088
  287.299    0.257    0.414   86.890    3.268
  287.599    0.292    0.386   95.012    3.592
  287.899    0.314    0.409   93.091    3.730
  288.199    0.305    0.422   93.049    3.873
  288.499    0.337    0.384   82.330    3.946
  288.799    0.394    0.405   79.768    4.021
  289.099    0.373    0.425   82.869    4.255
  289.399    0.345    0.385   77.798    4.856
  289.699    0.335    0.390   72.739    5.237
  289.999    0.224    0.348   65.161    5.438
  290.299    0.247    0.388   69.516    4.586
  290.599    0.289    0.405   85.180    3.794
  290.899    0.330    0.421   83.246    3.387
  291.199    0.338    0.446   85.093    3.260
  291.499    0.284    0.446   90.709    3.651
  291.799    0.250    0.382   93.179    4.411
  292.099    0.266    0.373   88.106    5.535
  292.399    0.285    0.380   84.936    7.077
  292.699    0.291    0.353   82.373   10.138
  292.999    0.299    0.340   81.082   11.354
  293.299    0.204    0.336   90.463    9.758
  293.599    0.116    0.314   87.911    8.874
  293.899    0.190    0.305   79.704    9.753
  294.199    0.228    0.327   94.108   10.925
  294.499    0.249    0.322   93.435   13.197
  294.799    0.267    0.319   89.625   14.232
  295.099    0.280    0.287   63.835   14.229
  295.399    0.263    0.309   60.648   14.227
  295.699    0.263    0.330   80.714   12.459
  295.999    0.253    0.353   95.114   10.911
  296.299    0.231    0.376   98.840   10.307
  296.599    0.240    0.376   96.922    9.923
  296.899    0.251    0.358   90.601    9.921
  297.199    0.256    0.348   93.695   10.301
  297.499    0.261    0.368  104.337   11.321
  297.799    0.287    0.394  108.061   12.681
  298.099    0.291    0.377  103.625   15.612
  298.399    0.289    0.355   90.396   18.861
  298.699    0.310    0.335   68.994   23.221
  298.999    0.305    0.337   57.640   23.659
  299.299    0.295    0.341   65.142   20.720
  299.599    0.283    0.340   65.718   17.805
  299.899    0.274    0.331   66.312   16.195
  300.199    0.272    0.320   72.559   14.454
  300.499    0.271    0.321   77.544   13.397
  300.799    0.260    0.325   86.904   12.897
  301.099    0.250    0.331   87.510   12.653
  301.399    0.246    0.330   83.702   12.891
  301.699    0.250    0.366   89.934   13.136
  301.999    0.250    0.372   89.271   13.639
  302.299    0.234    0.346   81.687   13.899
  302.599    0.206    0.340   86.676   13.895
  302.899    0.218    0.339   84.117   14.159
  303.199    0.254    0.325   79.683   15.857
  303.499    0.260    0.323   82.772   17.429
  303.799    0.283    0.335   88.396   19.893
  304.099    0.303    0.347   72.022   21.050
  304.399    0.303    0.340   65.698   21.857
  304.699    0.301    0.349   66.284   21.854
  304.999    0.292    0.335   74.412   21.851
  305.299    0.292    0.333   76.880   21.034
  305.599    0.303    0.349   69.932   21.029
  305.899    0.312    0.357   64.863   21.428
  306.199    0.311    0.340   60.425   21.421
  306.499    0.321    0.338   61.007   21.017
  306.799    0.323    0.345   66.629   20.621
  307.099    0.290    0.340   69.090   19.851
  307.399    0.279    0.350   69.674   19.475
  307.699    0.272    0.366   71.525   18.748
  307.999    0.265    0.374   81.540   18.048
  308.299    0.258    0.355   81.499   16.728
  308.599    0.257    0.345   74.548   15.803
  308.899    0.253    0.339   77.649   13.579
  309.199    0.247    0.330   88.915   12.587
  309.499    0.239    0.367   82.591   12.117
  309.799    0.236    0.359   82.551   11.446
  310.099    0.236    0.376   95.700   10.411
  310.399    0.250    0.390  101.306    8.779
  310.699    0.254    0.384  101.897    6.863
  310.999    0.152    0.375   91.179    4.974
  311.299    0.135    0.380   88.628    4.439
  311.599    0.149    0.407  102.400    4.273
  311.898    0.228    0.407  108.011    4.878
  312.198    0.248    0.396  109.856    5.893
  312.498    0.261    0.394  109.821    8.283
  312.798    0.274    0.381  108.520   11.000
  313.098    0.297    0.358   77.072   16.364
  313.398    0.296    0.356   68.862   22.146
  313.698    0.292    0.349   63.170   25.279
  313.998    0.293    0.328   43.026   26.248
  314.298    0.295    0.316   58.691   25.267
  314.598    0.296    0.329   66.813   24.791
  314.898    0.298    0.317   64.890   22.977
  315.198    0.299    0.317   42.230   21.706
  315.498    0.300    0.332   43.432   20.119
  315.798    0.304    0.349   45.291   19.739
  316.098    0.306    0.343   51.530   19.002
  316.398    0.306    0.358   52.743   18.642
  316.698    0.304    0.360   55.847   19.727
  316.998    0.302    0.353   56.429   20.100
  317.298    0.292    0.341   57.648   19.349
  317.598    0.232    0.350   59.495   19.347
  317.898    0.236    0.365   48.141   18.625
  318.198    0.267    0.337   55.015   17.263
  318.498    0.271    0.337   68.162   15.119
  318.798    0.261    0.338   76.919   12.510
  319.098    0.245    0.347   87.554   13.237
  319.398    0.243    0.363   82.479   14.826
  319.698    0.254    0.344   79.934   16.294
  319.998    0.273    0.338   76.755   16.603
  320.298    0.280    0.346   71.688   12.980
  320.598    0.276    0.353   81.065    8.085
  320.898    0.252    0.352   81.657    7.354
  321.198    0.226    0.353  114.284    7.353
  321.498    0.203    0.375  109.844    9.225
  321.798    0.182    0.409   92.214   10.936
  322.098    0.186    0.372  107.242   13.722
  322.398    0.253    0.363  107.209   17.217
  322.698    0.270    0.351   99.001   19.651
  322.998    0.280    0.348  109.009   20.405
  323.298    0.275    0.349   93.887   20.019
  323.598    0.276    0.338   86.304   18.556
  323.898    0.279    0.348   86.900   15.353
  324.198    0.279    0.354  101.936   14.231
  324.498    0.278    0.338   90.578   13.192
  324.798    0.254    0.342   91.803   12.227
  325.098    0.239    0.352   94.899   11.771
  325.398    0.229    0.333   94.856   11.993
  325.698    0.226    0.340  100.466   12.691
  325.998    0.223    0.337   95.404   13.430
  326.298    0.227    0.340   91.594   13.946
  326.598    0.233    0.338   91.555   14.758
  326.898    0.239    0.327   89.630   15.915
