~VERSION INFORMATION
 VERS.                 2.0:   CWLS LOG ASCII STANDARD -VERSION 2.0
 WRAP.                  NO:   ONE LINE PER DEPTH STEP
~WELL INFORMATION BLOCK
#MNEM.UNIT           DATA                    DESCRIPTION OF MNEMONIC
#---------    -------------------            -------------------------------
# Generated from Intellog Unique Number	CC_84_87/WELL/2325
NULL.         -999.25                        : NULL_VALUE
WELL.         ARCO ACI MCMURAY               : Well_name    - WELL
LOC .         11-11-085-09W4                 : Location     - LOCATION          
UWI .         AA/11-11-085-09W400            : Uwi          - UNIQUE WELL ID    
ENTR.         DW                             : Entered      - ENTERED BY        
SRVC.         SCHLUMBERGER                   : Scn          - SERVICE COMPANY   
DATE.         01 JAN 76                      : Date         - LOG DATE
STRT.M        259.08                         : top_depth    - START DEPTH       
STOP.M        499.88                         : bot_depth    - STOP DEPTH        
STEP.M        0.305                          : increment    - STEP LENGTH       
~CURVE INFORMATION BLOCK
#MNEM UNIT       ERCB CURVE CODE    CURVE DESCRIPTION
#-----------   ------------------   ----------------------------------
DEPT.M        00 001 00 00         : DEPTH        - DEPTH                       
ILD .OHMM     00 120 00 00         : RESD         - DEEP RESISTIVITY (DIL)      
DPHI.V/V      00 890 00 00         : PHID         - DENSITY POROSITY (LIMESTONE)
NPHI.V/V      00 330 00 00         : PHIN         - NEUTRON POROSITY (LIMESTONE)
GR  .API      00 310 00 00         : GR           - GAMMA RAY                   
~PARAMETER INFORMATION       
#MNEM.UNIT           DATA             DESCRIPTION OF MNEMONIC
#---------         -----------     ------------------------------
GL  .M        735.482              : gl           - GROUND LEVEL ELEVATION      
EREF.M        738.226              : kb           - ELEVATION OF DEPTH REFERENCE
DATM.M        738.226              : datum        - DATUM ELEVATION             
TDD .M        502.615              : tdd          - TOTAL DEPTH DRILLER         
RUN .         ONE                  : Run          - RUN NUMBER                  
ENG .         BILL                 : Engineer     - RECORDING ENGINEER          
WIT .         JIM                  : Witness      - WITNESSED BY                
MUD .         GEL                  : Mud_type     - MUD TYPE                    
MATR.         LIMESTONE            : Logunit      - NEUTRON MATRIX              
TMAX.C        24.4444              : BHT          - MAXIMUM RECORDED TEMPERATURE
BHTD.M        502.31               : BHTDEP       - MAXIMUM RECORDED TEMPERATURE
MATR.         1                    : LOGUNIT      - NEUTRON MATRIX              
RMT .C        25                   : MDTP         - TEMPERATURE OF MUD          
NEUT.         1                    : NEUTRON      - NEUTRON TYPE                
RESI.         0                    : RESIST       - RESISTIVITY TYPE            
RMC .OHMM     0.25                 : RMC          - RESISTIVITY OF MUD CAKE     
RMF .OHMM     0.25                 : RMF          - RESISTIVITY OF MUD FILTRATE 
SUFT.C        15                   : SUFT         - SURFACE TEMPERATURE         
~A  DEPTH     RESD     PHID     PHIN       GR
  259.080    3.471    0.259    0.560  124.686
  259.385    3.409    0.259    0.562  122.249
  259.690    3.346    0.256    0.571  122.236
  259.994    3.347    0.258    0.598  119.800
  260.299    3.286    0.264    0.603  114.331
  260.604    3.226    0.254    0.572  110.682
  260.909    3.227    0.244    0.544  120.973
  261.214    3.228    0.248    0.535  125.197
  261.518    3.351    0.269    0.527  125.186
  261.823    3.414    0.275    0.543  125.175
  262.128    3.291    0.271    0.571  120.920
  262.433    3.171    0.258    0.557  113.635
  262.738    3.056    0.246    0.524  119.075
  263.043    3.173    0.256    0.534  120.880
  263.347    3.614    0.275    0.542  112.382
  263.652    4.517    0.291    0.546  119.641
  263.957    5.441    0.301    0.564  109.326
  264.262    6.928    0.313    0.568   74.770
  264.567    6.315    0.303    0.533   65.060
  264.871    6.435    0.230    0.463   60.199
  265.176    8.504    0.245    0.435   48.065
  265.481   12.333    0.284    0.452   40.780
  265.786   15.999    0.318    0.474   41.979
  266.091   17.889    0.278    0.474   34.693
  266.395   16.923    0.264    0.363   34.676
  266.700    7.616    0.256    0.354   38.303
  267.005    5.157    0.246    0.355   50.410
  267.310    3.492    0.272    0.388  101.302
  267.615    3.183    0.270    0.491  117.650
  267.919    3.068    0.257    0.545  122.485
  268.224    3.126    0.245    0.561  121.261
  268.529    3.368    0.244    0.543  118.820
  268.834    3.562    0.250    0.532  115.781
  269.139    3.767    0.239    0.547  112.130
  269.444    3.838    0.220    0.535  112.724
  269.748    3.839    0.226    0.516  122.403
  270.053    3.701    0.236    0.507  126.029
  270.358    3.633    0.239    0.537  126.620
  270.663    3.634    0.227    0.548  121.759
  270.968    3.772    0.206    0.570  118.712
  271.272    3.843    0.208    0.528  119.308
  271.577    3.637    0.228    0.493  121.720
  271.882    3.570    0.245    0.511  125.340
  272.187    3.505    0.254    0.528  130.176
  272.492    3.572    0.260    0.550  130.165
  272.796    3.848    0.249    0.576  125.909
  273.101    4.146    0.236    0.520  124.075
  273.406    4.224    0.235    0.505  124.060
  273.711    4.071    0.246    0.524  125.261
  274.016    3.851    0.254    0.530  124.642
  274.320    3.781    0.243    0.510  124.023
  274.625    3.853    0.240    0.512  124.011
  274.930    3.927    0.235    0.532  122.785
  275.235    4.001    0.221    0.537  114.286
  275.540    4.231    0.209    0.525  114.275
  275.845    4.644    0.204    0.532  118.504
  276.149    5.097    0.236    0.542  116.670
  276.454    6.138    0.228    0.534  115.447
  276.759    7.673    0.191    0.519  117.854
  277.064   10.140    0.156    0.487  118.451
  277.369   11.988    0.260    0.462  119.045
  277.673   13.404    0.379    0.479  105.699
  277.978   15.847    0.449    0.552   74.174
  278.283   17.074    0.535    0.604   58.403
  278.588   18.394    0.443    0.569   68.693
  278.893   23.423    0.380    0.522   78.980
  279.197   28.738    0.409    0.489   81.392
  279.502   37.981    0.410    0.500   74.108
  279.807   43.264    0.400    0.505   61.368
  280.112   47.484    0.355    0.510   52.868
  280.417   42.487    0.343    0.438   47.402
  280.721   24.342    0.330    0.375   44.359
  281.026   18.088    0.318    0.360   44.346
  281.331   14.477    0.312    0.359   50.998
  281.636   12.252    0.301    0.365   62.500
  281.941   12.028    0.262    0.392   78.849
  282.246   16.808    0.254    0.420   89.138
  282.550   21.010    0.255    0.447  100.033
  282.855   23.932    0.268    0.470   96.384
  283.160   22.223    0.301    0.481   65.465
  283.465   17.460    0.313    0.477   56.360
  283.770   15.053    0.310    0.397   69.073
  284.074   14.778    0.270    0.401   86.635
  284.379   16.221    0.260    0.420   91.470
  284.684   19.177    0.290    0.455   88.426
  284.989   19.181    0.302    0.481   83.563
  285.294   17.162    0.292    0.458   82.944
  285.598   13.736    0.278    0.435   84.750
  285.903   12.755    0.233    0.448   93.220
  286.208   13.241    0.224    0.441   98.052
  286.513   15.083    0.261    0.424   99.254
  286.818   17.831    0.273    0.451   98.030
  287.122   19.212    0.278    0.457   90.742
  287.427   18.862    0.263    0.454   87.699
  287.732   17.515    0.238    0.457   80.416
  288.037   14.019    0.224    0.450   74.947
  288.342   12.312    0.249    0.435   76.147
  288.647   11.434    0.253    0.427   87.043
  288.951   10.816    0.271    0.462  114.299
  289.256   10.043    0.322    0.501  122.165
  289.561    8.659    0.345    0.518  124.573
  289.866    8.662    0.276    0.532  125.769
  290.171    8.663    0.203    0.530  125.758
  290.475    8.993    0.223    0.452  122.109
  290.780   10.436    0.219    0.454  115.432
  291.085   13.538    0.222    0.441  111.173
  291.390   17.892    0.235    0.444  111.164
  291.695   22.784    0.258    0.483  113.575
  291.999   27.439    0.281    0.499  112.350
  292.304   31.256    0.296    0.485   90.519
  292.609   36.272    0.292    0.467   63.842
  292.914   39.811    0.295    0.431   46.253
  293.219   41.326    0.302    0.404   43.208
  293.523   41.338    0.306    0.437   40.773
  293.828   39.105    0.308    0.389   36.518
  294.133   36.315    0.309    0.389   46.197
  294.438   31.896    0.302    0.403   52.248
  294.743   29.616    0.302    0.427   46.170
  295.048   23.268    0.320    0.427   46.157
  295.352   19.329    0.316    0.404   47.964
  295.657   16.663    0.295    0.401   56.437
  295.962   13.091    0.295    0.424   73.392
  296.267   14.913    0.322    0.426   79.438
  296.572   18.640    0.300    0.410   84.876
  296.876   27.033    0.276    0.406   91.529
  297.181   30.792    0.265    0.436   95.155
  297.486   30.800    0.287    0.477   90.900
  297.791   28.604    0.315    0.519   70.282
  298.096   27.058    0.323    0.429   76.934
  298.400   26.076    0.324    0.438   85.406
  298.705   26.081    0.316    0.434   92.059
  299.010   28.101    0.310    0.438   93.258
  299.315   30.843    0.304    0.448   89.606
  299.620   33.229    0.299    0.463   90.201
  299.924   33.237    0.326    0.486   92.611
  300.229   32.631    0.339    0.441   93.204
  300.534   30.871    0.327    0.430   88.949
  300.839   29.202    0.333    0.444   84.694
  301.144   24.712    0.339    0.447   80.438
  301.449   21.306    0.326    0.444   83.451
  301.753   19.785    0.306    0.447   87.076
  302.058   18.718    0.306    0.476   88.883
  302.363   18.376    0.305    0.453   91.900
  302.668   18.041    0.300    0.457   96.732
  302.973   15.847    0.297    0.467   99.751
  303.277   14.444    0.286    0.470   98.523
  303.582   13.920    0.270    0.444   97.905
  303.887   15.565    0.256    0.439  103.347
  304.192   17.403    0.239    0.447  109.392
  304.497   16.464    0.269    0.483  106.955
  304.801   13.676    0.297    0.467  103.914
  305.106    9.975    0.310    0.455  102.080
  305.411    7.984    0.291    0.452  106.917
  305.716    6.390    0.229    0.456  119.025
  306.021    5.308    0.228    0.455  148.101
  306.325    4.839    0.217    0.493  138.995
  306.630    5.023    0.223    0.514  135.954
  306.935    5.938    0.226    0.521  140.785
  307.240   10.369    0.213    0.500  140.776
  307.545   18.792    0.202    0.505  136.520
  307.850   28.283    0.198    0.569  124.993
  308.154   37.379    0.291    0.581  103.769
  308.459   41.027    0.328    0.546   84.363
  308.764   38.811    0.331    0.445   82.531
  309.069   34.087    0.328    0.441   82.517
  309.374   28.848    0.327    0.438   74.021
  309.678   26.787    0.327    0.437   72.187
  309.983   22.252    0.331    0.433   73.386
  310.288   20.282    0.336    0.440   79.435
  310.593   18.834    0.322    0.442   96.389
  310.898   17.818    0.298    0.417  104.861
  311.202   17.494    0.267    0.419  103.637
  311.507   18.847    0.245    0.432   95.742
  311.812   21.468    0.233    0.431   92.094
