~VERSION INFORMATION
 VERS.                 2.0:   CWLS LOG ASCII STANDARD -VERSION 2.0
 WRAP.                  NO:   ONE LINE PER DEPTH STEP
~WELL INFORMATION BLOCK
#MNEM.UNIT           DATA                    DESCRIPTION OF MNEMONIC
#---------    -------------------            -------------------------------
# Generated from Intellog Unique Number	CN_91_93/WELL/3023
WELL.         PETRO-CANADA                   : Well_name    - WELL
LOC .         AA/10-26-092-16W4/0            : Location     - LOCATION
UWI .         AA/10-26-092-16W400            : Uwi          - UNIQUE WELL ID
ENTR.         JOETTE                         : Entered      - ENTERED BY
SRVC.         SCHLUMBERGER                   : Scn          - SERVICE COMPANY
DATE.         04/09/92                       : Date         - LOG DATE
STRT.F        250                            : top_depth    - START DEPTH
STOP.F        710.138                        : bot_depth    - STOP DEPTH
STEP.F        0.82                           : increment    - STEP LENGTH
 NULL. -999.2500:NULL Value
~CURVE INFORMATION BLOCK
#MNEM UNIT       ERCB CURVE CODE    CURVE DESCRIPTION
#-----------   ------------------   ----------------------------------
DEPT.F        00 001 00 00         : DEPTH        - DEPTH
CALI.IN       00 280 01 00         : CAL          - CALIPER
GR  .API      00 310 00 00         : GR           - GAMMA RAY
NPHI.V/V      00 330 00 00         : PHIN         - NEUTRON POROSITY (SANDSTONE)
DPHI.V/V      00 890 00 00         : PHID         - DENSITY POROSITY (SANDSTONE)
ILD .OHMM     00 120 00 00         : RESD         - DEEP RESISTIVITY (DIL)
~PARAMETER INFORMATION
#MNEM.UNIT           DATA             DESCRIPTION OF MNEMONIC
#---------         -----------     ------------------------------
GL  .F        1562                 : gl           - GROUND LEVEL ELEVATION
EREF.F        1570                 : kb           - ELEVATION OF DEPTH REFERENCE
DATM.F        1570                 : datum        - DATUM ELEVATION
TDD .F        741                  : tdd          - TOTAL DEPTH DRILLER
RUN .         ONE                  : Run          - RUN NUMBER
ENG .         BILL                 : Engineer     - RECORDING ENGINEER
WIT .         JIM                  : Witness      - WITNESSED BY
MUD .         GEL                  : Mud_type     - MUD TYPE
MATR.         SANDSTONE            : Logunit      - NEUTRON MATRIX
TMAX.F        62                   : BHT          - MAXIMUM RECORDED TEMPERATURE
BHTD.F        741                  : BHTDEP       - MAXIMUM RECORDED TEMPERATURE
RMT .F        58                   : MDTP         - TEMPERATURE OF MUD
MUDD.LB/G     8.6                  : MWT          - MUD DENSITY
NEUT.         1                    : NEUTRON      - NEUTRON TYPE
RESI.         0                    : RESIST       - RESISTIVITY TYPE
RM  .OHMM     0.61                 : RM           - RESISTIVITY OF MUD
RMC .OHMM     0.61                 : RMC          - RESISTIVITY OF MUD CAKE
RMF .OHMM     0.61                 : RMF          - RESISTIVITY OF MUD FILTRATE
SUFT.F        39.2                 : SUFT         - SURFACE TEMPERATURE
~A  DEPTH      CAL       GR     PHIN     PHID     RESD
  250.000    7.738   84.772    0.545    0.229    4.434
  250.820    7.764   86.082    0.551    0.208    4.279
  251.640    7.791   84.713    0.538    0.182    4.094
  252.461    7.777   87.194    0.533    0.104    3.005
  253.281    7.724   89.998    0.548    0.139    2.576
  254.101    7.651   91.881    0.557    0.282    2.333
  254.921    7.659   93.477    0.565    0.288    2.172
  255.741    7.685   96.307    0.566    0.317    2.115
  256.562    7.652  100.283    0.552    0.316    2.217
  257.382    7.538  104.869    0.567    0.337    2.324
  258.202    7.467  106.466    0.545    0.269    2.349
  259.022    7.392  111.974    0.544    0.285    2.310
  259.843    7.259  110.867    0.560    0.276    2.270
  260.663    7.027  106.483    0.570    0.222    2.232
  261.483    6.794   98.511    0.560    0.185    2.449
  262.303    6.680   93.503    0.536    0.144    2.736
  263.123    6.908  104.095    0.537    0.099    2.841
  263.944    7.033  108.981    0.556    0.128    2.669
  264.764    7.061  112.695    0.531    0.232    2.462
  265.584    6.848  114.279    0.545    0.266    2.355
  266.404    7.015  115.003    0.551    0.277    2.358
  267.224    7.022  114.506    0.558    0.268    2.383
  268.045    7.207  114.283    0.527    0.284    2.408
  268.865    7.294  112.005    0.544    0.280    2.433
  269.685    7.442  107.608    0.555    0.269    2.437
  270.505    7.409  106.214    0.562    0.274    2.462
  271.325    7.475  107.524    0.557    0.270    2.558
  272.146    7.242  106.716    0.541    0.265    2.755
  272.966    7.289  103.515    0.529    0.291    3.106
  273.786    7.875  101.835    0.527    0.297    3.285
  274.606    7.941   98.933    0.512    0.294    3.289
  275.427    7.829   99.047    0.513    0.291    3.264
  276.247    7.515   95.249    0.522    0.286    3.269
  277.067    7.163   91.463    0.530    0.268    3.458
  277.887    7.229   89.782    0.517    0.269    3.828
  278.707    7.176   86.569    0.500    0.214    4.643
  279.528    7.324   82.771    0.479    0.217    6.228
  280.348    7.070   87.382    0.470    0.241    6.123
  281.168    7.256   87.782    0.471    0.257    6.968
  281.988    7.563   88.768    0.475    0.273    7.107
  282.808    7.211   92.470    0.470    0.277    7.050
  283.629    7.157   97.380    0.468    0.274    6.744
  284.449    7.384   94.479    0.468    0.273    6.337
  285.269    7.031   91.876    0.470    0.269    6.173
  286.089    6.720   89.312    0.469    0.270    6.588
  286.909    6.706   87.307    0.468    0.276    9.165
  287.730    6.673   84.094    0.465    0.264   10.147
  288.550    6.601   81.816    0.460    0.270   11.136
  289.370    6.589   79.811    0.455    0.299   11.565
  290.190    6.593   76.312    0.454    0.318   12.232
  291.010    6.600   72.239    0.439    0.293   13.296
  291.831    6.687   69.624    0.440    0.288   14.588
  292.651    6.735   71.831    0.439    0.300   15.016
  293.471    6.681   74.948    0.440    0.312   14.896
  294.291    6.828   74.750    0.442    0.320   14.118
  295.112    6.874   73.331    0.444    0.329   12.903
  295.932    6.762   73.731    0.445    0.326   11.792
  296.752    6.669   70.854    0.449    0.293   10.978
  297.572    6.794   70.956    0.453    0.247   11.296
  298.392    6.762   70.160    0.466    0.099   15.718
  299.213    6.708   68.168    0.466    0.044   19.238
  300.033    6.796   64.369    0.446    0.055   23.987
  300.853    6.702   62.377    0.290    0.103   27.798
  301.673    6.529   65.170    0.305    0.158   27.335
  302.493    6.577   66.480    0.336    0.234   24.303
  303.314    6.643   67.478    0.389    0.264   20.273
  304.134    6.789   68.775    0.429    0.284   17.543
  304.954    6.736   69.175    0.436    0.286   15.312
  305.774    6.763   69.887    0.426    0.248   14.515
  306.594    6.431   71.171    0.415    0.195   14.404
  307.415    6.538   72.768    0.414    0.213   13.779
  308.235    6.665   76.183    0.419    0.251   12.363
  309.055    6.650   78.664    0.429    0.275   10.221
  309.875    6.598   83.562    0.449    0.241    8.369
  310.696    6.784   92.671    0.466    0.227    5.816
  311.516    7.071   94.853    0.509    0.213    4.592
  312.336    7.377  102.143    0.531    0.226    4.120
  313.156    7.563  103.739    0.523    0.241    3.053
  313.976    7.491   99.953    0.510    0.237    2.974
  314.797    7.358  100.391    0.509    0.246    2.924
  315.617    7.384  102.859    0.514    0.212    2.849
  316.437    7.491  109.551    0.523    0.246    2.826
  317.257    7.557  112.954    0.523    0.260    2.830
  318.077    7.544  114.251    0.515    0.244    2.808
  318.898    7.492  116.745    0.518    0.251    2.812
  319.718    7.598  113.569    0.531    0.269    2.815
  320.538    7.665  116.063    0.541    0.253    2.793
  321.358    7.571  113.460    0.538    0.249    2.875
  322.178    7.599  103.968    0.538    0.263    3.183
  322.999    7.445   98.089    0.542    0.270    3.758
  323.819    7.372   93.107    0.519    0.267    4.275
  324.639    7.479   89.919    0.480    0.258    4.821
  325.459    7.406   89.721    0.462    0.261    5.147
  326.280    7.054   91.005    0.456    0.287    4.878
  327.100    6.841   92.303    0.490    0.304    4.457
  327.920    6.947   93.014    0.503    0.260    4.225
  328.740    7.095   91.322    0.508    0.286    5.269
  329.560    7.081   88.732    0.493    0.289    5.780
  330.381    6.968   78.342    0.469    0.248    8.494
  331.201    6.754   74.843    0.455    0.203   10.117
  332.021    6.482   68.353    0.437    0.163   11.303
  332.841    6.449   66.361    0.435    0.129   11.739
  333.661    6.675   69.764    0.461    0.218   11.130
  334.482    6.723   74.649    0.472    0.256    8.629
  335.302    6.630   83.447    0.458    0.294    6.570
  336.122    6.855   90.164    0.448    0.325    5.187
  336.942    7.162   92.359    0.450    0.274    4.367
  337.762    7.308   93.033    0.473    0.275    4.293
  338.583    7.336   92.249    0.501    0.279    6.545
  339.403    7.083   88.762    0.509    0.302    7.313
  340.223    6.730   80.765    0.485    0.320    7.806
  341.043    6.459   74.574    0.489    0.289    7.959
  341.864    6.425   72.582    0.494    0.276    7.825
  342.684    6.452   77.181    0.471    0.243    7.283
  343.504    6.518   86.876    0.468    0.266    5.496
  344.324    6.684   92.659    0.481    0.266    4.797
  345.144    6.930   94.567    0.496    0.265    4.150
  345.965    7.197   93.472    0.502    0.279    4.081
  346.785    7.164   91.766    0.501    0.293    4.199
  347.605    7.311   89.475    0.489    0.300    4.443
  348.425    7.598   86.586    0.483    0.276    4.657
  349.245    7.424   83.697    0.487    0.276    4.749
  350.066    7.012   82.889    0.493    0.274    4.756
  350.886    7.138   93.182    0.496    0.275    4.675
  351.706    7.205   95.688    0.493    0.292    4.596
  352.526    7.214   96.100    0.492    0.302    4.438
  353.346    7.418   98.295    0.505    0.282    4.362
  354.167    7.465   97.785    0.507    0.316    4.290
  354.987    7.212   95.806    0.499    0.313    4.374
  355.807    7.059   94.985    0.500    0.285    4.585
  356.627    6.767   97.503    0.503    0.275    4.634
  357.448    6.674   97.305    0.490    0.281    4.514
  358.268    6.842   94.404    0.487    0.253    4.201
  359.088    7.047  101.395    0.488    0.247    3.771
  359.908    7.214  104.798    0.495    0.191    3.707
  360.728    7.140  105.185    0.507    0.136    3.850
  361.549    6.848  109.186    0.517    0.227    3.925
  362.369    6.835  117.984    0.523    0.232    3.895
  363.189    6.902  119.879    0.526    0.236    3.658
  364.009    6.929  120.903    0.528    0.232    3.468
  364.829    7.015  121.290    0.516    0.229    3.257
  365.650    7.041  121.092    0.519    0.234    3.262
  366.470    7.288  120.895    0.528    0.215    3.326
  367.290    7.236  120.684    0.523    0.227    3.423
  368.110    7.123  121.682    0.525    0.235    3.427
  368.930    7.050  126.580    0.526    0.240    3.432
