~VERSION INFORMATION
 VERS.                 2.0:   CWLS LOG ASCII STANDARD -VERSION 2.0
 WRAP.                  NO:   ONE LINE PER DEPTH STEP
~WELL INFORMATION BLOCK
#MNEM.UNIT           DATA                    DESCRIPTION OF MNEMONIC
#---------    -------------------            -------------------------------
# Generated from Intellog Unique Number	CN_94_101/WELL/2464
WELL.         11-01-094-10W4                 : Well_name    - WELL
LOC .         AA/11-01-094-10W4/0            : Location     - LOCATION
UWI .         AA/11-01-094-10W400            : Uwi          - UNIQUE WELL ID
ENTR.         JOETTE                         : Entered      - ENTERED BY
SRVC.         SCHLUMBERGER                   : Scn          - SERVICE COMPANY
DATE.         05/15/92                       : Date         - LOG DATE
STRT.M        0                              : top_depth    - START DEPTH
STOP.M        80                             : bot_depth    - STOP DEPTH
STEP.M        0.25                           : increment    - STEP LENGTH
 NULL. -999.2500:NULL Value
~CURVE INFORMATION BLOCK
#MNEM UNIT       ERCB CURVE CODE    CURVE DESCRIPTION
#-----------   ------------------   ----------------------------------
DEPT.M        00 001 00 00         : DEPTH        - DEPTH
GR  .API      00 310 00 00         : GR           - GAMMA RAY
NPHI.V/V      00 330 00 00         : PHIN         - NEUTRON POROSITY (SANDSTONE)
ILD .OHMM     00 120 00 00         : RESD         - DEEP RESISTIVITY (DIL)
~PARAMETER INFORMATION
#MNEM.UNIT           DATA             DESCRIPTION OF MNEMONIC
#---------         -----------     ------------------------------
GL  .M        326.4                : gl           - GROUND LEVEL ELEVATION
EREF.M        326.4                : kb           - ELEVATION OF DEPTH REFERENCE
DATM.M        326.4                : datum        - DATUM ELEVATION
TDD .M        86.9                 : tdd          - TOTAL DEPTH DRILLER
RUN .         ONE                  : Run          - RUN NUMBER
ENG .         BILL                 : Engineer     - RECORDING ENGINEER
WIT .         JIM                  : Witness      - WITNESSED BY
MUD .         GEL                  : Mud_type     - MUD TYPE
MATR.         SANDSTONE            : Logunit      - NEUTRON MATRIX
TMAX.C        11                   : BHT          - MAXIMUM RECORDED TEMPERATURE
BHTD.M        86.9                 : BHTDEP       - MAXIMUM RECORDED TEMPERATURE
RMT .C        15                   : MDTP         - TEMPERATURE OF MUD
MUDD.KG/M     101                  : MWT          - MUD DENSITY
NEUT.         1                    : NEUTRON      - NEUTRON TYPE
RESI.         0                    : RESIST       - RESISTIVITY TYPE
RM  .OHMM     4.5                  : RM           - RESISTIVITY OF MUD
RMC .OHMM     4.5                  : RMC          - RESISTIVITY OF MUD CAKE
RMF .OHMM     4.5                  : RMF          - RESISTIVITY OF MUD FILTRATE
SUFT.C        -15                  : SUFT         - SURFACE TEMPERATURE
~A  DEPTH       GR     PHIN     RESD
    0.000   82.295    0.052    0.000
    0.250   79.222    0.037    0.000
    0.500   45.061    0.025    0.000
    0.750   45.642    0.022    0.000
    1.000   38.915    0.026    0.000
    1.250   39.500    0.029    0.000
    1.500   46.791    0.031    0.000
    1.750   54.081    0.031    0.000
    2.000   67.468    0.037    0.000
    2.250   74.149    0.034    0.000
    2.500   84.487    0.021    0.000
    2.750   99.093    0.014    0.000
    3.000  116.746    0.020    0.000
    3.250  118.550    0.022    0.000
    3.500  113.646    0.024    0.000
    3.750  117.892    0.072    0.000
    4.000  109.333    0.107    0.000
    4.250   99.555    0.106    0.000
    4.500  103.797    0.103    0.000
    4.750  109.868    0.112    0.000
    5.000  108.015    0.122    0.000
    5.250  110.426    0.134    0.000
    5.500  113.446    0.145    0.000
    5.750  115.256    0.162    0.000
    6.000  120.718    0.122    0.000
    6.250  121.913    0.096    0.000
    6.500  122.498    0.076    0.000
    6.750  120.641    0.083    0.000
    7.000  107.818    0.089    0.000
    7.250   99.259    0.077    0.000
    7.500   93.748    0.056    0.000
    7.750   91.895    0.057    0.000
    8.000   82.727    0.050    0.000
    8.250   68.681    0.036    0.000
    8.500   57.075    0.023    0.000
    8.750   50.951    0.025    0.000
    9.000   59.464    0.025    0.000
    9.250   66.138    0.018    0.000
    9.500   71.603    0.020    0.000
    9.750   84.383    0.031    0.000
   10.000   68.509    0.046    0.000
   10.250   66.656    0.025    0.000
   10.500   61.751    0.033    0.000
   10.750   58.679    0.046    0.000
   11.000   55.606    0.054    0.000
   11.250   58.020    0.116    0.000
   11.500   45.194    0.251    0.000
   11.750   42.118    0.380    0.000
   12.000   45.751    0.410    0.000
   12.250   47.552    0.448    0.000
   12.500   45.095    0.455    0.000
   12.750   35.924    0.463    0.000
   13.000   37.728    0.468    0.000
   13.250   34.049    0.475    0.000
   13.500   27.925    0.479    0.000
   13.750   19.976    0.484    0.000
   14.000   20.558    0.484    0.000
   14.250   21.756    0.484    0.000
   14.500   21.125    0.488    0.000
   14.750   20.487    0.493    0.000
   15.000   23.511    0.498    0.000
   15.250   26.537    0.503    0.000
   15.500   22.852    0.502    0.000
   15.750   21.001    0.487    0.000
   16.000   19.148    0.481    0.000
   16.250   20.343    0.481    0.000
   16.500   21.537    0.481    0.000
   16.750   17.855    0.481    0.000
   17.000   16.605    0.481    0.000
   17.250   19.022    0.480    0.000
   17.500   21.439    0.480    0.000
   17.750   18.973    0.480    0.000
   18.000   17.116    0.481    0.000
   18.250   16.488    0.486    0.000
   18.500   17.070    0.492    0.000
   18.750   19.484    0.494    0.000
   19.000   21.285    0.484    0.000
   19.250   21.267    0.474    0.000
   19.500   27.947    0.457    0.000
   19.750   30.968    0.438    0.000
   20.000   28.505    0.459    0.000
   20.250   31.528    0.474    0.000
   20.500   34.551    0.469    0.000
   20.750   30.872    0.450    0.000
   21.000   32.067    0.424    0.000
   21.250   38.748    0.426    0.000
   21.500   35.672    0.426    0.000
   21.750   33.822    0.415    0.000
   22.000   33.797    0.411    0.000
   22.250   31.331    0.415    0.000
   22.500   39.844    0.415    0.000
   22.750   41.645    0.422    0.000
   23.000   36.131    0.449    0.000
   23.250   33.065    0.457    0.000
   23.500   33.650    0.451    0.000
   23.750   37.889    0.424    0.000
   24.000   37.861    0.404    0.000
   24.250   39.669    0.433    0.000
   24.500   39.034    0.440    0.000
   24.750   34.739    0.474    0.000
   25.000   31.670    0.479    0.000
   25.250   26.766    0.468    0.000
   25.500   31.618    0.429    0.000
   25.750   35.251    0.434    0.000
   26.000   35.836    0.439    0.000
   26.250   38.249    0.458    0.000
   26.500   41.273    0.477    0.000
   26.750   46.128    0.490    0.000
   27.000   49.151    0.500    0.000
   27.250   38.151    0.500    0.000
   27.500   41.177    0.484    0.000
   27.750   48.468    0.484    0.000
   28.000   53.320    0.490    0.000
   28.250   42.323    0.493    0.000
   28.500   36.202    0.495    0.000
   28.750   50.808    0.500    0.000
   29.000   64.194    0.505    0.000
   29.250   59.293    0.509    0.000
   29.500   62.316    0.505    0.000
   29.750   69.604    0.502    0.000
   30.000   65.315    0.496    0.000
   30.250   54.315    0.497    0.000
   30.500   51.855    0.501    0.000
   30.750   57.926    0.502    0.000
   31.000   78.628    0.496    0.078
   31.250  101.161    0.486    0.455
   31.500  117.595    0.469    1.767
   31.750  106.598    0.468    5.452
   32.000  112.669    0.478    6.400
   32.250  102.282    0.475    6.616
   32.500  102.867    0.478    7.183
   32.750  113.812    0.484    6.215
   33.000  116.835    0.476    6.257
   33.250  110.717    0.467    6.142
   33.500  105.207    0.473    7.198
   33.750  110.668    0.479    6.227
   34.000  102.716    0.480    5.810
   34.250  108.181    0.478    6.476
   34.500  113.030    0.479    6.861
   34.750   98.372    0.482   10.386
   35.000   97.128    0.462    7.701
   35.250  100.154    0.463    5.436
   35.500   86.719    0.478    5.198
   35.750   82.427    0.489    7.478
   36.000   93.372    0.477    5.834
   36.250   99.447    0.471    6.676
   36.500   94.545    0.470    6.901
   36.750   93.301    0.470    7.305
   37.000   76.815    0.471    9.989
   37.250   79.841    0.472    9.814
   37.500   94.447    0.465    7.656
   37.750   97.470    0.460    9.700
   38.000   79.158    0.458   13.240
   38.250   68.770    0.447   12.052
   38.500   54.722    0.458   21.234
   38.750   47.995    0.444   84.557
   39.000   54.066    0.433  686.875
   39.250   58.918    0.436   37.960
   39.500   57.062    0.432   50.603
   39.750   49.115    0.435   59.401
   40.000   42.379    0.442  121.904
   40.250   39.310    0.426  199.338
   40.500   36.237    0.410  615.025
   40.750   42.312    0.419  573.778
   41.000   52.647    0.437  577.735
   41.250   52.016    0.457  968.212
   41.500   50.772    0.453  155.831
   41.750   58.059    0.421  157.040
   42.000   69.010    0.413  220.074
   42.250   79.346    0.434    8.739
   42.500   76.273    0.452   43.748
   42.750   82.348    0.436   94.547
   43.000   88.416    0.433   20.665
   43.250   89.611    0.429    8.990
   43.500   84.712    0.432    9.293
   43.750   94.441    0.432    7.430
   44.000  105.389    0.446    6.594
   44.250  108.409    0.451    6.478
   44.500  112.652    0.459    4.683
   44.750  104.706    0.468    4.481
   45.000  115.654    0.474    4.177
   45.250  106.485    0.466    3.806
   45.500  108.289    0.468    3.458
   45.750  114.361    0.460    3.395
   46.000  122.261    0.465    3.421
   46.250  117.969    0.468    4.913
   46.500   98.438    0.465    2.975
   46.750   83.173    0.458    5.807
   47.000   68.518    0.435  133.937
   47.250   55.689    0.429  128.173
   47.500   61.151    0.430  119.680
   47.750   66.006    0.421  151.366
   48.000   61.099    0.409   32.253
   48.250   67.783    0.414   20.547
   48.500   79.953    0.441   18.235
   48.750  110.408    0.467   23.062
   49.000  129.890    0.478    3.356
   49.250  137.790    0.484    1.615
   49.500  126.793    0.496    1.668
   49.750  114.573    0.486    1.724
   50.000  123.086    0.464    1.692
   50.250  120.623    0.440    1.663
   50.500   87.071    0.392    1.632
   50.750   64.489    0.365    1.729
   51.000   64.464    0.390   54.107
   51.250   63.827    0.429    4.383
   51.500   61.976    0.408    4.302
   51.750   65.000    0.418    4.675
   52.000   61.924    0.423    5.211
   52.250   64.335    0.422    5.521
   52.500   66.755    0.437    4.773
   52.750   70.991    0.412    5.320
   53.000   69.141    0.402    5.091
   53.250   66.681    0.420    4.630
   53.500   66.653    0.399    4.324
   53.750   64.190    0.400    4.466
   54.000   58.682    0.394    5.511
