~Version Information Block
VERS .                 2.00:  CWLS LOG ASCII STANDARD - VERSION 2.00
WRAP .                   NO:  One line per depth step
~Well Information Block
#MNEM.UNIT        Data Type   Information
#---------- ----------------  -----------
STRT .M                9.14         :  START DEPTH
STOP .M              111.74         :  STOP DEPTH
STEP .M                 0.3         :  STEP
NULL .              -999.25         :  NULL VALUE
COMP .  PACIFIC PETROLEUMS LTD.     :  COMPANY
WELL .  BAYSEL ASHLAND STPBNK CH #6 :  WELL
FLD  .                              :  FIELD
LOC  . 13-16-091-09W4               :  LOCATION
PROV . ALBERTA                      :  PROVINCE
SRVC . SCHLUMBERGER                 :  SERVICE COMPANY
DATE . 20 FEB 73                    :  LOG DATE
UWI  . AA/13-16-091-09W400          :  UNIQUE WELL ID
~Curve Information Block
#MNEM.UNIT         API CODE   Curve Description
#---------- ----------------  -----------------
DEPTH.M                    :  Transferred from LOGMATE/ESP.
GR   .API                  :  Loaded from 920407.092229
PHID .FRAC                 :  Loaded from 920407.092229
RESD .OHMM                 :  Loaded from 920407.092229
~Parameter Information Block
#MNEM.UNIT            Value   Description
#---------- ----------------  -----------
PROJECT.             MOS_91_9:
SET  .                  RAW:
~A        DEPTH             GR           PHID           RESD
         9.1400        44.5300         0.2682      1209.8600
         9.4400        43.2300         0.2652      2136.9099
         9.7400        41.3800         0.2569      2552.0400
        10.0400        38.2400         0.2195      2323.7800
        10.3400        34.1800         0.2119      1982.8700
        10.6400        31.7400         0.2285      1664.5601
        10.9400        36.3100         0.2336      1080.9100
        11.2400        38.2900         0.2090       474.5400
        11.5400        35.6500         0.2333       258.8400
        11.8400        32.5800         0.2133       191.9200
        12.1400        33.9200         0.2116        67.6600
        12.4400        38.8900         0.2293        17.8600
        12.7400        44.1200         0.2452        21.2400
        13.0400        51.2100         0.2915       226.0500
        13.3400        46.6900         0.3271       532.6300
        13.6400        38.9800         0.2314       467.8900
        13.9400        36.3800         0.2044       432.6700
        14.2400        31.8900         0.2311       314.2200
        14.5400        31.2300         0.2944       250.3300
        14.8400        38.0400         0.3502       194.5800
        15.1400        35.9200         0.3875       205.9600
        15.4400        34.5000         0.3400       277.9900
        15.7400        38.4800         0.2830       369.8200
        16.0400        34.5500         0.2255       358.4900
        16.3400        34.3500         0.1648       317.6500
        16.6400        39.9800         0.1111       344.2000
        16.9400        49.0000         0.1346       276.3200
        17.2400        40.6200         0.1734       156.0000
        17.5400        35.3500         0.2572       200.5500
        17.8400        32.7100         0.3133       155.8400
        18.1400        40.2300         0.3461        28.2500
        18.4400        49.0500         0.3555        26.6600
        18.7400        56.7700         0.3314        37.0900
        19.0400        67.4900         0.3082        39.8400
        19.3400        72.1700         0.3135        34.5700
        19.6400        71.7000         0.3164        31.4600
        19.9400        72.8500         0.3164        26.9400
        20.2400        75.3300         0.3117        57.0700
        20.5400        75.3700         0.2776        67.5400
        20.8400        73.2900         0.2711        49.6400
        21.1400        78.0500         0.2826        29.5300
        21.4400        74.2000         0.2849        41.0700
        21.7400        76.8000         0.2731        39.3900
        22.0400        78.0600         0.2750        28.2500
        22.3400        76.0600         0.2850        24.6300
        22.6400        74.0900         0.2869        25.1900
        22.9400        76.8900         0.2722        27.9500
        23.2400        78.3100         0.2699        28.9500
        23.5400        74.9200         0.2853        21.0600
        23.8400        73.0800         0.2597        21.9300
        24.1400        69.4600         0.2602        24.2600
        24.4400        73.9100         0.2745        22.8000
        24.7400        76.9000         0.2826        16.6100
        25.0400        70.6100         0.2907         7.9200
        25.3400        67.5400         0.2830         6.2100
        25.6400        70.2200         0.2907         8.4800
        25.9400        76.9100         0.3062        12.9900
        26.2400        79.9900         0.3135        14.9000
        26.5400        78.1400         0.2718         9.1400
        26.8400        74.1700         0.2770         4.6200
        27.1400        69.7200         0.3059         3.8500
        27.4400        64.8400         0.3622         4.6400
        27.7400        62.2800         0.3772         6.3200
        28.0400        60.1200         0.3584        11.0900
        28.3400        61.4200         0.3126         8.6100
        28.6400        64.6500         0.2924         7.6400
        28.9400        70.3600         0.2842         7.8000
        29.2400        72.5700         0.2776        11.1700
        29.5400        61.1600         0.2743        12.9800
        29.8400        58.5600         0.2785        10.4800
        30.1400        61.7100         0.2882         9.6200
        30.4400        64.9000         0.2677        13.0800
        30.7400        69.0000         0.2350         8.5600
        31.0400        66.6400         0.2165         4.3600
        31.3400        63.1000         0.2450         7.6700
        31.6400        67.6300         0.2936         7.9400
        31.9400        70.4300         0.3319         6.3300
        32.2400        69.6800         0.3168         6.1300
        32.5400        66.2600         0.2911         8.3400
        32.8400        71.2600         0.2761        13.5900
        33.1400        69.4500         0.2604        14.3600
        33.4400        64.9700         0.2562        12.4600
        33.7400        60.5600         0.2721        11.4500
        34.0400        56.6300         0.2857        10.6600
        34.3400        59.9000         0.2742        10.2400
        34.6400        57.3800         0.2592        20.3400
        34.9400        61.6300         0.2658        18.4200
        35.2400        66.9900         0.2779        13.8800
        35.5400        71.3600         0.2593        10.8700
        35.8400        76.6800         0.2208        13.4100
        36.1400        79.1600         0.2334        15.2200
        36.4400        74.1700         0.2425        12.5300
        36.7400        71.3000         0.2516        18.5400
        37.0400        65.2000         0.2626        20.9400
        37.3400        60.0400         0.2657        18.6200
        37.6400        58.9800         0.2638        24.4200
        37.9400        64.6500         0.2256        28.7900
        38.2400        64.8500         0.2411        28.4800
        38.5400        62.5700         0.2495        28.1400
        38.8400        60.7200         0.2627        32.5900
        39.1400        63.2400         0.2702        38.5800
        39.4400        62.3800         0.2742        70.8000
        39.7400        59.7800         0.2820       106.6000
        40.0400        57.2700         0.2861        81.3000
        40.3400        54.4000         0.2937        75.0300
        40.6400        50.0700         0.2960       121.8500
        40.9400        49.2400         0.3010        88.9000
        41.2400        54.5600         0.3080        62.8300
        41.5400        60.2700         0.3183       295.0200
        41.8400        57.7200         0.2932       209.6900
        42.1400        52.6000         0.3049        87.7800
        42.4400        50.4800         0.3133       111.4800
        42.7400        58.5500         0.3235       105.5500
        43.0400        62.9200         0.3164        82.4800
        43.3400        61.0000         0.2960       666.6700
        43.6400        59.2700         0.2981       616.7400
        43.9400        52.3400         0.3086       486.2600
        44.2400        41.5200         0.3148       289.1700
        44.5400        49.2000         0.3215       172.8600
        44.8400        52.6600         0.3175        89.9800
        45.1400        55.3400         0.3256        49.2700
        45.4400        54.1600         0.3197        54.9600
        45.7400        58.4200         0.3343        63.7700
        46.0400        60.9000         0.3164        74.5300
        46.3400        52.7100         0.3164        57.4100
        46.6400        50.1600         0.3216        42.5800
        46.9400        56.4200         0.2779        33.3900
        47.2400        56.9400         0.2637        31.2800
        47.5400        55.0500         0.2560        43.9100
        47.8400        50.1300         0.2642        61.5400
        48.1400        44.1500         0.2707        59.3400
        48.4400        44.3100         0.2845        48.0900
