~VERSION INFORMATION
 VERS.                 2.0:   CWLS LOG ASCII STANDARD -VERSION 2.0
 WRAP.                  NO:   ONE LINE PER DEPTH STEP
~WELL INFORMATION BLOCK
#MNEM.UNIT           DATA                    DESCRIPTION OF MNEMONIC
#---------    -------------------            -------------------------------
# Generated from Intellog Unique Number	CN_94_101/WELL/5035
WELL.         FRENCH PETROLEUM               : Well_name    - WELL
LOC .         AA/13-18-099-08W4/0            : Location     - LOCATION
UWI .         AA/13-18-099-08W400            : Uwi          - UNIQUE WELL ID
ENTR.         T                              : Entered      - ENTERED BY
SRVC.         SCHLUMBERGER                   : Scn          - SERVICE COMPANY
DATE.         08/17/92                       : Date         - LOG DATE
STRT.M        3.048                          : top_depth    - START DEPTH
STOP.M        88.298                         : bot_depth    - STOP DEPTH
STEP.M        0.25                           : increment    - STEP LENGTH
 NULL. -999.2500:NULL Value
~CURVE INFORMATION BLOCK
#MNEM UNIT       ERCB CURVE CODE    CURVE DESCRIPTION
#-----------   ------------------   ----------------------------------
DEPT.M        00 001 00 00         : DEPTH        - DEPTH
GR  .API      00 310 00 00         : GR           - GAMMA RAY
NPHI.V/V      00 330 00 00         : PHIN         - NEUTRON POROSITY (SANDSTONE)
ILD .OHMM     00 120 00 00         : RESD         - DEEP RESISTIVITY (DIL)
~PARAMETER INFORMATION
#MNEM.UNIT           DATA             DESCRIPTION OF MNEMONIC
#---------         -----------     ------------------------------
GL  .M        303.581              : gl           - GROUND LEVEL ELEVATION
EREF.M        303.581              : kb           - ELEVATION OF DEPTH REFERENCE
DATM.M        303.581              : datum        - DATUM ELEVATION
TDD .M        91.44                : tdd          - TOTAL DEPTH DRILLER
RUN .         ONE                  : Run          - RUN NUMBER
ENG .         BILL                 : Engineer     - RECORDING ENGINEER
WIT .         JIM                  : Witness      - WITNESSED BY
MUD .         GEL                  : Mud_type     - MUD TYPE
MATR.         SANDSTONE            : Logunit      - NEUTRON MATRIX
TMAX.C        17.7778              : BHT          - MAXIMUM RECORDED TEMPERATURE
BHTD.M        91.44                : BHTDEP       - MAXIMUM RECORDED TEMPERATURE
RMT .C        20                   : MDTP         - TEMPERATURE OF MUD
MUDD.KG/M     1030                 : MWT          - MUD DENSITY
NEUT.         1                    : NEUTRON      - NEUTRON TYPE
RESI.         0                    : RESIST       - RESISTIVITY TYPE
RM  .OHMM     12.6                 : RM           - RESISTIVITY OF MUD
RMC .OHMM     8.2                  : RMC          - RESISTIVITY OF MUD CAKE
RMF .OHMM     11.4                 : RMF          - RESISTIVITY OF MUD FILTRATE
SUFT.C        4                    : SUFT         - SURFACE TEMPERATURE
~A  DEPTH       GR     PHIN     RESD
    3.048   50.585   -0.147  964.248
    3.298   51.441   -0.153  949.769
    3.548   50.644   -0.160  913.588
    3.798   45.715   -0.156  924.340
    4.048   44.099   -0.150  931.497
    4.298   42.475    0.045  747.246
    4.548   35.060    0.058  602.721
    4.798   34.263    0.082  411.247
    5.048   44.216    0.112  295.597
    5.298   43.412    0.140  403.892
    5.548   40.136    0.085  609.680
    5.798   41.825   -0.058  497.658
    6.048   42.681   -0.148  642.051
    6.298   47.662   -0.145  591.425
    6.548   51.824   -0.140  504.667
    6.798   46.068   -0.133  511.824
    7.048   50.237   -0.109  537.038
    7.298   61.836   -0.041  388.902
    7.548   75.088   -0.041  327.441
    7.798   85.861   -0.051  276.814
    8.048   94.981   -0.064  211.741
    8.298  103.275   -0.075  139.446
    8.548   92.561   -0.098  128.513
    8.798   75.236   -0.100  135.670
    9.048   62.869   -0.119  272.873
    9.298   58.766   -0.139  659.235
    9.548   58.803   -0.110  691.672
    9.798   55.519   -0.082  648.268
   10.048   49.771   -0.055  532.619
   10.298   49.801    0.048  482.009
   10.548   45.691    0.066  366.359
   10.798   38.282    0.092  333.790
   11.048   40.791    0.127  225.379
   11.298   50.737    0.107  279.486
   11.548   61.518    0.055  539.446
   11.798   59.068    0.095  384.086
   12.048   53.305    0.118  178.166
   12.298   41.765    0.034  149.208
   12.548   43.447    0.044  452.507
   12.798   55.053    0.074  614.957
   13.048   56.743   -0.120  459.598
   13.298   50.154   -0.136  499.258
   13.548   43.572   -0.149  589.479
   13.798   46.081   -0.166  585.801
   14.048   51.069   -0.172  582.091
   14.298   56.057   -0.166  603.727
   14.548   50.301   -0.162  600.049
   14.798   47.851   -0.143  567.480
   15.048   46.228   -0.142  726.319
   15.298   45.431   -0.148  762.352
   15.548   46.301   -0.154  679.238
   15.798   42.184    0.039  523.862
   16.048   35.602    0.136  404.617
   16.298   48.028    0.321  234.812
   16.548   54.669    0.353  169.739
   16.798   46.441    0.356  151.616
   17.048   45.637    0.342  165.996
   17.298   52.285    0.336  198.433
   17.548   55.628    0.336  227.243
   17.798   58.963    0.335  238.028
   18.048   58.158    0.334  245.152
   18.298   49.924    0.345  227.045
   18.548   42.515    0.355  216.128
   18.798   34.281    0.340  208.823
   19.048   26.880    0.332  201.567
   19.298   27.728    0.330  190.666
   19.548   30.237    0.327  186.989
   19.798   38.531    0.325  172.477
   20.048   47.651    0.328  157.965
   20.298   56.771    0.336  147.065
   20.548   66.724    0.346  146.982
   20.798   70.893    0.370  164.974
   21.048   73.387    0.377  186.577
   21.298   76.722    0.388  186.511
   21.548   85.850    0.397  171.999
   21.798   88.359    0.400  153.875
   22.048   82.603    0.381  135.752
   22.298   74.368    0.381  124.819
   22.548   66.148    0.380  121.174
   22.798   63.691    0.369  121.108
   23.048   62.068    0.364  121.026
   23.298   58.784    0.393  117.348
   23.548   62.946    0.392  113.671
   23.798   68.767    0.380  117.216
   24.048   68.790    0.369  120.778
   24.298   67.173    0.386  124.324
   24.548   65.550    0.387  113.423
   24.798   69.704    0.373  102.523
   25.048   87.915    0.367  109.680
   25.298   91.265    0.365  149.340
   25.548   89.634    0.365  217.892
   25.798   88.003    0.376  369.509
   26.048   85.553    0.374  358.592
   26.298   78.972    0.374  351.319
   26.548   72.397    0.375  344.014
   26.798   69.113    0.374  340.353
   27.048   65.837    0.373  329.420
   27.298   65.040    0.377  325.775
   27.548   70.862    0.381  311.214
   27.798   75.038    0.384  307.569
   28.048   75.053    0.386  303.892
   28.298   75.082    0.384  300.214
   28.548   74.293    0.374  300.132
   28.798   71.835    0.373  296.438
   29.048   67.733    0.380  296.405
   29.298   64.464    0.392  289.116
   29.548   71.097    0.395  285.439
   29.798   73.614    0.393  281.761
   30.048   70.330    0.392  274.439
   30.298   61.269    0.390  270.795
   30.548   62.125    0.387  263.489
   30.798   91.905    0.386  252.573
   31.048   93.587    0.384  248.928
   31.298   82.047    0.377  241.639
   31.548   71.340    0.365  230.722
   31.798   82.106    0.373  223.433
   32.048  101.150    0.383  216.144
   32.298  101.180    0.392  205.244
   32.548   84.681    0.395  201.567
   32.798   78.106    0.392  201.468
   33.048   92.177    0.390  201.418
   33.298  103.784    0.395  197.757
   33.548   99.681    0.399  194.063
   33.798   95.572    0.402  186.791
   34.048   95.608    0.405  186.725
   34.298  100.589    0.408  179.420
   34.548  104.750    0.414  172.147
   34.798  107.259    0.417  161.230
   35.048  112.247    0.425  150.330
   35.298  117.235    0.416  139.429
   35.548  109.827    0.378  132.141
   35.798   97.460    0.374  132.075
   36.048   90.059    0.377  132.009
   36.298   90.907    0.387  146.389
   36.548   90.937    0.407  160.768
   36.798   88.487    0.419  164.314
   37.048   85.211    0.412  167.843
   37.298   79.455    0.402  175.000
   37.548   71.221    0.370  182.173
   37.798   62.993    0.354  196.553
   38.048   60.536    0.340  214.512
   38.298   64.698    0.335  221.702
   38.548   64.734    0.335  236.082
   38.798   61.458    0.347  246.850
   39.048   60.661    0.351  254.007
   39.298   61.524    0.351  257.553
   39.548   61.546    0.350  261.098
   39.798   65.715    0.344  268.239
   40.048   64.918    0.334  268.173
   40.298   60.808    0.330  271.735
   40.548   43.483    0.330  271.669
   40.798   36.075    0.335  271.603
   41.048   31.972    0.338  271.520
   41.298   44.405    0.338  267.843
   41.548   40.303    0.340  267.777
   41.798   36.200    0.337  271.306
   42.048   37.063    0.321  274.852
   42.298   37.078    0.319  274.786
   42.548   42.073    0.323  274.703
   42.798   47.054    0.327  274.637
   43.048   66.917    0.333  270.993
   43.298   72.731    0.344  263.687
   43.548   66.976    0.354  252.787
   43.798   57.915    0.342  245.498
   44.048   50.514    0.331  245.432
   44.298   50.543    0.332  256.201
   44.548   48.920    0.333  274.192
   44.798   43.157    0.335  281.349
   45.048   33.270    0.343  295.712
   45.298   24.216    0.341  299.291
   45.548   20.932    0.330  302.803
   45.798   24.267    0.319  302.754
   46.048   30.908    0.311  302.672
   46.298   40.869    0.314  306.217
   46.548   38.419    0.320  306.135
   46.798   36.789    0.326  309.697
   47.048   31.860    0.329  309.647
   47.298   26.938    0.329  313.193
   47.548   24.481    0.329  313.110
   47.798   41.038    0.318  305.821
   48.048   49.332    0.307  302.144
   48.298   52.675    0.308  298.466
   48.548   51.051    0.311  298.417
   48.798   42.809    0.315  301.946
   49.048   35.401    0.321  301.880
   49.298   32.951    0.322  294.591
   49.548   32.988    0.320  287.302
   49.798   35.496    0.312  287.236
   50.048   39.651    0.311  298.005
   50.298   42.167    0.310  305.162
   50.548   39.717    0.305  315.914
   50.798   36.441    0.306  323.071
   51.048   33.172    0.319  326.600
   51.298   33.187    0.327  330.162
   51.548   33.216    0.326  330.112
   51.798   33.253    0.323  333.658
   52.048   32.456    0.319  337.203
   52.298   33.326    0.312  340.732
   52.548   33.349    0.309  344.261
   52.798   33.378    0.306  344.228
   53.048   33.407    0.302  347.774
   53.298   33.444    0.301  351.303
   53.548   33.459    0.303  351.253
   53.798   33.496    0.307  351.187
   54.048   35.178    0.310  351.121
   54.298   42.638    0.310  354.650
   54.548   49.279    0.308  354.568
   54.798   48.482    0.303  358.146
   55.048   40.247    0.304  361.675
   55.298   32.839    0.309  361.609
   55.548   51.876    0.312  357.916
   55.798   56.045    0.316  354.222
   56.048   51.108    0.322  354.189
   56.298   43.700    0.315  350.511
   56.548   39.597    0.307  343.222
   56.798   33.023    0.304  339.545
   57.048   27.260    0.315  335.867
