~VERSION INFORMATION
 VERS.                 2.0:   CWLS LOG ASCII STANDARD -VERSION 2.0
 WRAP.                  NO:   ONE LINE PER DEPTH STEP
~WELL INFORMATION BLOCK
#MNEM.UNIT           DATA                    DESCRIPTION OF MNEMONIC
#---------    -------------------            -------------------------------
# Generated from Intellog Unique Number	CN_91_93/WELL/2975
WELL.         10-11-092-16W4                 : Well_name    - WELL
LOC .         AA/10-11-092-16W4/0            : Location     - LOCATION
UWI .         AA/10-11-092-16W400            : Uwi          - UNIQUE WELL ID
ENTR.         JOETTE                         : Entered      - ENTERED BY
SRVC.         SCHLUMBERGER                   : Scn          - SERVICE COMPANY
DATE.         04/07/92                       : Date         - LOG DATE
STRT.F        400                            : top_depth    - START DEPTH
STOP.F        760.072                        : bot_depth    - STOP DEPTH
STEP.F        0.82                           : increment    - STEP LENGTH
 NULL. -999.2500:NULL Value
~CURVE INFORMATION BLOCK
#MNEM UNIT       ERCB CURVE CODE    CURVE DESCRIPTION
#-----------   ------------------   ----------------------------------
DEPT.F        00 001 00 00         : DEPTH        - DEPTH
CALI.IN       00 280 01 00         : CAL          - CALIPER
GR  .API      00 310 00 00         : GR           - GAMMA RAY
NPHI.V/V      00 330 00 00         : PHIN         - NEUTRON POROSITY (SANDSTONE)
DPHI.V/V      00 890 00 00         : PHID         - DENSITY POROSITY (SANDSTONE)
ILD .OHMM     00 120 00 00         : RESD         - DEEP RESISTIVITY (DIL)
~PARAMETER INFORMATION
#MNEM.UNIT           DATA             DESCRIPTION OF MNEMONIC
#---------         -----------     ------------------------------
GL  .M        483.413              : gl           - GROUND LEVEL ELEVATION
EREF.M        487.07               : kb           - ELEVATION OF DEPTH REFERENCE
DATM.M        487.07               : datum        - DATUM ELEVATION
TDD .M        233.172              : tdd          - TOTAL DEPTH DRILLER
RUN .         ONE                  : Run          - RUN NUMBER
ENG .         BILL                 : Engineer     - RECORDING ENGINEER
WIT .         JIM                  : Witness      - WITNESSED BY
MUD .         GEL                  : Mud_type     - MUD TYPE
MATR.         SANDSTONE            : Logunit      - NEUTRON MATRIX
TMAX.F        66                   : BHT          - MAXIMUM RECORDED TEMPERATURE
BHTD.F        765                  : BHTDEP       - MAXIMUM RECORDED TEMPERATURE
RMT .F        67                   : MDTP         - TEMPERATURE OF MUD
MUDD.LB/G     930                  : MWT          - MUD DENSITY
NEUT.         1                    : NEUTRON      - NEUTRON TYPE
RESI.         0                    : RESIST       - RESISTIVITY TYPE
RM  .OHMM     0.76                 : RM           - RESISTIVITY OF MUD
RMC .OHMM     0.76                 : RMC          - RESISTIVITY OF MUD CAKE
RMF .OHMM     0.76                 : RMF          - RESISTIVITY OF MUD FILTRATE
SUFT.F        39.2                 : SUFT         - SURFACE TEMPERATURE
~A  DEPTH      CAL       GR     PHIN     PHID     RESD
# ...
  639.501    5.319   55.203    0.334    0.197   17.195
  640.322    5.301   57.008    0.366    0.297   23.255
  641.142    5.283   57.033    0.394    0.318   32.923
  641.962    5.265   58.838    0.388    0.291   40.261
  642.782    5.326   59.756    0.388    0.287   42.138
  643.602    5.466   58.895    0.391    0.276   42.130
  644.423    5.586   62.473    0.394    0.276   42.901
  645.243    5.707   63.688    0.392    0.297   42.501
  646.063    5.807   65.789    0.393    0.302   33.801
  646.883    5.828   67.890    0.395    0.289   32.282
  647.703    5.672   65.840    0.392    0.286   38.408
  648.524    5.595   62.903    0.392    0.293   38.752
  649.344    5.675   62.328    0.400    0.302   37.010
  650.164    5.598   63.840    0.405    0.305   37.344
  650.984    5.422   67.717    0.408    0.293   39.808
  651.804    5.384   68.635    0.407    0.287   41.285
  652.625    5.465   66.585    0.405    0.266   39.071
  653.445    5.605   68.093    0.401    0.242   34.681
  654.265    5.567   68.711    0.394    0.168   32.224
  655.085    5.489   69.923    0.385    0.145   32.515
  655.906    5.471   72.914    0.400    0.173   32.807
  656.726    5.493   76.794    0.396    0.253   31.913
  657.546    5.554   80.082    0.389    0.257   29.384
  658.366    5.615   79.217    0.392    0.241   25.844
  659.186    5.676   83.691    0.399    0.246   22.114
  660.007    5.836   86.088    0.401    0.239   21.710
  660.827    5.956   80.480    0.406    0.241   21.904
  661.647    6.096   73.388    0.383    0.256   23.782
  662.467    6.078   68.075    0.379    0.275   25.349
  663.287    5.922   68.397    0.391    0.282   25.114
  664.108    5.865   73.464    0.410    0.276   25.340
  664.928    5.945   75.268    0.407    0.294   27.511
  665.748    5.947   72.035    0.394    0.276   28.531
  666.568    5.830   72.354    0.393    0.283   28.526
  667.388    5.713   75.054    0.376    0.291   28.260
  668.209    5.675   75.080    0.374    0.277   28.260
  669.029    5.716   77.178    0.386    0.270   28.509
  669.849    5.777   80.168    0.393    0.251   30.390
  670.669    5.660   73.080    0.382    0.255   29.291
  671.490    5.445   74.291    0.381    0.263   26.724
  672.310    5.407   74.314    0.388    0.268   28.227
  673.130    5.508   68.408    0.397    0.272   30.645
  673.950    5.489   64.279    0.405    0.303   38.517
  674.770    5.293   59.559    0.414    0.327   44.179
  675.591    5.216   57.212    0.411    0.311   48.402
  676.411    5.198   57.831    0.411    0.303   48.840
  677.231    5.219   60.528    0.412    0.285   46.646
  678.051    5.280   64.705    0.389    0.266   42.948
  678.871    5.381   68.586    0.377    0.270   35.756
  679.692    5.501   74.842    0.367    0.274   34.464
  680.512    5.720   79.312    0.369    0.249   33.523
  681.332    5.860   79.934    0.379    0.229   32.017
  682.152    5.922   80.849    0.387    0.234   30.860
  682.972    5.963   88.584    0.394    0.237   30.294
  683.793    6.063   93.654    0.386    0.230   29.199
  684.613    6.282   96.938    0.363    0.209   26.398
  685.433    7.035   92.812    0.363    0.221   23.006
  686.253    7.907   91.064    0.385    0.238   18.806
  687.073    8.186   91.380    0.426    0.255   18.127
  687.894    7.851   87.847    0.423    0.271   18.122
  688.714    6.153   74.231    0.360    0.254   19.319
  689.534    5.818   70.698    0.348    0.168   21.361
  690.354    5.721   78.736    0.372    0.157   26.361
  691.175    5.742   81.721    0.388    0.231   31.077
  691.995    5.863   83.822    0.390    0.259   33.432
  692.815    6.003   86.516    0.390    0.252   34.991
  693.635    6.044   87.431    0.391    0.241   34.984
  694.455    6.026   93.987    0.367    0.214   24.928
  695.276    6.047   92.526    0.411    0.206   19.824
  696.096    6.089   81.873    0.421    0.244   19.284
  696.916    5.932   76.560    0.418    0.282   19.636
  697.736    5.776   76.586    0.418    0.295   20.741
  698.556    5.777   80.173    0.417    0.282   21.708
  699.377    5.878   82.574    0.409    0.265   21.704
  700.197    5.979   77.848    0.423    0.249   21.112
  701.017    5.901   71.349    0.411    0.259   20.915
  701.837    5.804   70.485    0.418    0.217   21.104
  702.657    5.727   73.776    0.427    0.269   20.906
  703.478    5.689   77.656    0.418    0.299   19.605
  704.298    5.690   83.612    0.392    0.279   19.782
  705.118    5.732   93.127    0.387    0.228   20.516
  705.938    5.793   89.594    0.395    0.208   21.083
  706.759    5.874   84.578    0.399    0.204   20.508
  707.579    5.915   87.865    0.388    0.226   18.882
  708.399    5.956   92.046    0.382    0.233   18.034
  709.219    5.978   94.450    0.368    0.209   17.066
  710.039    5.979   96.841    0.364    0.194   16.450
  710.860    6.001   95.384    0.368    0.192   15.568
  711.680    6.062   82.658    0.390    0.214   15.283
  712.500    6.103   78.531    0.413    0.246   15.704
  713.320    5.907   77.071    0.390    0.261   17.050
  714.140    5.810   72.945    0.388    0.237   19.026
  714.961    5.792   70.598    0.389    0.239   19.732
  715.781    5.853   76.257    0.374    0.238   19.548
  716.601    5.914   80.737    0.365    0.227   19.543
  717.421    5.956   77.198    0.373    0.182   20.084
  718.241    6.036   69.513    0.361   -0.006   20.640
  719.062    6.097   56.194    0.351   -0.002   22.002
  719.882    6.138   48.212    0.265    0.002   24.551
  720.702    6.159   45.566    0.201   -0.001   29.478
  721.522    6.181   43.812    0.189   -0.001   36.379
  722.343    6.181   39.389    0.182    0.003   43.281
  723.163    6.206   38.525    0.178    0.004   47.422
  723.983    6.226   39.146    0.185   -0.002   55.396
  724.803    6.247   40.657    0.197   -0.007   59.051
  725.623    6.250   43.941    0.212    0.008   56.397
  726.444    6.271   45.453    0.217    0.008   52.886
  727.264    6.272   45.182    0.210    0.003   49.595
  728.084    6.272   46.693    0.209    0.006   46.934
  728.904    6.237   48.494    0.216    0.005   46.066
  729.724    6.198   50.596    0.221    0.002   45.644
  730.545    6.141   51.507    0.229    0.008   45.644
  731.365    6.122   51.536    0.236    0.011   45.625
  732.185    6.124   51.262    0.241    0.006   44.789
  733.005    6.126   48.025    0.238    0.011   44.789
  733.825    6.127   45.678    0.221    0.001   44.366
  734.646    6.129   47.785    0.206    0.018   40.477
  735.466    6.111   48.398    0.221    0.015   37.269
  736.286    6.111   56.136    0.227    0.009   38.299
  737.106    6.096   64.168    0.247    0.016   38.290
  737.927    6.097   67.752    0.253    0.034   32.467
  738.747    6.118   70.150    0.258    0.046   27.030
  739.567    6.121   72.261    0.266    0.039   23.343
  740.387    6.122   73.472    0.271    0.042   22.293
  741.207    6.163   73.491    0.276    0.047   21.290
  742.028    6.164   71.737    0.279    0.049   21.095
  742.848    6.186   68.501    0.279    0.047   20.519
  743.668    6.187   65.561    0.274    0.046   20.514
  744.488    6.169   64.999    0.269    0.043   20.700
  745.308    6.169   65.018    0.271    0.043   21.467
  746.129    6.134   62.078    0.278    0.040   23.094
  746.949    6.115   50.239    0.278    0.038   24.393
  747.769    6.115   45.816    0.288    0.042   24.613
  748.589    6.119   41.992    0.303    0.048   23.292
  749.409    6.100   41.715    0.311    0.053   22.245
  750.230    6.102   41.444    0.314    0.057   21.640
  751.050    6.084   41.472    0.315    0.059   20.479
  751.870    6.086   41.498    0.314    0.056   19.738
  752.690    6.107   40.636    0.313    0.056   19.026
  753.510    6.129   40.062    0.309    0.058   18.677
  754.331    6.150   39.498    0.302    0.056   17.837
  755.151    6.191   39.823    0.281    0.056   17.193
  755.971    6.213   39.552    0.094    0.062   17.189
  756.791    6.215   38.091    0.087    0.072   18.323
  757.612    6.177   37.227    0.092    0.081   19.532
  758.432    6.177   36.659    0.080    0.065   20.072
