~VERSION INFORMATION
 VERS.                 2.0:   CWLS LOG ASCII STANDARD -VERSION 2.0
 WRAP.                  NO:   ONE LINE PER DEPTH STEP
~WELL INFORMATION BLOCK
#MNEM.UNIT           DATA                    DESCRIPTION OF MNEMONIC
#---------    -------------------            -------------------------------
# Generated from Intellog Unique Number	CS_77_79/WELL/949
WELL.         PEX PCEJ THORNBURY OV          : Well_name    - WELL
LOC .         AA/10-11-079-12W4/0            : Location     - LOCATION
UWI .         AA/10-11-079-12W4/0            : Uwi          - UNIQUE WELL ID
ENTR.         JHS                            : Entered      - ENTERED BY
SRVC.         SCHLUMBERGER                   : Scn          - SERVICE COMPANY
STRT.M        250                            : top_depth    - START DEPTH
STOP.M        465                            : bot_depth    - STOP DEPTH
STEP.M        0.25                           : increment    - STEP LENGTH
 NULL. -999.2500:NULL Value
~CURVE INFORMATION BLOCK
#MNEM UNIT       ERCB CURVE CODE    CURVE DESCRIPTION
#-----------   ------------------   ----------------------------------
DEPT.M        00 001 00 00         : DEPTH        - DEPTH
DPHI.V/V      00 890 00 00         : PHID         - DENSITY POROSITY (LIMESTONE)
NPHI.V/V      00 330 00 00         : PHIN         - NEUTRON POROSITY (LIMESTONE)
GR  .API      00 310 00 00         : GR           - GAMMA RAY
ILD .OHMM     00 120 00 00         : RESD         - DEEP RESISTIVITY (DIL)
RHOB.KG/M3    00 350 00 00         : DENS         - BULK DENSITY
~PARAMETER INFORMATION
#MNEM.UNIT           DATA             DESCRIPTION OF MNEMONIC
#---------         -----------     ------------------------------
GL  .M        640                  : gl           - GROUND LEVEL ELEVATION
EREF.M        643.5                : kb           - ELEVATION OF DEPTH REFERENCE
DATM.M        643.5                : datum        - DATUM ELEVATION
TDD .M        474                  : tdd          - TOTAL DEPTH DRILLER
RUN .         ONE                  : Run          - RUN NUMBER
ENG .         BILL                 : Engineer     - RECORDING ENGINEER
WIT .         JIM                  : Witness      - WITNESSED BY
MUD .         GEL                  : Mud_type     - MUD TYPE
MATR.         LIMESTONE            : Logunit      - NEUTRON MATRIX
TMAX.C        26                   : BHT          - MAXIMUM RECORDED TEMPERATURE
BHTD.M        474                  : BHTDEP       - MAXIMUM RECORDED TEMPERATURE
MATR.         1                    : LOGUNIT      - NEUTRON MATRIX
RMT .C        25                   : MDTP         - TEMPERATURE OF MUD
NEUT.         1                    : NEUTRON      - NEUTRON TYPE
RESI.         0                    : RESIST       - RESISTIVITY TYPE
RMC .OHMM     0.25                 : RMC          - RESISTIVITY OF MUD CAKE
RMF .OHMM     0.25                 : RMF          - RESISTIVITY OF MUD FILTRATE
SUFT.C        15                   : SUFT         - SURFACE TEMPERATURE
~A  DEPTH     PHID     PHIN       GR     RESD     DENS
# ...
  323.000    0.285    0.381   38.891   20.909    0.000
  323.250    0.284    0.370   42.019   20.908    0.000
  323.500    0.285    0.382   42.039   20.905    0.000
  323.750    0.283    0.386   43.922   20.904    0.000
  324.000    0.282    0.394   44.566   20.901    0.000
  324.250    0.282    0.394   42.096   20.900    0.000
  324.500    0.283    0.400   38.376   21.298    0.000
  324.750    0.285    0.402   37.773   21.296    0.000
  325.000    0.286    0.405   37.794   21.294    0.000
  325.250    0.284    0.398   37.189   20.893    0.000
  325.500    0.283    0.399   36.583   20.892    0.000
  325.750    0.279    0.398   37.223   20.889    0.000
  326.000    0.276    0.394   36.616   20.888    0.000
  326.250    0.270    0.422   35.394   20.885    0.000
  326.500    0.265    0.411   36.034   20.884    0.000
  326.750    0.256    0.411   36.050   20.882    0.000
  327.000    0.247    0.417   37.938   20.881    0.000
  327.250    0.253    0.406   34.839   20.878    0.000
  327.500    0.273    0.402   37.351   20.485    0.000
  327.750    0.259    0.404   38.612   20.874    0.000
  328.000    0.267    0.397   38.006   20.873    0.000
  328.250    0.287    0.392   35.534   20.871    0.000
  328.500    0.284    0.401   35.553   20.869    0.000
  328.750    0.283    0.396   36.817   21.266    0.000
  329.000    0.281    0.389   38.079   21.264    0.000
  329.250    0.280    0.395   38.096   21.263    0.000
  329.500    0.280    0.395   33.758   21.259    0.000
  329.750    0.280    0.386   33.779   21.258    0.000
  330.000    0.281    0.380   36.284   21.663    0.000
  330.250    0.281    0.374   40.036   21.661    0.000
  330.500    0.280    0.371   38.812   21.253    0.000
  330.750    0.280    0.366   41.318   21.250    0.000
  331.000    0.281    0.362   36.981   21.249    0.000
  331.250    0.285    0.388   33.263   21.247    0.000
  331.500    0.282    0.397   35.152   20.846    0.000
  331.750    0.281    0.402   34.542   20.845    0.000
  332.000    0.283    0.387   36.427   20.844    0.000
  332.250    0.286    0.384   35.826   20.842    0.000
  332.500    0.287    0.382   39.584   20.449    0.000
  332.750    0.287    0.402   41.463   20.064    0.000
  333.000    0.283    0.416   43.350   20.062    0.000
  333.250    0.282    0.409   43.365   20.061    0.000
  333.500    0.282    0.405   40.899   20.058    0.000
  333.750    0.283    0.408   40.292   20.057    0.000
  334.000    0.284    0.400   35.333   20.056    0.000
  334.250    0.282    0.400   38.460   20.436    0.000
  334.500    0.279    0.394   42.833   20.435    0.000
  334.750    0.277    0.395   43.476   20.432    0.000
  335.000    0.271    0.398   38.512   20.431    0.000
  335.250    0.271    0.401   41.020   20.429    0.000
  335.500    0.274    0.414   43.532   20.427    0.000
  335.750    0.277    0.414   44.794   20.425    0.000
  336.000    0.278    0.418   44.810   20.424    0.000
  336.250    0.278    0.402   42.340   20.039    0.000
  336.500    0.279    0.401   41.111   20.038    0.000
  336.750    0.279    0.395   43.620   20.036    0.000
  337.000    0.278    0.387   45.509   20.034    0.000
  337.250    0.277    0.386   46.765   19.657    0.000
  337.500    0.275    0.398   48.028   19.654    0.000
  337.750    0.270    0.411   46.183   19.285    0.000
  338.000    0.269    0.407   43.085   19.283    0.000
  338.250    0.273    0.402   45.595   18.919    0.000
  338.500    0.276    0.404   46.235   18.918    0.000
  338.750    0.279    0.407   48.746   19.278    0.000
  339.000    0.278    0.401   51.874   19.277    0.000
  339.250    0.270    0.397   52.513   19.275    0.000
  339.500    0.266    0.393   48.795   19.641    0.000
  339.750    0.264    0.407   48.818   19.640    0.000
  340.000    0.260    0.423   49.465   19.269    0.000
  340.250    0.281    0.434   50.719   19.268    0.000
  340.500    0.280    0.429   51.981   18.550    0.000
  340.750    0.266    0.437   52.625   18.202    0.000
  341.000    0.260    0.424   53.882   17.195    0.000
  341.250    0.275    0.414   54.527   16.871    0.000
  341.500    0.281    0.413   53.298   16.870    0.000
  341.750    0.276    0.411   51.449   16.868    0.000
  342.000    0.272    0.435   48.980   16.867    0.000
  342.250    0.271    0.431   48.373   16.865    0.000
  342.500    0.275    0.433   48.394   17.186    0.000
  342.750    0.267    0.427   49.036   17.513    0.000
  343.000    0.262    0.420   50.295   18.187    0.000
  343.250    0.262    0.409   52.179   18.185    0.000
  343.500    0.263    0.403   51.582   18.531    0.000
  343.750    0.268    0.402   50.355   18.530    0.000
  344.000    0.269    0.415   50.370   18.881    0.000
  344.250    0.273    0.422   52.877   18.880    0.000
  344.500    0.277    0.415   54.137   18.879    0.000
  344.750    0.280    0.413   52.911   18.523    0.000
  345.000    0.282    0.421   54.796   18.521    0.000
  345.250    0.274    0.422   54.815   18.172    0.000
  345.500    0.263    0.410   52.340   17.830    0.000
  345.750    0.254    0.402   48.627   17.166    0.000
  346.000    0.252    0.391   50.513   16.218    0.000
  346.250    0.249    0.397   58.000   14.476    0.000
  346.500    0.246    0.407   60.510   12.678    0.000
  346.750    0.237    0.418   61.771   11.316    0.000
  347.000    0.220    0.425   64.275   11.103    0.000
  347.250    0.185    0.407   66.159   11.531    0.000
  347.500    0.179    0.411   61.827   11.750    0.000
  347.750    0.197    0.420   62.461   10.688    0.000
  348.000    0.227    0.410   67.458    9.014    0.000
  348.250    0.235    0.420   73.700    8.515    0.000
  348.500    0.250    0.434   71.851    8.677    0.000
  348.750    0.254    0.440   70.625    8.044    0.000
  349.000    0.248    0.455   76.245    7.180    0.000
  349.250    0.237    0.441   83.733    5.830    0.000
  349.500    0.232    0.458   87.483    4.824    0.000
  349.750    0.232    0.442   86.256    3.992    0.000
  350.000    0.239    0.436   76.318    3.367    0.000
  350.250    0.228    0.430   75.715    3.062    0.000
  350.500    0.214    0.433   84.445    3.062    0.000
  350.750    0.202    0.470   92.551    3.120    0.000
  351.000    0.191    0.533   98.794    3.120    0.000
  351.250    0.186    0.539   90.720    3.179    0.000
  351.500    0.178    0.557   96.341    3.240    0.000
  351.750    0.180    0.552  103.204    3.179    0.000
  352.000    0.221    0.543  103.226    3.119    0.000
  352.250    0.213    0.551   98.884    2.946    0.000
  352.500    0.210    0.542   98.904    2.891    0.000
  352.750    0.211    0.544  102.035    2.837    0.000
  353.000    0.216    0.551  101.428    2.946    0.000
  353.250    0.226    0.567   97.713    3.118    0.000
  353.500    0.224    0.561   96.486    3.627    0.000
  353.750    0.225    0.553   98.370    4.063    0.000
  354.000    0.230    0.530   93.411    4.726    0.000
  354.250    0.230    0.496   94.050    5.195    0.000
  354.500    0.239    0.480   92.828    5.603    0.000
  354.750    0.265    0.474   89.734    5.394    0.000
  355.000    0.275    0.453   86.013    5.001    0.000
  355.250    0.281    0.454   82.298    5.000    0.000
  355.500    0.294    0.449   80.450    5.095    0.000
  355.750    0.313    0.451   76.734    5.392    0.000
  356.000    0.333    0.460   77.382    5.707    0.000
  356.250    0.369    0.468   77.397    6.393    0.000
  356.500    0.357    0.486   76.788    7.026    0.000
  356.750    0.346    0.492   76.182    7.436    0.000
  357.000    0.314    0.481   76.822    8.489    0.000
  357.250    0.303    0.461   77.468    9.876    0.000
  357.500    0.285    0.446   79.348   11.274    0.000
  357.750    0.241    0.423   81.234   10.650    0.000
  358.000    0.220    0.402   73.783    8.648    0.000
  358.250    0.218    0.402   74.425    6.388    0.000
  358.500    0.217    0.432   85.647    4.995    0.000
  358.750    0.228    0.452   91.885    4.212    0.000
  359.000    0.238    0.452   81.324    3.760    0.000
  359.250    0.251    0.474   86.943    3.485    0.000
