~VERSION INFORMATION
 VERS.                 2.0:   CWLS LOG ASCII STANDARD -VERSION 2.0
 WRAP.                  NO:   ONE LINE PER DEPTH STEP
~WELL INFORMATION BLOCK
#MNEM.UNIT           DATA                    DESCRIPTION OF MNEMONIC
#---------    -------------------            -------------------------------
# Generated from Intellog Unique Number	CS_77_79/WELL/962
WELL.         PEX PCEJ LEISMER OV            : Well_name    - WELL
LOC .         AA/10-26-078-08W4/0            : Location     - LOCATION
UWI .         AA/10-26-078-08W4/0            : Uwi          - UNIQUE WELL ID
ENTR.         JHS                            : Entered      - ENTERED BY
SRVC.         SCHLUMBERGER                   : Scn          - SERVICE COMPANY
STRT.M        120                            : top_depth    - START DEPTH
STOP.M        335                            : bot_depth    - STOP DEPTH
STEP.M        0.25                           : increment    - STEP LENGTH
 NULL. -999.2500:NULL Value
~CURVE INFORMATION BLOCK
#MNEM UNIT       ERCB CURVE CODE    CURVE DESCRIPTION
#-----------   ------------------   ----------------------------------
DEPT.M        00 001 00 00         : DEPTH        - DEPTH
DPHI.V/V      00 890 00 00         : PHID         - DENSITY POROSITY (LIMESTONE)
NPHI.V/V      00 330 00 00         : PHIN         - NEUTRON POROSITY (LIMESTONE)
GR  .API      00 310 00 00         : GR           - GAMMA RAY
ILD .OHMM     00 120 00 00         : RESD         - DEEP RESISTIVITY (DIL)
RHOB.KG/M3    00 350 00 00         : DENS         - BULK DENSITY
~PARAMETER INFORMATION
#MNEM.UNIT           DATA             DESCRIPTION OF MNEMONIC
#---------         -----------     ------------------------------
GL  .M        560                  : gl           - GROUND LEVEL ELEVATION
EREF.M        563.58               : kb           - ELEVATION OF DEPTH REFERENCE
DATM.M        563.58               : datum        - DATUM ELEVATION
TDD .M        342                  : tdd          - TOTAL DEPTH DRILLER
RUN .         ONE                  : Run          - RUN NUMBER
ENG .         BILL                 : Engineer     - RECORDING ENGINEER
WIT .         JIM                  : Witness      - WITNESSED BY
MUD .         GEL                  : Mud_type     - MUD TYPE
MATR.         LIMESTONE            : Logunit      - NEUTRON MATRIX
TMAX.C        16                   : BHT          - MAXIMUM RECORDED TEMPERATURE
BHTD.M        342                  : BHTDEP       - MAXIMUM RECORDED TEMPERATURE
MATR.         1                    : LOGUNIT      - NEUTRON MATRIX
RMT .C        25                   : MDTP         - TEMPERATURE OF MUD
NEUT.         1                    : NEUTRON      - NEUTRON TYPE
RESI.         0                    : RESIST       - RESISTIVITY TYPE
RMC .OHMM     0.25                 : RMC          - RESISTIVITY OF MUD CAKE
RMF .OHMM     0.25                 : RMF          - RESISTIVITY OF MUD FILTRATE
SUFT.C        15                   : SUFT         - SURFACE TEMPERATURE
~A  DEPTH     PHID     PHIN       GR     RESD     DENS
# ...
  229.500    0.257    0.410   99.590   10.863    0.000
  229.750    0.258    0.399   90.984   11.284    0.000
  230.000    0.257    0.412   98.975   11.506    0.000
  230.250    0.256    0.431   98.361   11.300    0.000
  230.500    0.258    0.468  103.893   10.893    0.000
  230.750    0.266    0.495  108.811   10.306    0.000
  231.000    0.297    0.515  114.959    9.395    0.000
  231.250    0.323    0.552  113.730    8.563    0.000
  231.500    0.304    0.559  108.811    7.807    0.000
  231.750    0.286    0.568  106.352    7.523    0.000
  232.000    0.268    0.576  110.041    6.986    0.000
  232.250    0.264    0.573  102.664    6.611    0.000
  232.500    0.268    0.587  114.344    6.027    0.000
  232.750    0.271    0.588  120.492    5.809    0.000
  233.000    0.271    0.595  116.189    5.394    0.000
  233.250    0.274    0.591  125.410    5.009    0.000
  233.500    0.288    0.581  128.484    4.740    0.000
  233.750    0.297    0.581  122.951    4.484    0.000
  234.000    0.299    0.586  119.262    4.012    0.000
  234.250    0.304    0.590  116.189    3.523    0.000
  234.500    0.317    0.554  110.041    3.525    0.000
  234.750    0.314    0.518  113.730    3.801    0.000
  235.000    0.273    0.492  119.262    4.585    0.000
  235.250    0.290    0.462  121.107    6.186    0.000
  235.500    0.304    0.452  112.500    7.600    0.000
  235.750    0.307    0.451   98.361    8.666    0.000
  236.000    0.298    0.443   98.975    9.885    0.000
  236.250    0.279    0.432  108.197   10.267    0.000
  236.500    0.268    0.421  111.270   10.467    0.000
  236.750    0.253    0.430  107.582    9.903    0.000
  237.000    0.256    0.437  111.270    9.196    0.000
  237.250    0.253    0.432  121.107    8.701    0.000
  237.500    0.252    0.425  122.951    8.547    0.000
  237.750    0.249    0.431  116.803    8.554    0.000
  238.000    0.246    0.452  117.418    8.719    0.000
  238.250    0.246    0.468  119.262    8.889    0.000
  238.500    0.248    0.484  118.033    9.235    0.000
  238.750    0.248    0.497  113.730    9.592    0.000
  239.000    0.247    0.485  114.959    9.781    0.000
  239.250    0.249    0.487  118.648    9.787    0.000
  239.500    0.252    0.496  119.877    9.795    0.000
  239.750    0.247    0.462  114.959    9.986    0.000
  240.000    0.246    0.460  110.656    9.992    0.000
  240.250    0.243    0.454  116.803   10.188    0.000
  240.500    0.245    0.459  120.492   10.006    0.000
  240.750    0.247    0.447  124.795   10.010    0.000
  241.000    0.245    0.475  105.738    9.651    0.000
  241.250    0.243    0.441  101.434    9.478    0.000
  241.500    0.240    0.452  108.811    9.137    0.000
  241.750    0.238    0.464  112.500    8.973    0.000
  242.000    0.236    0.473  112.500    8.979    0.000
  242.250    0.234    0.448  119.877    8.497    0.000
  242.500    0.236    0.443  124.795    8.502    0.000
  242.750    0.241    0.451  122.336    8.508    0.000
  243.000    0.245    0.454  126.639    8.674    0.000
  243.250    0.246    0.446  124.180    8.679    0.000
  243.500    0.242    0.452  112.500    8.850    0.000
  243.750    0.236    0.475  118.033    8.694    0.000
  244.000    0.228    0.493  119.877    8.697    0.000
  244.250    0.236    0.518  115.574    8.231    0.000
  244.500    0.260    0.512  116.189    7.934    0.000
  244.750    0.293    0.531  122.336    7.366    0.000
  245.000    0.321    0.553  116.803    6.349    0.000
  245.250    0.375    0.570  114.959    5.271    0.000
  245.500    0.369    0.597  128.484    4.458    0.000
  245.750    0.336    0.615  124.180    3.500    0.000
  246.000    0.340    0.621  122.951    3.073    0.000
  246.250    0.348    0.623  126.025    2.699    0.000
  246.500    0.332    0.623  114.344    2.460    0.000
  246.750    0.321    0.621  102.664    2.461    0.000
  247.000    0.321    0.612  107.582    2.557    0.000
  247.250    0.334    0.603  107.582    2.809    0.000
  247.500    0.346    0.582  109.426    3.264    0.000
  247.750    0.359    0.528  108.197    3.722    0.000
  248.000    0.335    0.512  110.041    4.489    0.000
  248.250    0.284    0.497  111.270    5.414    0.000
  248.500    0.273    0.403  108.197    6.907    0.000
  248.750    0.286    0.371  114.344    8.176    0.000
  249.000    0.296    0.351  103.893    9.861    0.000
  249.250    0.302    0.334   95.287   11.892    0.000
  249.500    0.298    0.320   99.590   14.077    0.000
  249.750    0.282    0.297  102.664   16.980    0.000
  250.000    0.275    0.287   91.598   18.651    0.000
  250.250    0.302    0.284   97.746   21.270    0.000
  250.500    0.341    0.287   93.443   23.368    0.000
  250.750    0.336    0.298   98.361   24.272    0.000
  251.000    0.303    0.309  100.205   24.290    0.000
  251.250    0.163    0.304   94.672   23.414    0.000
  251.500    0.137    0.290   73.156   21.344    0.000
  251.750    0.173    0.271   68.853   18.741    0.000
  252.000    0.243    0.293   98.975   16.455    0.000
  252.250    0.297    0.341  102.049   14.721    0.000
  252.500    0.319    0.350  100.820   13.420    0.000
  252.750    0.311    0.329  102.049   12.464    0.000
  253.000    0.293    0.340  106.352   12.238    0.000
  253.250    0.287    0.365  105.123   10.951    0.000
  253.500    0.284    0.358   98.361   10.556    0.000
  253.750    0.276    0.330  100.205    9.987    0.000
  254.000    0.259    0.304  109.426   10.768    0.000
  254.250    0.074    0.275  105.123   11.395    0.000
  254.500    0.074    0.215   94.672   12.757    0.000
  254.750    0.165    0.241   81.762   13.498    0.000
  255.000    0.217    0.278   92.213   14.021    0.000
  255.250    0.291    0.365   97.746   13.771    0.000
  255.500    0.282    0.428  105.738   12.553    0.000
  255.750    0.265    0.417  111.885   10.820    0.000
  256.000    0.254    0.430  111.885    9.860    0.000
  256.250    0.256    0.447  116.803    8.658    0.000
  256.500    0.248    0.440  106.967    8.043    0.000
  256.750    0.250    0.430  109.426    7.751    0.000
  257.000    0.252    0.435  114.344    7.613    0.000
  257.250    0.247    0.442  110.041    7.619    0.000
  257.500    0.243    0.435  112.500    7.623    0.000
  257.750    0.242    0.434  119.262    7.919    0.000
  258.000    0.246    0.440  122.336    8.382    0.000
  258.250    0.251    0.451  121.721    8.707    0.000
  258.500    0.254    0.417  119.262    9.043    0.000
  258.750    0.251    0.406  118.033    9.393    0.000
  259.000    0.254    0.391  110.041    9.759    0.000
  259.250    0.261    0.380  113.730    9.763    0.000
  259.500    0.269    0.386  108.197    9.591    0.000
  259.750    0.279    0.408  109.426    9.418    0.000
  260.000    0.276    0.419  106.967    9.081    0.000
  260.250    0.272    0.426  110.656    8.917    0.000
  260.500    0.263    0.435  104.508    8.596    0.000
  260.750    0.256    0.429  110.041    8.286    0.000
  261.000    0.253    0.429  116.803    8.140    0.000
  261.250    0.256    0.425  116.803    7.847    0.000
  261.500    0.250    0.433  101.434    7.708    0.000
  261.750    0.253    0.453  105.738    7.569    0.000
  262.000    0.259    0.440  111.270    7.298    0.000
  262.250    0.278    0.461  114.344    7.167    0.000
  262.500    0.309    0.445  112.500    6.656    0.000
  262.750    0.347    0.454  108.197    6.181    0.000
  263.000    0.368    0.441  116.803    6.300    0.000
  263.250    0.340    0.414  122.336    6.545    0.000
  263.500    0.320    0.322  107.582    7.326    0.000
  263.750    0.345    0.302   97.746    8.199    0.000
  264.000    0.368    0.287   92.828    9.350    0.000
  264.250    0.386    0.287   97.746   10.466    0.000
  264.500    0.389    0.307  105.738   11.076    0.000
  264.750    0.356    0.337   98.975   11.722    0.000
  265.000    0.278    0.367   90.369   11.953    0.000
  265.250    0.167    0.339   86.066   11.960    0.000
  265.500    0.133    0.254   75.615   11.319    0.000
  265.750    0.189    0.306   82.377   11.322    0.000
