~Version : LASO    vs 4.00 - DATA COPYRIGHT - RILEYS DATASHARE INTERNATIONAL
 VERS.                2.0 :   CWLS Log ASCII Standard -VERSION 2.0
 WRAP.                 NO :   One line per depth step
~Well Information Block
#MNEM.UNIT       Data                        Description of Mnemonic
#----.----      -------------------------- : -----------------------------
 STRT.FT           30.0000                 : Start Depth
 STOP.FT          463.0000                 : End Depth
 STEP.FT            0.5000                 : Depth Increment
 NULL.           -999.25                   : NULL Value
 COMP.    PACIFIC PETROLEUMS LIMITED       : COMPANY
 WELL.    BAYSEL-ASHLAND STPBK CH#21 13-30 : WELL NAME
 FLD .    STPBK. OIL SANDS                 : FIELD NAME
 LOC .    13-30-091-08W4                     : WELL LOCATION
 PROV.    ALBERTA                          : PROVINCE
 SRVC.    SCHLUMBERGER                     : LOGGING SERVICE COMPANY
 DATE.    01-MAR-73                        : DATE LOGGED
 UWI .    AA/13-30-091-08W400              : UNIQUE WELL ID
~Curve Information Block
#MNEM.UNIT        API CODE                   Curve Description
#----.----      LG--CV-CL--M               : -----------------
 DEPT.FT         0   1  0  0               : 1 DEPTH
 CALI.IN        45 280  1  1               : 2 DENSITY CALIPER
 DPHI.%         45 890 12  1               : 3 DENSITY POROSITY (SANDSTONE)
 GR  .GAPI      45 310  1  1               : 4 GAMMA RAY
 RHOB.G/C3      45 350  1  1               : 5 BULK DENSITY
 LLS .OHMM      11 220  9  1               : 6 FOCUSSED RESISTIVITY
 SP  .MV        11  10  1  1               : 7 SPONTANEOUS POTENTIAL
 NPHI.%         41 890  3  1               : 8 NEUTRON POROSITY (SANDSTONE)
~Parameter Information Block
#MNEM.UNIT       Data                        Description of Mnemonic
#----.----      -------------------------- : -----------------------------
 RUN .                   1                 : Run Number
 GL  .FT         1240.0000                 : Ground Level Elevation
 DREF.                  KB                 : Depth Reference
 EREF.FT         1244.0000                 : Elevation of Depth Reference
 TDL .FT          464.0000                 : Total Depth Logger
 TDD .FT          455.0000                 : Total Depth Driller
 CSGL.FT            0.0000                 : Casing Bottom Logger
 CSGD.FT            0.0000                 : Casing Bottom Driller
 CSGS.IN          219.0000                 : Casing Size
 CSGW.LBS           0.0000                 : Casing Weight
 BHT .DEGF         52.0000                 : Bottom Hole Temperature
 BS  .IN            6.2500                 : Bit Size
 DFD .           1110.0000                 : Mud Weight (Density)
 DFV .             89.0000                 : Mud Viscosity
 DFL .              4.5000                 : Mud Fluid Loss
 DFPH.              9.0000                 : Mud pH
 RM  .OHMM          4.6200                 : Mud Resistivity
 RMT .DEGF         49.0000                 : Mud Resistivity Temperature
 RMF .OHMM          5.0000                 : Mud Filtrate Resistivity
 RMFT.DEGF         20.0000                 : RMF Temperature
 RMC .OHMM          5.3000                 : Mud Cake Resistivity
 RMCT.DEGF         20.0000                 : RMC Temperature
~Asc DEPTH      CALI       DPHI       GR         RHOB       LLS        SP         NPHI 
# ...
  303.0000     6.3350    30.1200    16.5100     2.1513   189.2474    27.7500    34.7760
  303.5000     6.3170    30.4320    18.8000     2.1433   137.8573    27.4800    32.8620
  304.0000     6.2990    30.6840    20.1800     2.1380   140.1619    26.9550    33.4140
  304.5000     6.2900    30.9360    20.2700     2.1351   140.4203    30.4050    32.9820
  305.0000     6.2850    31.9380    20.1300     2.1193    61.1829    34.2150    34.4100
  305.5000     6.2810    31.5480    19.9500     2.1258    59.4059    35.9700    35.9640
  306.0000     6.2810    30.7680    19.9500     2.1379    80.5063    35.0250    35.4120
  306.5000     6.2810    29.6040    22.5300     2.1558   145.4219    32.3700    34.8540
  307.0000     6.2810    29.8560    22.8900     2.1513   319.3228    29.7150    34.2240
  307.5000     6.2810    30.3540    20.7900     2.1445   520.2714    27.0600    34.6800
  308.0000     6.2810    30.4740    19.1900     2.1411   252.0170    24.9600    34.1940
  308.5000     6.2810    30.5940    18.2500     2.1367   156.6859    22.9650    32.9460
  309.0000     6.2810    31.5720    18.1300     2.1267   160.3356    21.7650    34.2540
  309.5000     6.2810    31.9080    19.2100     2.1181   238.4679    20.8950    35.3160
  310.0000     6.2830    31.7160    19.4500     2.1236   425.6277    19.9050    35.6160
  310.5000     6.2850    31.4340    20.5900     2.1308   404.6038    18.8100    35.2980
  311.0000     6.2870    31.1640    19.9000     2.1324   253.4136    17.2350    34.8420
  311.5000     6.2890    32.1300    18.8400     2.1159   149.3585    15.7950    34.6200
  312.0000     6.2890    32.8620    19.7200     2.1048   140.1619    14.7000    35.0820
  312.5000     6.2790    33.5040    21.0600     2.0944   159.3052    14.2500    35.8740
  313.0000     6.2720    32.8200    22.0900     2.1087   221.3247    13.1550    37.2540
  313.5000     6.2650    32.0400    22.3600     2.1240   360.2715    10.9050    36.0180
  314.0000     6.2580    31.2600    22.6200     2.1343   259.3164     7.9800    34.4040
  314.5000     6.2500    30.4860    22.9500     2.1418   331.9173     5.9400    35.1000
  315.0000     6.2540    30.5220    24.1700     2.1437   420.5619     6.4950    35.2920
  315.5000     6.2580    30.5580    25.9200     2.1433   522.1917     7.0200    34.7460
  316.0000     6.2620    30.5940    28.9600     2.1427   392.1299     6.5850    34.1940
  316.5000     6.2660    30.7680    30.3800     2.1424   264.6244     5.8800    33.3900
  317.0000     6.2730    30.9600    29.2800     2.1361   333.4494     6.4500    33.4860
  317.5000     6.2720    31.2000    26.9000     2.1325   390.6879     7.2450    33.5580
  318.0000     6.2710    31.4880    23.8000     2.1276   223.3726     7.9950    33.2580
  318.5000     6.2700    31.6440    18.7600     2.1214   268.3057     8.7300    32.8620
  319.0000     6.2690    31.2480    18.9200     2.1312   421.7256     9.4650    34.1040
  319.5000     6.2680    31.6020    19.4100     2.1229   346.2820     9.9000    35.5440
  320.0000     6.2670    32.4780    20.1900     2.1107   222.9615    10.6500    35.4360
  320.5000     6.2640    32.2680    20.0500     2.1193   124.3455    12.1950    35.1420
  321.0000     6.2630    31.9980    19.4600     2.1169   185.6222    16.3050    33.2820
  321.5000     6.2620    32.2560    18.0400     2.1117   265.3566    19.6800    33.2460
  322.0000     6.2610    32.9280    17.5900     2.1059   355.3284    21.4350    34.9380
  322.5000     6.2570    32.4180    17.2900     2.1114   521.2306    23.2650    36.4620
  323.0000     6.2480    31.7340    16.8500     2.1246   791.0973    27.3300    35.7600
  323.5000     6.2320    31.3260    16.7800     2.1325  1230.9202    30.0450    37.1820
  324.0000     6.1780    30.9420    19.4500     2.1328   626.0801    31.4100    36.3540
  324.5000     6.1830    30.7440    20.9600     2.1371   304.9509    32.6700    35.4180
  325.0000     6.1890    30.3840    22.1000     2.1442   159.4520    34.4550    34.0080
  325.5000     6.2380    29.7720    22.8500     2.1558   126.1915    34.9500    33.2100
  326.0000     6.2880    28.8780    23.2100     2.1719   188.5515    35.0100    33.5940
  326.5000     6.3380    29.2320    21.8900     2.1631   360.6035    32.0250    34.1580
  327.0000     6.3620    29.9160    20.2000     2.1494   533.8631    29.2500    34.9260
  327.5000     6.3840    30.6000    20.1900     2.1357   790.3690    27.3300    36.9000
  328.0000     6.3130    31.6200    19.0800     2.1242   868.2203    26.0550    37.3620
  328.5000     6.2430    31.2840    20.3700     2.1297   761.0793    26.4600    36.5580
  329.0000     6.1740    30.6360    22.4800     2.1407   772.3781    26.9250    35.5440
  329.5000     6.1050    29.9880    24.6300     2.1538   665.9321    27.3900    34.5360
  330.0000     6.0420    29.0760    24.0000     2.1660   215.6900    28.6650    33.5820
  330.5000     5.9930    29.2800    24.3500     2.1638   118.2034    30.8700    32.7960
  331.0000     5.9520    28.7040    24.9500     2.1763    90.4961    33.6000    32.7540
  331.5000     5.9840    27.9060    27.8200     2.1919    41.7474    36.3300    33.4920
  332.0000     6.0990    27.1080    31.5300     2.2072    26.3166    41.5800    34.8600
  332.5000     6.1920    26.3100    31.6500     2.2192    20.6552    48.8700    35.9760
  333.0000     6.2540    25.8720    27.9200     2.1961    34.9486    52.3650    34.6800
  333.5000     6.2820    29.7360    24.4200     2.1533    44.4457    48.0450    36.4740
  334.0000     6.3100    32.3820    20.9200     2.1105    32.2872    41.3850    35.6040
  334.5000     6.3130    33.3420    18.2500     2.0997    30.7206    37.3050    36.4260
  335.0000     6.3130    33.5940    19.3500     2.0904    60.8457    35.1900    37.9200
  335.5000     6.2900    33.8940    20.6300     2.0856    87.5447    36.7800    38.8680
  336.0000     6.2620    33.7080    20.4600     2.0843    91.8396    38.6100    37.6980
  336.5000     6.2420    33.2520    19.9400     2.0967    91.6706    39.7650    38.3340
  337.0000     6.2450    32.7000    18.6400     2.1121   111.9515    40.2300    36.8400
  337.5000     6.2470    32.1480    19.1700     2.1173   144.8872    39.7200    35.3220
  338.0000     6.2890    31.6920    19.4800     2.1209   238.0290    38.6850    34.3200
  338.5000     6.3310    31.8600    16.7800     2.1218   391.0479    37.6500    34.3440
  339.0000     6.3650    32.2080    17.2700     2.1101   591.3300    36.0000    33.7140
  339.5000     6.3630    32.5560    17.8600     2.1045   643.6205    34.3050    33.3900
  340.0000     6.3610    32.9040    18.0500     2.0988   688.3826    31.3950    33.7860
  340.5000     6.3540    33.1980    17.3900     2.0996   738.2950    26.9700    34.3320
  341.0000     6.3450    33.3420    16.6200     2.1002   786.0133    21.9750    34.9980
  341.5000     6.3370    33.4860    16.4200     2.0935   816.2626    17.0100    37.1580
  342.0000     6.3180    33.5280    17.2600     2.0918   826.0948    12.5550    36.7500
  342.5000     6.2930    33.5460    17.6000     2.0938   559.5385    15.3450    35.9220
  343.0000     6.3010    33.6600    17.9500     2.0952   455.6485    16.9500    35.1720
  343.5000     6.3130    33.7680    18.2900     2.0861   471.8782    18.3150    35.9880
  344.0000     6.3250    33.3600    17.6100     2.0931   573.0994    22.0650    36.4500
  344.5000     6.3370    33.0180    17.8500     2.0989   723.4857    21.8400    36.0000
  345.0000     6.3510    32.7480    18.2700     2.1051   951.9846    21.2550    35.6160
  345.5000     6.3640    32.4480    18.6900     2.1101  1123.6470    20.3400    35.9520
  346.0000     6.3770    32.0280    19.4800     2.1148  1150.8796    19.4250    36.8940
  346.5000     6.3900    31.6020    20.2600     2.1223   761.0793    18.5400    38.4180
  347.0000     6.3970    31.1700    21.8000     2.1288   389.6098    17.8800    35.7180
  347.5000     6.3990    30.8280    23.4400     2.1390   335.6062    17.6250    33.4140
  348.0000     6.4010    30.5460    23.9600     2.1454   198.7147    20.0850    35.2500
