~Version : LASO    vs 4.00 - DATA COPYRIGHT - RILEYS DATASHARE INTERNATIONAL
 VERS.                2.0 :   CWLS Log ASCII Standard -VERSION 2.0
 WRAP.                 NO :   One line per depth step
~Well Information Block
#MNEM.UNIT       Data                        Description of Mnemonic
#----.----      -------------------------- : -----------------------------
 STRT.FT           30.0000                 : Start Depth
 STOP.FT          463.0000                 : End Depth
 STEP.FT            0.5000                 : Depth Increment
 NULL.           -999.25                   : NULL Value
 COMP.    PACIFIC PETROLEUMS LIMITED       : COMPANY
 WELL.    BAYSEL-ASHLAND STPBK CH#21 13-30 : WELL NAME
 FLD .    STPBK. OIL SANDS                 : FIELD NAME
 LOC .    13-30-091-08W4                     : WELL LOCATION
 PROV.    ALBERTA                          : PROVINCE
 SRVC.    SCHLUMBERGER                     : LOGGING SERVICE COMPANY
 DATE.    01-MAR-73                        : DATE LOGGED
 UWI .    AA/13-30-091-08W400              : UNIQUE WELL ID
~Curve Information Block
#MNEM.UNIT        API CODE                   Curve Description
#----.----      LG--CV-CL--M               : -----------------
 DEPT.FT         0   1  0  0               : 1 DEPTH
 CALI.IN        45 280  1  1               : 2 DENSITY CALIPER
 DPHI.%         45 890 12  1               : 3 DENSITY POROSITY (SANDSTONE)
 GR  .GAPI      45 310  1  1               : 4 GAMMA RAY
 RHOB.G/C3      45 350  1  1               : 5 BULK DENSITY
 LLS .OHMM      11 220  9  1               : 6 FOCUSSED RESISTIVITY
 SP  .MV        11  10  1  1               : 7 SPONTANEOUS POTENTIAL
 NPHI.%         41 890  3  1               : 8 NEUTRON POROSITY (SANDSTONE)
~Parameter Information Block
#MNEM.UNIT       Data                        Description of Mnemonic
#----.----      -------------------------- : -----------------------------
 RUN .                   1                 : Run Number
 GL  .FT         1240.0000                 : Ground Level Elevation
 DREF.                  KB                 : Depth Reference
 EREF.FT         1244.0000                 : Elevation of Depth Reference
 TDL .FT          464.0000                 : Total Depth Logger
 TDD .FT          455.0000                 : Total Depth Driller
 CSGL.FT            0.0000                 : Casing Bottom Logger
 CSGD.FT            0.0000                 : Casing Bottom Driller
 CSGS.IN          219.0000                 : Casing Size
 CSGW.LBS           0.0000                 : Casing Weight
 BHT .DEGF         52.0000                 : Bottom Hole Temperature
 BS  .IN            6.2500                 : Bit Size
 DFD .           1110.0000                 : Mud Weight (Density)
 DFV .             89.0000                 : Mud Viscosity
 DFL .              4.5000                 : Mud Fluid Loss
 DFPH.              9.0000                 : Mud pH
 RM  .OHMM          4.6200                 : Mud Resistivity
 RMT .DEGF         49.0000                 : Mud Resistivity Temperature
 RMF .OHMM          5.0000                 : Mud Filtrate Resistivity
 RMFT.DEGF         20.0000                 : RMF Temperature
 RMC .OHMM          5.3000                 : Mud Cake Resistivity
 RMCT.DEGF         20.0000                 : RMC Temperature
~Asc DEPTH      CALI       DPHI       GR         RHOB       LLS        SP         NPHI 
# ...
  257.5000     7.2460    16.3920    73.9000     2.3809    20.4094    54.2850    37.5660
  258.0000     7.0300    14.4300    75.1400     2.4125    24.2678    54.6300    33.9660
  258.5000     6.9430    12.8220    76.6800     2.4361    27.4303    54.7050    31.2900
  259.0000     6.8540    14.3820    73.8500     2.3989    31.2629    53.6100    30.2760
  259.5000     6.8350    15.1500    71.0300     2.4063    33.2836    52.2150    29.0700
  260.0000     6.8280    12.8160    68.6800     2.4196    34.7880    51.0450    27.6420
  260.5000     6.8160    11.1720    65.3600     2.4468    33.8400    51.2250    27.6060
  261.0000     6.7930    10.2300    63.1100     2.4862    31.6395    50.8050    27.2400
  261.5000     6.9080    10.0200    65.3700     2.4818    29.0155    51.4950    26.7300
  262.0000     6.9340    13.1340    68.3400     2.4657    22.8997    51.8850    28.0500
  262.5000     6.9460    15.3900    71.3500     2.4039    21.8691    51.6750    31.2780
  263.0000     6.9560    17.3940    74.7100     2.3490    24.9937    50.8800    32.0520
  263.5000     6.9660    18.8220    76.5200     2.3360    22.5647    50.0700    33.5040
  264.0000     7.0040    19.8540    75.7200     2.3250    19.1174    49.3650    35.2680
  264.5000     7.0620    20.7300    79.2500     2.3162    15.7264    51.6900    36.3660
  265.0000     7.1510    20.7180    81.9200     2.3090    12.8775    53.6700    37.7460
  265.5000     7.1800    21.0180    84.8500     2.2989    11.2468    55.6350    39.6720
  266.0000     7.2020    21.7560    82.6700     2.2823    15.5822    56.5650    38.3820
  266.5000     7.1140    22.2360    81.3700     2.2855    19.0121    54.7200    38.4060
  267.0000     6.9750    21.7440    76.6800     2.2894    21.8288    52.1850    35.2380
  267.5000     6.9150    22.9500    70.8100     2.2693    25.0628    52.7850    34.2540
  268.0000     6.9130    21.3780    67.2100     2.2852    15.8573    53.4450    33.6960
  268.5000     6.9060    20.7600    65.0500     2.3065    16.3768    51.6150    33.0420
  269.0000     6.8990    20.1960    62.4500     2.3118    18.0065    44.8800    32.1480
  269.5000     6.8640    21.4980    53.9900     2.3150    21.1753    38.1450    31.2120
  270.0000     6.8330    23.5980    44.2800     2.2566    31.1480    29.9550    30.4920
  270.5000     6.8580    25.6980    37.6500     2.2149    50.4696    25.3950    29.7360
  271.0000     6.8780    27.1140    31.9800     2.1902    81.7768    25.1400    30.3660
  271.5000     6.9060    27.9960    28.6300     2.1793   132.5043    24.9150    31.1820
  272.0000     6.9320    28.6320    25.1800     2.1716   200.3687    25.9050    32.3100
  272.5000     6.8160    29.0220    22.7300     2.1703   135.0921    26.8200    32.0820
  273.0000     6.7450    29.7360    23.4300     2.1607   146.6324    27.7950    31.8780
  273.5000     6.7490    30.4080    24.5300     2.1509   184.2595    28.8000    32.1600
  274.0000     6.7520    30.8580    25.5100     2.1425   291.4942    29.7300    31.9980
  274.5000     6.7550    30.1980    24.1700     2.1387   470.1429    30.5400    33.1860
  275.0000     6.7580    29.5020    23.0100     2.1509   650.7736    31.3500    32.9460
  275.5000     6.7640    29.0400    23.5700     2.1686   547.8099    32.1300    32.4480
  276.0000     6.7680    30.0180    24.9000     2.1595   407.2208    32.8500    31.6680
  276.5000     6.7720    29.8260    26.4200     2.1485   319.0288    32.8500    31.0320
  277.0000     6.7770    29.5140    24.0800     2.1583   323.4669    33.0300    32.8920
  277.5000     6.7740    29.2320    22.3500     2.1629   430.3580    33.7500    34.8420
  278.0000     6.7710    29.4600    21.5400     2.1612   687.1158    34.5150    35.3040
  278.5000     6.7660    28.7820    21.0600     2.1722   962.5646    35.5350    34.6200
  279.0000     6.7480    28.9140    22.0000     2.1703   227.9449    36.4200    35.8680
  279.5000     6.7300    28.9380    23.6600     2.1795    64.4214    37.2900    35.3940
  280.0000     6.7060    27.1140    27.1600     2.1973    25.7650    39.4500    33.8040
  280.5000     6.7320    25.8780    31.0400     2.2177    21.7686    42.4350    31.4940
  281.0000     6.7670    25.2480    33.0600     2.2330    20.2037    44.4300    31.3980
  281.5000     6.7970    24.7680    34.4500     2.2443    34.1216    50.9850    32.0640
  282.0000     6.8250    24.2880    35.8600     2.2508    46.7983    48.8250    33.7380
  282.5000     6.8250    24.1920    33.6100     2.2471   104.6719    45.2100    32.9100
  283.0000     6.6980    26.1660    28.3600     2.2292   235.8468    41.5950    31.9740
  283.5000     6.6700    27.5460    22.1400     2.2009   772.3781    39.8850    33.7440
  284.0000     6.6350    28.5660    17.2900     2.1726   616.9215    38.5800    34.2960
  284.5000     6.5390    29.3880    17.6900     2.1679   435.1409    37.6050    35.3760
  285.0000     6.4300    30.1800    18.3200     2.1556   483.3146    36.9450    34.8840
  285.5000     6.3320    30.5700    18.7600     2.1417   560.5701    36.3900    34.0920
  286.0000     6.3070    29.6580    19.2400     2.1492   717.5132    37.2450    33.6180
  286.5000     6.2820    28.8900    19.8600     2.1625   283.0284    37.9800    34.0740
  287.0000     6.2610    27.9960    20.7000     2.1772    85.3945    39.5250    35.6040
  287.5000     6.2690    28.4160    21.8700     2.1870    74.3755    41.6700    35.2620
  288.0000     6.2760    29.0880    23.0400     2.1678    62.3204    43.0500    34.7880
  288.5000     6.2830    28.6260    24.4000     2.1668    62.0912    37.1400    37.2900
  289.0000     6.2900    28.2060    24.3100     2.1816    93.7195    34.8750    37.6620
  289.5000     6.2970    27.8400    23.3000     2.1886    86.2641    34.1250    35.6580
  290.0000     6.3040    28.1340    21.3600     2.1847   151.4363    33.0450    35.7120
  290.5000     6.3180    28.6260    20.7900     2.1832   217.0851    31.9350    33.5880
  291.0000     6.3370    29.3880    20.0100     2.1714   292.0316    31.6500    31.8900
  291.5000     6.2840    30.2460    19.3800     2.1548   180.0653    33.3000    33.5520
  292.0000     6.2180    30.5820    19.0800     2.1409   132.5043    35.1300    35.6400
  292.5000     6.2070    30.1320    20.4000     2.1487   107.6044    36.2550    35.4720
  293.0000     6.1940    29.5620    22.1800     2.1562    86.6622    37.3800    35.8320
  293.5000     6.2300    28.7940    23.9600     2.1648    77.7374    38.2500    34.4940
  294.0000     6.2760    27.9000    25.0500     2.1789    46.4547    40.0350    34.0440
  294.5000     6.3220    27.3000    26.1700     2.1978    49.5028    42.2850    34.6380
  295.0000     6.3680    27.8280    27.0100     2.1908    63.4790    45.2100    35.1000
  295.5000     6.4110    28.2240    24.6100     2.1843   103.2357    43.0200    34.7400
  296.0000     6.4540    28.7820    22.1700     2.1734   189.4218    38.5800    33.9600
  296.5000     6.4690    29.6640    19.9900     2.1609   259.7945    32.7750    33.7560
  297.0000     6.4710    30.7500    17.8500     2.1375   160.7792    30.3300    33.4500
  297.5000     6.4720    30.3960    16.5800     2.1433   158.7194    32.4900    33.0480
  298.0000     6.3840    29.8740    17.3400     2.1536    75.4102    32.1450    32.8020
  298.5000     6.3230    29.6220    18.8800     2.1583    96.6117    31.8900    36.4380
  299.0000     6.2840    29.3820    18.8000     2.1653   137.0976    33.7650    35.3400
  299.5000     6.2380    28.8060    19.6500     2.1727   117.0119    36.4500    33.7620
  300.0000     6.2540    29.1780    21.1700     2.1690   175.4809    35.5200    32.4540
  300.5000     6.2740    29.7780    23.4000     2.1610   294.4625    33.7650    33.1920
  301.0000     6.3000    30.4740    22.0900     2.1504   522.6728    31.7700    34.0740
  301.5000     6.3280    30.7740    20.5300     2.1401   802.8417    29.7750    34.9440
  302.0000     6.3650    29.4840    18.8800     2.1544   495.0282    28.8150    36.3780
  302.5000     6.3530    29.7960    15.7900     2.1622   220.9174    28.0200    36.5820
