~VERSION INFORMATION
 VERS.                 2.0:   CWLS LOG ASCII STANDARD -VERSION 2.0
 WRAP.                  NO:   ONE LINE PER DEPTH STEP
~WELL INFORMATION BLOCK
#MNEM.UNIT           DATA                    DESCRIPTION OF MNEMONIC
#---------    -------------------            -------------------------------
# Generated from Intellog Unique Number	utf_inj/WELL/3048
WELL.         16-23-093-12W4                 : Well_name    - WELL              
LOC .         AA/16-23-093-12W4/0            : Location     - LOCATION          
UWI .         AA/16-23-093-12W400            : Uwi          - UNIQUE WELL ID    
ENTR.         JOETTE                         : Entered      - ENTERED BY        
SRVC.         SCHLUMBERGER                   : Scn          - SERVICE COMPANY   
DATE.         06/01/92                       : Date         - LOG DATE          
STRT.M        0                              : top_depth    - START DEPTH       
STOP.M        98                             : bot_depth    - STOP DEPTH        
STEP.M        0.25                           : increment    - STEP LENGTH       
NULL.         -999.250                       : null         - NULL VALUE       
~CURVE INFORMATION BLOCK
#MNEM UNIT       ERCB CURVE CODE    CURVE DESCRIPTION
#-----------   ------------------   ----------------------------------
DEPT.M        00 001 00 00         : DEPTH        - DEPTH                       
GR  .API      00 310 00 00         : GR           - GAMMA RAY                   
NPHI.V/V      00 330 00 00         : PHIN         - NEUTRON POROSITY (SANDSTONE)
RHOB.KG/M3    00 350 00 00         : DENS         - BULK DENSITY                
ILD .OHMM     00 120 00 00         : RESD         - DEEP RESISTIVITY (DIL)      
DPHI.V/V      00 890 00 00         : PHID         - DENSITY POROSITY (SANDSTONE)
~PARAMETER INFORMATION       
#MNEM.UNIT           DATA             DESCRIPTION OF MNEMONIC
#---------         -----------     ------------------------------
GL  .M        340.4                : gl           - GROUND LEVEL ELEVATION      
EREF.M        340.4                : kb           - ELEVATION OF DEPTH REFERENCE
DATM.M        340.4                : datum        - DATUM ELEVATION             
TDD .M        99.5                 : tdd          - TOTAL DEPTH DRILLER         
RUN .         ONE                  : Run          - RUN NUMBER                  
ENG .         BILL                 : Engineer     - RECORDING ENGINEER          
WIT .         JIM                  : Witness      - WITNESSED BY                
MUD .         GEL                  : Mud_type     - MUD TYPE                    
MATR.         SANDSTONE            : Logunit      - NEUTRON MATRIX              
TMAX.C        7.5                  : BHT          - MAXIMUM RECORDED TEMPERATURE
BHTD.M        99.5                 : BHTDEP       - MAXIMUM RECORDED TEMPERATURE
RMT .C        4                    : MDTP         - TEMPERATURE OF MUD          
MUDD.KG/M     1020                 : MWT          - MUD DENSITY                 
NEUT.         1                    : NEUTRON      - NEUTRON TYPE                
RESI.         0                    : RESIST       - RESISTIVITY TYPE            
RM  .OHMM     6.5                  : RM           - RESISTIVITY OF MUD          
RMC .OHMM     6.5                  : RMC          - RESISTIVITY OF MUD CAKE     
RMF .OHMM     6.5                  : RMF          - RESISTIVITY OF MUD FILTRATE 
SUFT.C        4                    : SUFT         - SURFACE TEMPERATURE         
~A  DEPTH       GR     PHIN     DENS     RESD     PHID
# ...
   73.000   67.494    0.470 2165.790   61.394    0.293
   73.250   62.204    0.460 2178.220   35.426    0.286
   73.500   61.075    0.471 2184.500   51.238    0.282
   73.750   52.802    0.418 2192.860   72.020    0.277
   74.000   42.163    0.396 2168.580   38.181    0.292
   74.250   46.977    0.401 2160.620   59.263    0.297
   74.500   36.920    0.416 2181.210   98.745    0.284
   74.750   41.141    0.431 2175.330   75.575    0.288
   75.000   50.128    0.422 2167.290   31.514    0.293
   75.250   38.883    0.388 2187.880   53.240    0.280
   75.500   47.263    0.386 2188.080   27.838    0.280
   75.750   43.757    0.373 2171.960   43.809    0.290
   76.000   37.873    0.437 2176.230   43.877    0.287
   76.250   29.599    0.432 2188.670   49.200    0.280
   76.500   28.482    0.438 2186.790   37.150    0.281
   76.750   30.325    0.477 2168.670   54.479    0.292
   77.000   26.806    0.444 2164.740   79.890    0.294
   77.250   29.838    0.482 2162.940   39.478    0.295
   77.500   45.945    0.419 2156.980  107.834    0.299
   77.750   37.684    0.415 2148.980   60.508    0.304
   78.000   32.977    0.429 2163.450   59.733    0.295
   78.250   33.036    0.426 2159.650   68.899    0.297
   78.500   30.718    0.410 2157.770   65.214    0.298
   78.750   43.260    0.447 2159.970   70.093    0.297
   79.000   55.825    0.443 2160.200   57.589    0.297
   79.250   52.889    0.426 2164.440   50.793    0.294
   79.500   47.005    0.410 2164.640   65.594    0.294
   79.750   35.783    0.419 2179.070  110.815    0.285
   80.000   38.197    0.423 2150.750   92.341    0.303
   80.250   42.417    0.425 2171.310   35.388    0.290
   80.500   47.838    0.391 2195.980    9.002    0.275
   80.750   46.102    0.423 2200.290   42.052    0.273
   81.000   34.287    0.459 2194.330   91.661    0.276
   81.250   43.262    0.420 2182.250  101.279    0.283
   81.500   49.848    0.463 2164.130   97.196    0.294
   81.750   62.983    0.472 2156.170   63.745    0.299
   82.000   74.348    0.431 2162.450   73.504    0.295
   82.250   90.456    0.389 2183.040   70.541    0.283
   82.500  103.591    0.394 2201.590   56.360    0.272
   82.750   88.197    0.393 2183.430   54.105    0.283
   83.000  100.156    0.425 2177.510  109.825    0.286
   83.250   84.739    0.423 2189.990   77.250    0.279
   83.500   64.578    0.404 2186.030   80.716    0.281
   83.750   66.420    0.476 2167.870   84.339    0.292
   84.000   94.427    0.459 2157.830   50.075    0.298
   84.250   77.845    0.407 2174.380   48.071    0.288
   84.500   91.575    0.405 2170.460   54.654    0.291
   84.750   95.201    0.439 2180.890   58.742    0.284
   85.000   95.855    0.416 2174.930   23.157    0.288
   85.250  108.990    0.425 2195.520   43.173    0.275
   85.500   68.027    0.480 2199.800   52.708    0.273
   85.750   56.781    0.434 2179.560   19.910    0.285
   86.000   45.536    0.409 2181.840   26.449    0.284
   86.250   30.736    0.422 2173.880   91.848    0.289
   86.500   34.362    0.425 2200.550   39.958    0.272
   86.750   34.422    0.441 2194.630   26.198    0.276
   87.000   26.160    0.421 2172.350   25.142    0.289
   87.250   31.557    0.421 2148.110  104.905    0.304
   87.500   37.561    0.412 2158.470   71.756    0.298
   87.750   41.187    0.411 2156.660   57.313    0.299
   88.000   44.824    0.412 2144.540   81.706    0.306
   88.250   45.478    0.446 2132.540   73.089    0.314
   88.500   46.120    0.453 2132.740   52.899    0.313
   88.750   46.774    0.434 2151.250   56.042    0.302
   89.000   30.180    0.432 2171.850  104.515    0.290
   89.250   34.412    0.430 2178.240   62.937    0.286
   89.500   36.849    0.419 2155.920   43.675    0.299
   89.750   41.057    0.421 2141.800   35.370    0.308
   90.000   29.836    0.415 2133.840   44.419    0.313
   90.250   38.799    0.399 2166.670   42.628    0.293
   90.500   54.312    0.403 2162.830   34.048    0.295
   90.750   75.187    0.388 2165.030   22.316    0.294
   91.000   91.294    0.376 2197.860   10.570    0.274
   91.250  108.008    0.337 2322.510    6.188    0.198
   91.500  107.474    0.319 2430.840    4.946    0.133
   91.750   71.847    0.279 2443.310    4.613    0.125
   92.000   53.469    0.362 2400.600    6.395    0.151
   92.250   24.393    0.376 2364.090   11.427    0.173
   92.500   26.830    0.359 2366.280   13.951    0.172
   92.750   31.050    0.359 2550.120    8.050    0.061
   93.000   39.431    0.396 2611.510    7.728    0.023
   93.250   71.004    0.387 2546.440    9.041    0.063
   93.500   84.152    0.377 2432.340    5.368    0.132
   93.750   79.445    0.499 2530.470    5.226    0.072
   94.000   60.485    0.483 2430.690    5.384    0.133
   94.250   73.620    0.430 2516.590    4.956    0.081
   94.500   63.576    0.400 2529.030    4.960    0.073
   94.750   38.648    0.383 2431.280    5.722    0.133
   95.000   19.700    0.364 2398.810    9.530    0.152
   95.250   24.502    0.163 2523.460   17.524    0.077
   95.500   25.156    0.113 2609.360   19.103    0.025
   95.750   18.072    0.093 2662.580   23.983   -0.008
   96.000   11.605    0.079 2675.020   27.276   -0.015
   96.250   15.813    0.060 2662.980   81.091   -0.008
   96.500   25.383    0.060 2665.250   26.975   -0.009
   96.750   38.531    0.096 2685.810   15.357   -0.022
   97.000   38.578    0.115 2669.650   16.269   -0.012
   97.250   26.156    0.132 2684.120   17.987   -0.021
   97.500   21.449    0.125 2639.530   19.880    0.006
   97.750   24.480    0.115 2647.800   28.350    0.001
   98.000   19.785    0.108 2648.000   22.020    0.001
