~VERSION INFORMATION
 VERS.                 2.0:   CWLS LOG ASCII STANDARD -VERSION 2.0
 WRAP.                  NO:   ONE LINE PER DEPTH STEP
~WELL INFORMATION BLOCK
#MNEM.UNIT           DATA                    DESCRIPTION OF MNEMONIC
#---------    -------------------            -------------------------------
# Generated from Intellog Unique Number	CS_77_79/WELL/936
WELL.         PEX PCEJ THORNBURY OV          : Well_name    - WELL
LOC .         AA/10-08-079-14W4/0            : Location     - LOCATION
UWI .         AA/10-08-079-14W4/0            : Uwi          - UNIQUE WELL ID
ENTR.         JHS                            : Entered      - ENTERED BY
SRVC.         SCHLUMBERGER                   : Scn          - SERVICE COMPANY
STRT.M        275                            : top_depth    - START DEPTH
STOP.M        525                            : bot_depth    - STOP DEPTH
STEP.M        0.25                           : increment    - STEP LENGTH
 NULL. -999.2500:NULL Value
~CURVE INFORMATION BLOCK
#MNEM UNIT       ERCB CURVE CODE    CURVE DESCRIPTION
#-----------   ------------------   ----------------------------------
DEPT.M        00 001 00 00         : DEPTH        - DEPTH
DPHI.V/V      00 890 00 00         : PHID         - DENSITY POROSITY (LIMESTONE)
NPHI.V/V      00 330 00 00         : PHIN         - NEUTRON POROSITY (LIMESTONE)
GR  .API      00 310 00 00         : GR           - GAMMA RAY
ILD .OHMM     00 120 00 00         : RESD         - DEEP RESISTIVITY (DIL)
RHOB.KG/M3    00 350 00 00         : DENS         - BULK DENSITY
~PARAMETER INFORMATION
#MNEM.UNIT           DATA             DESCRIPTION OF MNEMONIC
#---------         -----------     ------------------------------
GL  .M        700.7                : gl           - GROUND LEVEL ELEVATION
EREF.M        703.6                : kb           - ELEVATION OF DEPTH REFERENCE
DATM.M        703.6                : datum        - DATUM ELEVATION
TDD .M        527                  : tdd          - TOTAL DEPTH DRILLER
RUN .         ONE                  : Run          - RUN NUMBER
ENG .         BILL                 : Engineer     - RECORDING ENGINEER
WIT .         JIM                  : Witness      - WITNESSED BY
MUD .         GEL                  : Mud_type     - MUD TYPE
MATR.         LIMESTONE            : Logunit      - NEUTRON MATRIX
TMAX.C        22                   : BHT          - MAXIMUM RECORDED TEMPERATURE
BHTD.M        527                  : BHTDEP       - MAXIMUM RECORDED TEMPERATURE
MATR.         1                    : LOGUNIT      - NEUTRON MATRIX
RMT .C        25                   : MDTP         - TEMPERATURE OF MUD
NEUT.         1                    : NEUTRON      - NEUTRON TYPE
RESI.         0                    : RESIST       - RESISTIVITY TYPE
RMC .OHMM     0.25                 : RMC          - RESISTIVITY OF MUD CAKE
RMF .OHMM     0.25                 : RMF          - RESISTIVITY OF MUD FILTRATE
SUFT.C        15                   : SUFT         - SURFACE TEMPERATURE
~A  DEPTH     PHID     PHIN       GR     RESD     DENS
  275.000    0.290    0.472  101.032    4.882    0.000
  275.250    0.262    0.479  102.266    4.617    0.000
  275.500    0.242    0.475   97.921    4.449    0.000
  275.750    0.231    0.451   92.336    4.207    0.000
  276.000    0.242    0.473  102.867    3.980    0.000
  276.250    0.257    0.458  101.621    3.909    0.000
  276.500    0.263    0.457   97.896    3.839    0.000
  276.750    0.261    0.454   92.931    3.841    0.000
  277.000    0.247    0.478   91.065    3.773    0.000
  277.250    0.241    0.477  101.596    3.777    0.000
  277.500    0.241    0.483  108.409    3.853    0.000
  277.750    0.236    0.469  103.444    3.854    0.000
  278.000    0.226    0.488  102.817    3.858    0.000
  278.250    0.229    0.493  100.951    3.860    0.000
  278.500    0.230    0.499  103.425    3.864    0.000
  278.750    0.231    0.466  110.856    3.867    0.000
  279.000    0.231    0.483  109.610    3.871    0.000
  279.250    0.243    0.485  105.886    3.875    0.000
  279.500    0.255    0.472  102.160    3.876    0.000
  279.750    0.247    0.484   95.337    3.880    0.000
  280.000    0.243    0.466   99.048    3.883    0.000
  280.250    0.252    0.464  102.762    3.813    0.000
  280.500    0.262    0.446  100.896    3.746    0.000
  280.750    0.268    0.490   97.171    3.610    0.000
  281.000    0.253    0.490   95.925    3.613    0.000
  281.250    0.229    0.472   95.299    3.756    0.000
  281.500    0.224    0.455   93.433    3.758    0.000
  281.750    0.229    0.481  100.246    3.907    0.000
  282.000    0.242    0.497   98.380    3.984    0.000
  282.250    0.246    0.497   97.754    4.062    0.000
  282.500    0.215    0.469  102.087    4.145    0.000
  282.750    0.224    0.473   98.981    4.148    0.000
  283.000    0.244    0.453   97.736    4.074    0.000
  283.250    0.257    0.451  100.827    4.001    0.000
  283.500    0.251    0.453  102.062    3.929    0.000
  283.750    0.245    0.466   97.097    3.932    0.000
  284.000    0.240    0.456  106.388    3.861    0.000
  284.250    0.240    0.451  107.000    3.864    0.000
  284.500    0.241    0.446  100.177    3.868    0.000
  284.750    0.232    0.453   91.494    3.945    0.000
  285.000    0.226    0.447   99.545    3.949    0.000
  285.250    0.224    0.465   92.101    4.028    0.000
  285.500    0.235    0.460   91.475    4.030    0.000
  285.750    0.225    0.467   98.907    4.111    0.000
  286.000    0.240    0.479   97.041    4.192    0.000
  286.250    0.242    0.470   91.456    4.276    0.000
  286.500    0.231    0.446   84.012    4.360    0.000
  286.750    0.218    0.440   82.766    4.448    0.000
  287.000    0.231    0.434   83.379    4.367    0.000
  287.250    0.246    0.445   83.994    4.210    0.000
  287.500    0.247    0.456   90.186    4.058    0.000
  287.750    0.231    0.471   93.279    3.985    0.000
  288.000    0.236    0.478   92.032    3.914    0.000
  288.250    0.233    0.468   92.027    3.772    0.000
  288.500    0.236    0.475   98.839    3.704    0.000
  288.750    0.244    0.483   88.296    3.570    0.000
  289.000    0.245    0.499   93.867    3.506    0.000
  289.250    0.249    0.488   93.242    3.316    0.000
  289.500    0.255    0.498   84.558    3.256    0.000
  289.750    0.260    0.518   91.990    3.198    0.000
  290.000    0.256    0.531   95.701    3.263    0.000
  290.250    0.266    0.519   95.076    3.264    0.000
  290.500    0.267    0.507   90.112    3.330    0.000
  290.750    0.233    0.488   86.387    3.397    0.000
  291.000    0.222    0.486   90.719    3.464    0.000
  291.250    0.230    0.472   88.234    3.533    0.000
  291.500    0.234    0.449   95.664    3.603    0.000
  291.750    0.249    0.474   93.180    3.745    0.000
  292.000    0.271    0.474   98.131    3.747    0.000
  292.250    0.254    0.467   92.548    3.896    0.000
  292.500    0.193    0.469   93.781    3.898    0.000
  292.750    0.185    0.464   93.155    3.975    0.000
  293.000    0.211    0.467   99.348    4.055    0.000
  293.250    0.204    0.459   97.481    4.058    0.000
  293.500    0.216    0.476   91.278    4.139    0.000
  293.750    0.213    0.491   94.990    4.143    0.000
  294.000    0.228    0.472   91.265    4.145    0.000
  294.250    0.234    0.476   93.738    4.228    0.000
  294.500    0.222    0.471   95.591    4.313    0.000
  294.750    0.232    0.469   93.725    4.482    0.000
  295.000    0.221    0.449   96.199    4.572    0.000
  295.250    0.206    0.437   94.952    4.575    0.000
  295.500    0.198    0.437   86.889    4.494    0.000
  295.750    0.207    0.471   98.039    4.331    0.000
  296.000    0.218    0.456  104.232    4.173    0.000
  296.250    0.208    0.447  109.804    4.023    0.000
  296.500    0.206    0.458  103.600    3.950    0.000
  296.750    0.212    0.450   94.915    3.879    0.000
  297.000    0.234    0.460   90.571    3.810    0.000
  297.250    0.219    0.465   91.804    3.886    0.000
  297.500    0.224    0.458   84.980    3.964    0.000
  297.750    0.213    0.465   94.891    3.966    0.000
  298.000    0.216    0.476   97.983    4.123    0.000
  298.250    0.210    0.470   93.019    4.285    0.000
  298.500    0.208    0.454   80.616    4.453    0.000
  298.750    0.206    0.447   84.329    4.806    0.000
  299.000    0.208    0.434   93.620    5.187    0.000
  299.250    0.233    0.416   92.373    5.924    0.000
  299.500    0.242    0.403   86.170    6.896    0.000
  299.750    0.258    0.386   73.147    8.335    0.000
  300.000    0.271    0.382   71.901   10.461    0.000
  300.250    0.287    0.389   72.515   12.887    0.000
  300.500    0.279    0.389   70.650   13.396    0.000
  300.750    0.278    0.405   76.842   13.408    0.000
  301.000    0.283    0.401   76.835   13.673    0.000
  301.250    0.269    0.399   69.391   14.480    0.000
  301.500    0.275    0.390   56.988   15.337    0.000
  301.750    0.289    0.386   56.362   16.245    0.000
  302.000    0.301    0.387   55.117   16.882    0.000
  302.250    0.308    0.395   65.028   17.219    0.000
  302.500    0.301    0.395   70.600   16.911    0.000
  302.750    0.296    0.401   66.874   16.926    0.000
  303.000    0.304    0.391   63.770   16.627    0.000
  303.250    0.309    0.401   61.284   16.323    0.000
  303.500    0.302    0.395   60.038   15.735    0.000
  303.750    0.299    0.389   64.371   15.165    0.000
  304.000    0.296    0.394   64.983   14.615    0.000
  304.250    0.286    0.389   60.639   13.821    0.000
  304.500    0.262    0.381   64.971   12.824    0.000
  304.750    0.244    0.381   69.305   11.249    0.000
  305.000    0.231    0.401   74.256    9.864    0.000
  305.250    0.236    0.417   77.969    8.329    0.000
  305.500    0.238    0.422   80.443    6.904    0.000
  305.750    0.254    0.423   88.494    5.940    0.000
  306.000    0.262    0.446   94.067    5.209    0.000
  306.250    0.262    0.463  104.597    4.745    0.000
  306.500    0.240    0.458   97.773    5.026    0.000
  306.750    0.220    0.435   89.710    5.632    0.000
  307.000    0.222    0.412   81.025    7.769    0.000
  307.250    0.265    0.396   71.722   10.320    0.000
  307.500    0.291    0.412   62.418   12.473    0.000
  307.750    0.324    0.400   48.776   14.518    0.000
  308.000    0.322    0.411   46.910   14.258    0.000
  308.250    0.310    0.394   56.202   12.743    0.000
  308.500    0.295    0.414   66.113   10.966    0.000
  308.750    0.295    0.427   70.445    9.263    0.000
  309.000    0.288    0.424   74.778    8.433    0.000
  309.250    0.283    0.416   84.069    9.104    0.000
  309.500    0.291    0.415   88.402   10.398    0.000
  309.750    0.285    0.396   83.437   11.875    0.000
  310.000    0.192    0.382   74.753   13.565    0.000
  310.250    0.141    0.363   69.168   14.099    0.000
  310.500    0.152    0.357   77.840   12.839    0.000
  310.750    0.216    0.389   76.594   11.259    0.000
  311.000    0.213    0.385   88.365    9.689    0.000
  311.250    0.217    0.401   92.077    8.498    0.000
