~Version : LASO    vs 4.00 
VERS.                2.00:   CWLS Log ASCII Standard -VERSION 2.0
WRAP.                  NO:
~Well Information Block
#MNEM.UNIT       Data                        Description of Mnemonic
#----.----      -------------------------- : -----------------------------
STRT.M             1.0000:
STOP.M           202.5000:
STEP.M             0.1000:
NULL.           -999.2500:
COMP.  MOBIL OIL CANADA                    :COMPANY
WELL.  MOBIL 90 CLARKE CREEK 16-31         :WELL
FLD.   CLARKE CREEK                        :FIELD
LOC.   16-31-089-07W4                      :LOCATION
CTRY.  CANADA                              :COUNTRY
PROV.  ALBERTA                             :PROVINCE
SRVC.  BRITISH PLASTERBOARD                :SERVICE COMPANY
DATE.  22-JAN-90                           :LOG DATE
UWI.   AA/16-31-089-07W400                 :UNIQUE WELL ID
~Parameter Information Block
#MNEM.UNIT       Data                        Description of Mnemonic
#----.----      -------------------------- : -----------------------------
RUN .                   1                 : Run Number
GL  .M           453.6000                 : Ground Level Elevation
DREF.                  GD                 : Depth Reference
EREF.M           453.6000                 : Elevation of Depth Reference
TDL .M           204.5000                 : Total Depth Logger
TDD .M           204.5000                 : Total Depth Driller
~Curve Information Block
#MNEM.UNIT        API CODE    Curve Description
#---------    ------------    -------------------------------------------
DEPT.M                    :   DEPTH
CALI.mm                   :   CALI
DPHI.V/V                  :   DPHI
DT  .US/M     60 520  0  1:   2 SONIC INTERVAL TRANSIT TIME (COMPENSATED)
GR  .API                  :   GR
ILD .Ohmm                 :   ILD
NPHI.V/V                  :   NPHI
RHOB.K/M3     45 350  1  1:   3 BULK DENSITY
~A  Depth           CALI        DPHI          DT          GR         ILD        NPHI        RHOB
# ...
42.5000         163.3433      0.2717   -999.2500     53.4125   -999.2500      0.3785   1901.7000
42.6000         163.3842      0.2716   -999.2500     52.2180   -999.2500      0.3616   1838.3000
42.7000         163.4180      0.2589   -999.2500     50.8083   -999.2500      0.3482   1866.3000
42.8000         163.8340      0.2430   -999.2500     51.3374   -999.2500      0.3382   1896.0000
42.9000         163.8852      0.2297   -999.2500     49.8683   -999.2500      0.3286   1917.7000
43.0000         163.9194      0.2168   -999.2500     45.7539   -999.2500      0.3403   1972.4000
43.1000         163.9521      0.1865   -999.2500     44.5999   -999.2500      0.3509   1980.9000
43.2000         163.5865      0.1727   -999.2500     39.8346   -999.2500      0.3735   1993.9000
43.3000         163.2363      0.1597   -999.2500     40.0893   -999.2500      0.3819   2006.8000
43.4000         163.2444      0.1447   -999.2500     42.7153   -999.2500      0.3725   2048.8999
43.5000         163.2742      0.1318   -999.2500     45.1058   -999.2500      0.3544   2083.8000
43.6000         163.3062      0.1328   -999.2500     48.0538   -999.2500      0.3410   2081.6001
43.7000         163.3386      0.1358   -999.2500     50.4193   -999.2500      0.3459   2099.7000
43.8000         163.3710      0.1401   -999.2500     52.7693   -999.2500      0.3819   2113.8999
43.9000         163.4034      0.1353   -999.2500     54.1002   -999.2500      0.4486   2119.1001
44.0000         163.7119      0.1339   -999.2500     54.3470   -999.2500      0.4721   2123.3000
44.1000         163.8462      0.1358   -999.2500     55.0255   -999.2500      0.4502   2108.3000
44.2000         163.9035      0.1359   -999.2500     55.0975   -999.2500      0.4281   2145.8000
44.3000         163.9368      0.1335   -999.2500     55.1481   -999.2500      0.4004   2111.3000
44.4000         163.9695      0.1325   -999.2500     52.6956   -999.2500      0.4005   2156.6001
44.5000         164.0020      0.1310   -999.2500     49.8077   -999.2500      0.3961   2117.1001
44.6000         164.0344      0.1348   -999.2500     49.8407   -999.2500      0.3925   2077.8000
44.7000         164.0668      0.1373   -999.2500     49.3465   -999.2500      0.3892   2072.2000
44.8000         164.4601      0.1390   -999.2500     51.4084   -999.2500      0.3902   2178.5000
44.9000         164.5179      0.1356   -999.2500     54.7083   -999.2500      0.3938   2153.0000
45.0000         164.3309      0.1321   -999.2500     57.2679   -999.2500      0.3906   2149.8000
45.1000         164.2004      0.1427   -999.2500     60.1879   -999.2500      0.3931   2185.3000
45.2000         164.2299      0.1680   -999.2500     60.8156   -999.2500      0.4203   2161.5000
45.3000         163.9732      0.1877   -999.2500     60.0288   -999.2500      0.4402   2114.6001
45.4000         163.9085      0.2173   -999.2500     58.9764   -999.2500      0.4645   2073.5000
45.5000         163.9259      0.2380   -999.2500     58.1825   -999.2500      0.4953   2020.0000
45.6000         163.5668      0.2459   -999.2500     59.8814   -999.2500      0.5350   2022.1000
45.7000         163.5844      0.2500   -999.2500     60.5851   -999.2500      0.5591   2026.5000
45.8000         163.6156      0.2556   -999.2500     60.2051   -999.2500      0.5406   2012.5000
45.9000         163.6478      0.2517   -999.2500     61.1535   -999.2500      0.5274   1976.1000
46.0000         163.6802      0.2429   -999.2500     62.0002   -999.2500      0.5135   1990.3000
46.1000         163.7126      0.2414   -999.2500     59.3340   -999.2500      0.5064   2012.6000
46.2000         163.7450      0.2445   -999.2500     60.7114   -999.2500      0.4951   1979.9000
46.3000         163.7775      0.2579   -999.2500     62.4329   -999.2500      0.4846   1968.9000
46.4000         163.8099      0.2685   -999.2500     64.6490   -999.2500      0.5117   2005.4000
46.5000         164.2394      0.2598   -999.2500     66.0782   -999.2500      0.5282   1993.7000
46.6000         164.2783      0.2494   -999.2500     66.5249   -999.2500      0.5238   1983.2000
46.7000         164.3111      0.2457   -999.2500     67.1307   -999.2500      0.5238   1930.6000
46.8000         164.3436      0.2443   -999.2500     67.2560   -999.2500      0.5182   1949.9000
46.9000         164.3760      0.2440   -999.2500     67.3215   -999.2500      0.5080   1977.4000
47.0000         164.4085      0.2439   -999.2500     66.2416   -999.2500      0.4935   2012.2000
47.1000         164.1426      0.2450   -999.2500     64.0751   -999.2500      0.4818   1934.6000
47.2000         164.0828      0.2483   -999.2500     62.3496   -999.2500      0.5150   1965.5000
47.3000         164.1040      0.2538   -999.2500     60.1858   -999.2500      0.5556   2000.0000
47.4000         164.1346      0.2565   -999.2500     57.3818   -999.2500      0.5710   2023.2000
47.5000         164.1665      0.2558   -999.2500     54.5685   -999.2500      0.5570   2062.6001
47.6000         164.1989      0.2463   -999.2500     50.7131   -999.2500      0.5238   2058.7000
47.7000         164.2314      0.2269   -999.2500     47.2668   -999.2500      0.4613   2088.6001
47.8000         164.2638      0.2050   -999.2500     43.5713   -999.2500      0.4221   2115.5000
47.9000         164.2962      0.1618   -999.2500     40.7458   -999.2500      0.3639   2104.1001
48.0000         163.9501      0.1316   -999.2500     42.7587   -999.2500      0.3221   2133.7000
48.1000         163.9641      0.1081   -999.2500     43.0184   -999.2500      0.3140   2145.3999
48.2000         163.9916      0.0956   -999.2500     43.0982   -999.2500      0.3337   2170.3000
48.3000         163.7533      0.1075   -999.2500     44.5580   -999.2500      0.3380   2138.7000
48.4000         163.6539      0.1309   -999.2500     44.9884   -999.2500      0.3201   2096.3000
48.5000         163.6829      0.1636   -999.2500     45.0657   -999.2500      0.3109   2077.7000
48.6000         163.3610      0.1737   -999.2500     44.6119   -999.2500      0.3215   2125.0000
48.7000         163.3592      0.1670   -999.2500     44.5811   -999.2500      0.3298   2130.1001
48.8000         163.3791      0.1539   -999.2500     44.1521   -999.2500      0.3087   2135.3000
48.9000         163.4090      0.1437   -999.2500     42.4203   -999.2500      0.2871   2147.6001
49.0000         163.4408      0.1516   -999.2500     39.7041   -999.2500      0.2706   2102.8999
49.1000         163.4732      0.1739   -999.2500     38.3894   -999.2500      0.2672   2118.3000
49.2000         163.5056      0.1730   -999.2500     38.1412   -999.2500      0.2698   2156.2000
49.3000         163.5380      0.1549   -999.2500     37.6195   -999.2500      0.2672   2148.1001
49.4000         163.5704      0.1243   -999.2500     36.0195   -999.2500      0.2712   2145.0000
49.5000         163.6028      0.1178   -999.2500     35.3794   -999.2500      0.2690   2256.0000
49.6000         163.6352      0.1150   -999.2500     35.8152   -999.2500      0.2677   2356.8000
49.7000         163.6677      0.1003   -999.2500     36.5418   -999.2500      0.2623   2351.2000
49.8000         163.7001      0.0538   -999.2500     37.7261   -999.2500      0.2624   2362.6001
49.9000         163.7325      0.0295   -999.2500     38.9227   -999.2500      0.2704   2341.5000
50.0000         163.7649      0.0150   -999.2500     40.6278   -999.2500      0.2671   2293.1001
50.1000         163.4579      0.0072   -999.2500     41.9046   -999.2500      0.2628   2267.2000
50.2000         163.4476      0.0414   -999.2500     42.2477   -999.2500      0.2581   2266.3000
50.3000         163.9823      0.0609   -999.2500     41.4162   -999.2500      0.2714   2300.2000
50.4000         164.2744      0.0748   -999.2500     42.7639   -999.2500      0.2865   2278.7000
50.5000         163.9766      0.0799   -999.2500     45.9921   -999.2500      0.2928   2243.1001
50.6000         163.2985      0.0783   -999.2500     50.4158   -999.2500      0.2976   2270.3000
50.7000         162.8948      0.0918   -999.2500     56.1797   -999.2500      0.2972   2208.5000
