~VERSION INFORMATION
 VERS.                 2.0:   CWLS LOG ASCII STANDARD -VERSION 2.0
 WRAP.                  NO:   ONE LINE PER DEPTH STEP
~WELL INFORMATION BLOCK
#MNEM.UNIT           DATA                    DESCRIPTION OF MNEMONIC
#---------    -------------------            -------------------------------
# Generated from Intellog Unique Number	CX_WELLS/WELL/3472
WELL.         AMOCO GREGGIRE                 : Well_name    - WELL
LOC .         AA/16-05-085-07W4/0            : Location     - LOCATION
UWI .         AA/16-05-085-07W400            : Uwi          - UNIQUE WELL ID
ENTR.         T                              : Entered      - ENTERED BY
SRVC.         SCHLUMBERGER                   : Scn          - SERVICE COMPANY
STRT.F        150                            : top_depth    - START DEPTH
STOP.F        911.975                        : bot_depth    - STOP DEPTH
STEP.F        0.82                           : increment    - STEP LENGTH
 NULL. -999.2500:NULL Value
~CURVE INFORMATION BLOCK
#MNEM UNIT       ERCB CURVE CODE    CURVE DESCRIPTION
#-----------   ------------------   ----------------------------------
DEPT.F        00 001 00 00         : DEPTH        - DEPTH
GR  .API      00 310 00 00         : GR           - GAMMA RAY
DPHI.V/V      00 890 00 00         : PHID         - DENSITY POROSITY (SANDSTONE)
ILD .OHMM     00 120 00 00         : RESD         - DEEP RESISTIVITY (OTHER)
~PARAMETER INFORMATION
#MNEM.UNIT           DATA             DESCRIPTION OF MNEMONIC
#---------         -----------     ------------------------------
GL  .F        1647                 : gl           - GROUND LEVEL ELEVATION
EREF.F        1657                 : kb           - ELEVATION OF DEPTH REFERENCE
DATM.F        1657                 : datum        - DATUM ELEVATION
TDD .F        934                  : tdd          - TOTAL DEPTH DRILLER
RUN .         ONE                  : Run          - RUN NUMBER
ENG .         BILL                 : Engineer     - RECORDING ENGINEER
WIT .         JIM                  : Witness      - WITNESSED BY
MUD .         GEL                  : Mud_type     - MUD TYPE
MATR.         SANDSTONE            : Logunit      - NEUTRON MATRIX
TMAX.F        64.4                 : BHT          - MAXIMUM RECORDED TEMPERATURE
BHTD.F        934                  : BHTDEP       - MAXIMUM RECORDED TEMPERATURE
MATR.         1                    : LOGUNIT      - NEUTRON MATRIX
RMT .F        50                   : MDTP         - TEMPERATURE OF MUD
NEUT.         1                    : NEUTRON      - NEUTRON TYPE
RESI.         9.8                  : RESIST       - RESISTIVITY TYPE
RMC .OHMM     9.7                  : RMC          - RESISTIVITY OF MUD CAKE
RMF .OHMM     8.7                  : RMF          - RESISTIVITY OF MUD FILTRATE
SUFT.F        39.2                 : SUFT         - SURFACE TEMPERATURE
~A  DEPTH       GR     PHID     RESD
# ...
  683.957  124.435    0.176    6.495
  684.777  127.914    0.179    6.500
  685.597  131.397    0.181    6.504
  686.417  134.314    0.182    6.513
  687.238  133.744    0.184    6.519
  688.058  131.449    0.190    6.527
  688.878  129.154    0.194    6.534
  689.698  134.371    0.199    6.541
  690.518  139.013    0.202    6.352
  691.339  139.611    0.208    6.358
  692.159  138.472    0.215    6.363
  692.979  136.759    0.218    6.370
  693.799  135.037    0.211    6.378
  694.619  131.595    0.203    6.385
  695.440  130.447    0.196    6.391
  696.260  129.886    0.184    6.398
  697.080  127.021    0.175    6.602
  697.900  124.734    0.165    7.004
  698.720  124.164    0.153    7.405
  699.541  123.603    0.133    8.002
  700.361  123.045    0.117    9.388
  701.181  120.172    0.108    9.400
  702.001  116.718    0.138    9.206
  702.822  111.538    0.159    9.017
  703.642  108.091    0.179    8.827
  704.462  106.366    0.205    8.832
  705.282  104.661    0.209    9.039
  706.102  105.251    0.209    9.241
  706.923  105.841    0.207    9.446
  707.743  105.861    0.207    9.648
  708.563  107.614    0.209    9.264
  709.383  111.671    0.215    8.677
  710.203  118.043    0.221    7.896
  711.024  116.904    0.223    8.493
  711.844  112.302    0.231   11.063
  712.664  107.118    0.238    9.888
  713.484  101.356    0.247    8.714
  714.304   97.327    0.260   10.492
  715.125   91.565    0.269   14.835
  715.945   91.586    0.270   24.103
  716.765   93.913    0.265   17.213
  717.585   99.707    0.259   13.082
  718.406  103.768    0.250   10.922
  719.226  137.301    0.231    9.745
  720.046  143.104    0.196   10.541
  720.866  140.227    0.187   13.701
  721.686  137.354    0.193   13.710
  722.507  128.129    0.199   13.517
  723.327  125.830    0.201   12.937
  724.147  122.379    0.199   12.940
  724.967  118.933    0.198   13.341
  725.787  116.638    0.194   13.152
  726.608  114.343    0.191   13.161
  727.428  112.048    0.189   13.366
  728.248  109.183    0.194   13.568
  729.068  107.462    0.203   13.773
  729.888  103.433    0.217   13.776
  730.709   98.827    0.207   13.392
  731.529   96.532    0.193   13.200
  732.349  102.334    0.189   12.814
  733.169  103.506    0.213   12.425
  733.990  102.944    0.230   12.041
  734.810  102.379    0.229   12.246
  735.630  103.555    0.225   12.450
  736.450  106.460    0.203   12.455
  737.270  108.787    0.179   12.461
  738.091  111.697    0.173   12.469
  738.911  114.028    0.171   12.474
  739.731  115.200    0.164   12.284
  740.551  111.753    0.156   12.489
  741.371  110.606    0.156   13.680
  742.192  106.581    0.159   14.671
  743.012  101.979    0.167   15.268
  743.832   98.537    0.177   14.290
  744.652   97.389    0.185   13.901
  745.472   96.832    0.190   13.515
  746.293   99.155    0.211   15.492
  747.113  100.331    0.212   19.834
  747.933   99.191    0.216   28.512
  748.753   98.052    0.221   32.263
  749.573   95.761    0.224   24.388
  750.394   91.728    0.225   18.483
  751.214   84.811    0.227   27.161
  752.034   81.360    0.235   34.458
  752.854   81.380    0.232   31.903
  753.675   84.868    0.228   18.511
  754.495   86.613    0.225   16.153
  755.315   88.945    0.218   14.388
  756.135   87.805    0.206   13.998
  756.955   84.350    0.215   18.736
  757.776   79.170    0.226   26.230
  758.596   68.786    0.234   31.361
  759.416   65.340    0.241   23.289
  760.236   69.974    0.250   18.961
  761.056   81.550    0.243   15.815
  761.877   86.189    0.232   15.429
  762.697   89.672    0.223   15.237
  763.517   92.590    0.216   14.849
  764.337   90.864    0.223   15.056
  765.157   86.840    0.243   16.243
  765.978   83.385    0.255   20.979
  766.798   79.934    0.268   24.140
  767.618   74.754    0.273   31.833
  768.438   70.148    0.273   30.262
  769.259   70.172    0.266   26.721
  770.079   71.340    0.261   21.014
  770.899   72.508    0.251   17.278
  771.719   76.573    0.240   16.890
  772.539   90.456    0.232   18.867
  773.360   92.784    0.223   24.391
  774.180   93.382    0.223   25.780
  775.000   88.198    0.228   26.377
  775.820   81.858    0.234   31.309
  776.640   69.163    0.245   46.884
  777.461   61.090    0.266   38.615
  778.281   76.710    0.277   34.483
  779.101   78.460    0.276   40.403
  779.921   79.054    0.269   46.518
  780.741   82.541    0.271   41.204
  781.562   86.606    0.275   35.891
  782.382   88.929    0.271   32.942
  783.202   93.572    0.263   32.160
  784.022   98.211    0.259   37.685
  784.843  102.853    0.250   41.239
  785.663  104.599    0.242   47.750
  786.483  100.571    0.245   48.349
  787.303   97.124    0.247   48.750
  788.123   93.677    0.251   48.558
  788.944   90.800    0.260   47.975
  789.764   86.772    0.263   48.178
  790.584   82.744    0.267   48.382
  791.404   79.293    0.269   47.405
  792.224   83.366    0.266   47.016
  793.045   83.956    0.263   47.617
  793.865   82.239    0.261   46.045
  794.685   81.099    0.259   46.446
  795.505   79.382    0.254   48.029
  796.325   76.509    0.253   49.416
  797.146   77.681    0.253   43.709
  797.966   90.995    0.257   43.124
  798.786   91.007    0.262   45.103
  799.606   85.245    0.273   40.775
  800.427   81.217    0.279   39.203
  801.247   69.099    0.282   36.845
  802.067   63.915    0.283   40.597
  802.887   51.219    0.284   47.500
  803.707   48.355    0.284   50.270
  804.528   51.837    0.284   49.290
  805.348   55.316    0.284   48.507
  806.168   62.848    0.283   48.514
  806.988   68.065    0.280   43.990
  807.808   75.014    0.278   43.798
  808.629   86.591    0.273   46.367
  809.449  101.630    0.268   48.149
  810.269  116.669    0.265   48.944
  811.089  120.156    0.268   47.965
  811.909   98.220    0.271   47.972
  812.730   78.013    0.278   40.885
  813.550   65.313    0.286   33.010
  814.370   57.818    0.295   30.849
  815.190   49.745    0.312   33.220
  816.010   45.716    0.322   23.965
  816.831   42.848    0.324   18.060
  817.651   42.290    0.326   15.505
  818.471   41.728    0.324   14.921
  819.291   41.749    0.323   15.124
  820.112   41.761    0.323   15.922
  820.932   41.207    0.326   16.913
  821.752   41.215    0.328   19.087
  822.572   40.666    0.334   21.655
  823.392   40.670    0.337   20.875
  824.213   40.690    0.338   19.703
  825.033   40.706    0.335   19.313
  825.853   41.304    0.334   19.123
  826.673   41.321    0.330   18.933
  827.493   42.496    0.324   18.941
  828.314   43.087    0.322   18.947
  829.134   44.262    0.318   18.954
  829.954   44.856    0.314   18.762
  830.774   45.450    0.312   18.378
  831.594   46.044    0.312   17.988
  832.415   47.794    0.315   17.798
  833.235   48.974    0.319   17.410
  834.055   50.146    0.322   17.223
  834.875   50.162    0.322   17.031
  835.696   49.600    0.322   17.236
  836.516   49.616    0.321   17.438
  837.336   49.633    0.323   18.036
  838.156   49.649    0.324   19.030
  838.976   49.665    0.323   20.220
  839.797   49.685    0.320   21.604
  840.617   49.701    0.321   23.384
  841.437   47.988    0.323   26.151
  842.257   47.423    0.324   29.705
  843.077   48.021    0.324   45.673
  843.898   48.611    0.324   51.788
  844.718   49.791    0.325   56.329
  845.538   49.811    0.327   62.247
  846.358   49.245    0.331   69.940
  847.178   48.102    0.334   69.948
  847.999   46.388    0.336   70.349
  848.819   45.831    0.339   71.342
  849.639   47.580    0.340   72.135
  850.459   48.752    0.338   71.945
  851.280   50.506    0.333   72.346
  852.100   52.255    0.330   73.733
  852.920   55.157    0.322   73.543
  853.740   60.373    0.316   72.761
  854.560   69.064    0.306   73.359
  855.381   73.699    0.285   62.725
  856.201   80.649    0.266   48.938
  857.021   88.767    0.238   32.588
  857.841   88.775    0.243   26.092
  858.661   88.791    0.265   25.509
  859.482   91.118    0.274   30.442
  860.302   95.187    0.280   33.800
  861.122   96.355    0.285   34.201
