~VERSION INFORMATION
 VERS.                 2.0:   CWLS LOG ASCII STANDARD -VERSION 2.0
 WRAP.                  NO:   ONE LINE PER DEPTH STEP
~WELL INFORMATION BLOCK
#MNEM.UNIT           DATA                    DESCRIPTION OF MNEMONIC
#---------    -------------------            -------------------------------
# Generated from Intellog Unique Number	CN_91_93/WELL/3233
WELL.         PETRO-CANADA                   : Well_name    - WELL
LOC .         AA/10-26-092-17W4/0            : Location     - LOCATION
UWI .         AA/10-26-092-17W400            : Uwi          - UNIQUE WELL ID
ENTR.         JOETTE                         : Entered      - ENTERED BY
SRVC.         SCHLUMBERGER                   : Scn          - SERVICE COMPANY
DATE.         04/14/92                       : Date         - LOG DATE
STRT.F        290                            : top_depth    - START DEPTH
STOP.F        869.888                        : bot_depth    - STOP DEPTH
STEP.F        0.82                           : increment    - STEP LENGTH
 NULL. -999.2500:NULL Value
~CURVE INFORMATION BLOCK
#MNEM UNIT       ERCB CURVE CODE    CURVE DESCRIPTION
#-----------   ------------------   ----------------------------------
DEPT.F        00 001 00 00         : DEPTH        - DEPTH
CALI.IN       00 280 01 00         : CAL          - CALIPER
GR  .API      00 310 00 00         : GR           - GAMMA RAY
NPHI.V/V      00 330 00 00         : PHIN         - NEUTRON POROSITY (SANDSTONE)
DPHI.V/V      00 890 00 00         : PHID         - DENSITY POROSITY (SANDSTONE)
ILD .OHMM     00 120 00 00         : RESD         - DEEP RESISTIVITY (DIL)
~PARAMETER INFORMATION
#MNEM.UNIT           DATA             DESCRIPTION OF MNEMONIC
#---------         -----------     ------------------------------
GL  .F        1607.53              : gl           - GROUND LEVEL ELEVATION
EREF.F        1708.93              : kb           - ELEVATION OF DEPTH REFERENCE
DATM.F        1708.93              : datum        - DATUM ELEVATION
TDD .F        920                  : tdd          - TOTAL DEPTH DRILLER
RUN .         ONE                  : Run          - RUN NUMBER
ENG .         BILL                 : Engineer     - RECORDING ENGINEER
WIT .         JIM                  : Witness      - WITNESSED BY
MUD .         GEL                  : Mud_type     - MUD TYPE
MATR.         SANDSTONE            : Logunit      - NEUTRON MATRIX
TMAX.F        76                   : BHT          - MAXIMUM RECORDED TEMPERATURE
BHTD.F        920                  : BHTDEP       - MAXIMUM RECORDED TEMPERATURE
RMT .F        70                   : MDTP         - TEMPERATURE OF MUD
MUDD.LB/G     9                    : MWT          - MUD DENSITY
NEUT.         1                    : NEUTRON      - NEUTRON TYPE
RESI.         0                    : RESIST       - RESISTIVITY TYPE
RM  .OHMM     0.601                : RM           - RESISTIVITY OF MUD
RMC .OHMM     0.601                : RMC          - RESISTIVITY OF MUD CAKE
RMF .OHMM     0.601                : RMF          - RESISTIVITY OF MUD FILTRATE
SUFT.F        39.2                 : SUFT         - SURFACE TEMPERATURE
~A  DEPTH      CAL       GR     PHIN     PHID     RESD
# ...
  409.751    7.541   97.792    0.504    0.285    6.494
  410.571    7.662  102.045    0.523    0.282    6.032
  411.391    7.824  106.298    0.548    0.278    5.399
  412.211    8.066  107.506    0.553    0.287    4.658
  413.031    8.187  102.624    0.553    0.292    3.598
  413.852    8.147   98.349    0.557    0.277    3.104
  414.672    8.105   98.341    0.567    0.291    3.341
  415.492    8.267  104.418    0.570    0.290    3.340
  416.312    8.266  108.674    0.578    0.287    3.279
  417.133    8.184  111.706    0.592    0.299    3.102
  417.953    8.224  108.651    0.595    0.300    3.101
  418.773    8.345  103.772    0.569    0.295    3.101
  419.593    8.385  101.933    0.564    0.310    3.100
  420.413    8.303  104.968    0.572    0.321    3.099
  421.234    8.262  106.785    0.561    0.309    3.042
  422.054    8.424  106.777    0.562    0.281    3.098
  422.874    8.626  106.156    0.574    0.278    3.335
  423.694    8.504  105.537    0.586    0.279    3.524
  424.514    8.625  105.524    0.579    0.271    3.333
  425.335    8.949  105.517    0.560    0.285    3.272
  426.155    8.989  106.114    0.553    0.281    3.153
  426.975    8.785  106.106    0.553    0.274    3.152
  427.795    8.703  106.094    0.567    0.295    3.152
  428.615    8.581  106.084    0.583    0.268    3.210
  429.436    8.540  105.467    0.597    0.264    3.392
  430.256    8.823  103.625    0.592    0.284    3.454
  431.076    8.538  102.400    0.587    0.273    3.650
  431.896    8.335  101.784    0.581    0.275    3.717
  432.717    8.172   99.944    0.564    0.264    4.001
  433.537    7.968   98.716    0.536    0.259    4.635
  434.357    7.764   94.446    0.504    0.259    5.371
  435.177    7.683   89.564    0.464    0.253    6.824
  435.997    7.479   87.118    0.467    0.244    8.511
  436.818    7.316   86.500    0.493    0.216    8.509
  437.638    7.396   84.054    0.490    0.191    8.507
  438.458    7.436   80.996    0.484    0.192    8.351
  439.278    7.557   85.252    0.489    0.219    7.614
  440.098    7.678   88.287    0.483    0.255    6.816
  440.919    7.718   90.710    0.489    0.251    6.101
  441.739    7.677   91.309    0.519    0.250    5.563
  442.559    7.595   91.299    0.529    0.273    5.360
  443.379    7.310   91.896    0.532    0.268    5.459
  444.199    7.228   90.059    0.504    0.268    5.985
  445.020    7.065   88.222    0.486    0.273    6.684
  445.840    6.943   85.170    0.476    0.267    7.744
  446.660    6.861   84.551    0.476    0.254    8.491
  447.480    6.738   89.413    0.473    0.245    8.647
  448.301    6.738   91.836    0.465    0.268    9.836
  449.121    6.656   88.784    0.462    0.278   11.396
  449.941    6.655   85.120    0.462    0.280   12.963
  450.761    6.654   80.847    0.459    0.281   13.202
  451.581    6.654   77.183    0.452    0.250   13.949
  452.402    6.694   72.911    0.421    0.218   18.388
  453.222    6.693   67.420    0.393    0.209   24.240
  454.042    6.692   65.581    0.399    0.219   21.698
  454.862    6.692   63.744    0.397    0.219   22.927
  455.682    6.691   62.516    0.312    0.125   37.016
  456.503    6.650   63.115    0.265    0.058   48.795
  457.323    6.609   68.586    0.349    0.111   39.106
  458.143    6.608   73.448    0.381    0.159   24.663
  458.963    6.648   79.525    0.409    0.253   13.422
  459.783    6.688   82.560    0.439    0.286   10.560
  460.604    6.768   84.986    0.449    0.254   11.366
  461.424    6.849   88.023    0.449    0.235    9.989
  462.244    6.889   92.882    0.459    0.238    8.618
  463.064    7.132   95.920    0.475    0.222    7.299
  463.885    7.375   99.564    0.474    0.232    6.655
  464.705    7.577  100.163    0.468    0.228    7.162
  465.525    7.698   98.326    0.470    0.229    7.161
  466.345    7.738   96.489    0.478    0.236    6.529
  467.165    7.738   96.474    0.489    0.247    5.845
  467.986    7.777   97.682    0.494    0.257    5.232
  468.806    7.899   98.892    0.495    0.262    4.351
  469.626    8.182  100.100    0.500    0.272    3.823
  470.446    8.384   98.873    0.501    0.264    4.115
  471.266    7.653   95.820    0.498    0.251    4.857
  472.087    7.490   92.763    0.503    0.140    5.627
  472.907    7.692   99.454    0.516    0.210    5.423
  473.727    7.975  108.579    0.529    0.243    4.944
  474.547    8.137  111.005    0.519    0.261    4.592
  475.367    8.177  110.995    0.518    0.262    4.265
  476.188    8.177  110.376    0.525    0.257    4.035
  477.008    8.176  109.148    0.519    0.258    4.263
  477.828    8.175  107.920    0.529    0.266    4.674
  478.648    8.175  101.206    0.528    0.240    4.760
  479.469    8.133   95.109    0.492    0.231    4.938
  480.289    8.092   89.616    0.464    0.260    5.721
  481.109    7.970   88.995    0.443    0.263    7.268
  481.929    7.806   89.599    0.443    0.256    7.267
  482.749    7.643   91.413    0.460    0.257    7.678
  483.570    7.643   92.624    0.468    0.261    8.265
  484.390    7.723   94.436    0.466    0.268    7.819
  485.210    7.723   95.037    0.468    0.266    7.129
  486.030    7.681   95.634    0.477    0.261    6.621
  486.850    7.599   95.629    0.486    0.265    6.743
  487.671    7.518   91.965    0.462    0.272    7.671
  488.491    7.152   86.472    0.455    0.283   10.300
  489.311    6.786   82.811    0.445    0.252   12.381
  490.131    6.744   79.756    0.444    0.226    9.564
  490.951    6.784   82.791    0.449    0.192    8.101
  491.772    6.946   90.088    0.461    0.199    7.251
  492.592    7.270   91.905    0.485    0.256    6.029
  493.412    7.594   88.242    0.503    0.258    5.600
  494.232    7.878   80.312    0.511    0.269    5.703
  495.052    7.024   76.040    0.484    0.291    6.983
  495.873    6.699   72.376    0.458    0.286    9.551
  496.693    6.739   69.930    0.429    0.258   11.271
  497.513    6.779   75.401    0.423    0.207   11.065
  498.333    6.940   82.699    0.420    0.184   10.088
  499.154    7.102   87.560    0.445    0.253    9.030
  499.974    7.426   91.811    0.479    0.266    8.234
  500.794    7.548   91.189    0.499    0.260    7.104
  501.614    7.587   90.575    0.512    0.261    6.359
  502.434    7.668   89.957    0.512    0.263    7.233
  503.255    7.708   89.947    0.484    0.268    7.367
  504.075    7.748   92.373    0.481    0.273    6.717
  504.895    7.828   94.187    0.478    0.273    5.903
  505.715    7.909   91.132    0.489    0.264    6.237
  506.535    7.989   87.468    0.503    0.269    6.590
  507.356    8.070   86.852    0.509    0.272    6.468
  508.176    8.110   88.060    0.503    0.272    6.008
  508.996    7.947   88.050    0.505    0.273    5.580
  509.816    7.703   88.644    0.511    0.265    5.477
  510.636    7.418   88.030    0.479    0.251    6.230
  511.457    7.255   88.627    0.468    0.253    7.489
  512.277    7.132   89.835    0.475    0.261    8.677
  513.097    6.888   89.825    0.482    0.271    8.837
  513.917    6.928   89.206    0.436    0.257    9.167
  514.738    7.130   89.196    0.427    0.249   10.051
  515.558    7.333   94.055    0.437    0.262   11.645
  516.378    7.697   97.701    0.452    0.242   10.424
  517.198    7.899  104.999    0.483    0.258    5.569
  518.018    7.736  105.598    0.508    0.274    4.547
  518.839    7.654  107.415    0.510    0.246    4.716
  519.659    7.654  114.713    0.491    0.240    5.566
  520.479    7.653  115.918    0.492    0.241    5.463
  521.299    7.571  112.866    0.501    0.204    5.363
  522.119    7.489  111.027    0.513    0.189    5.879
  522.940    7.570  112.237    0.514    0.189    5.878
  523.760    7.975  115.272    0.522    0.209    5.561
  524.580    8.015  117.089    0.509    0.219    5.261
  525.400    8.015  119.512    0.506    0.225    5.163
  526.220    7.973  120.723    0.514    0.235    5.456
  527.041    7.770  122.537    0.521    0.225    5.873
  527.861    7.566  120.703    0.511    0.219    5.659
  528.681    7.484  113.994    0.501    0.226    5.160
