~Version : LASO    vs 4.00
VERS.                2.00:   CWLS Log ASCII Standard -VERSION 2.0
WRAP.                  NO:
~Well Information Block
#MNEM.UNIT       Data                        Description of Mnemonic
#----.----      -------------------------- : -----------------------------
STRT.M             3.0000:
STOP.M           202.0000:
STEP.M             0.1250:
NULL.           -999.2500:
COMP.  MOBILOIL CANADA             :COMPANY
WELL.  MOBIL CLARKE OV 10-26       :WELL
FLD.   CLARKE                      :FIELD
LOC.   10-26-090-07W4              :LOCATION
CTRY.  CANADA                      :COUNTRY
PROV.  ALBERTA                     :PROVINCE
SRVC.  DRESSER ATLAS               :SERVICE COMPANY
DATE.  31-JAN-81                   :LOG DATE
UWI.   AA/10-26-090-07W400         :UNIQUE WELL ID
~Parameter Information Block
#MNEM.UNIT       Data                        Description of Mnemonic
#----.----      -------------------------- : -----------------------------
RUN .                   1                 : Run Number
GL  .M           456.0000                 : Ground Level Elevation
DREF.                  KB                 : Depth Reference
EREF.M           456.0000                 : Elevation of Depth Reference
TDL .M           201.0000                 : Total Depth Logger
TDD .M           203.0000                 : Total Depth Driller
CSGL.M            13.0000                 : Casing Bottom Logger
CSGD.M            12.0000                 : Casing Bottom Driller
CSGS.MM          219.0000                 : Casing Size
CSGW.KG/M          0.0000                 : Casing Weight
BHT .DEGC         18.0000                 : Bottom Hole Temperature
BS  .MM          171.4000                 : Bit Size
DFD .              9.7000                 : Mud Weight (Density)
DFV .             85.0000                 : Mud Viscosity
RM  .OHMM          4.0000                 : Mud Resistivity
RMT .DEGC         18.0000                 : Mud Resistivity Temperature
RMF .OHMM          6.2000                 : Mud Filtrate Resistivity
RMFT.DEGC         12.0000                 : RMF Temperature
RMC .OHMM         11.6000                 : Mud Cake Resistivity
RMCT.DEGC         12.0000                 : RMC Temperature
~Curve Information Block
#MNEM.UNIT        API CODE    Curve Description
#---------    ------------    -------------------------------------------
DEPT.M                    :   DEPTH
CALI.MM       42 280  1  1:   3 DENSITY CALIPER
DPHI.V/V                  :   DPHI
DT  .US/M     60 520 42  1:   2 SONIC INTERVAL TRANSIT TIME (COMPENSATED)
GR  .GAPI     42 310  1  1:   4 GAMMA RAY
LLD .Ohmm                 :   LLD
NPHI.V/V      42 890  3  1:   5 NEUTRON POROSITY (SANDSTONE)
RHOB.K/M3     42 350  1  1:   6 BULK DENSITY
~A  Depth           CALI        DPHI          DT          GR         LLD        NPHI        RHOB
# ...
137.8750        174.8000      0.3811    607.3600     34.4700    394.3145      0.2408   2064.1001
138.0000        175.1000      0.3739    607.8800     33.5550    403.1875      0.2411   2064.1001
138.1250        175.4250      0.3667    604.9200     34.4700    416.9252      0.2411   2063.5000
138.2500        175.7250      0.3617    587.7600     34.6500    402.0875      0.2411   2058.0000
138.3750        175.7250      0.3646    592.9200     30.9750    387.7910      0.2402   2052.5000
138.5000        175.4250      0.3701    598.0400     30.0450    372.7932      0.2399   2048.8000
138.6250        173.8750      0.3748    599.7600     29.6850    355.0747      0.2422   2038.4000
138.7500        172.0500      0.3785    597.5600     28.5750    334.1955      0.2445   2030.4000
138.8750        172.3500      0.3697    595.6000     28.5750    305.5482      0.2535   2026.1000
139.0000        174.2000      0.3612    598.0400     30.4200    256.0659      0.2781   2026.1000
139.1250        174.5000      0.3509    597.0800     33.3600    231.5326      0.2896   2029.2000
139.2500        172.3500      0.3210    594.8800     33.7350    217.4685      0.2983   2057.3000
139.3750        171.4250      0.3086    579.9200     37.0500    201.6578      0.3092   2120.3999
139.5000        173.5750      0.3028    574.5200     41.8350    186.5161      0.3232   2148.5000
139.6250        175.1000      0.2978    588.0000     44.2350    176.3379      0.3337   2151.0000
139.7500        176.6500      0.2938    658.8400     45.3450    170.7596      0.3448   2157.1001
139.8750        176.9500      0.2883    642.9200     50.5050    166.5989      0.3518   2166.3000
140.0000        178.1750      0.2791    603.4400     58.2450    163.4762      0.3587   2179.7000
140.1250        178.7750      0.2713    541.9200     65.0550    158.8541      0.3678   2198.1001
140.2500        179.4000      0.2638    453.2000     69.6750    155.6257      0.3780   2213.3999
140.3750        179.1000      0.2565    429.4400     75.5700    151.8262      0.3874   2234.8000
140.5000        179.7000      0.2505    409.5600     78.8850    146.9342      0.3908   2250.1001
140.6250        180.0000      0.2445    408.6000     77.0400    143.9918      0.3919   2258.7000
140.7500        179.7000      0.2396    431.8800     77.0400    140.0804      0.3904   2269.7000
140.8750        180.3250      0.2358    471.8400     79.6200    136.1556      0.3883   2270.8999
141.0000        180.0000      0.2463    511.8000     81.2700    132.2305      0.3991   2265.3999
141.1250        181.8500      0.2539    503.9200     82.0200    129.2417      0.4080   2254.3999
141.2500        184.9250      0.2591    439.0000     79.4400    128.1848      0.4092   2237.8999
141.3750        187.3750      0.2639    489.4800     76.3050    124.4435      0.4036   2220.8000
141.5000        185.5250      0.2634    523.0400     73.7250    121.2724      0.4042   2207.3000
141.6250        184.6000      0.2624    552.9600     76.3050    119.4064      0.4050   2215.2000
141.7500        183.7000      0.2604    481.8800     79.9800    116.5682      0.4054   2229.3000
141.8750        183.0750      0.2589    447.3200     83.3100    113.6435      0.4073   2232.3999
142.0000        186.7500      0.2569    445.1200     84.9600    110.7104      0.4083   2229.3000
142.1250        189.2000      0.2534    443.4000     84.6000    107.7764      0.4115   2226.8999
142.2500        191.0500      0.2498    443.1600     87.7200    106.6061      0.4159   2230.5000
142.3750        188.6000      0.2488    444.8800     86.0700    105.6522      0.4213   2234.2000
142.5000        179.7000      0.2482    442.9200     82.5600    106.5197      0.4253   2237.8999
142.6250        187.3750      0.2471    443.6400     85.6950    111.3334      0.4309   2237.8999
142.7500        194.4000      0.2458    429.2000     87.1800    114.7019      0.4308   2240.3000
142.8750        192.5750      0.2456    429.6800     84.7800    118.9070      0.4251   2245.8000
143.0000        188.2750      0.2519    432.8800     88.6500    123.1800      0.4179   2249.5000
143.1250        182.4750      0.2561    429.4400     90.8550    130.8197      0.4107   2243.3999
143.2500        180.0000      0.2589    423.3200     92.1450    142.8590      0.4099   2229.3000
143.3750        185.8250      0.2605    423.0400     87.7200    153.9099      0.4118   2221.3999
143.5000        189.5000      0.2609    427.2400     83.1150    163.8010      0.4081   2219.5000
143.6250        196.8750      0.2612    429.9200     79.6200    171.4951      0.4084   2215.8999
143.7500        199.6250      0.2714    430.9200     79.6200    177.9717      0.4065   2217.1001
143.8750        200.8500      0.2860    429.9200     79.6200    185.7109      0.3920   2211.0000
144.0000        199.6250      0.2959    424.5200     74.8200    194.1813      0.3812   2177.3000
144.1250        195.3250      0.2955    420.3600     68.5650    201.8403      0.3750   2159.6001
144.2500        189.5000      0.2934    424.7600     59.3550    205.5527      0.3733   2159.6001
144.3750        181.2500      0.2948    425.0000     56.9550    206.9256      0.3702   2163.8000
144.5000        176.0250      0.2951    425.0000     60.0900    207.1334      0.3709   2171.2000
144.6250        177.8750      0.2934    435.5600     61.0050    202.6444      0.3687   2165.7000
144.7500        180.3250      0.2911    445.6000     61.9350    196.0301      0.3664   2162.6001
144.8750        181.2500      0.2862    447.3200     64.5150    189.2150      0.3686   2170.0000
145.0000        175.7250      0.2789    447.0800     72.0600    179.1350      0.3709   2187.7000
145.1250        179.1000      0.2832    444.4000     76.1250    167.9214      0.3852   2214.6001
145.2500        183.3750      0.2718    439.9600     78.3300    158.2310      0.3901   2248.8999
145.3750        185.5250      0.2624    438.5200     82.5600    149.4439      0.3893   2260.5000
145.5000        188.2750      0.2545    436.2800     86.4300    140.6982      0.3908   2266.0000
145.6250        187.9750      0.2489    433.8400     87.5400    134.4965      0.3957   2274.0000
145.7500        182.1500      0.2417    429.4400     87.7200    128.5752      0.4016   2274.6001
145.8750        187.3750      0.2342    418.8800     85.1400    124.3507      0.3972   2265.3999
146.0000        184.6000      0.2320    414.9600     85.6950    121.2088      0.3953   2255.0000
146.1250        180.6250      0.2305    412.0400     88.0950    117.4147      0.3998   2255.0000
146.2500        174.8000      0.2321    413.5200     88.0950    115.8315      0.3886   2264.2000
146.3750        177.8750      0.2369    415.4800     86.0700    116.4956      0.3882   2253.8000
146.5000        179.7000      0.2381    423.0400     90.1200    118.5163      0.3912   2246.5000
146.6250        178.1750      0.2383    425.5200     92.3400    121.0240      0.3931   2246.5000
146.7500        179.7000      0.2417    426.7200     88.4700    123.2933      0.3942   2241.6001
146.8750        181.8500      0.2445    431.6400     83.3100    125.0500      0.4009   2234.2000
147.0000        179.1000      0.2444    428.2000     81.0900    128.0688      0.3994   2229.8999
147.1250        178.1750      0.2466    421.8400     81.0900    130.3378      0.3968   2224.3999
147.2500        176.3250      0.2489    417.6800     81.6450    132.5154      0.3942   2234.2000
147.3750        180.0000      0.2512    422.0800     80.5350    135.0681      0.3871   2253.8000
147.5000        176.9500      0.2544    420.3600     79.6200    138.8020      0.3807   2270.8999
147.6250        175.7250      0.2510    419.1200     81.0900    142.0526      0.3784   2278.8999
147.7500        174.5000      0.2453    421.3600     79.2450    145.2709      0.3878   2274.0000
147.8750        172.3500      0.2402    421.0800     78.5100    149.5153      0.3908   2266.0000
148.0000        172.0500      0.2331    423.0400     79.6200    151.2796      0.3878   2262.3999
148.1250        171.7500      0.2277    425.2800     79.9800    151.7027      0.3848   2258.1001
