~Version : LASO    vs 4.00
VERS.                2.00:   CWLS Log ASCII Standard -VERSION 2.0
WRAP.                  NO:
~Well Information Block
#MNEM.UNIT       Data                        Description of Mnemonic
#----.----      -------------------------- : -----------------------------
STRT.M            21.0000:
STOP.M           215.4000:
STEP.M             0.2000:
NULL.           -999.2500:
COMP.  MOBIL OIL CANADA                 :COMPANY
WELL.  MOBIL CLARKE OV PROG. 2-81       :WELL
FLD.                                    :FIELD
LOC.   13-28-089-07W4                   :LOCATION
CTRY.  CANADA                           :COUNTRY
PROV.  ALBERTA                          :PROVINCE
SRVC.  SCHLUMBERGER                     :SERVICE COMPANY
DATE.  31-JAN-81                        :LOG DATE
UWI.   AA/13-28-089-07W400              :UNIQUE WELL ID
~Parameter Information Block
#MNEM.UNIT       Data                        Description of Mnemonic
#----.----      -------------------------- : -----------------------------
RUN .                   1                 : Run Number
GL  .M           458.5000                 : Ground Level Elevation
DREF.                  GD                 : Depth Reference
EREF.M           458.5000                 : Elevation of Depth Reference
TDL .M           216.0000                 : Total Depth Logger
TDD .M           216.0000                 : Total Depth Driller
CSGL.M            22.0000                 : Casing Bottom Logger
CSGD.M            22.0000                 : Casing Bottom Driller
CSGS.MM          219.0000                 : Casing Size
CSGW.KG/M          0.0000                 : Casing Weight
BHT .DEGC         12.0000                 : Bottom Hole Temperature
BS  .MM          171.0000                 : Bit Size
DFD .           9999.0000                 : Mud Weight (Density)
DFV .             45.0000                 : Mud Viscosity
DFPH.             11.0000                 : Mud pH
RM  .OHMM          5.7400                 : Mud Resistivity
RMT .DEGC         12.0000                 : Mud Resistivity Temperature
~Curve Information Block
#MNEM.UNIT        API CODE    Curve Description
#---------    ------------    -------------------------------------------
DEPT.M                    :   DEPTH
CALI.MM       42 280  1  1:   3 DENSITY CALIPER
DPHI.V/V                  :   DPHI
DT  .US/M     60 520  0  1:   2 SONIC INTERVAL TRANSIT TIME (COMPENSATED)
GR  .GAPI     42 310  1  1:   4 GAMMA RAY
ILD .OHMM      5 120 46  1:   7 DEEP INDUCTION
ILM .OHMM      5 120 44  1:   8 MEDIUM INDUCTION
NPHI.V/V      42 890  3  1:   5 NEUTRON POROSITY (SANDSTONE)
RHOB.K/M3     42 350  1  1:   6 BULK DENSITY
SFLU.OHMM      5 220  1  1:   9 FOCUSSED RESISTIVITY
SP  .MV        5  10  1  1:   10 SPONTANEOUS POTENTIAL
~A  Depth           CALI        DPHI          DT          GR         ILD         ILM        NPHI        RHOB        SFLU          SP
# ...
118.6000        180.5750      0.2406    496.9600     94.0050      4.7406      4.5230      0.4952   2268.8999      4.8869    -89.0700
118.8000        180.4500      0.2486    498.4400     94.5750      4.7406      4.5230      0.4856   2269.3999      5.5085    -90.0600
119.0000        181.2500      0.2420    497.3600     95.2650      4.7406      4.5230      0.4794   2280.2000      5.3092    -86.8350
119.2000        181.7250      0.2491    498.2400     95.3100      4.6971      4.5230      0.4805   2324.2000      4.3354    -84.0900
119.4000        181.8500      0.2480    501.1600     95.5800      4.6114      4.5230      0.4853   2325.5000      4.0647    -83.8500
119.6000        182.3000      0.2457    508.4400     96.7350      4.5691      4.3195      0.4987   2294.7000      5.2605    -83.8500
119.8000        181.4250      0.2389    508.0400     98.6850      4.5272      4.2799      0.4946   2283.8000      4.9321    -83.3400
120.0000        181.8750      0.2323    505.0400    100.2450      4.5272      4.2799      0.4895   2274.8999      4.1403    -81.8550
120.2000        191.0500      0.2234    508.8800    101.8050      4.4857      4.2799      0.4943   2297.2000      4.2957    -80.8650
120.4000        196.0500      0.2191    512.4800    101.3100      4.4446      4.2799      0.4933   2304.7000      4.4981    -81.3600
120.6000        201.1250      0.2182    513.5600    100.8300      4.4446      4.2799      0.4871   2312.8000      4.5397    -81.8550
120.8000        197.5000      0.2157    511.0000    101.2800      4.4446      4.2799      0.4881   2328.5000      4.5397    -81.3600
121.0000        200.3750      0.2162    498.8800    105.0150      4.4857      4.2406      0.5016   2306.8999      4.5397    -79.6200
121.2000        204.3250      0.2204    496.9600    106.5900      4.4857      4.2406      0.4985   2291.0000      4.4160    -79.3650
121.4000        204.8750      0.2177    498.4400    107.4000      4.5691      4.3195      0.4927   2276.1001      4.2563    -79.8600
121.6000        207.6750      0.2104    503.9200    106.7850      4.8287      4.6071      0.4727   2267.8000      4.2957    -79.6200
121.8000        204.0000      0.2074    508.8800    106.8600      4.9640      4.8243      0.4721   2290.6001      4.5817    -79.1100
122.0000        200.2000      0.2101    506.7600    107.1600      5.0563      5.0516      0.4807   2358.2000      5.0703    -79.8600
122.2000        195.7000      0.2113    487.5600    108.0150      5.1503      5.1455      0.4735   2314.3000      7.0054    -84.3450
122.4000        186.8750      0.2148    479.0400    106.6650      5.1979      5.0516      0.4653   2304.7000      7.6108    -86.5800
122.6000        184.7250      0.2195    481.1600    105.8100      5.1979      4.9139      0.4624   2297.1001      7.2016    -86.3250
122.8000        182.4250      0.2255    502.6400    104.3700      5.0563      4.6928      0.4655   2297.3000      4.9777    -79.8600
123.0000        183.6250      0.2338    509.7200    105.1350      4.9640      4.6928      0.4811   2302.2000      4.1403    -78.3750
123.2000        185.0500      0.2403    511.4400    106.9800      4.8287      4.6928      0.4904   2319.2000      4.1403    -78.3750
123.4000        196.4000      0.2318    506.7600    109.8750      4.6114      4.3594      0.5070   2326.3000      5.3092    -79.1100
123.6000        201.9500      0.2238    509.3200    110.7750      4.5272      4.3594      0.5122   2309.8000      4.6669    -79.6200
123.8000        193.8750      0.2208    510.5600    110.8200      4.4446      4.3594      0.5170   2296.7000      3.9905    -79.1100
124.0000        196.9500      0.2170    514.8400    109.3050      4.3634      4.2799      0.5261   2286.0000      4.0647    -78.6150
124.2000        195.6000      0.2121    514.0000    108.5850      4.2838      3.9758      0.5300   2303.3999      4.4981    -77.3700
124.4000        194.2000      0.2090    508.4400    108.7950      4.3234      3.9394      0.5255   2301.5000      4.0647    -76.6350
124.6000        193.0750      0.2097    508.4400    107.8800      4.4038      4.0498      0.5106   2295.8000      3.6361    -75.8850
124.8000        196.8250      0.2060    504.6000    103.9500      4.4857      4.3594      0.5012   2333.3000      4.4981    -76.8750
125.0000        202.1000      0.2034    499.9200    102.1800      4.4857      4.4405      0.4973   2300.6001      5.6109    -77.6250
125.2000        204.4250      0.2033    497.3600    101.5200      4.5691      4.4405      0.4845   2277.7000      5.8753    -77.6250
125.4000        205.0250      0.2052    496.3200    101.8350      4.8287      4.3594      0.4784   2259.8000      4.7977    -75.6300
125.6000        205.9250      0.2045    498.8800    102.0300      4.9640      4.4816      0.4885   2257.3999      4.1786    -74.3850
125.8000        205.4000      0.2043    501.6000    101.1750      4.9185      4.6498      0.4973   2324.1001      3.9177    -73.8900
126.0000        204.3250      0.2053    496.7200     98.7150      4.5691      4.7800      0.5053   2244.8999      5.2605    -74.3850
126.2000        203.2500      0.2099    490.5600     98.6850      4.2838      4.5230      0.5051   2232.5000      6.3304    -74.3850
126.4000        198.2000      0.2227    485.8800     99.7800      4.0163      4.0126      0.5026   2224.8000      6.8144    -74.3850
126.6000        185.8250      0.2317    482.8800    101.3700      3.5961      3.2466      0.5014   2216.0000      3.3468    -72.6450
126.8000        186.4250      0.2428    496.3200    100.6950      3.4342      3.0721      0.5309   2293.3000      2.4470    -71.9100
127.0000        191.0250      0.2540    514.8400    100.5450      3.3100      2.9609      0.5389   2291.2000      2.3347    -71.4000
127.2000        199.4500      0.2444    530.6000    101.2350      3.2198      2.9338      0.5446   2281.6001      2.4245    -71.6550
127.4000        196.3750      0.2351    538.6801    104.0550      3.3100      3.1581      0.5449   2260.3999      2.7329    -73.6500
127.6000        198.9250      0.2365    534.0000    104.8200      3.4660      3.3376      0.5420   2287.2000      3.3161    -73.8900
127.8000        207.4250      0.2456    527.2000    103.0500      3.6968      3.5272      0.5357   2290.3000      3.9905    -73.8900
128.0000        214.6250      0.2452    508.4400    101.7750      4.3234      4.1251      0.5198   2277.3000      4.5817    -74.3850
128.2000        215.8250      0.2404    497.3600    102.5400      4.6114      4.4816      0.5113   2267.8000      5.1172    -75.6300
128.4000        207.8750      0.2340    486.2800    103.2900      4.8287      4.6498      0.5039   2259.3000      5.7152    -76.1250
128.6000        188.4500      0.2432    471.6000    104.7300      5.4429      5.0516      0.4906   2256.8999      5.1645    -77.8800
128.8000        188.9750      0.2444    476.4800    103.8900      5.8054      5.4379      0.4837   2255.7000      5.0238    -78.8700
129.0000        190.7000      0.2386    486.2800    100.2150      6.2493      5.8537      0.4843   2337.6001      5.4580    -79.1100
129.2000        188.3250      0.2177    491.8400     93.8700      6.6655      7.2349      0.4792   2332.0000      6.5680    -77.8800
129.4000        187.1000      0.2047    467.9600     90.7950      6.6655      7.5689      0.4610   2532.6001      9.8499    -76.6350
129.6000        186.5750      0.1974    424.9200     89.6250      6.6655      7.1028      0.4334   2548.8000     16.5132    -77.1300
129.8000        185.5500      0.1985    389.1600     91.2000      6.5438      6.0734      0.4102   2338.8999      7.1356    -81.1050
130.0000        185.5250      0.1967    415.3600     93.3150      6.3655      5.8000      0.4418   2305.3000      5.2123    -81.6000
130.2000        185.7750      0.1931    470.9600     94.9650      6.0232      5.5390      0.4565   2293.0000      4.7977    -80.3550
130.4000        186.0250      0.1978    510.5600     95.3100      5.7521      5.3880      0.4686   2285.0000      4.7101    -79.1100
130.6000        186.2750      0.2059    510.3600     92.1000      5.4933      5.2412      0.4803   2285.7000      5.3092    -78.8700
