~VERSION INFORMATION
 VERS.                 2.0:   CWLS LOG ASCII STANDARD -VERSION 2.0
 WRAP.                  NO:   ONE LINE PER DEPTH STEP
~WELL INFORMATION BLOCK
#MNEM.UNIT           DATA                    DESCRIPTION OF MNEMONIC
#---------    -------------------            -------------------------------
# Generated from Intellog Unique Number	CS_77_79/WELL/964
WELL.         PEX PCEJ LEISMER OV            : Well_name    - WELL
LOC .         AA/10-26-079-08W4/0            : Location     - LOCATION
UWI .         AA/10-26-079-08W4/0            : Uwi          - UNIQUE WELL ID
ENTR.         JHS                            : Entered      - ENTERED BY
SRVC.         SCHLUMBERGER                   : Scn          - SERVICE COMPANY
STRT.M        175                            : top_depth    - START DEPTH
STOP.M        400                            : bot_depth    - STOP DEPTH
STEP.M        0.25                           : increment    - STEP LENGTH
 NULL. -999.2500:NULL Value
~CURVE INFORMATION BLOCK
#MNEM UNIT       ERCB CURVE CODE    CURVE DESCRIPTION
#-----------   ------------------   ----------------------------------
DEPT.M        00 001 00 00         : DEPTH        - DEPTH
DPHI.V/V      00 890 00 00         : PHID         - DENSITY POROSITY (LIMESTONE)
NPHI.V/V      00 330 00 00         : PHIN         - NEUTRON POROSITY (LIMESTONE)
GR  .API      00 310 00 00         : GR           - GAMMA RAY
ILD .OHMM     00 120 00 00         : RESD         - DEEP RESISTIVITY (DIL)
RHOB.KG/M3    00 350 00 00         : DENS         - BULK DENSITY
~PARAMETER INFORMATION
#MNEM.UNIT           DATA             DESCRIPTION OF MNEMONIC
#---------         -----------     ------------------------------
GL  .M        614.8                : gl           - GROUND LEVEL ELEVATION
EREF.M        618.45               : kb           - ELEVATION OF DEPTH REFERENCE
DATM.M        618.45               : datum        - DATUM ELEVATION
TDD .M        407.6                : tdd          - TOTAL DEPTH DRILLER
RUN .         ONE                  : Run          - RUN NUMBER
ENG .         BILL                 : Engineer     - RECORDING ENGINEER
WIT .         JIM                  : Witness      - WITNESSED BY
MUD .         GEL                  : Mud_type     - MUD TYPE
MATR.         LIMESTONE            : Logunit      - NEUTRON MATRIX
TMAX.C        19                   : BHT          - MAXIMUM RECORDED TEMPERATURE
BHTD.M        407.6                : BHTDEP       - MAXIMUM RECORDED TEMPERATURE
MATR.         1                    : LOGUNIT      - NEUTRON MATRIX
RMT .C        25                   : MDTP         - TEMPERATURE OF MUD
NEUT.         1                    : NEUTRON      - NEUTRON TYPE
RESI.         0                    : RESIST       - RESISTIVITY TYPE
RMC .OHMM     0.25                 : RMC          - RESISTIVITY OF MUD CAKE
RMF .OHMM     0.25                 : RMF          - RESISTIVITY OF MUD FILTRATE
SUFT.C        15                   : SUFT         - SURFACE TEMPERATURE
~A  DEPTH     PHID     PHIN       GR     RESD     DENS
# ...
  211.500    0.303    0.360   55.416   19.234    0.000
  211.750    0.298    0.341   59.744   18.524    0.000
  212.000    0.298    0.339   60.971   18.178    0.000
  212.250    0.288    0.326   60.341   17.839    0.000
  212.500    0.275    0.319   64.050   17.507    0.000
  212.750    0.260    0.336   70.237   17.180    0.000
  213.000    0.251    0.354   72.704   17.505    0.000
  213.250    0.265    0.336   72.074   17.503    0.000
  213.500    0.315    0.336   77.022   17.502    0.000
  213.750    0.301    0.333   84.449   17.501    0.000
  214.000    0.291    0.341   89.395   17.832    0.000
  214.250    0.306    0.349   91.245   18.168    0.000
  214.500    0.311    0.340   94.952   18.167    0.000
  214.750    0.309    0.350   92.463   18.511    0.000
  215.000    0.313    0.354   82.534   18.509    0.000
  215.250    0.306    0.355   77.565   18.508    0.000
  215.500    0.311    0.352   85.611   17.825    0.000
  215.750    0.302    0.344   89.940   16.535    0.000
  216.000    0.285    0.380   96.745   14.498    0.000
  216.250    0.257    0.383  105.413   13.198    0.000
  216.500    0.225    0.385  117.797   10.340    0.000
  216.750    0.187    0.399  140.101    8.732    0.000
  217.000    0.165    0.401  146.908    6.970    0.000
  217.250    0.181    0.385  142.555    6.228    0.000
  217.500    0.188    0.402  137.589    5.998    0.000
  217.750    0.183    0.390  133.239    6.345    0.000
  218.000    0.208    0.381  140.665    6.587    0.000
  218.250    0.248    0.367  138.795    7.799    0.000
  218.500    0.274    0.377  137.544    9.062    0.000
  218.750    0.286    0.360  136.290   10.142    0.000
  219.000    0.297    0.352  135.042   11.565    0.000
  219.250    0.307    0.366  137.511   12.943    0.000
  219.500    0.310    0.392  139.359   14.760    0.000
  219.750    0.288    0.371  131.290   15.614    0.000
  220.000    0.274    0.360  117.644   14.758    0.000
  220.250    0.268    0.377  117.633   13.185    0.000
  220.500    0.267    0.390  121.961   12.462    0.000
  220.750    0.266    0.378  120.709   11.779    0.000
  221.000    0.271    0.371  120.699   11.778    0.000
  221.250    0.279    0.380  118.210   12.001    0.000
  221.500    0.284    0.360  103.941   13.685    0.000
  221.750    0.290    0.363   95.873   14.751    0.000
  222.000    0.299    0.353   87.805   16.509    0.000
  222.250    0.310    0.347   74.777   18.132    0.000
  222.500    0.303    0.338   55.553   20.292    0.000
  222.750    0.292    0.327   54.302   21.067    0.000
  223.000    0.290    0.313   60.489   21.066    0.000
  223.250    0.281    0.303   64.812   19.911    0.000
  223.500    0.278    0.308   66.043   18.126    0.000
  223.750    0.265    0.331   68.513   16.814    0.000
  224.000    0.265    0.361   74.701   15.893    0.000
  224.250    0.267    0.383   88.946   15.021    0.000
  224.500    0.261    0.352   82.736   14.467    0.000
  224.750    0.259    0.337   85.824   14.197    0.000
  225.000    0.261    0.327   91.392   14.196    0.000
  225.250    0.261    0.329   95.719   14.195    0.000
  225.500    0.261    0.340   96.328   14.194    0.000
  225.750    0.265    0.336   84.540   14.193    0.000
  226.000    0.267    0.337   88.249   13.929    0.000
  226.250    0.267    0.332   92.576   13.415    0.000
  226.500    0.248    0.342   97.524   12.920    0.000
  226.750    0.240    0.367  103.090   11.984    0.000
  227.000    0.233    0.365  108.038   10.707    0.000
  227.250    0.229    0.371  114.224    9.566    0.000
  227.500    0.231    0.367  115.455    8.547    0.000
  227.750    0.221    0.367  122.262    7.636    0.000
  228.000    0.211    0.382  130.927    7.354    0.000
  228.250    0.212    0.398  136.495    7.635    0.000
  228.500    0.232    0.399  138.343    8.386    0.000
  228.750    0.260    0.387  130.895    9.744    0.000
  229.000    0.287    0.373  114.150   11.536    0.000
  229.250    0.284    0.362  103.601   13.405    0.000
  229.500    0.269    0.354   99.870   14.723    0.000
  229.750    0.258    0.354  106.057   14.722    0.000
  230.000    0.241    0.354  106.047   13.915    0.000
  230.250    0.233    0.352  106.656   12.201    0.000
  230.500    0.233    0.359  110.364   11.318    0.000
  230.750    0.228    0.354  117.171   10.498    0.000
  231.000    0.225    0.355  124.598    9.205    0.000
  231.250    0.225    0.361  132.644    8.700    0.000
  231.500    0.230    0.367  135.732    8.071    0.000
  231.750    0.235    0.371  124.562    8.070    0.000
  232.000    0.252    0.404  130.132    8.222    0.000
  232.250    0.268    0.418  127.640    8.378    0.000
  232.500    0.246    0.413  121.431    8.863    0.000
  232.750    0.246    0.409  116.462    9.375    0.000
  233.000    0.265    0.401  112.732   10.297    0.000
  233.250    0.272    0.399  110.241   11.099    0.000
  233.500    0.280    0.398  108.992   11.742    0.000
  233.750    0.290    0.382  111.457   12.421    0.000
  234.000    0.293    0.371  108.970   12.896    0.000
  234.250    0.290    0.377  108.338   13.388    0.000
  234.500    0.293    0.385  106.468   12.894    0.000
  234.750    0.285    0.365  105.217   12.418    0.000
  235.000    0.267    0.352  109.546   11.737    0.000
  235.250    0.258    0.357  112.635   11.094    0.000
  235.500    0.245    0.382  115.102   10.684    0.000
  235.750    0.236    0.400  113.852   10.290    0.000
  236.000    0.235    0.418  116.321    9.910    0.000
  236.250    0.253    0.400  114.449    9.545    0.000
  236.500    0.261    0.387  107.001    9.021    0.000
  236.750    0.266    0.368  103.270    8.688    0.000
  237.000    0.274    0.376  108.837    8.368    0.000
  237.250    0.279    0.381  115.025    7.909    0.000
  237.500    0.274    0.368  115.013    7.475    0.000
  237.750    0.282    0.400  108.184    7.617    0.000
  238.000    0.298    0.386  100.734    8.686    0.000
  238.250    0.301    0.385   96.387   10.284    0.000
  238.500    0.330    0.388   85.838   12.406    0.000
  238.750    0.400    0.384   80.248   15.251    0.000
  239.000    0.358    0.362   71.561   18.056    0.000
  239.250    0.293    0.351   69.691   20.591    0.000
  239.500    0.295    0.372   80.835   22.615    0.000
  239.750    0.297    0.369   89.503   23.479    0.000
  240.000    0.294    0.383   95.688   23.922    0.000
  240.250    0.293    0.377   91.961   23.476    0.000
  240.500    0.294    0.377   96.907   23.474    0.000
  240.750    0.302    0.374   95.655   23.473    0.000
  241.000    0.310    0.367   84.488   23.471    0.000
  241.250    0.318    0.355   74.561   23.470    0.000
  241.500    0.329    0.347   76.410   23.469    0.000
  241.750    0.326    0.347   71.440   23.912    0.000
  242.000    0.326    0.352   68.329   23.911    0.000
  242.250    0.328    0.340   63.980   24.362    0.000
  242.500    0.323    0.344   59.010   24.822    0.000
  242.750    0.325    0.341   62.095   24.820    0.000
  243.000    0.322    0.352   65.187   24.819    0.000
  243.250    0.318    0.351   68.273   24.817    0.000
  243.500    0.325    0.351   65.163   24.354    0.000
  243.750    0.328    0.351   66.393   24.353    0.000
  244.000    0.324    0.362   63.900   24.351    0.000
  244.250    0.323    0.347   60.172   24.350    0.000
  244.500    0.325    0.357   60.162   24.348    0.000
  244.750    0.318    0.354   59.532   24.347    0.000
  245.000    0.319    0.355   58.899   24.345    0.000
  245.250    0.323    0.361   60.748   23.891    0.000
  245.500    0.322    0.346   63.217   24.342    0.000
  245.750    0.316    0.337   66.924   23.888    0.000
  246.000    0.314    0.325   64.432   23.887    0.000
  246.250    0.317    0.343   65.043   23.885    0.000
  246.500    0.317    0.345   63.172   23.439    0.000
  246.750    0.318    0.333   63.781   23.438    0.000
  247.000    0.318    0.334   65.630   23.001    0.000
  247.250    0.312    0.339   63.139   23.000    0.000
  247.500    0.310    0.340   59.411   23.434    0.000
  247.750    0.307    0.353   60.639   23.432    0.000
