~VERSION INFORMATION
 VERS.                 2.0:   CWLS LOG ASCII STANDARD -VERSION 2.0
 WRAP.                  NO:   ONE LINE PER DEPTH STEP
~WELL INFORMATION BLOCK
#MNEM.UNIT           DATA                    DESCRIPTION OF MNEMONIC
#---------    -------------------            -------------------------------
# Generated from Intellog Unique Number	CW_82_90/WELL/1033
WELL.         14-05-082-21W4                 : Well_name    - WELL
LOC .         AA/14-05-082-21W4/0            : Location     - LOCATION
UWI .         AA/14-05-082-21W4/0            : Uwi          - UNIQUE WELL ID
ENTR.         JAYE                           : Entered      - ENTERED BY
SRVC.         SCHLUMBERGER                   : Scn          - SERVICE COMPANY
DATE.         26 JAN 82                      : Date         - LOG DATE
STRT.M        225                            : top_depth    - START DEPTH
STOP.M        430                            : bot_depth    - STOP DEPTH
STEP.M        0.25                           : increment    - STEP LENGTH
 NULL. -999.2500:NULL Value
~CURVE INFORMATION BLOCK
#MNEM UNIT       ERCB CURVE CODE    CURVE DESCRIPTION
#-----------   ------------------   ----------------------------------
DEPT.M        00 001 00 00         : DEPTH        - DEPTH
CALI.MM       00 280 01 00         : CAL          - CALIPER
GR  .API      00 310 00 00         : GR           - GAMMA RAY
NPHI.V/V      00 330 00 00         : PHIN         - NEUTRON POROSITY (SANDSTONE)
DPHI.V/V      00 890 00 00         : PHID         - DENSITY POROSITY (SANDSTONE)
ILD .OHMM     00 120 00 00         : RESD         - DEEP RESISTIVITY (DIL)
~PARAMETER INFORMATION
#MNEM.UNIT           DATA             DESCRIPTION OF MNEMONIC
#---------         -----------     ------------------------------
GL  .M        615.3                : gl           - GROUND LEVEL ELEVATION
EREF.M        619.8                : kb           - ELEVATION OF DEPTH REFERENCE
DATM.M        615.3                : datum        - DATUM ELEVATION
TDD .M        437                  : tdd          - TOTAL DEPTH DRILLER
RUN .         ONE                  : Run          - RUN NUMBER
ENG .         KUZIO                : Engineer     - RECORDING ENGINEER
WIT .         WALKER               : Witness      - WITNESSED BY
BASE.         EDMONTON             : Branch       - HOME BASE OF LOGGING UNIT
MUD .         GEL CHEM             : Mud_type     - MUD TYPE
MATR.         SANDSTONE            : Logunit      - NEUTRON MATRIX
TMAX.C        24.4                 : BHT          - MAXIMUM RECORDED TEMPERATURE
BHTD.M        437                  : BHTDEP       - MAXIMUM RECORDED TEMPERATURE
RMT .C        14.4                 : MDTP         - TEMPERATURE OF MUD
MUDD.KG/M     1060                 : MWT          - MUD DENSITY
NEUT.         1                    : NEUTRON      - NEUTRON TYPE
RESI.         0                    : RESIST       - RESISTIVITY TYPE
RM  .OHMM     6.58                 : RM           - RESISTIVITY OF MUD
RMC .OHMM     0.25                 : RMC          - RESISTIVITY OF MUD CAKE
RMF .OHMM     5.72                 : RMF          - RESISTIVITY OF MUD FILTRATE
SUFT.C        4                    : SUFT         - SURFACE TEMPERATURE
~A  DEPTH      CAL       GR     PHIN     PHID     RESD
# ...
  407.500  162.256  109.695    0.362    0.148   13.087
  407.750  166.635  109.946    0.368    0.162    9.635
  408.000  171.744  105.571    0.360    0.162    8.425
  408.250  174.767  103.322    0.362    0.166    7.823
  408.500  174.349  104.010    0.390    0.190    7.235
  408.750  171.218  108.698    0.431    0.208    5.327
  409.000  167.358  119.949    0.475    0.195    4.684
  409.250  164.228  122.262    0.459    0.193    2.699
  409.500  163.288  106.263    0.428    0.191    4.484
  409.750  165.789   87.263    0.409    0.157    5.862
  410.000  164.849   82.014    0.363    0.108    7.495
  410.250  162.240   83.702    0.307    0.074    8.991
  410.500  162.030   88.140    0.337    0.096    8.963
  410.750  163.489  117.516    0.428    0.155    8.542
  411.000  167.555  122.516    0.431    0.166    6.905
  411.250  171.413  123.454    0.427    0.163    6.050
  411.500  170.056  124.955    0.439    0.164    5.554
  411.750  168.281  129.456    0.460    0.183    4.967
  412.000  165.255  131.144    0.464    0.195    3.740
  412.250  164.107  103.457    0.436    0.198    6.201
  412.500  162.749   85.457    0.401    0.206    7.913
  412.750  160.766   82.708    0.331    0.211    9.690
  413.000  158.366   83.709    0.331    0.194   12.981
  413.250  156.487   88.334    0.354    0.180   15.256
  413.500  156.799   93.522    0.345    0.183   18.064
  413.750  157.423   95.148    0.328    0.172   20.643
  414.000  157.734   87.898    0.321    0.126   21.444
  414.250  158.151   79.462    0.314    0.115   22.439
  414.500  159.400   78.712    0.298    0.111   22.077
  414.750  160.442   86.088    0.304    0.094   20.267
  415.000  161.275  100.213    0.404    0.131   12.283
  415.250  161.274  107.339    0.424    0.167   10.327
  415.500  161.377   98.402    0.398    0.186    7.804
  415.750  161.897  100.528    0.363    0.193    8.463
  416.000  161.687  100.153    0.366    0.198    8.389
  416.250  160.016  100.466    0.419    0.193    7.687
  416.500  158.555  102.905    0.419    0.189    6.940
  416.750  158.032  106.655    0.429    0.194    6.114
  417.000  157.718  109.156    0.411    0.202    5.287
  417.250  157.195  108.156    0.390    0.178    6.535
  417.500  156.046  106.782    0.391    0.169    8.706
  417.750  156.253  108.908    0.402    0.162    8.711
  418.000  157.191  111.596    0.410    0.154    8.683
  418.250  158.337   98.784    0.405    0.183    8.449
  418.500  158.648   84.347    0.359    0.213    7.654
  418.750  157.917   63.410    0.324    0.235   10.706
  419.000  156.455   68.411    0.310    0.222   11.038
  419.250  156.766   82.786    0.309    0.198   11.443
  419.500  158.434  113.349    0.327    0.177   13.805
  419.750  159.684  135.412    0.353    0.158   12.888
  420.000  159.683  135.788    0.387    0.143    7.959
  420.250  161.350  124.726    0.399    0.143    8.976
  420.500  160.931  105.789    0.403    0.157   11.178
  420.750  158.636  104.102    0.399    0.194   11.987
  421.000  157.487  106.978    0.376    0.182   14.326
  421.250  156.443  107.229    0.360    0.208   16.401
  421.500  157.171   87.979    0.337    0.238   18.741
  421.750  157.483   65.355    0.305    0.297   18.612
  422.000  156.751   73.668    0.306    0.304   18.903
  422.250  156.228   99.919    0.305    0.241   18.117
  422.500  156.644  106.982    0.302    0.136   16.449
  422.750  158.937  109.732    0.304    0.118   15.185
  423.000  160.292  107.170    0.315    0.106   13.967
  423.250  158.830  102.046    0.341    0.129   14.027
  423.500  156.743   98.422    0.362    0.172   15.702
  423.750  156.220   93.610    0.366    0.211   15.394
  424.000  156.218   90.860    0.337    0.190   15.285
  424.250  157.468   89.299    0.320    0.168   15.293
  424.500  159.032   89.049    0.308    0.153   16.127
  424.750  157.779   88.862    0.323    0.158   16.593
  425.000  156.630   79.675    0.358    0.223   20.169
  425.250  156.003   74.364    0.354    0.222   20.218
  425.500  156.106   81.427    0.329    0.175   19.670
  425.750  155.166   93.740    0.337    0.158   17.690
  426.000  153.808   98.303    0.382    0.197   14.598
  426.250  153.390   82.741    0.400    0.251   16.098
  426.500  153.075   79.117    0.369    0.270   19.204
  426.750  152.970   89.055    0.355    0.266   18.965
  427.000  153.594   98.118    0.335    0.238   19.924
  427.250  154.114   98.681    0.330    0.238   21.929
  427.500  154.843   86.681    0.350    0.192   26.605
  427.750  155.259   56.495    0.379    0.141   31.560
  428.000  155.988   40.870    0.313    0.000   39.380
  428.250  156.195   34.871    0.232    0.010   48.403
  428.500  155.984   41.059    0.290    0.024   62.580
  428.750  155.462   45.122    0.327    0.030   67.103
  429.000  153.896   46.935    0.323    0.035   71.417
  429.250  153.895   49.186    0.301    0.040   80.697
  429.500  153.998   56.061    0.278    0.005   91.700
  429.750  154.309   88.624    0.260   -0.006   92.612
  430.000  154.412  115.188    0.248   -0.017   92.489
