~VERSION INFORMATION
 VERS.                 2.0:   CWLS LOG ASCII STANDARD -VERSION 2.0
 WRAP.                  NO:   ONE LINE PER DEPTH STEP
~WELL INFORMATION BLOCK
#MNEM.UNIT           DATA                    DESCRIPTION OF MNEMONIC
#---------    -------------------            -------------------------------
# Generated from Intellog Unique Number	CN_94_101/WELL/1164
WELL.         14-27-094-08W4                 : Well_name    - WELL
LOC .         AA/14-27-094-08W4/0            : Location     - LOCATION
UWI .         AA/14-27-094-08W400            : Uwi          - UNIQUE WELL ID
ENTR.         JOETTE                         : Entered      - ENTERED BY
SRVC.         SCHLUMBERGER                   : Scn          - SERVICE COMPANY
DATE.         04/29/92                       : Date         - LOG DATE
STRT.M        15                             : top_depth    - START DEPTH
STOP.M        140                            : bot_depth    - STOP DEPTH
STEP.M        0.25                           : increment    - STEP LENGTH
 NULL. -999.2500:NULL Value
~CURVE INFORMATION BLOCK
#MNEM UNIT       ERCB CURVE CODE    CURVE DESCRIPTION
#-----------   ------------------   ----------------------------------
DEPT.M        00 001 00 00         : DEPTH        - DEPTH
ILD .OHMM     00 120 00 00         : RESD         - DEEP RESISTIVITY (DIL)
GR  .API      00 310 00 00         : GR           - GAMMA RAY
DPHI.V/V      00 890 00 00         : PHID         - DENSITY POROSITY (SANDSTONE)
NPHI.V/V      00 330 00 00         : PHIN         - NEUTRON POROSITY (SANDSTONE)
CALI.MM       00 280 01 00         : CAL          - CALIPER
~PARAMETER INFORMATION
#MNEM.UNIT           DATA             DESCRIPTION OF MNEMONIC
#---------         -----------     ------------------------------
GL  .M        389.44               : gl           - GROUND LEVEL ELEVATION
EREF.M        389.44               : kb           - ELEVATION OF DEPTH REFERENCE
DATM.M        389.44               : datum        - DATUM ELEVATION
TDD .M        142.2                : tdd          - TOTAL DEPTH DRILLER
RUN .         ONE                  : Run          - RUN NUMBER
ENG .         BILL                 : Engineer     - RECORDING ENGINEER
WIT .         JIM                  : Witness      - WITNESSED BY
MUD .         GEL                  : Mud_type     - MUD TYPE
MATR.         SANDSTONE            : Logunit      - NEUTRON MATRIX
TMAX.C        7                    : BHT          - MAXIMUM RECORDED TEMPERATURE
BHTD.M        142.2                : BHTDEP       - MAXIMUM RECORDED TEMPERATURE
RMT .C        7                    : MDTP         - TEMPERATURE OF MUD
MUDD.KG/M     1040                 : MWT          - MUD DENSITY
NEUT.         1                    : NEUTRON      - NEUTRON TYPE
RESI.         0                    : RESIST       - RESISTIVITY TYPE
RM  .OHMM     7.2                  : RM           - RESISTIVITY OF MUD
RMC .OHMM     9.7                  : RMC          - RESISTIVITY OF MUD CAKE
RMF .OHMM     5.7                  : RMF          - RESISTIVITY OF MUD FILTRATE
SUFT.C        4                    : SUFT         - SURFACE TEMPERATURE
~A  DEPTH     RESD       GR     PHID     PHIN      CAL
# ...
   51.500    4.960  105.041    0.318    0.533  151.061
   51.750    3.691   99.067    0.327    0.548  150.496
   52.000    3.943  103.008    0.327    0.563  148.129
   52.250    3.664  105.444    0.334    0.548  153.565
   52.500    3.702   96.757    0.332    0.575  154.400
   52.750    4.297   88.972    0.329    0.576  151.238
   53.000    4.589  102.233    0.327    0.608  149.075
   53.250    3.511  124.500    0.310    0.575  153.707
   53.500    4.772   86.967    0.313    0.557  155.146
   53.750    4.777  101.722    0.310    0.561  153.378
   54.000    3.425  113.176    0.312    0.678  148.421
   54.250    3.067  110.503    0.322    0.662  147.257
   54.500    3.099  107.534    0.316    0.540  147.497
   54.750    3.190  115.378    0.317    0.551  148.132
   55.000    3.252   96.775    0.314    0.579  148.159
   55.250    3.638   91.097    0.299    0.596  149.198
   55.500    4.764   83.913    0.283    0.506  148.634
   55.750    5.847  103.780    0.286    0.447  148.265
   56.000    6.480  113.736    0.291    0.528  149.105
   56.250    4.913  110.458    0.295    0.572  149.144
   56.500    4.783   98.470    0.280    0.585  149.580
   56.750    5.500   97.600    0.271    0.528  149.211
   57.000    6.328   83.805    0.275    0.565  148.247
   57.250    6.635   80.831    0.257    0.554  147.487
   57.500    7.559   99.197    0.281    0.466  144.720
   57.750    9.108   96.524    0.293    0.512  142.161
   58.000    7.575   86.943    0.291    0.540  142.197
   58.250    5.481   86.370    0.300    0.436  142.832
   58.500    6.917   70.472    0.315    0.414  142.663
   58.750    9.488   72.907    0.317    0.403  141.504
   59.000   11.325   84.060    0.313    0.414  141.139
   59.250    7.971   88.299    0.307    0.444  140.575
   59.500    7.272   77.813    0.311    0.504  140.406
   59.750   12.119   84.155    0.315    0.488  140.446
   60.000   12.020   71.866    0.324    0.357  139.691
   60.250   19.121   71.296    0.348    0.296  139.118
   60.500   20.233   84.553    0.354    0.263  138.954
   60.750   87.572   80.678    0.354    0.188  138.589
   61.000   99.807   89.424    0.304    0.239  136.826
   61.250  101.770   78.338    0.272    0.226  135.662
   61.500  137.023   61.237    0.172    0.275  135.502
   61.750  405.617   76.898    0.194    0.292  135.733
   62.000  157.769  105.179    0.229    0.280  136.577
   62.250  100.277   80.266    0.286    0.245  135.413
   62.500  142.749   66.776    0.352    0.200  134.844
   62.750  208.938   64.403    0.331    0.377  136.279
   63.000  165.872   68.641    0.320    0.405  136.918
   63.250   64.517   74.687    0.322    0.421  136.949
   63.500   67.648   83.432    0.322    0.405  136.989
   63.750   83.022   80.459    0.312    0.407  137.025
   64.000   71.641   75.081    0.299    0.372  137.064
   64.250   70.400   89.845    0.294    0.384  137.300
   64.500   64.223   93.478    0.294    0.372  137.739
   64.750   56.469   77.283    0.290    0.382  138.175
   65.000   57.055   83.625    0.297    0.387  138.601
   65.250   51.087   77.647    0.303    0.357  139.440
   65.500   53.079   77.678    0.306    0.353  139.680
   65.750   53.129   77.409    0.300    0.372  139.716
   66.000   65.802   89.163    0.295    0.387  139.747
   66.250   62.302   68.757    0.291    0.375  139.786
   66.500   60.651   76.602    0.293    0.405  139.622
   66.750   63.586   79.041    0.296    0.373  139.657
   67.000   56.423   74.261    0.302    0.363  139.697
   67.250   60.275   79.108    0.309    0.323  139.724
   67.500   63.185   89.052    0.307    0.325  139.768
   67.750   78.995   82.773    0.294    0.379  140.008
   68.000   85.153   86.710    0.295    0.364  140.008
   68.250   59.944   88.248    0.297    0.373  140.283
   68.500   59.440   83.175    0.299    0.378  140.514
   68.750   49.892   74.485    0.297    0.363  140.514
   69.000   57.385   72.112    0.303    0.342  140.789
   69.250   67.871   76.355    0.301    0.343  140.816
   69.500   58.035   78.790    0.292    0.391  140.851
   69.750   46.507   88.136    0.299    0.385  140.887
   70.000   53.989   75.247    0.300    0.361  140.887
   70.250   63.267   71.071    0.287    0.390  140.962
   70.500   48.849   69.600    0.289    0.398  140.998
   70.750   38.073   83.763    0.293    0.369  140.998
   71.000   37.758   72.668    0.307    0.364  140.686
   71.250   26.821   74.202    0.309    0.369  140.304
   71.500   38.185   92.567    0.286    0.342  139.944
   71.750   35.816   81.481    0.283    0.309  140.006
   72.000   30.910   68.891    0.291    0.361  140.020
   72.250   32.108   74.031    0.300    0.379  140.246
   72.500   35.590  105.318    0.275    0.391  140.482
   72.750   29.051  124.584    0.250    0.384  141.925
   73.000   12.865  109.892    0.235    0.428  143.959
   73.250   13.489  114.731    0.234    0.433  145.594
   73.500   14.145  127.094    0.249    0.438  146.029
   73.750   14.422  114.794    0.242    0.446  145.860
   74.000   14.038  105.815    0.246    0.426  144.705
   74.250   17.071  111.559    0.231    0.385  141.933
   74.500   18.234  104.972    0.225    0.405  137.971
   74.750   17.103  110.420    0.242    0.436  140.809
   75.000   12.844  110.448    0.244    0.465  143.052
   75.250   12.737   98.756    0.244    0.471  142.679
   75.500   12.632  114.117    0.247    0.431  142.324
   75.750   12.881  108.138    0.245    0.441  141.751
   76.000   15.809  103.362    0.264    0.428  142.199
   76.250   17.041  109.708    0.262    0.432  141.426
   76.500   15.986  109.442    0.233    0.456  140.658
   76.750   12.930  126.598    0.230    0.513  139.898
   77.000   12.942  111.304    0.231    0.480  140.533
   77.250   13.198  110.134    0.231    0.445  142.372
   77.500   13.210   97.841    0.232    0.476  142.603
   77.750   13.595  113.803    0.237    0.486  142.443
   78.000   12.407  107.524    0.242    0.472  142.079
   78.250   12.419  114.470    0.242    0.425  141.714
   78.500   12.429  100.976    0.263    0.432  142.145
   78.750   13.152  113.632    0.270    0.475  145.783
   79.000   16.139   80.000    0.266    0.407  146.418
   79.250   20.367   68.613    0.266    0.401  139.253
   79.500   33.013   92.087    0.285    0.395  139.493
   79.750   28.750   85.207    0.279    0.371  143.126
   80.000   24.812   78.327    0.287    0.373  138.564
   80.250   32.797   78.964    0.305    0.421  136.406
   80.500   41.385   80.498    0.309    0.433  136.037
   80.750   39.188   80.525    0.306    0.456  136.672
   81.000   42.248   74.847    0.298    0.480  137.907
   81.250   39.262   69.169    0.278    0.414  135.743
   81.500   42.717   59.585    0.302    0.416  130.982
   81.750   44.784   74.340    0.307    0.406  132.616
   82.000   39.014   86.696    0.317    0.394  135.450
   82.250   42.837   72.007    0.323    0.415  138.892
   82.500   52.578   68.729    0.334    0.404  137.124
   82.750   60.482   63.051    0.335    0.413  137.568
   83.000   68.916   30.622    0.328    0.383  137.395
   83.250   94.536   33.959    0.335    0.366  137.031
   83.500  120.415   37.312    0.340    0.372  137.866
   83.750  111.904   38.537    0.340    0.418  136.102
   84.000  174.766   41.589    0.343    0.408  135.347
   84.250  331.569   22.366    0.352    0.409  133.979
   84.500  244.449   23.002    0.348    0.390  134.210
   84.750  153.937   26.940    0.342    0.377  136.848
   85.000  630.242   25.168    0.344    0.426  139.882
   85.250  486.678   26.101    0.343    0.368  138.922
   85.500  266.708   32.142    0.335    0.416  138.962
   85.750  148.912   39.390    0.316    0.434  136.790
   86.000   81.606   59.257    0.299    0.384  136.825
   86.250   90.447   71.016    0.223    0.333  140.072
   86.500  102.133   65.330    0.261    0.375  139.508
   86.750   57.548   74.681    0.267    0.389  139.344
   87.000   71.284   82.525    0.284    0.424  138.571
   87.250   52.070   87.067    0.291    0.385  137.207
   87.500   57.711   88.301    0.266    0.403  137.242
   87.750   53.143   83.224    0.250    0.383  138.282
