~VERSION INFORMATION
 VERS.                 2.0:   CWLS LOG ASCII STANDARD -VERSION 2.0
 WRAP.                  NO:   ONE LINE PER DEPTH STEP
~WELL INFORMATION BLOCK
#MNEM.UNIT           DATA                    DESCRIPTION OF MNEMONIC
#---------    -------------------            -------------------------------
# Generated from Intellog Unique Number	CN_94_101/WELL/1164
WELL.         14-27-094-08W4                 : Well_name    - WELL
LOC .         AA/14-27-094-08W4/0            : Location     - LOCATION
UWI .         AA/14-27-094-08W400            : Uwi          - UNIQUE WELL ID
ENTR.         JOETTE                         : Entered      - ENTERED BY
SRVC.         SCHLUMBERGER                   : Scn          - SERVICE COMPANY
DATE.         04/29/92                       : Date         - LOG DATE
STRT.M        15                             : top_depth    - START DEPTH
STOP.M        140                            : bot_depth    - STOP DEPTH
STEP.M        0.25                           : increment    - STEP LENGTH
 NULL. -999.2500:NULL Value
~CURVE INFORMATION BLOCK
#MNEM UNIT       ERCB CURVE CODE    CURVE DESCRIPTION
#-----------   ------------------   ----------------------------------
DEPT.M        00 001 00 00         : DEPTH        - DEPTH
ILD .OHMM     00 120 00 00         : RESD         - DEEP RESISTIVITY (DIL)
GR  .API      00 310 00 00         : GR           - GAMMA RAY
DPHI.V/V      00 890 00 00         : PHID         - DENSITY POROSITY (SANDSTONE)
NPHI.V/V      00 330 00 00         : PHIN         - NEUTRON POROSITY (SANDSTONE)
CALI.MM       00 280 01 00         : CAL          - CALIPER
~PARAMETER INFORMATION
#MNEM.UNIT           DATA             DESCRIPTION OF MNEMONIC
#---------         -----------     ------------------------------
GL  .M        389.44               : gl           - GROUND LEVEL ELEVATION
EREF.M        389.44               : kb           - ELEVATION OF DEPTH REFERENCE
DATM.M        389.44               : datum        - DATUM ELEVATION
TDD .M        142.2                : tdd          - TOTAL DEPTH DRILLER
RUN .         ONE                  : Run          - RUN NUMBER
ENG .         BILL                 : Engineer     - RECORDING ENGINEER
WIT .         JIM                  : Witness      - WITNESSED BY
MUD .         GEL                  : Mud_type     - MUD TYPE
MATR.         SANDSTONE            : Logunit      - NEUTRON MATRIX
TMAX.C        7                    : BHT          - MAXIMUM RECORDED TEMPERATURE
BHTD.M        142.2                : BHTDEP       - MAXIMUM RECORDED TEMPERATURE
RMT .C        7                    : MDTP         - TEMPERATURE OF MUD
MUDD.KG/M     1040                 : MWT          - MUD DENSITY
NEUT.         1                    : NEUTRON      - NEUTRON TYPE
RESI.         0                    : RESIST       - RESISTIVITY TYPE
RM  .OHMM     7.2                  : RM           - RESISTIVITY OF MUD
RMC .OHMM     9.7                  : RMC          - RESISTIVITY OF MUD CAKE
RMF .OHMM     5.7                  : RMF          - RESISTIVITY OF MUD FILTRATE
SUFT.C        4                    : SUFT         - SURFACE TEMPERATURE
~A  DEPTH     RESD       GR     PHID     PHIN      CAL
# ...
   88.000   60.002   72.434    0.267    0.395  139.721
   88.250   57.346   80.282    0.285    0.410  139.960
   88.500   74.402   67.689    0.290    0.421  139.792
   88.750  101.120   55.100    0.285    0.422  139.827
   89.000   69.861   62.944    0.283    0.357  140.058
   89.250   60.299   70.796    0.289    0.379  140.093
   89.500   64.400   53.992    0.304    0.419  140.338
   89.750   71.368   57.032    0.307    0.486  140.568
   90.000  137.934   59.468    0.283    0.409  141.408
   90.250  101.692   59.199    0.272    0.420  141.239
   90.500   40.294   64.038    0.289    0.408  140.084
   90.750   61.204   56.858    0.306    0.409  139.511
   91.000   93.819   62.599    0.294    0.368  139.151
   91.250   93.907   79.165    0.290    0.380  139.182
   91.500   50.058   63.867    0.324    0.427  139.822
   91.750   51.997   39.559    0.344    0.440  139.457
   92.000  116.554   42.892    0.345    0.422  136.894
   92.250  378.565   64.262    0.329    0.408  137.529
   92.500  477.637   68.200    0.302    0.428  136.370
   92.750  243.081   65.227    0.294    0.429  138.000
   93.000   73.622   64.657    0.303    0.411  139.639
   93.250   71.671   67.397    0.294    0.396  139.475
   93.500  103.935   52.700    0.304    0.364  139.310
   93.750   59.652   38.308    0.329    0.384  140.149
   94.000   92.303   38.944    0.340    0.410  140.585
   94.250  145.479   45.583    0.339    0.441  140.429
   94.500  173.666   39.608    0.339    0.459  140.051
   94.750  167.505   44.444    0.329    0.381  137.293
   95.000   76.978   64.011    0.303    0.365  138.323
   95.250   62.841   49.018    0.294    0.385  139.758
   95.500   70.960   43.039    0.310    0.408  139.398
   95.750   71.018   41.569    0.315    0.428  138.634
   96.000  111.946   44.605    0.315    0.432  139.473
   96.250  150.725   41.932    0.323    0.432  137.506
   96.500  109.082   47.677    0.331    0.430  138.341
   96.750   84.234   39.891    0.341    0.471  138.181
   97.000  181.945   40.524    0.353    0.477  136.821
   97.250  116.733   30.042    0.349    0.447  136.448
   97.500  167.722   37.582    0.343    0.457  136.284
   97.750  189.369   51.440    0.334    0.410  136.124
   98.000   97.260   46.663    0.299    0.407  136.754
   98.250   69.088   49.700    0.298    0.392  137.003
   98.500   65.413   44.923    0.304    0.411  138.233
   98.750  116.310   43.152    0.289    0.396  139.668
   99.000   82.629   56.709    0.292    0.393  139.899
   99.250   44.870   64.253    0.316    0.400  140.143
   99.500   55.580   43.550    0.322    0.439  140.183
   99.750   63.337   54.700    0.329    0.444  139.814
  100.000   52.187   56.234    0.330    0.420  138.446
  100.250   48.956   43.645    0.326    0.398  138.881
  100.500   55.287   34.361    0.328    0.371  139.117
  100.750   50.900   37.105    0.326    0.396  138.761
  101.000   93.054   40.133    0.321    0.375  139.592
  101.250   64.894   43.170    0.303    0.386  140.027
  101.500   52.488   36.290    0.290    0.362  139.063
  101.750   54.018   45.340    0.293    0.357  140.102
  102.000   47.491   51.381    0.298    0.416  140.337
  102.250   31.616   47.807    0.291    0.328  139.773
  102.500   45.431   49.341    0.289    0.334  140.013
  102.750   39.569   47.870    0.300    0.337  140.244
  103.000   43.060   54.816    0.302    0.353  138.676
  103.250   38.205   53.345    0.301    0.374  137.117
  103.500   37.188   48.268    0.298    0.379  136.948
  103.750   37.579   38.981    0.284    0.394  137.787
  104.000   37.955   53.139    0.287    0.351  139.031
  104.250   41.679   35.137    0.303    0.373  139.857
  104.500   36.643   43.586    0.316    0.384  139.493
  104.750   45.817   63.154    0.347    0.394  138.338
  105.000   31.072   37.339    0.355    0.360  137.365
  105.250   32.580   37.975    0.336    0.362  134.602
  105.500   33.221   30.190    0.333    0.375  134.438
  105.750   47.726   26.015    0.335    0.413  134.282
  106.000   65.476   30.858    0.336    0.394  133.909
  106.250   54.445   21.875    0.335    0.405  132.545
  106.500   45.704   36.630    0.344    0.435  132.381
  106.750   46.173   26.140    0.347    0.351  133.020
  107.000   44.530   23.171    0.353    0.387  134.259
  107.250   37.032   27.409    0.331    0.395  134.694
  107.500   51.266   34.356    0.318    0.359  136.125
  107.750   46.342   25.669    0.317    0.380  137.768
  108.000   43.472   32.912    0.324    0.410  138.803
  108.250   57.463   40.460    0.333    0.386  140.038
  108.500   54.913   38.091    0.335    0.391  140.668
  108.750   51.992   28.800    0.327    0.374  139.105
  109.000   58.162   37.549    0.312    0.432  135.747
  109.250   55.075   31.270    0.306    0.408  137.585
  109.500   56.680   29.499    0.313    0.389  139.020
  109.750   47.136   25.324    0.309    0.389  136.848
  110.000   48.962   32.867    0.300    0.349  135.084
  110.250   43.041   18.475    0.306    0.386  136.124
  110.500   60.146   20.614    0.325    0.362  137.962
  110.750   64.236   22.749    0.328    0.395  138.602
  111.000   58.621   23.077    0.339    0.409  136.630
  111.250   59.208   30.023    0.340    0.398  137.665
  111.500   77.542   20.740    0.359    0.407  139.112
  111.750  116.681   19.866    0.368    0.388  139.339
  112.000  169.208   22.613    0.369    0.416  139.579
  112.250  252.298   23.238    0.382    0.437  138.215
  112.500   96.332   25.974    0.403    0.443  135.248
  112.750   58.456   34.118    0.396    0.466  136.087
  113.000   69.131   41.065    0.391    0.453  136.718
  113.250  425.542   37.491    0.383    0.488  137.757
  113.500   77.415   20.991    0.389    0.447  137.992
  113.750  212.767   32.746    0.391    0.480  140.027
  114.000  374.825   23.162    0.382    0.476  140.662
  114.250  147.166   19.888    0.369    0.407  139.298
  114.500   92.664   27.435    0.341    0.452  139.533
  114.750   66.444   31.369    0.331    0.442  140.373
  115.000  134.506   18.480    0.327    0.388  140.604
  115.250  324.700   16.708    0.342    0.368  139.840
  115.500  220.232   25.153    0.359    0.505  139.089
  115.750  122.948   30.301    0.371    0.557  139.524
  116.000   61.415   27.924    0.346    0.404  138.151
  116.250  229.192   21.345    0.345    0.397  137.392
  116.500  624.174   21.977    0.345    0.399  136.828
  116.750  477.547   17.506    0.344    0.432  135.864
  117.000  386.207   20.237    0.341    0.410  134.296
  117.250  529.781   30.193    0.336    0.378  135.730
  117.500  565.812   40.738    0.323    0.335  132.967
  117.750  212.071   44.074    0.320    0.372  135.401
  118.000  246.192   38.998    0.328    0.370  136.041
  118.250  628.363   29.413    0.334    0.367  137.680
  118.500  683.652   33.351    0.332    0.362  134.912
  118.750  299.987   35.486    0.337    0.345  134.153
  119.000  196.021   25.902    0.324    0.325  132.989
  119.250  180.507   51.479    0.319    0.292  134.019
  119.500  158.696   59.627    0.325    0.350  135.054
  119.750  238.826   39.522    0.299    0.376  138.092
  120.000  483.468   25.735    0.275    0.362  139.731
  120.250  154.799   25.462    0.257    0.386  140.562
  120.500   51.908   29.400    0.285    0.343  141.996
  120.750   82.584   40.257    0.301    0.398  141.437
  121.000   36.571   35.476    0.324    0.452  138.869
  121.250   17.441   23.785    0.325    0.411  131.513
  121.500   35.635   19.008    0.319    0.422  133.144
  121.750   58.293   26.852    0.334    0.425  137.381
  122.000   77.780   23.579    0.337    0.441  132.815
  122.250   57.330   28.722    0.328    0.417  130.856
  122.500   83.138   40.773    0.341    0.444  131.886
  122.750   45.561   35.396    0.333    0.449  134.529
  123.000   42.346   27.314    0.332    0.444  134.564
  123.250   37.925   25.242    0.326    0.437  135.395
  123.500   42.034   23.471    0.325    0.422  134.831
  123.750   39.068   20.798    0.331    0.425  131.468
  124.000   34.355   31.350    0.327    0.393  135.310
  124.250   32.823   43.101    0.302    0.417  135.341
