~VERSION INFORMATION
 VERS.                 2.0:   CWLS LOG ASCII STANDARD -VERSION 2.0
 WRAP.                  NO:   ONE LINE PER DEPTH STEP
~WELL INFORMATION BLOCK
#MNEM.UNIT           DATA                    DESCRIPTION OF MNEMONIC
#---------    -------------------            -------------------------------
# Generated from Intellog Unique Number	CN_94_101/WELL/5008
WELL.         10-29-100-14W4                 : Well_name    - WELL
LOC .         AA/10-29-100-14W4/0            : Location     - LOCATION
UWI .         AA/10-29-100-14W400            : Uwi          - UNIQUE WELL ID
ENTR.         TIM                            : Entered      - ENTERED BY
SRVC.         SCHLUMBERGER                   : Scn          - SERVICE COMPANY
DATE.         08/11/92                       : Date         - LOG DATE
STRT.M        275                            : top_depth    - START DEPTH
STOP.M        480                            : bot_depth    - STOP DEPTH
STEP.M        0.25                           : increment    - STEP LENGTH
 NULL. -999.2500:NULL Value
~CURVE INFORMATION BLOCK
#MNEM UNIT       ERCB CURVE CODE    CURVE DESCRIPTION
#-----------   ------------------   ----------------------------------
DEPT.M        00 001 00 00         : DEPTH        - DEPTH
GR  .API      00 310 00 00         : GR           - GAMMA RAY
ILD .OHMM     00 120 00 00         : RESD         - DEEP RESISTIVITY (DIL)
NPHI.V/V      00 330 00 00         : PHIN         - NEUTRON POROSITY (SANDSTONE)
DPHI.V/V      00 890 00 00         : PHID         - DENSITY POROSITY (SANDSTONE)
~PARAMETER INFORMATION
#MNEM.UNIT           DATA             DESCRIPTION OF MNEMONIC
#---------         -----------     ------------------------------
GL  .M        713.6                : gl           - GROUND LEVEL ELEVATION
EREF.M        716.96               : kb           - ELEVATION OF DEPTH REFERENCE
DATM.M        716.96               : datum        - DATUM ELEVATION
TDD .M        480                  : tdd          - TOTAL DEPTH DRILLER
RUN .         ONE                  : Run          - RUN NUMBER
ENG .         BILL                 : Engineer     - RECORDING ENGINEER
WIT .         JIM                  : Witness      - WITNESSED BY
MUD .         GEL                  : Mud_type     - MUD TYPE
MATR.         SANDSTONE            : Logunit      - NEUTRON MATRIX
TMAX.C        28                   : BHT          - MAXIMUM RECORDED TEMPERATURE
BHTD.M        480                  : BHTDEP       - MAXIMUM RECORDED TEMPERATURE
RMT .C        17.3                 : MDTP         - TEMPERATURE OF MUD
MUDD.KG/M     1130                 : MWT          - MUD DENSITY
NEUT.         1                    : NEUTRON      - NEUTRON TYPE
RESI.         0                    : RESIST       - RESISTIVITY TYPE
RM  .OHMM     8.25                 : RM           - RESISTIVITY OF MUD
RMC .OHMM     7.89                 : RMC          - RESISTIVITY OF MUD CAKE
RMF .OHMM     6.89                 : RMF          - RESISTIVITY OF MUD FILTRATE
SUFT.C        4                    : SUFT         - SURFACE TEMPERATURE
~A  DEPTH       GR     RESD     PHIN     PHID
# ...
  362.000  100.431    4.714    0.458    0.310
  362.250  104.103    4.499    0.458    0.326
  362.500  106.552    4.285    0.458    0.324
  362.750  110.839    3.862    0.458    0.321
  363.000  114.518    3.647    0.464    0.315
  363.250  118.808    3.224    0.486    0.311
  363.500  123.098    3.009    0.487    0.302
  363.750  128.000    2.587    0.492    0.291
  364.000  129.831    2.372    0.503    0.290
  364.250  129.821    2.157    0.525    0.300
  364.500  128.572    1.942    0.550    0.311
  364.750  127.947    1.937    0.559    0.307
  365.000  127.930    1.930    0.572    0.287
  365.250  127.923    1.716    0.563    0.284
  365.500  128.525    1.707    0.516    0.281
  365.750  129.126    1.701    0.517    0.274
  366.000  129.724    1.694    0.518    0.250
  366.250  127.248    1.687    0.519    0.238
  366.500  124.161    1.679    0.523    0.233
  366.750  124.144    1.674    0.555    0.249
  367.000  125.360    1.669    0.578    0.256
  367.250  128.427    1.659    0.554    0.231
  367.500  133.947    1.653    0.548    0.222
  367.750  137.623    1.647    0.559    0.206
  368.000  137.606    1.642    0.568    0.239
  368.250  136.366    1.633    0.570    0.256
  368.500  134.505    1.627    0.570    0.270
  368.750  132.647    1.620    0.545    0.272
  369.000  130.786    1.613    0.521    0.280
  369.250  129.550    1.814    0.504    0.281
  369.500  127.685    1.808    0.496    0.277
  369.750  126.445    2.007    0.490    0.275
  370.000  125.206    2.001    0.494    0.275
  370.250  123.348    2.202    0.496    0.275
  370.500  121.487    2.403    0.490    0.271
  370.750  119.629    2.398    0.482    0.268
  371.000  118.389    2.392    0.481    0.260
  371.250  117.146    2.589    0.485    0.252
  371.500  118.362    2.586    0.494    0.250
  371.750  123.264    2.579    0.493    0.265
  372.000  128.787    2.363    0.473    0.276
  372.250  133.689    2.150    0.462    0.265
  372.500  131.831    2.140    0.453    0.257
  372.750  126.288    2.136    0.478    0.265
  373.000  121.353    2.128    0.500    0.271
  373.250  118.873    2.123    0.511    0.273
  373.500  117.637    2.321    0.524    0.274
  373.750  114.546    2.316    0.515    0.285
  374.000  111.462    2.309    0.499    0.294
  374.250  105.915    2.509    0.489    0.294
  374.500   98.521    2.505    0.489    0.290
  374.750   94.822    2.499    0.482    0.279
  375.000   95.420    2.492    0.459    0.266
  375.250   98.484    2.484    0.420    0.215
  375.500  102.159    2.685    0.385    0.122
  375.750  108.909    2.680    0.357    0.100
  376.000  111.969    2.879    0.356    0.149
  376.250  112.568    3.082    0.409    0.259
  376.500  113.172    3.284    0.490    0.278
  376.750  115.000    3.275    0.512    0.290
  377.000  117.442    3.269    0.534    0.282
  377.250  118.662    3.262    0.553    0.274
  377.500  121.105    3.257    0.526    0.273
  377.750  122.328    3.039    0.523    0.274
  378.000  122.929    3.034    0.528    0.274
  378.250  118.612    2.819    0.540    0.277
  378.500  114.909    2.812    0.535    0.282
  378.750  114.896    2.805    0.507    0.290
  379.000  119.186    2.799    0.476    0.294
  379.250  121.632    2.792    0.471    0.287
  379.500  125.301    2.785    0.490    0.263
  379.750  127.750    2.777    0.496    0.250
  380.000  127.733    2.772    0.507    0.244
  380.250  127.112    2.763    0.519    0.250
  380.500  127.095    2.757    0.516    0.256
  380.750  128.315    2.752    0.502    0.260
  381.000  130.757    2.742    0.490    0.259
  381.250  133.203    2.736    0.491    0.258
  381.500  135.034    2.730    0.496    0.259
  381.750  138.092    2.515    0.507    0.260
  382.000  140.537    2.510    0.516    0.258
  382.250  142.987    2.295    0.528    0.253
  382.500  145.429    2.288    0.542    0.253
  382.750  147.263    2.074    0.540    0.253
  383.000  149.709    2.067    0.537    0.253
  383.250  149.696    2.060    0.545    0.252
  383.500  143.534    2.053    0.558    0.245
  383.750  141.058    2.047    0.548    0.241
  384.000  142.893    2.040    0.528    0.230
  384.250  145.339    2.241    0.521    0.192
  384.500  145.940    2.235    0.533    0.154
  384.750  145.308    2.436    0.548    0.107
  385.000  144.065    3.052    0.556    0.160
  385.250  140.978    3.461    0.568    0.255
  385.500  138.509    3.869    0.571    0.254
  385.750  140.340    4.072    0.517    0.236
  386.000  142.785    4.275    0.471    0.231
  386.250  142.772    4.268    0.451    0.237
  386.500  140.911    4.261    0.444    0.241
  386.750  139.671    4.463    0.433    0.238
  387.000  137.195    4.454    0.413    0.232
  387.250  135.955    4.448    0.410    0.230
  387.500  135.327    4.442    0.405    0.223
  387.750  135.314    4.434    0.404    0.225
  388.000  135.300    4.427    0.433    0.228
  388.250  135.287    4.421    0.442    0.235
  388.500  133.426    4.414    0.463    0.246
  388.750  129.720    4.199    0.474    0.253
  389.000  129.092    3.983    0.468    0.267
  389.250  129.078    3.976    0.447    0.273
  389.500  129.065    3.969    0.417    0.263
  389.750  129.666    4.170    0.409    0.249
  390.000  130.268    4.162    0.411    0.241
  390.250  130.251    4.367    0.411    0.238
  390.500  129.630    4.360    0.414    0.235
  390.750  128.387    4.352    0.426    0.231
  391.000  127.144    4.553    0.438    0.254
  391.250  125.897    4.546    0.446    0.251
  391.500  127.728    4.540    0.437    0.243
  391.750  128.948    4.739    0.427    0.241
  392.000  129.549    4.732    0.420    0.243
  392.250  128.918    4.729    0.427    0.244
  392.500  128.289    4.514    0.436    0.245
  392.750  127.658    4.506    0.439    0.249
  393.000  127.651    4.291    0.441    0.255
  393.250  127.638    4.286    0.443    0.259
  393.500  127.624    4.279    0.446    0.249
  393.750  127.611    4.065    0.450    0.240
  394.000  128.212    4.056    0.453    0.237
  394.250  126.354    4.049    0.455    0.233
  394.500  123.875    4.043    0.453    0.231
  394.750  123.253    4.036    0.446    0.231
  395.000  123.855    4.029    0.442    0.238
  395.250  126.297    4.024    0.446    0.243
  395.500  127.517    4.016    0.438    0.250
  395.750  128.730    4.011    0.423    0.259
  396.000  129.331    4.004    0.422    0.267
  396.250  129.318    3.786    0.450    0.269
  396.500  128.690    3.573    0.473    0.272
  396.750  126.832    3.360    0.472    0.275
  397.000  124.974    3.353    0.466    0.277
  397.250  124.346    3.345    0.459    0.275
  397.500  124.947    3.336    0.449    0.271
  397.750  124.934    3.329    0.439    0.270
  398.000  123.691    3.324    0.443    0.271
  398.250  123.677    3.316    0.454    0.262
  398.500  126.738    3.311    0.455    0.254
  398.750  130.413    3.093    0.455    0.249
  399.000  133.467    3.088    0.459    0.252
  399.250  133.461    2.873    0.465    0.258
  399.500  132.832    2.660    0.497    0.265
  399.750  134.049    2.445    0.517    0.273
  400.000  134.647    2.230    0.563    0.279
  400.250  133.407    2.015    0.590    0.285
  400.500  131.546    1.799    0.564    0.291
  400.750  129.688    1.792    0.559    0.300
  401.000  129.063    1.786    0.551    0.294
  401.250  131.506    1.989    0.541    0.280
  401.500  134.566    1.982    0.548    0.261
  401.750  137.015    2.183    0.562    0.267
  402.000  136.387    2.175    0.559    0.284
  402.250  133.915    2.168    0.561    0.289
  402.500  133.898    2.371    0.564    0.288
  402.750  134.503    2.777    0.563    0.285
  403.000  135.104    3.188    0.551    0.280
  403.250  133.861    3.806    0.534    0.277
  403.500  132.618    4.421    0.501    0.271
  403.750  135.675    4.624    0.473    0.261
  404.000  138.736    4.826    0.446    0.250
  404.250  139.334    5.027    0.443    0.229
  404.500  138.706    5.020    0.441    0.221
  404.750  137.463    5.013    0.430    0.221
  405.000  137.453    5.215    0.416    0.217
  405.250  137.439    5.208    0.410    0.211
