~VERSION INFORMATION
 VERS.                 2.0:   CWLS LOG ASCII STANDARD -VERSION 2.0
 WRAP.                  NO:   ONE LINE PER DEPTH STEP
~WELL INFORMATION BLOCK
#MNEM.UNIT           DATA                    DESCRIPTION OF MNEMONIC
#---------    -------------------            -------------------------------
# Generated from Intellog Unique Number	CW_82_90/WELL/927
WELL.         10-26-082-22W4                 : Well_name    - WELL
LOC .         AA/10-26-082-22W4/0            : Location     - LOCATION
UWI .         AA/10-26-082-22W4/0            : Uwi          - UNIQUE WELL ID
ENTR.         JAYE                           : Entered      - ENTERED BY
SRVC.         SCHLUMBERGER                   : Scn          - SERVICE COMPANY
DATE.         18 JAN 82                      : Date         - LOG DATE
STRT.M        225                            : top_depth    - START DEPTH
STOP.M        430                            : bot_depth    - STOP DEPTH
STEP.M        0.25                           : increment    - STEP LENGTH
 NULL. -999.2500:NULL Value
~CURVE INFORMATION BLOCK
#MNEM UNIT       ERCB CURVE CODE    CURVE DESCRIPTION
#-----------   ------------------   ----------------------------------
DEPT.M        00 001 00 00         : DEPTH        - DEPTH
CALI.MM       00 280 01 00         : CAL          - CALIPER
GR  .API      00 310 00 00         : GR           - GAMMA RAY
DPHI.V/V      00 890 00 00         : PHID         - DENSITY POROSITY (SANDSTONE)
NPHI.V/V      00 330 00 00         : PHIN         - NEUTRON POROSITY (SANDSTONE)
ILD .OHMM     00 120 00 00         : RESD         - DEEP RESISTIVITY (DIL)
~PARAMETER INFORMATION
#MNEM.UNIT           DATA             DESCRIPTION OF MNEMONIC
#---------         -----------     ------------------------------
GL  .M        626.3                : gl           - GROUND LEVEL ELEVATION
EREF.M        630.7                : kb           - ELEVATION OF DEPTH REFERENCE
DATM.M        626.3                : datum        - DATUM ELEVATION
TDD .M        436                  : tdd          - TOTAL DEPTH DRILLER
RUN .         ONE                  : Run          - RUN NUMBER
ENG .         GARTH                : Engineer     - RECORDING ENGINEER
WIT .         WALKER               : Witness      - WITNESSED BY
BASE.         EDMONTON             : Branch       - HOME BASE OF LOGGING UNIT
MUD .         GEL CHEM             : Mud_type     - MUD TYPE
MATR.         SANDSTONE            : Logunit      - NEUTRON MATRIX
TMAX.C        23.8                 : BHT          - MAXIMUM RECORDED TEMPERATURE
BHTD.M        436                  : BHTDEP       - MAXIMUM RECORDED TEMPERATURE
RMT .C        23.8                 : MDTP         - TEMPERATURE OF MUD
MUDD.KG/M     0                    : MWT          - MUD DENSITY
NEUT.         1                    : NEUTRON      - NEUTRON TYPE
RESI.         0                    : RESIST       - RESISTIVITY TYPE
RM  .OHMM     3.14                 : RM           - RESISTIVITY OF MUD
RMC .OHMM     0.25                 : RMC          - RESISTIVITY OF MUD CAKE
RMF .OHMM     1.628                : RMF          - RESISTIVITY OF MUD FILTRATE
SUFT.C        4                    : SUFT         - SURFACE TEMPERATURE
~A  DEPTH      CAL       GR     PHID     PHIN     RESD
# ...
  261.500  239.718   58.939    0.332    0.469   17.278
  261.750  239.909   57.996    0.336    0.470   17.006
  262.000  240.099   61.471    0.341    0.466   15.616
  262.250  240.086   63.888    0.344    0.465   16.810
  262.500  240.173   61.140    0.350    0.484   17.429
  262.750  240.154   57.585    0.358    0.501   17.215
  263.000  240.349   54.900    0.366    0.507   16.907
  263.250  240.334   53.584    0.346    0.500   19.215
  263.500  239.591   52.640    0.237    0.471   22.666
  263.750  239.472   51.387    0.147    0.395   27.497
  264.000  241.218   49.512    0.083    0.274   27.983
  264.250  241.198   45.519    0.081    0.193   24.988
  264.500  240.874   47.750    0.136    0.204   19.249
  264.750  239.302   52.283    0.210    0.308   17.120
  265.000  238.251   51.651    0.337    0.362   17.688
  265.250  237.819   51.517    0.349    0.515   19.541
  265.500  237.802   55.302    0.352    0.522   19.486
  265.750  238.305   59.274    0.355    0.527   19.642
  266.000  239.325   59.885    0.342    0.534   20.372
  266.250  239.930   58.943    0.313    0.502   24.256
  266.500  239.918   54.144    0.290    0.421   25.338
  266.750  239.692   44.801    0.265    0.385   24.705
  267.000  239.573   44.108    0.238    0.317   19.535
  267.250  239.557   52.061    0.295    0.305   17.249
  267.500  239.746   58.273    0.384    0.353   21.241
  267.750  239.523   56.210    0.391    0.513   24.090
  268.000  239.610   52.779    0.391    0.481   25.541
  268.250  239.700   51.401    0.388    0.463   26.244
  268.500  239.890   51.266    0.381    0.479   27.008
  268.750  240.081   50.511    0.380    0.495   27.386
  269.000  240.169   48.200    0.383    0.493   27.559
  269.250  240.152   48.314    0.387    0.494   27.830
  269.500  240.343   47.992    0.386    0.485   28.064
  269.750  240.537   47.298    0.385    0.466   28.194
  270.000  240.522   48.222    0.380    0.469   28.425
  270.250  240.813   50.390    0.377    0.472   28.500
  270.500  241.109   51.937    0.379    0.472   27.167
  270.750  241.199   53.418    0.384    0.467   27.136
  271.000  241.181   53.286    0.381    0.480   27.464
  271.250  241.167   49.544    0.381    0.492   26.522
  271.500  240.838   47.170    0.382    0.485   25.662
  271.750  240.615   47.160    0.383    0.481   25.732
  272.000  240.392   47.213    0.388    0.491   26.579
  272.250  239.962   47.885    0.384    0.500   26.848
  272.500  239.946   47.940    0.379    0.505   26.821
  272.750  239.928   48.054    0.375    0.497   26.890
  273.000  240.329   49.102    0.373    0.496   26.808
  273.250  240.933   51.893    0.369    0.492   27.335
  273.500  241.021   51.883    0.367    0.485   27.609
  273.750  240.693   49.945    0.362    0.470   27.375
  274.000  240.571   49.251    0.360    0.461   27.038
  274.250  240.556   47.873    0.367    0.463   27.518
  274.500  240.746   44.255    0.365    0.468   26.876
  274.750  240.943   45.925    0.364    0.475   26.148
  275.000  240.926   49.710    0.363    0.467   26.616
  275.250  240.911   49.265    0.357    0.472   26.884
  275.500  240.998   47.949    0.358    0.478   26.507
  275.750  241.189   47.316    0.362    0.481   25.314
  276.000  240.859   46.125    0.365    0.486   25.192
  276.250  240.842   44.374    0.365    0.488   25.639
  276.500  240.826   43.493    0.359    0.492   25.751
  276.750  240.809   46.034    0.359    0.500   25.386
  277.000  240.799   49.011    0.357    0.509   25.357
  277.250  240.672   49.996    0.354    0.502   26.100
  277.500  240.767   49.239    0.347    0.474   27.061
  277.750  240.429   49.417    0.342    0.469   28.111
  278.000  240.629   50.092    0.347    0.496   29.042
  278.250  240.714   48.527    0.359    0.479   29.226
  278.500  240.800   49.576    0.354    0.464   28.812
  278.750  240.992   51.120    0.354    0.460   28.409
  279.000  240.976   50.054    0.366    0.460   27.540
  279.250  241.271   48.489    0.374    0.458   26.596
  279.500  241.465   49.102    0.378    0.455   25.594
  279.750  241.763   50.087    0.380    0.457   24.719
  280.000  242.472   49.953    0.379    0.465   23.874
  280.250  242.457   54.298    0.380    0.475   23.892
  280.500  242.024   56.465    0.382    0.489   23.809
  280.750  242.215   55.087    0.380    0.497   23.526
  281.000  241.887   53.087    0.378    0.497   22.680
  281.250  241.660   52.207    0.374    0.491   21.782
  281.500  241.646   53.502    0.374    0.478   21.236
  281.750  241.631   51.503    0.385    0.461   21.211
  282.000  241.616   51.556    0.386    0.453   21.465
  282.250  241.911   55.278    0.382    0.453   21.482
  282.500  242.307   58.131    0.380    0.462   21.218
  282.750  242.400   61.045    0.382    0.471   20.686
  283.000  242.382   62.590    0.387    0.473   18.783
  283.250  242.159   64.322    0.387    0.461   16.741
  283.500  241.829   67.236    0.381    0.457   14.920
  283.750  241.710   69.281    0.375    0.460   13.983
  284.000  241.385   69.458    0.368    0.485   14.583
  284.250  241.156   69.262    0.365    0.509   14.676
  284.500  241.042   69.252    0.364    0.546   13.783
  284.750  241.026   70.423    0.364    0.542   12.306
  285.000  241.423   70.973    0.358    0.518   12.385
  285.250  241.407   69.721    0.353    0.512   12.675
  285.500  241.495   67.347    0.367    0.537   11.993
  285.750  241.377   66.031    0.375    0.560   11.262
  286.000  241.152   68.448    0.370    0.539   11.679
  286.250  240.927   72.233    0.363    0.537   10.428
  286.500  241.119   69.300    0.360    0.553   11.058
  286.750  241.414   67.175    0.351    0.557    9.985
  287.000  241.815   70.214    0.353    0.535    8.429
  287.250  242.109   71.324    0.369    0.524    5.970
  287.500  242.302   73.429    0.364    0.522    2.329
  287.750  242.595   77.276    0.352    0.544    2.451
  288.000  242.993   80.689    0.339    0.581    3.259
  288.250  243.080   82.234    0.344    0.582    4.865
  288.500  242.963   69.782    0.369    0.545    4.016
  288.750  242.632   70.831    0.357    0.534    6.976
  289.000  242.310   73.807    0.348    0.538    9.865
  289.250  241.980   72.615    0.343    0.529   12.705
  289.500  242.172   66.883    0.329    0.515   15.528
  289.750  242.362   67.806    0.312    0.525   16.903
  290.000  242.349   71.591    0.330    0.516   16.789
  290.250  241.919   75.687    0.339    0.497   15.914
  290.500  241.175   80.591    0.346    0.493   15.370
  290.750  241.159   84.253    0.347    0.495   15.325
  291.000  241.038   80.263    0.344    0.501   15.422
  291.250  241.332   70.049    0.336    0.514   15.008
  291.500  241.527   63.384    0.314    0.550   14.604
  291.750  241.818   57.215    0.280    0.509   12.421
  292.000  242.117   61.061    0.252    0.462    9.374
  292.250  242.409   64.910    0.297    0.473    7.100
  292.500  242.081   72.427    0.320    0.489    8.206
  292.750  241.444   75.902    0.334    0.507    9.825
  293.000  240.911   74.212    0.334    0.530    9.960
  293.250  240.067   73.270    0.332    0.523    9.496
  293.500  239.735   75.252    0.327    0.507    7.723
  293.750  239.722   78.974    0.314    0.503    7.132
  294.000  239.186   76.725    0.298    0.513    7.998
  294.250  238.653   79.451    0.299    0.521    7.855
  294.500  238.636   81.870    0.295    0.523    6.733
  294.750  238.933   83.228    0.293    0.525    6.264
  295.000  239.020   83.466    0.290    0.530    7.321
  295.250  239.211   83.084    0.286    0.541    7.705
  295.500  239.092   82.702    0.279    0.537    7.539
  295.750  238.869   80.204    0.279    0.519    6.975
  296.000  238.747   78.141    0.289    0.514    6.193
  296.250  238.525   76.078    0.311    0.519    5.074
  296.500  238.193   73.207    0.319    0.515    7.850
  296.750  238.174   67.163    0.331    0.554   11.501
  297.000  238.062   57.573    0.351    0.551   14.537
  297.250  237.941   58.682    0.368    0.511   16.582
  297.500  237.820   60.664    0.353    0.460   18.117
  297.750  237.701   61.339    0.343    0.469   17.693
