~VERSION INFORMATION
 VERS.                 2.0:   CWLS LOG ASCII STANDARD -VERSION 2.0
 WRAP.                  NO:   ONE LINE PER DEPTH STEP
~WELL INFORMATION BLOCK
#MNEM.UNIT           DATA                    DESCRIPTION OF MNEMONIC
#---------    -------------------            -------------------------------
# Generated from Intellog Unique Number	CN_94_101/WELL/4474
WELL.         11-27-096-14W4                 : Well_name    - WELL
LOC .         AA/11-27-096-14W4/0            : Location     - LOCATION
UWI .         AA/11-27-096-14W400            : Uwi          - UNIQUE WELL ID
ENTR.         JOETTE                         : Entered      - ENTERED BY
SRVC.         SCHLUMBERGER                   : Scn          - SERVICE COMPANY
DATE.         07/08/92                       : Date         - LOG DATE
STRT.M        75                             : top_depth    - START DEPTH
STOP.M        350                            : bot_depth    - STOP DEPTH
STEP.M        0.25                           : increment    - STEP LENGTH
 NULL. -999.2500:NULL Value
~CURVE INFORMATION BLOCK
#MNEM UNIT       ERCB CURVE CODE    CURVE DESCRIPTION
#-----------   ------------------   ----------------------------------
DEPT.M        00 001 00 00         : DEPTH        - DEPTH
GR  .API      00 310 00 00         : GR           - GAMMA RAY
ILD .OHMM     00 120 00 00         : RESD         - DEEP RESISTIVITY (DIL)
NPHI.V/V      00 330 00 00         : PHIN         - NEUTRON POROSITY (SANDSTONE)
DPHI.V/V      00 890 00 00         : PHID         - DENSITY POROSITY (SANDSTONE)
~PARAMETER INFORMATION
#MNEM.UNIT           DATA             DESCRIPTION OF MNEMONIC
#---------         -----------     ------------------------------
GL  .M        598                  : gl           - GROUND LEVEL ELEVATION
EREF.M        601                  : kb           - ELEVATION OF DEPTH REFERENCE
DATM.M        601                  : datum        - DATUM ELEVATION
TDD .M        354                  : tdd          - TOTAL DEPTH DRILLER
RUN .         ONE                  : Run          - RUN NUMBER
ENG .         BILL                 : Engineer     - RECORDING ENGINEER
WIT .         JIM                  : Witness      - WITNESSED BY
MUD .         GEL                  : Mud_type     - MUD TYPE
MATR.         SANDSTONE            : Logunit      - NEUTRON MATRIX
TMAX.C        25                   : BHT          - MAXIMUM RECORDED TEMPERATURE
BHTD.M        354                  : BHTDEP       - MAXIMUM RECORDED TEMPERATURE
RMT .C        14                   : MDTP         - TEMPERATURE OF MUD
MUDD.KG/M     1155                 : MWT          - MUD DENSITY
NEUT.         1                    : NEUTRON      - NEUTRON TYPE
RESI.         0                    : RESIST       - RESISTIVITY TYPE
RM  .OHMM     0.2                  : RM           - RESISTIVITY OF MUD
RMC .OHMM     0.2                  : RMC          - RESISTIVITY OF MUD CAKE
RMF .OHMM     0.2                  : RMF          - RESISTIVITY OF MUD FILTRATE
SUFT.C        4                    : SUFT         - SURFACE TEMPERATURE
~A  DEPTH       GR     RESD     PHIN     PHID
   75.000  116.784    3.987    0.470    0.282
   75.250  116.164    4.295    0.476    0.287
   75.500  115.548    4.803    0.482    0.292
   75.750  113.086    4.985    0.481    0.294
   76.000  109.395    5.471    0.457    0.295
   76.250  104.473    6.005    0.429    0.305
   76.500   98.939    6.842    0.325    0.308
   76.750   89.716    9.053    0.294    0.316
   77.000   74.346   11.537    0.235    0.348
   77.250   58.362   10.905    0.208    0.364
   77.500   44.836   10.116    0.166    0.390
   77.750   37.457   13.385    0.096    0.416
   78.000   32.536   54.362    0.078    0.430
   78.250   30.074  106.519    0.079    0.430
   78.500   31.299  121.351    0.084    0.409
   78.750   32.526  104.465    0.094    0.385
   79.000   34.980   77.430    0.126    0.372
   79.250   36.208   14.390    0.194    0.366
   79.500   41.121   10.666    0.235    0.373
   79.750   46.650    7.616    0.286    0.367
   80.000   54.023    6.433    0.330    0.350
   80.250   59.551    6.431    0.359    0.348
   80.500   64.465    6.550    0.383    0.362
   80.750   73.067    6.427    0.395    0.388
   81.000   80.439    6.424    0.392    0.321
   81.250   85.968    6.793    0.388    0.305
   81.500   84.120    9.157    0.391    0.306
   81.750   81.658   14.607    0.391    0.312
   82.000   77.967   31.421    0.252    0.327
   82.250   66.285   78.495    0.139    0.352
   82.500   36.779  109.861    0.092    0.381
   82.750   31.242  125.158    0.123    0.402
   83.000   31.854  116.107    0.154    0.399
   83.250   34.925   34.433    0.238    0.370
   83.500   37.381   28.022    0.244    0.356
   83.750   39.836   22.803    0.248    0.350
   84.000   43.520   21.156    0.253    0.348
   84.250   44.745   18.552    0.257    0.344
   84.500   47.201   17.865    0.269    0.341
   84.750   50.270   17.856    0.281    0.340
   85.000   52.726   17.853    0.281    0.336
   85.250   53.952   17.846    0.278    0.334
   85.500   54.563   17.507    0.282    0.332
   85.750   55.175   16.546    0.284    0.332
   86.000   57.630   14.786    0.291    0.332
   86.250   60.085   13.461    0.298    0.332
   86.500   62.541   12.720    0.315    0.334
   86.750   64.381   13.202    0.318    0.337
   87.000   60.691   13.446    0.299    0.345
   87.250   55.769   14.214    0.285    0.352
   87.500   52.694   15.602    0.269    0.363
   87.750   50.232   17.446    0.274    0.373
   88.000   51.458   16.184    0.282    0.366
   88.250   52.684   13.931    0.295    0.351
   88.500   54.524   13.166    0.301    0.354
   88.750   56.979   13.162    0.309    0.361
   89.000   60.663   13.404    0.319    0.355
   89.250   62.504   13.652    0.323    0.345
   89.500   58.198   13.905    0.309    0.336
   89.750   53.892   14.162    0.269    0.314
   90.000   50.816   14.155    0.244    0.315
   90.250   48.353   14.689    0.223    0.344
   90.500   46.506   15.530    0.208    0.365
   90.750   44.044   16.729    0.199    0.381
   91.000   40.967   18.023    0.191    0.374
   91.250   39.120   22.546    0.184    0.369
   91.500   37.889   29.279    0.180    0.371
   91.750   37.885   35.953    0.178    0.371
   92.000   37.881   37.304    0.187    0.367
   92.250   38.492   33.333    0.216    0.362
   92.500   40.949   29.236    0.238    0.360
   92.750   43.402   24.697    0.247    0.364
   93.000   43.400   24.233    0.238    0.376
   93.250   42.168   29.203    0.220    0.392
   93.500   40.320   36.532    0.209    0.396
   93.750   39.088   44.854    0.205    0.396
   94.000   37.855   49.229    0.212    0.396
   94.250   40.925   45.656    0.224    0.395
   94.500   42.151   43.154    0.233    0.391
   94.750   43.990   40.033    0.238    0.391
   95.000   44.602   36.447    0.241    0.389
   95.250   43.984   30.221    0.237    0.382
   95.500   42.136   26.013    0.232    0.379
   95.750   40.905   23.681    0.219    0.371
   96.000   38.442   25.512    0.207    0.363
   96.250   37.210   33.759    0.194    0.365
   96.500   35.362   47.244    0.183    0.371
   96.750   34.745   60.216    0.172    0.375
   97.000   32.282   79.666    0.160    0.379
   97.250   29.820   79.635    0.155    0.381
   97.500   28.589   79.612    0.157    0.381
   97.750   26.741   81.083    0.154    0.384
   98.000   25.509   94.125    0.147    0.385
   98.250   25.504   99.516    0.143    0.385
   98.500   26.116   92.310    0.157    0.385
   98.750   26.728   80.957    0.175    0.384
   99.000   29.798   68.395    0.185    0.384
   99.250   32.253   56.712    0.195    0.386
   99.500   36.552   42.035    0.209    0.386
   99.750   43.311   31.157    0.240    0.386
  100.000   58.674   19.157    0.350    0.386
  100.250   77.110   15.884    0.391    0.386
  100.500   77.106   16.176    0.396    0.395
  100.750   72.186   18.432    0.383    0.433
  101.000   59.889   34.791    0.355    0.451
  101.250   49.437   63.253    0.333    0.452
  101.500   40.214  121.631    0.149    0.450
  101.750   34.064  394.784    0.147    0.446
  102.000   32.216  402.038    0.147    0.445
  102.250   32.213  387.135    0.148    0.445
  102.500   33.439  359.105    0.151    0.443
  102.750   33.435  326.936    0.153    0.441
  103.000   33.431  281.444    0.158    0.440
  103.250   33.429  237.748    0.163    0.439
  103.500   33.425  216.472    0.164    0.439
  103.750   34.036  189.848    0.168    0.440
  104.000   34.648  160.389    0.172    0.440
  104.250   35.259  140.663    0.174    0.440
  104.500   36.485  125.678    0.182    0.439
  104.750   36.483  114.420    0.184    0.437
  105.000   37.093  108.138    0.187    0.436
  105.250   37.705  102.191    0.192    0.435
  105.500   38.315  100.279    0.194    0.431
  105.750   38.313   98.375    0.198    0.422
  106.000   38.925   96.515    0.202    0.418
  106.250   39.536   91.217    0.199    0.432
  106.500   40.762   84.620    0.194    0.449
  106.750   42.601   75.613    0.194    0.459
  107.000   43.214   77.003    0.222    0.467
  107.250   43.824   82.949    0.250    0.472
  107.500   42.591   74.134    0.269    0.461
  107.750   42.589   59.215    0.281    0.450
  108.000   41.356   47.294    0.294    0.425
  108.250   40.123   43.865    0.307    0.397
  108.500   39.506   43.036    0.323    0.393
  108.750   38.887   43.028    0.335    0.392
  109.000   38.884   43.011    0.347    0.392
  109.250   39.495   42.995    0.357    0.392
  109.500   39.493   42.974    0.367    0.390
  109.750   39.489   42.961    0.371    0.389
  110.000   39.486   42.145    0.369    0.392
  110.250   39.483   41.345    0.363    0.397
  110.500   39.479   41.333    0.358    0.395
  110.750   39.476   40.548    0.351    0.394
  111.000   40.087   40.536    0.345    0.393
  111.250   40.698   39.766    0.338    0.390
  111.500   40.695   39.022    0.338    0.394
  111.750   41.305   38.284    0.340    0.392
  112.000   41.302   37.561    0.342    0.384
  112.250   41.913   36.165    0.346    0.381
  112.500   41.911   35.488    0.347    0.384
  112.750   41.908   33.533    0.350    0.386
  113.000   41.290   32.903    0.351    0.389
  113.250   41.287   32.887    0.353    0.393
  113.500   40.669   32.877    0.355    0.395
  113.750   41.278   32.868    0.353    0.396
  114.000   41.277   32.247    0.352    0.396
  114.250   41.888   32.231    0.356    0.399
  114.500   42.499   31.625    0.361    0.410
  114.750   43.725   31.610    0.369    0.425
  115.000   43.722   30.441    0.376    0.439
  115.250   43.718   28.770    0.373    0.445
  115.500   43.100   27.701    0.384    0.382
  115.750   43.097   26.674    0.397    0.393
  116.000   44.323   26.170    0.407    0.402
  116.250   45.549   26.651    0.409    0.412
  116.500   45.545   27.148    0.404    0.404
  116.750   45.542   27.650    0.393    0.396
  117.000   44.924   28.160    0.381    0.378
  117.250   44.306   29.222    0.381    0.378
  117.500   43.688   29.759    0.381    0.378
  117.750   44.299   30.886    0.377    0.378
  118.000   45.525   31.454    0.373    0.378
  118.250   46.136   32.639    0.375    0.377
