~VERSION INFORMATION
 VERS.                 2.0:   CWLS LOG ASCII STANDARD -VERSION 2.0
 WRAP.                  NO:   ONE LINE PER DEPTH STEP
~WELL INFORMATION BLOCK
#MNEM.UNIT           DATA                    DESCRIPTION OF MNEMONIC
#---------    -------------------            -------------------------------
# Generated from Intellog Unique Number	CN_94_101/WELL/3228
WELL.         11-11-096-08W4                 : Well_name    - WELL
LOC .         AA/11-11-096-08W4/0            : Location     - LOCATION
UWI .         AA/11-11-096-08W400            : Uwi          - UNIQUE WELL ID
ENTR.         JOETTE                         : Entered      - ENTERED BY
SRVC.         SCHLUMBERGER                   : Scn          - SERVICE COMPANY
DATE.         07/20/92                       : Date         - LOG DATE
STRT.F        20                             : top_depth    - START DEPTH
STOP.F        360.387                        : bot_depth    - STOP DEPTH
STEP.F        0.8202                         : increment    - STEP LENGTH
 NULL. -999.2500:NULL Value
~CURVE INFORMATION BLOCK
#MNEM UNIT       ERCB CURVE CODE    CURVE DESCRIPTION
#-----------   ------------------   ----------------------------------
DEPT.F        00 001 00 00         : DEPTH        - DEPTH
GR  .API      00 310 00 00         : GR           - GAMMA RAY
DPHI.V/V      00 890 00 00         : PHID         - DENSITY POROSITY (SANDSTONE)
NPHI.V/V      00 330 00 00         : PHIN         - NEUTRON POROSITY (SANDSTONE)
ILD .OHMM     00 120 00 00         : RESD         - DEEP RESISTIVITY (DIL)
~PARAMETER INFORMATION
#MNEM.UNIT           DATA             DESCRIPTION OF MNEMONIC
#---------         -----------     ------------------------------
GL  .M        331.318              : gl           - GROUND LEVEL ELEVATION
EREF.M        332.842              : kb           - ELEVATION OF DEPTH REFERENCE
DATM.M        332.842              : datum        - DATUM ELEVATION
TDD .M        115.519              : tdd          - TOTAL DEPTH DRILLER
RUN .         ONE                  : Run          - RUN NUMBER
ENG .         BILL                 : Engineer     - RECORDING ENGINEER
WIT .         JIM                  : Witness      - WITNESSED BY
MUD .         GEL                  : Mud_type     - MUD TYPE
MATR.         SANDSTONE            : Logunit      - NEUTRON MATRIX
TMAX.F        63                   : BHT          - MAXIMUM RECORDED TEMPERATURE
BHTD.F        379                  : BHTDEP       - MAXIMUM RECORDED TEMPERATURE
RMT .F        42.8                 : MDTP         - TEMPERATURE OF MUD
MUDD.LB/G     1.05                 : MWT          - MUD DENSITY
NEUT.         1                    : NEUTRON      - NEUTRON TYPE
RESI.         0                    : RESIST       - RESISTIVITY TYPE
RM  .OHMM     7.5                  : RM           - RESISTIVITY OF MUD
RMC .OHMM     7.5                  : RMC          - RESISTIVITY OF MUD CAKE
RMF .OHMM     7.5                  : RMF          - RESISTIVITY OF MUD FILTRATE
SUFT.F        39.2                 : SUFT         - SURFACE TEMPERATURE
~A  DEPTH       GR     PHID     PHIN     RESD
# ...
  162.717   37.087    0.297    0.335  144.614
  163.537   38.707    0.304    0.338  132.163
  164.357   41.901    0.303    0.348  191.006
  165.177   48.654    0.292    0.350  145.288
  165.997   52.647    0.284    0.349   97.288
  166.818   46.341    0.296    0.332  168.869
  167.638   38.856    0.309    0.322  188.705
  168.458   32.162    0.318    0.334  214.936
  169.278   34.961    0.327    0.339  207.606
  170.098   41.327    0.306    0.340  186.215
  170.919   48.080    0.288    0.331  179.795
  171.739   53.663    0.274    0.311  139.341
  172.559   54.088    0.262    0.319  125.081
  173.379   55.693    0.246    0.319  190.983
  174.199   59.685    0.246    0.322  191.279
  175.020   47.446    0.253    0.304  114.710
  175.840   42.738    0.267    0.291   92.146
  176.660   42.767    0.270    0.283   65.164
  177.480   45.171    0.276    0.293  101.337
  178.301   47.186    0.281    0.291  119.730
  179.121   46.424    0.260    0.283  129.081
  179.941   44.872    0.250    0.279  152.392
  180.761   41.731    0.261    0.286  120.287
  181.581   39.387    0.273    0.299  114.032
  182.402   37.835    0.273    0.309  125.211
  183.222   36.679    0.292    0.317  116.545
  184.042   34.731    0.295    0.311  191.404
  184.862   28.828    0.297    0.300  338.373
  185.682   26.089    0.295    0.291  545.839
  186.503   26.127    0.297    0.290  438.811
  187.323   28.530    0.293    0.298  267.916
  188.143   32.515    0.308    0.313  166.664
  188.963   37.702    0.304    0.323  103.718
  189.783   34.560    0.285    0.330  164.147
  190.604   33.411    0.295    0.333  180.239
  191.424   33.836    0.293    0.338  190.715
  192.244   32.679    0.275    0.345  161.981
  193.064   33.493    0.259    0.332  127.856
  193.885   37.090    0.245    0.312  121.254
  194.705   40.680    0.249    0.306   95.672
  195.525   43.881    0.256    0.303   65.224
  196.345   46.680    0.247    0.301   70.291
  197.165   52.247    0.239    0.313   74.376
  197.986   49.508    0.240    0.318   75.869
  198.806   51.516    0.210    0.288  103.786
  199.626   56.695    0.196    0.274   93.128
  200.446   56.725    0.185    0.275   52.863
  201.266   52.008    0.227    0.291   82.207
  202.087   39.374    0.270    0.303  132.559
  202.907   25.569    0.283    0.320  247.582
  203.727   24.807    0.286    0.319  704.680
  204.547   26.024    0.273    0.307 1037.260
  205.367   29.613    0.263    0.309 1117.840
  206.188   35.181    0.245    0.318  721.327
  207.008   50.248    0.210    0.324  465.464
  207.828   68.084    0.228    0.328  200.661
  208.648   73.263    0.201    0.316   61.080
  209.469   70.919    0.196    0.312   50.935
  210.289   74.509    0.180    0.319   62.402
  211.109   74.935    0.166    0.316   61.364
  211.929   79.711    0.147    0.313   55.084
  212.749   79.748    0.135    0.321   58.286
  213.570   75.427    0.145    0.318   51.351
  214.390   71.114    0.198    0.307   39.075
  215.210   72.719    0.180    0.300   46.149
  216.030   76.704    0.179    0.293   55.512
  216.850   77.129    0.197    0.283   53.619
  217.671   67.666    0.228    0.279   48.113
  218.491   59.391    0.243    0.290   60.033
  219.311   50.324    0.261    0.311  100.455
  220.131   41.645    0.278    0.333  130.021
  220.951   31.787    0.303    0.350  177.864
  221.772   29.846    0.324    0.345  461.941
  222.592   31.063    0.311    0.345 1968.050
  223.412   34.264    0.286    0.357  817.904
  224.232   37.846    0.290    0.341  339.914
  225.052   41.041    0.278    0.330  103.467
  225.873   43.056    0.278    0.339  141.539
  226.693   46.645    0.283    0.336   84.848
  227.513   52.212    0.261    0.334   49.072
  228.333   54.630    0.229    0.327   52.864
  229.154   57.817    0.205    0.312   53.945
  229.974   63.780    0.180    0.297   24.133
  230.794   70.944    0.143    0.295   20.489
  231.614   70.571    0.143    0.284   19.424
  232.434   72.183    0.142    0.281   20.932
  233.255   76.571    0.143    0.277   28.646
  234.075   75.414    0.146    0.267   30.311
  234.895   71.093    0.135    0.253   30.919
  235.715   61.235    0.140    0.243   31.527
  236.535   60.086    0.148    0.254   32.185
  237.356   60.504    0.161    0.268   32.818
  238.176   61.721    0.166    0.274   36.021
  238.996   61.758    0.157    0.266   39.537
  239.816   60.198    0.161    0.270   45.050
  240.636   61.422    0.164    0.293   48.531
  241.457   64.221    0.179    0.331   42.757
  242.277   66.624    0.195    0.363   42.824
  243.097   65.870    0.223    0.388   46.186
  243.917   69.064    0.214    0.382   38.486
  244.738   73.445    0.260    0.365   22.250
  245.558   83.370    0.243    0.332   16.322
  246.378   72.714    0.236    0.298   16.050
  247.198   43.072    0.244    0.277   35.363
  248.018   39.938    0.237    0.279   41.765
  248.839   42.341    0.222    0.292   45.027
  249.659   49.498    0.221    0.321   55.142
  250.479   70.498    0.202    0.333   57.288
  251.299   78.050    0.193    0.340   19.824
  252.119   77.684    0.195    0.274   11.465
  252.940   42.498    0.211    0.259   12.351
  253.760   35.804    0.236    0.256   15.417
  254.580   32.678    0.272    0.265   29.327
  255.400   33.498    0.274    0.280   61.137
  256.220   34.319    0.274    0.292   65.886
  257.041   35.536    0.279    0.299   61.350
  257.861   37.939    0.267    0.298   55.029
  258.681   41.133    0.246    0.303   55.136
  259.501   47.499    0.228    0.315   59.419
  260.322   58.611    0.199    0.321   50.466
  261.142   68.529    0.164    0.320   35.027
  261.962   68.954    0.128    0.237   25.229
  262.782   65.820    0.154    0.237   32.074
  263.602   62.305    0.170    0.247   35.218
  264.423   58.768    0.185    0.258   36.603
  265.243   50.089    0.221    0.289   40.175
  266.063   42.999    0.238    0.314   44.080
  266.883   36.701    0.262    0.327   53.023
  267.703   31.194    0.279    0.331   62.671
  268.524   23.709    0.294    0.319   61.605
  269.344   22.552    0.293    0.317   59.481
  270.164   26.142    0.297    0.327   65.287
  270.984   30.918    0.279    0.337   65.413
  271.804   38.075    0.254    0.330   51.612
  272.625   50.769    0.234    0.331   25.304
  273.445   71.769    0.227    0.338   19.610
  274.265   75.754    0.228    0.341   33.421
  275.085   76.582    0.212    0.302   44.057
  275.906   77.806    0.200    0.311   21.591
  276.726   80.202    0.185    0.312   25.510
  277.546   83.000    0.175    0.280   24.193
  278.366   78.679    0.174    0.272   19.442
  279.186   75.150    0.183    0.263   20.952
  280.007   75.187    0.179    0.295   26.637
  280.827   78.777    0.175    0.332   30.900
  281.647   81.971    0.189    0.344   19.222
  282.467   87.545    0.192    0.328   17.248
  283.287   86.396    0.194    0.330   20.363
  284.108   85.628    0.185    0.350   37.342
  284.928   83.284    0.184    0.373   36.055
  285.748   81.337    0.240    0.405   19.372
  286.568   84.531    0.271    0.350   15.285
  287.388   86.941    0.244    0.319   18.066
  288.209   86.971    0.218    0.358   20.561
  289.029   83.837    0.253    0.383   27.627
  289.849   87.031    0.258    0.377   25.239
  290.669   92.606    0.233    0.397   21.436
  291.490  100.151    0.233    0.431   18.886
  292.310  106.524    0.227    0.453   15.749
  293.130  108.136    0.244    0.437   13.376
  293.950  105.793    0.243    0.420   12.229
  294.770  104.628    0.261    0.425   13.418
  295.591  101.494    0.296    0.438   13.449
  296.411   97.569    0.309    0.451   12.980
  297.231   98.785    0.281    0.461   12.533
  298.051  100.793    0.237    0.452   12.789
  298.871  104.002    0.228    0.422   13.783
  299.692  106.405    0.232    0.402   14.314
  300.512  109.204    0.242    0.421   14.347
  301.332  111.614    0.254    0.431   13.596
  302.152  110.845    0.256    0.421   11.765
  302.972  108.502    0.267    0.405   12.449
  303.793  102.599    0.265    0.406   16.113
  304.613   92.338    0.278    0.410   20.477
