~VERSION INFORMATION
 VERS.                 2.0:   CWLS LOG ASCII STANDARD -VERSION 2.0
 WRAP.                  NO:   ONE LINE PER DEPTH STEP
~WELL INFORMATION BLOCK
#MNEM.UNIT           DATA                    DESCRIPTION OF MNEMONIC
#---------    -------------------            -------------------------------
# Generated from Intellog Unique Number	CC_84_87/WELL/2339
NULL.         -999.25                        : NULL_VALUE
WELL.         ARCO ACI MCMURRAY              : Well_name    - WELL
LOC .         12-08-084-08W4                 : Location     - LOCATION          
UWI .         AA/12-08-084-08W4/0            : Uwi          - UNIQUE WELL ID    
ENTR.         JHS                            : Entered      - ENTERED BY        
SRVC.         WELEX                          : Scn          - SERVICE COMPANY   
DATE.         22 JAN 76                      : Date         - LOG DATE
STRT.M        274.32                         : top_depth    - START DEPTH       
STOP.M        487.687                        : bot_depth    - STOP DEPTH        
STEP.M        0.305                          : increment    - STEP LENGTH       
~CURVE INFORMATION BLOCK
#MNEM UNIT       ERCB CURVE CODE    CURVE DESCRIPTION
#-----------   ------------------   ----------------------------------
DEPT.M        00 001 00 00         : DEPTH        - DEPTH                       
DPHI.V/V      00 890 00 00         : PHID         - DENSITY POROSITY (LIMESTONE)
GR  .API      00 310 00 00         : GR           - GAMMA RAY                   
ILD .OHMM     00 120 00 00         : RESD         - DEEP RESISTIVITY (DIL)      
~PARAMETER INFORMATION       
#MNEM.UNIT           DATA             DESCRIPTION OF MNEMONIC
#---------         -----------     ------------------------------
GL  .M        726.948              : gl           - GROUND LEVEL ELEVATION      
EREF.M        729.691              : kb           - ELEVATION OF DEPTH REFERENCE
DATM.M        729.691              : datum        - DATUM ELEVATION             
TDD .M        495.3                : tdd          - TOTAL DEPTH DRILLER         
RUN .         ONE                  : Run          - RUN NUMBER                  
ENG .         BILL                 : Engineer     - RECORDING ENGINEER          
WIT .         JIM                  : Witness      - WITNESSED BY                
MUD .         GEL                  : Mud_type     - MUD TYPE                    
MATR.         LIMESTONE            : Logunit      - NEUTRON MATRIX              
TMAX.C        20                   : BHT          - MAXIMUM RECORDED TEMPERATURE
BHTD.M        495.3                : BHTDEP       - MAXIMUM RECORDED TEMPERATURE
MATR.         1                    : LOGUNIT      - NEUTRON MATRIX              
RMT .C        25                   : MDTP         - TEMPERATURE OF MUD          
NEUT.         1                    : NEUTRON      - NEUTRON TYPE                
RESI.         0                    : RESIST       - RESISTIVITY TYPE            
RMC .OHMM     0.25                 : RMC          - RESISTIVITY OF MUD CAKE     
RMF .OHMM     0.25                 : RMF          - RESISTIVITY OF MUD FILTRATE 
SUFT.C        15                   : SUFT         - SURFACE TEMPERATURE         
~A  DEPTH     PHID       GR     RESD
# ...
  406.607    0.222   98.731    5.138
  406.912    0.230   96.355    5.616
  407.217    0.239   99.216    6.812
  407.522    0.216   99.697    8.087
  407.827    0.202   90.178    9.044
  408.131    0.204   89.707    8.965
  408.436    0.232   94.950    8.407
  408.741    0.233   94.002    7.611
  409.046    0.235   88.293    7.293
  409.351    0.241   90.202    6.974
  409.655    0.235   89.254    6.417
  409.960    0.229   88.783    5.780
  410.265    0.233   98.787    5.143
  410.570    0.234   94.983    4.825
  410.875    0.208   89.273    4.746
  411.180    0.215   86.897    4.985
  411.484    0.226   92.616    5.304
  411.789    0.211   95.478    5.783
  412.094    0.219   92.150    5.783
  412.399    0.233   89.298    5.624
  412.704    0.248   89.779    5.705
  413.008    0.251   91.687    6.024
  413.313    0.245   88.835    6.582
  413.618    0.244   72.650    7.299
  413.923    0.248   69.321    7.539
  414.228    0.254   70.754    6.822
  414.532    0.260   80.283    4.512
  414.837    0.268   91.716    3.238
  415.142    0.275   94.578    2.840
  415.447    0.271   94.107    2.999
  415.752    0.259   99.825    3.637
  416.056    0.239  106.973    4.674
  416.361    0.242  105.549    6.347
  416.666    0.233   84.602    6.667
  416.971    0.226   78.417    6.587
  417.276    0.210   77.469    6.349
  417.581    0.238   78.426    6.270
  417.885    0.247   78.431    6.270
  418.190    0.236   82.722    6.589
  418.495    0.230   81.773    6.988
  418.800    0.222   81.302    7.706
  419.105    0.192   75.116    8.184
  419.409    0.168   71.788    7.946
  419.714    0.214   77.507    7.070
  420.019    0.214   85.606    5.715
  420.324    0.214   91.326    5.078
  420.629    0.215   95.140    4.840
  420.933    0.214   95.145    4.840
  421.238    0.206   91.340    5.080
  421.543    0.202   91.345    5.638
  421.848    0.197   93.255    5.718
  422.153    0.199   98.973    5.081
  422.457    0.239   97.074    3.568
  422.762    0.259   89.936    2.692
  423.067    0.267   81.845    2.134
  423.372    0.271   73.278    2.135
  423.677    0.259   75.188    2.454
  423.982    0.240   77.574    3.012
  424.286    0.251   73.768    3.730
  424.591    0.248   72.821    4.129
  424.896    0.230   72.826    4.448
  425.201    0.210   71.403    4.608
  425.506    0.211   79.502    4.369
  425.810    0.210   85.221    3.891
  426.115    0.214   84.749    3.254
  426.420    0.217   88.563    2.856
  426.725    0.221   91.425    2.698
  427.030    0.222   87.621    3.176
  427.334    0.219   81.911    4.212
  427.639    0.205   88.106    4.850
  427.944    0.191   87.635    5.010
  428.249    0.202   79.069    4.214
  428.554    0.242   80.501    3.497
  428.858    0.251   84.793    3.099
  429.163    0.242   85.750    2.861
  429.468    0.248   88.135    2.781
  429.773    0.273   93.377    2.702
  430.078    0.260  100.049    2.703
  430.383    0.235   95.292    2.862
  430.687    0.222   92.916    3.022
  430.992    0.233   94.826    3.341
  431.297    0.227   98.639    3.581
  431.602    0.221   99.598    3.900
  431.907    0.213   91.982    4.060
  432.211    0.210   87.702    4.140
  432.516    0.200   88.183    4.300
  432.821    0.198   92.473    4.380
  433.126    0.210   97.240    4.380
  433.431    0.199   96.292    4.381
  433.735    0.188   86.773    4.381
  434.040    0.230   92.016    4.382
  434.345    0.240   92.973    4.462
  434.650    0.243   75.359    4.542
  434.955    0.260   70.602    4.702
  435.259    0.303   65.369    5.180
  435.564    0.315   62.040    5.818
  435.869    0.305   60.616    6.775
  436.174    0.289   63.478    8.449
  436.479    0.286   66.340    9.804
  436.784    0.281   73.487    9.964
  437.088    0.266   69.206   10.601
  437.393    0.261   75.878   12.275
  437.698    0.265   78.740   12.037
  438.003    0.267   75.888   10.842
  438.308    0.261   73.035   10.524
  438.612    0.249   73.992   10.365
  438.917    0.244   84.949   10.843
  439.222    0.243   84.479   12.278
  439.527    0.234   84.482   12.916
  439.832    0.214   85.916   12.438
  440.136    0.194   88.778    9.172
  440.441    0.191   92.115    7.579
  440.746    0.232   96.406    6.862
  441.051    0.212  103.554    6.544
  441.356    0.194  105.940    6.544
  441.660    0.204  108.801    6.704
  441.965    0.208  107.854    7.103
  442.270    0.226  105.002    8.219
  442.575    0.233  100.720    9.175
  442.880    0.245   81.678    9.654
  443.185    0.247   69.302   10.053
  443.489    0.239   65.021   10.053
  443.794    0.241   68.835    9.735
  444.099    0.243   65.982    9.257
  444.404    0.245   61.703    8.780
  444.709    0.244   60.278    8.621
  445.013    0.239   53.616    8.542
  445.318    0.232   53.145    8.542
  445.623    0.250   57.435    8.782
  445.928    0.264   59.822    9.260
  446.233    0.267   57.921    9.818
  446.537    0.235   52.211   10.456
  446.842    0.195   52.216   11.174
  447.147    0.198   60.316   11.573
  447.452    0.242   68.892   11.653
  447.757    0.243   66.517   12.370
  448.061    0.251   63.664   14.363
  448.366    0.258   58.907   15.797
  448.671    0.266   56.055   17.312
  448.976    0.254   51.774   18.428
  449.281    0.257   45.112   19.385
  449.586    0.262   45.116   19.465
  449.890    0.263   49.407   18.031
  450.195    0.251   54.175   15.880
  450.500    0.242   55.606   14.765
  450.805    0.215   68.944   13.092
  451.110    0.208   73.235   11.339
  451.414    0.194   74.192    9.826
  451.719    0.176   78.006    8.472
  452.024    0.165   85.154    7.596
  452.329    0.187   88.016    7.118
  452.634    0.188   86.593    7.039
  452.938    0.184   83.263    7.119
  453.243    0.197   86.602    7.518
  453.548    0.194   89.463    7.997
  453.853    0.182   88.515    9.033
  454.158    0.172   88.997    8.874
  454.462    0.188   91.382    8.157
  454.767    0.199   91.864    8.078
  455.072    0.200   92.821    8.238
  455.377    0.208   94.253    7.999
  455.682    0.215   93.306    8.079
  455.987    0.193   81.406    7.920
  456.291    0.182   88.554    7.124
  456.596    0.181   95.225    6.806
  456.901    0.178  100.468    6.727
  457.206    0.179  100.949    6.887
  457.511    0.173  100.953    7.206
  457.815    0.166   98.578    7.604
  458.120    0.171   92.868    8.003
  458.425    0.178   84.301    8.163
  458.730    0.184   80.496    8.084
  459.035    0.197   80.502    8.084
  459.339    0.218   77.649    8.404
  459.644    0.222   73.844    8.802
  459.949    0.215   76.707    9.440
  460.254    0.213   78.615    9.999
  460.559    0.201   76.717   10.318
  460.863    0.197   78.625   10.239
  461.168    0.192   83.392   10.080
  461.473    0.202   78.159   10.239
  461.778    0.201   79.115   10.877
  462.083    0.178   76.263   11.037
  462.388    0.182   72.935   10.878
  462.692    0.220   73.893   10.719
  462.997    0.204   76.754   10.242
  463.302    0.200   80.092    9.525
  463.607    0.208   81.526    9.446
  463.912    0.213   85.340    9.845
  464.216    0.213   85.344   10.722
  464.521    0.220   82.968   10.642
  464.826    0.209   69.640   10.244
  465.131    0.209   71.073    9.607
  465.436    0.214   73.935   10.405
  465.740    0.250   72.987   11.521
  466.045    0.264   66.325   13.194
  466.350    0.274   60.140   14.948
  466.655    0.299   53.954   19.889
  466.960    0.295   46.816   21.280
  467.264    0.259   46.345   18.774
  467.569    0.244   58.254   14.711
  467.874    0.253   78.258   12.639
  468.179    0.269   69.692   14.233
  468.484    0.289   61.602   17.820
  468.789    0.290   57.320   19.971
  469.093    0.284   52.087   21.312
  469.398    0.276   54.949   22.114
  469.703    0.285   66.382   26.102
  470.008    0.305   62.577   32.481
  470.313    0.305   48.297   38.063
  470.617    0.285   44.969   38.067
  470.922    0.276   54.497   32.494
  471.227    0.266   54.502   25.328
  471.532    0.258   58.315   24.537
  471.837    0.263   59.273   25.337
  472.141    0.278   54.992   26.936
  472.446    0.279   53.092   27.737
