~VERSION INFORMATION
 VERS.                 2.0:   CWLS LOG ASCII STANDARD -VERSION 2.0
 WRAP.                  NO:   ONE LINE PER DEPTH STEP
~WELL INFORMATION BLOCK
#MNEM.UNIT           DATA                    DESCRIPTION OF MNEMONIC
#---------    -------------------            -------------------------------
# Generated from Intellog Unique Number	CC_84_87/WELL/2337
NULL.         -999.25                        : NULL_VALUE
WELL.         SUN CHEECHAM CH 26             : Well_name    - WELL              
LOC .         11-36-086-07W4                 : Location     - LOCATION          
UWI .         AA/11-36-086-07W400            : Uwi          - UNIQUE WELL ID    
ENTR.         DW                             : Entered      - ENTERED BY        
SRVC.         SCHLUMBERGER                   : Scn          - SERVICE COMPANY   
DATE.         13 MAR 80                      : Date         - LOG DATE
STRT.M        55                             : top_depth    - START DEPTH       
STOP.M        238.902                        : bot_depth    - STOP DEPTH        
STEP.M        0.3                            : increment    - STEP LENGTH       
~CURVE INFORMATION BLOCK
#MNEM UNIT       ERCB CURVE CODE    CURVE DESCRIPTION
#-----------   ------------------   ----------------------------------
DEPT.M        00 001 00 00         : DEPTH        - DEPTH                       
DPHI.V/V      00 890 00 00         : PHID         - DENSITY POROSITY (LIMESTONE)
NPHI.V/V      00 330 00 00         : PHIN         - NEUTRON POROSITY (LIMESTONE)
GR  .API      00 310 00 00         : GR           - GAMMA RAY                   
ILD .OHMM     00 120 00 00         : RESD         - DEEP RESISTIVITY (DIL)      
~PARAMETER INFORMATION       
#MNEM.UNIT           DATA             DESCRIPTION OF MNEMONIC
#---------         -----------     ------------------------------
GL  .M        459                  : gl           - GROUND LEVEL ELEVATION      
EREF.M        461.06               : kb           - ELEVATION OF DEPTH REFERENCE
DATM.M        461.06               : datum        - DATUM ELEVATION             
TDD .M        239                  : tdd          - TOTAL DEPTH DRILLER         
RUN .         ONE                  : Run          - RUN NUMBER                  
ENG .         BILL                 : Engineer     - RECORDING ENGINEER          
WIT .         JIM                  : Witness      - WITNESSED BY                
MUD .         GEL                  : Mud_type     - MUD TYPE                    
MATR.         LIMESTONE            : Logunit      - NEUTRON MATRIX              
TMAX.C        20                   : BHT          - MAXIMUM RECORDED TEMPERATURE
BHTD.M        245                  : BHTDEP       - MAXIMUM RECORDED TEMPERATURE
MATR.         1                    : LOGUNIT      - NEUTRON MATRIX              
RMT .C        25                   : MDTP         - TEMPERATURE OF MUD          
NEUT.         1                    : NEUTRON      - NEUTRON TYPE                
RESI.         0                    : RESIST       - RESISTIVITY TYPE            
RMC .OHMM     0.25                 : RMC          - RESISTIVITY OF MUD CAKE     
RMF .OHMM     0.25                 : RMF          - RESISTIVITY OF MUD FILTRATE 
SUFT.C        4                    : SUFT         - SURFACE TEMPERATURE         
~A  DEPTH     PHID     PHIN       GR     RESD
# ...
  211.601    0.359    0.414   30.796   48.082
  211.901    0.374    0.428   33.222   38.218
  212.201    0.395    0.433   35.647   32.157
  212.501    0.401    0.431   37.453   28.114
  212.801    0.386    0.420   38.644   26.027
  213.101    0.357    0.414   38.595   25.494
  213.401    0.367    0.427   33.605   25.963
  213.701    0.380    0.435   29.836   26.433
  214.001    0.374    0.434   30.418   25.422
  214.301    0.351    0.428   34.077   17.352
  214.602    0.323    0.404   37.123   11.622
  214.902    0.288    0.353   41.391    6.944
  215.202    0.257    0.324   46.290    5.732
  215.502    0.251    0.306   55.508    5.619
  215.802    0.248    0.303   62.880    5.612
  216.102    0.210    0.310   72.717    5.606
  216.402    0.197    0.325   82.558    5.494
  216.702    0.191    0.346  132.552    5.488
  217.002    0.199    0.373  129.412    5.481
  217.302    0.185    0.365  123.798    5.474
  217.602    0.180    0.379  119.439    5.680
  217.902    0.176    0.392  111.973    5.782
  218.202    0.158    0.378  103.897    5.887
  218.502    0.167    0.327   89.010    6.227
  218.802    0.195    0.291   79.700    6.841
  219.102    0.237    0.277   48.148    7.957
  219.402    0.295    0.296   31.413    6.955
  219.702    0.352    0.325   29.512    6.317
  220.002    0.335    0.348   30.707    5.958
  220.302    0.313    0.359   32.506    5.841
  220.602    0.317    0.356   34.936    6.416
  220.902    0.304    0.335   37.975    7.049
  221.202    0.273    0.306   39.780    7.744
  221.502    0.251    0.303   38.495    7.883
  221.802    0.260    0.312   35.355    7.023
  222.102    0.294    0.337   30.987    5.912
  222.402    0.341    0.369   28.466    4.035
  222.702    0.346    0.388   27.179    3.665
  223.002    0.346    0.387   27.136    3.523
  223.302    0.352    0.377   27.696    3.518
  223.602    0.352    0.380   27.038    3.450
  223.902    0.346    0.381   25.136    3.317
  224.202    0.332    0.384   25.096    3.249
  224.502    0.325    0.381   25.669    3.309
  224.802    0.332    0.371   29.326    3.306
  225.102    0.328    0.355   30.505    3.364
  225.402    0.320    0.367   29.847    3.361
  225.702    0.335    0.367   26.712    3.293
  226.002    0.343    0.364   22.949    3.228
  226.302    0.343    0.358   21.051    3.163
  226.602    0.351    0.356   21.002    2.984
  226.902    0.335    0.358   21.581    2.925
  227.202    0.310    0.359   22.750    2.867
  227.502    0.321    0.371   22.095    2.808
  227.802    0.344    0.376   22.658    2.806
  228.102    0.346    0.374   23.852    2.803
  228.402    0.306    0.366   25.648    2.799
  228.702    0.309    0.363   26.825    2.849
  229.002    0.317    0.362   27.415    2.846
  229.302    0.313    0.361   26.752    2.790
  229.602    0.322    0.359   25.462    2.785
  229.902    0.322    0.353   25.424    2.730
  230.202    0.331    0.343   27.844    2.728
  230.502    0.330    0.331   29.654    2.725
  230.802    0.309    0.327   33.316    2.774
  231.102    0.308    0.331   37.584    2.824
  231.402    0.282    0.331   40.637    3.102
  231.702    0.286    0.323   58.510    3.474
  232.002    0.170    0.324  124.573    4.118
  232.302    0.118    0.351  130.688    5.472
  232.602    0.096    0.366  131.270    6.245
  232.902    0.126    0.359  133.689    7.265
  233.202    0.082    0.332  134.254    9.470
  233.502    0.081    0.248  133.592   10.607
  233.802    0.094    0.261  132.304   11.429
  234.102    0.089    0.269  130.412   11.412
  234.402    0.094    0.265  125.428   11.402
  234.702    0.108    0.264  113.023   10.963
  235.002    0.129    0.267   48.716   10.342
  235.302    0.140    0.267   45.575    9.947
  235.602    0.124    0.268   46.756    9.935
  235.902    0.117    0.270   47.337   10.310
  236.202    0.105    0.265   47.885   11.546
  236.502    0.124    0.255   47.233   13.687
  236.802    0.131    0.260   47.199   15.314
  237.102    0.127    0.279   47.141   15.899
  237.402    0.117    0.315   48.312   16.495
  237.702    0.110    0.356   48.891   16.796
  238.002    0.085    0.400   50.092   16.776
  238.302    0.062    0.378   51.283   16.753
  238.602    0.067    0.368   51.855   16.741
  238.902    0.078    0.412   51.797   16.402
