~VERSION INFORMATION
 VERS.                 2.0:   CWLS LOG ASCII STANDARD -VERSION 2.0
 WRAP.                  NO:   ONE LINE PER DEPTH STEP
~WELL INFORMATION BLOCK
#MNEM.UNIT           DATA                    DESCRIPTION OF MNEMONIC
#---------    -------------------            -------------------------------
# Generated from Intellog Unique Number	CN_91_93/WELL/3694
WELL.         10-12-093-08W4                 : Well_name    - WELL
LOC .         AA/10-12-093-08W4/0            : Location     - LOCATION
UWI .         AA/10-12-093-08W400            : Uwi          - UNIQUE WELL ID
ENTR.         JOETTE                         : Entered      - ENTERED BY
SRVC.         SCHLUMBERGER                   : Scn          - SERVICE COMPANY
DATE.         03/22/92                       : Date         - LOG DATE
STRT.M        75                             : top_depth    - START DEPTH
STOP.M        225                            : bot_depth    - STOP DEPTH
STEP.M        0.25                           : increment    - STEP LENGTH
 NULL. -999.2500:NULL Value
~CURVE INFORMATION BLOCK
#MNEM UNIT       ERCB CURVE CODE    CURVE DESCRIPTION
#-----------   ------------------   ----------------------------------
DEPT.M        00 001 00 00         : DEPTH        - DEPTH
CALI.MM       00 280 01 00         : CAL          - CALIPER
GR  .API      00 310 00 00         : GR           - GAMMA RAY
NPHI.V/V      00 330 00 00         : PHIN         - NEUTRON POROSITY (SANDSTONE)
DPHI.V/V      00 890 00 00         : PHID         - DENSITY POROSITY (SANDSTONE)
ILD .OHMM     00 120 00 00         : RESD         - DEEP RESISTIVITY (DIL)
~PARAMETER INFORMATION
#MNEM.UNIT           DATA             DESCRIPTION OF MNEMONIC
#---------         -----------     ------------------------------
GL  .M        475.8                : gl           - GROUND LEVEL ELEVATION
EREF.M        475.8                : kb           - ELEVATION OF DEPTH REFERENCE
DATM.M        475.8                : datum        - DATUM ELEVATION
TDD .M        256.7                : tdd          - TOTAL DEPTH DRILLER
RUN .         ONE                  : Run          - RUN NUMBER
ENG .         BILL                 : Engineer     - RECORDING ENGINEER
WIT .         JIM                  : Witness      - WITNESSED BY
MUD .         GEL                  : Mud_type     - MUD TYPE
MATR.         SANDSTONE            : Logunit      - NEUTRON MATRIX
TMAX.C        16                   : BHT          - MAXIMUM RECORDED TEMPERATURE
BHTD.M        256.7                : BHTDEP       - MAXIMUM RECORDED TEMPERATURE
RMT .C        14                   : MDTP         - TEMPERATURE OF MUD
MUDD.KG/M     1070                 : MWT          - MUD DENSITY
NEUT.         1                    : NEUTRON      - NEUTRON TYPE
RESI.         0                    : RESIST       - RESISTIVITY TYPE
RM  .OHMM     4.5                  : RM           - RESISTIVITY OF MUD
RMC .OHMM     4.5                  : RMC          - RESISTIVITY OF MUD CAKE
RMF .OHMM     4.5                  : RMF          - RESISTIVITY OF MUD FILTRATE
SUFT.C        4                    : SUFT         - SURFACE TEMPERATURE
~A  DEPTH      CAL       GR     PHIN     PHID     RESD
   75.000  158.406   57.795    0.519    0.426   84.898
   75.250  156.500   55.441    0.526    0.433   81.471
   75.500  163.495   60.243    0.535    0.447   79.268
   75.750  177.454   73.393    0.486    0.431   78.207
   76.000  153.696   78.800    0.465    0.357   76.117
   76.250  151.790   75.265    0.478    0.372   76.153
   76.500  160.770   79.462    0.493    0.427   75.159
   76.750  171.752   89.624    0.505    0.438   74.153
   77.000  188.704  109.919    0.539    0.376   71.183
   77.250  205.641  109.362    0.561    0.321   69.258
   77.500  186.861  107.632    0.572    0.291   67.396
   77.750  184.924  107.651    0.578    0.282   64.675
   78.000  181.033  110.080    0.583    0.311   64.706
   78.250  179.126  109.513    0.588    0.317   64.758
   78.500  177.173  104.787    0.591    0.314   64.789
   78.750  176.259  106.016    0.595    0.313   64.851
   79.000  175.330   97.717    0.597    0.311   64.882
   79.250  175.378   93.586    0.600    0.280   64.924
   79.500  174.448   96.015    0.579    0.279   65.899
   79.750  174.559   96.053    0.534    0.307   65.941
   80.000  174.590   99.655    0.526    0.300   65.962
   80.250  174.638  102.084    0.535    0.291   65.111
   80.500  179.711   96.753    0.547    0.291   65.132
   80.750  179.743   92.027    0.543    0.298   66.110
   81.000  178.814   85.514    0.536    0.304   67.060
   81.250  176.892   78.415    0.521    0.304   69.981
   81.500  154.142   76.061    0.504    0.281   75.083
   81.750  153.213   70.144    0.486    0.299   80.544
   82.000  153.244   57.676    0.465    0.300   91.375
   82.250  156.301   52.949    0.347    0.241   91.433
   82.500  153.387   70.258    0.376    0.065   81.832
   82.750  150.472   85.789    0.406    0.187   75.311
   83.000  149.575   94.760    0.439    0.221   66.491
   83.250  149.606  101.349    0.466    0.279   62.052
   83.500  149.685   99.600    0.494    0.292   59.538
   83.750  149.748   97.256    0.530    0.290   57.125
   84.000  149.827   96.698    0.541    0.296   55.598
   84.250  149.859   99.723    0.533    0.288   54.095
   84.500  148.946   89.032    0.541    0.282   51.192
   84.750  149.025   86.688    0.552    0.296   48.446
   85.000  149.056   90.299    0.555    0.304   47.143
   85.250  149.119   97.493    0.480    0.304   49.896
   85.500  148.190  108.250    0.480    0.310   55.048
   85.750  148.269  101.738    0.512    0.317   57.437
   86.000  148.317   98.221    0.523    0.316   57.492
   86.250  147.419  101.813    0.512    0.323   57.510
   86.500  146.474   98.278    0.512    0.333   57.547
   86.750  145.560   87.597    0.536    0.300   57.584
   87.000  143.623   85.262    0.534    0.306   57.620
   87.250  137.730   73.380    0.505    0.102   56.062
   87.500  133.823   68.653    0.537    0.033   53.054
   87.750  131.917   66.895    0.579   -0.030   50.208
   88.000  131.965   61.573    0.595   -0.026   48.865
   88.250  132.060   55.060    0.561   -0.055   48.889
   88.500  133.084   55.098    0.494   -0.063   48.936
   88.750  133.179   70.630    0.466   -0.039   49.647
   89.000  134.219   96.294    0.496    0.016   50.376
   89.250  134.266   96.323    0.522    0.385   51.108
   89.500  136.314   98.743    0.545    0.414   52.587
   89.750  140.348   99.376    0.563    0.445   54.870
   90.000  142.412   90.481    0.546    0.447   56.467
   90.250  141.483   83.978    0.540    0.357   58.926
   90.500  139.577   86.398    0.543    0.330   62.357
   90.750  138.631   88.213    0.540    0.312   64.152
   91.000  139.687   87.665    0.515    0.331   66.936
   91.250  139.766   85.916    0.508    0.240   69.840
   91.500  135.859   84.763    0.514    0.175   73.882
   91.750  132.961   86.578    0.476    0.226   76.021
   92.000  132.992   86.021    0.472    0.372   67.096
   92.250  139.027   92.609    0.504    0.311   58.408
   92.500  141.059  101.590    0.511    0.340   54.509
   92.750  138.161  111.156    0.538    0.353   53.035
   93.000  137.215  107.630    0.572    0.349   51.617
   93.250  139.264  102.309    0.590    0.363   50.926
   93.500  145.314  101.742    0.574    0.366   51.683
   93.750  151.317  106.544    0.584    0.381   53.170
   94.000  158.328  105.986    0.566    0.339   57.047
   94.250  151.459  107.234    0.523    0.312   60.358
   94.500  147.536  102.489    0.525    0.323   61.265
   94.750  143.629   92.403    0.529    0.329   64.811
   95.000  141.723   85.890    0.527    0.330   70.513
   95.250  141.771   82.355    0.527    0.356   77.794
   95.500  144.811   82.988    0.488    0.369   78.949
   95.750  148.845   89.577    0.397    0.048   70.648
   96.000  143.961   94.975    0.411    0.166   65.931
   96.250  139.077  102.159    0.450    0.298   61.540
   96.500  137.124  106.970    0.466    0.259   59.885
   96.750  135.202   99.862    0.480    0.262   58.284
   97.000  133.312  104.664    0.474    0.271   58.303
   97.250  133.343  103.511    0.472    0.263   56.753
   97.500  133.407   99.976    0.475    0.257   56.781
   97.750  134.462  100.609    0.488    0.272   56.808
   98.000  134.557  102.443    0.504    0.273   56.844
   98.250  135.597  100.090    0.493    0.263   59.311
   98.500  135.645  100.128    0.485    0.262   61.885
   98.750  135.708  100.166    0.489    0.240   63.676
   99.000  135.771   99.022    0.484    0.270   63.727
   99.250  135.834  101.442    0.473    0.281   64.673
   99.500  134.937   94.324    0.482    0.282   67.480
   99.750  134.023   84.834    0.490    0.275   69.422
  100.000  133.078   83.085    0.491    0.313   74.507
  100.250  131.140   87.291    0.486    0.384   76.639
  100.500  130.211   76.610    0.473    0.168   78.857
  100.750  128.305   74.266    0.468    0.281   76.737
  101.000  127.376   80.855    0.451    0.315   70.633
  101.250  127.439   85.061    0.449    0.309   67.772
  101.500  127.486   85.099    0.453    0.308   65.036
  101.750  127.550   92.293    0.466    0.311   62.431
  102.000  127.613   97.095    0.481    0.312   60.733
  102.250  129.661   92.369    0.491    0.285   59.119
  102.500  130.717   93.617    0.483    0.281   58.319
  102.750  130.796   92.445    0.468    0.274   57.548
  103.000  131.852   91.311    0.467    0.272   57.594
  103.250  131.931   91.925    0.473    0.258   59.270
  103.500  130.970   88.985    0.479    0.269   61.832
  103.750  131.049   85.450    0.472    0.282   65.422
  104.000  131.128   81.319    0.459    0.298   65.463
  104.250  130.199   77.188    0.452    0.308   62.821
  104.500  130.246   81.991    0.450    0.306   59.460
  104.750  130.309   87.388    0.469    0.310   58.664
  105.000  129.380   94.573    0.481    0.307   57.889
  105.250  129.459  107.722    0.495    0.293   61.249
  105.500  129.506   88.693    0.502    0.300   66.638
  105.750  128.577   78.607    0.491    0.316   76.660
  106.000  128.656   68.521    0.480    0.333   82.262
  106.250  128.719   64.390    0.402    0.166   80.051
  106.500  128.767   71.575    0.331    0.187   74.694
  106.750  128.830   87.701    0.394    0.172   68.753
  107.000  128.909   84.762    0.446    0.252   66.894
  107.250  128.956   80.035    0.476    0.326   64.214
  107.500  129.035   78.892    0.484    0.332   62.478
  107.750  130.091   82.493    0.457    0.314   60.788
  108.000  131.147   84.318    0.447    0.312   59.154
  108.250  131.210   87.929    0.463    0.295   58.372
  108.500  132.266   81.425    0.468    0.266   56.821
  108.750  132.345   85.027    0.459    0.289   56.052
  109.000  134.378   92.212    0.465    0.296   53.815
  109.250  137.450  101.787    0.490    0.301   52.351
  109.500  139.467  101.825    0.504    0.303   51.651
  109.750  143.500   96.504    0.520    0.311   49.566
  110.000  149.535   92.968    0.530    0.322   48.919
  110.250  152.560   94.793    0.541    0.306   49.645
  110.500  151.662   91.853    0.548    0.296   50.367
  110.750  147.739   85.340    0.516    0.296   51.825
  111.000  142.824   82.400    0.485    0.240   52.594
  111.250  139.925   88.989    0.457    0.244   53.359
