~VERSION INFORMATION
 VERS.                 2.0:   CWLS LOG ASCII STANDARD -VERSION 2.0
 WRAP.                  NO:   ONE LINE PER DEPTH STEP
~WELL INFORMATION BLOCK
#MNEM.UNIT           DATA                    DESCRIPTION OF MNEMONIC
#---------    -------------------            -------------------------------
# Generated from Intellog Unique Number	CN_91_93/WELL/2691
WELL.         PETRO CANADA                   : Well_name    - WELL
LOC .         AA/10-29-091-15W4/0            : Location     - LOCATION
UWI .         AA/10-29-091-15W400            : Uwi          - UNIQUE WELL ID
ENTR.         JOETTE                         : Entered      - ENTERED BY
SRVC.         SCHLUMBERGER                   : Scn          - SERVICE COMPANY
DATE.         02/06/92                       : Date         - LOG DATE
STRT.F        250                            : top_depth    - START DEPTH
STOP.F        700.295                        : bot_depth    - STOP DEPTH
STEP.F        0.82                           : increment    - STEP LENGTH
 NULL. -999.2500:NULL Value
~CURVE INFORMATION BLOCK
#MNEM UNIT       ERCB CURVE CODE    CURVE DESCRIPTION
#-----------   ------------------   ----------------------------------
DEPT.F        00 001 00 00         : DEPTH        - DEPTH
GR  .API      00 310 00 00         : GR           - GAMMA RAY
CALI.MM       00 280 01 00         : CAL          - CALIPER
NPHI.V/V      00 330 00 00         : PHIN         - NEUTRON POROSITY (SANDSTONE)
DPHI.V/V      00 890 00 00         : PHID         - DENSITY POROSITY (SANDSTONE)
ILD .OHMM     00 120 00 00         : RESD         - DEEP RESISTIVITY (DIL)
~PARAMETER INFORMATION
#MNEM.UNIT           DATA             DESCRIPTION OF MNEMONIC
#---------         -----------     ------------------------------
GL  .M        479.755              : gl           - GROUND LEVEL ELEVATION
EREF.M        480.974              : kb           - ELEVATION OF DEPTH REFERENCE
DATM.M        480.974              : datum        - DATUM ELEVATION
TDD .M        100.584              : tdd          - TOTAL DEPTH DRILLER
RUN .         ONE                  : Run          - RUN NUMBER
ENG .         BILL                 : Engineer     - RECORDING ENGINEER
WIT .         JIM                  : Witness      - WITNESSED BY
MUD .         GEL                  : Mud_type     - MUD TYPE
MATR.         SANDSTONE            : Logunit      - NEUTRON MATRIX
TMAX.C        8.88889              : BHT          - MAXIMUM RECORDED TEMPERATURE
BHTD.M        100.584              : BHTDEP       - MAXIMUM RECORDED TEMPERATURE
RMT .C        9.44444              : MDTP         - TEMPERATURE OF MUD
MUDD.KG/M     8600                 : MWT          - MUD DENSITY
NEUT.         1                    : NEUTRON      - NEUTRON TYPE
RESI.         0                    : RESIST       - RESISTIVITY TYPE
RM  .OHMM     0.787                : RM           - RESISTIVITY OF MUD
RMC .OHMM     9.8                  : RMC          - RESISTIVITY OF MUD CAKE
RMF .OHMM     0.678                : RMF          - RESISTIVITY OF MUD FILTRATE
SUFT.C        4                    : SUFT         - SURFACE TEMPERATURE
~A  DEPTH       GR      CAL     PHIN     PHID     RESD
# ...
  609.252   49.512  137.019    0.447    0.300   48.836
  610.072   47.433  137.030    0.434    0.299   48.836
  610.892   48.930  136.544    0.426    0.302   50.195
  611.713   49.531  137.049    0.421    0.307   52.545
  612.533   48.346  137.060    0.436    0.301   47.081
  613.353   47.457  137.070    0.441    0.280   42.965
  614.173   47.761  137.082    0.427    0.270   38.147
  614.993   50.746  137.587    0.416    0.249   32.354
  615.814   54.924  137.597    0.406    0.240   30.626
  616.634   60.590  137.111    0.405    0.245   30.626
  617.454   81.746  137.122    0.411    0.244   30.347
  618.274   90.691  137.132    0.418    0.221   29.257
  619.094   91.888  137.142    0.421    0.218   26.456
  619.915   92.490  137.155    0.449    0.216   27.192
  620.735   83.856  137.167    0.460    0.213   37.114
  621.555   68.075  137.174    0.450    0.215   38.147
  622.375   63.910  137.186    0.418    0.240   42.574
  623.196   64.513  136.701    0.411    0.290   46.652
  624.016   66.008  136.711    0.427    0.283   47.951
  624.836   68.696  136.720    0.422    0.280   45.806
  625.656   72.873  137.722    0.424    0.279   42.574
  626.476   78.540  138.726    0.450    0.275   38.851
  627.297   80.035  139.730    0.458    0.271   36.776
  628.117   82.723  140.237    0.458    0.267   35.780
  628.937   83.919  141.242    0.447    0.265   34.811
  629.757   84.820  142.740    0.434    0.247   32.952
  630.577   81.548  143.247    0.420    0.241   28.990
  631.398   81.556  142.264    0.408    0.252   20.665
  632.218   84.838  140.786    0.402    0.239   19.031
  633.038   94.675  139.306    0.415    0.219   17.527
  633.858  103.618  139.318    0.422    0.241   17.688
  634.678   97.070  139.328    0.426    0.254   20.665
  635.499   88.141  137.849    0.413    0.258   26.456
  636.319   76.528  132.895    0.400    0.258   32.952
  637.139   61.044  131.913    0.397    0.270   38.497
  637.959   55.092  132.916    0.407    0.297   46.227
  638.780   55.099  134.914    0.414    0.291   46.652
  639.600   81.916  135.420    0.418    0.289   37.455
  640.420   92.050  132.449    0.430    0.298   33.869
  641.240   88.483  129.482    0.443    0.261   30.626
  642.060   84.616  129.989    0.427    0.288   32.354
  642.881   78.664  130.991    0.419    0.286   39.569
  643.701   76.585  131.500    0.409    0.273   47.514
  644.521   77.783  132.004    0.407    0.262   66.049
  645.341   69.150  136.485    0.412    0.288   74.391
  646.161   56.049  140.964    0.420    0.291   86.119
  646.982   50.693  144.450    0.433    0.296   90.150
  647.802   47.422  145.454    0.436    0.311   89.329
  648.622   45.045  144.470    0.419    0.305   84.558
  649.442   45.945  142.493    0.408    0.289   70.418
  650.262   54.294  140.021    0.398    0.263   44.160
  651.083   71.875  137.054    0.383    0.255   36.109
  651.903   90.350  135.575    0.387    0.257   33.869
  652.723   97.208  133.103    0.394    0.219   27.948
  653.543  103.471  133.611    0.392    0.206   18.516
  654.364  109.732  134.614    0.388    0.192   16.290
  655.184  114.505  136.114    0.387    0.183   15.562
  656.004  117.192  138.110    0.385    0.191   15.002
  656.824  112.730  140.105    0.374    0.207   14.866
  657.644  110.056  142.101    0.382    0.218   15.002
  658.465  113.636  142.608    0.397    0.205   16.142
  659.285  117.217  142.123    0.395    0.192   17.367
  660.105  109.478  141.139    0.403    0.226   18.180
  660.925  102.037  137.179    0.449    0.248   18.686
  661.745   92.213  133.715    0.433    0.261   21.240
  662.566   89.836  133.228    0.414    0.242   21.240
  663.386   89.544  134.730    0.411    0.227   25.273
  664.206   91.041  134.738    0.408    0.241   25.273
  665.026   91.940  133.755    0.403    0.262   20.105
  665.846   92.542  130.293    0.408    0.274   19.561
  666.667   91.358  128.811    0.404    0.274   20.665
  667.487   88.384  127.332    0.417    0.261   22.439
  668.307   85.711  127.345    0.435    0.256   26.456
  669.127   85.418  127.850    0.438    0.275   27.192
  669.948   85.126  128.853    0.441    0.281   27.948
  670.768   84.834  129.360    0.445    0.292   28.726
  671.588   82.757  126.392    0.449    0.317   30.908
  672.408   79.783  124.416    0.444    0.320   31.768
  673.228   80.088  123.930    0.428    0.298   30.347
  674.049   79.795  123.940    0.425    0.287   25.505
  674.869   80.397  124.448    0.444    0.265   20.290
  675.689   91.128  124.457    0.422    0.233   18.180
  676.509   99.773  124.467    0.418    0.199   15.705
  677.329  103.950  126.465    0.405    0.174   14.730
  678.150  109.913  129.455    0.405    0.179   14.332
  678.970  117.070  131.453    0.409    0.183   14.201
  679.790  115.884  133.944    0.402    0.169   14.463
  680.610  112.912  137.925    0.402    0.207   15.002
  681.430  110.535  141.411    0.407    0.236   15.995
  682.251  113.818  137.449    0.441    0.268   17.209
  683.071   98.631  131.503    0.450    0.295   17.367
  683.891   99.234  134.491    0.451    0.278   16.142
  684.711  101.921  137.977    0.450    0.248   15.705
  685.531  104.608  139.477    0.448    0.206   16.440
  686.352  103.124  139.488    0.444    0.184   18.180
  687.172   88.535  138.010    0.431    0.152   22.853
  687.992   79.901  136.033    0.405    0.070   26.699
  688.812   63.524  134.059    0.325    0.025   34.494
  689.633   56.976  136.552    0.285   -0.012   42.186
  690.453   50.132  139.542    0.219   -0.005   46.227
  691.273   48.948  140.544    0.176   -0.010   48.391
  692.093   49.250  141.050    0.170    0.007   48.391
  692.913   45.980  141.557    0.152    0.000   48.836
  693.734   43.008  141.568    0.148    0.006   49.738
  694.554   43.908  141.568    0.153    0.010   44.566
  695.374   44.807  142.090    0.158    0.005   40.299
  696.194   46.004  143.090    0.173    0.008   40.299
  697.014   48.394  143.595    0.179    0.002   40.299
  697.835   51.975  144.102    0.191    0.011   41.421
  698.655   54.662  144.112    0.192   -0.001   38.851
  699.475   55.562  144.619    0.186    0.012   36.441
  700.295   55.271  145.127    0.181    0.005   34.494
