~VERSION INFORMATION
 VERS.                 2.0:   CWLS LOG ASCII STANDARD -VERSION 2.0
 WRAP.                  NO:   ONE LINE PER DEPTH STEP
~WELL INFORMATION BLOCK
#MNEM.UNIT           DATA                    DESCRIPTION OF MNEMONIC
#---------    -------------------            -------------------------------
# Generated from Intellog Unique Number	CC_80_83/WELL/2372
NULL.         -999.25                        : NULL_VALUE
WELL.         PEX PCEJU KEANE OV             : Well_name    - WELL              
LOC .         10-26-080-14W4                 : Location     - LOCATION          
UWI .         AA/10-26-080-14W4/0            : Uwi          - UNIQUE WELL ID    
ENTR.         DW                             : Entered      - ENTERED BY        
SRVC.         SCHLUMBERGER                   : Scn          - SERVICE COMPANY   
DATE.         25 JAN 81                      : Date         - LOG DATE
STRT.M        240                            : top_depth    - START DEPTH       
STOP.M        484.791                        : bot_depth    - STOP DEPTH        
STEP.M        0.3                            : increment    - STEP LENGTH       
~CURVE INFORMATION BLOCK
#MNEM UNIT       ERCB CURVE CODE    CURVE DESCRIPTION
#-----------   ------------------   ----------------------------------
DEPT.M        00 001 00 00         : DEPTH        - DEPTH                       
DPHI.V/V      00 890 00 00         : PHID         - DENSITY POROSITY (LIMESTONE)
NPHI.V/V      00 330 00 00         : PHIN         - NEUTRON POROSITY (LIMESTONE)
GR  .API      00 310 00 00         : GR           - GAMMA RAY                   
ILD .OHMM     00 120 00 00         : RESD         - DEEP RESISTIVITY (DIL)      
~PARAMETER INFORMATION       
#MNEM.UNIT           DATA             DESCRIPTION OF MNEMONIC
#---------         -----------     ------------------------------
GL  .M        669.37               : gl           - GROUND LEVEL ELEVATION      
EREF.M        672.27               : kb           - ELEVATION OF DEPTH REFERENCE
DATM.M        672.27               : datum        - DATUM ELEVATION             
TDD .M        492                  : tdd          - TOTAL DEPTH DRILLER         
RUN .         ONE                  : Run          - RUN NUMBER                  
ENG .         BILL                 : Engineer     - RECORDING ENGINEER          
WIT .         JIM                  : Witness      - WITNESSED BY                
MUD .         GEL                  : Mud_type     - MUD TYPE                    
MATR.         LIMESTONE            : Logunit      - NEUTRON MATRIX              
TMAX.C        28                   : BHT          - MAXIMUM RECORDED TEMPERATURE
BHTD.M        492                  : BHTDEP       - MAXIMUM RECORDED TEMPERATURE
MATR.         1                    : LOGUNIT      - NEUTRON MATRIX              
RMT .C        25                   : MDTP         - TEMPERATURE OF MUD          
NEUT.         1                    : NEUTRON      - NEUTRON TYPE                
RESI.         0                    : RESIST       - RESISTIVITY TYPE            
RMC .OHMM     0.25                 : RMC          - RESISTIVITY OF MUD CAKE     
RMF .OHMM     0.25                 : RMF          - RESISTIVITY OF MUD FILTRATE 
SUFT.C        4                    : SUFT         - SURFACE TEMPERATURE         
~A  DEPTH     PHID     PHIN       GR     RESD
# ...
  396.594    0.253    0.447   80.700    7.437
  396.894    0.264    0.459   83.849    7.586
  397.194    0.268    0.408   90.149    8.046
  397.494    0.262    0.369   93.928    9.043
  397.794    0.248    0.346   97.708   11.633
  398.094    0.221    0.294   93.924   13.854
  398.394    0.019    0.232   68.081   14.413
  398.694    0.051    0.206   54.843   13.354
  398.994    0.087    0.217   69.337   12.371
  399.294    0.150    0.304   76.898   10.817
  399.594    0.203    0.392   86.979    9.277
  399.894    0.248    0.478  102.415    8.112
  400.194    0.243    0.468  101.137    7.661
  400.494    0.258    0.472   84.873    7.238
  400.794    0.275    0.469   96.084    7.386
  401.094    0.267    0.471   96.679    7.683
  401.394    0.284    0.498   96.029    7.839
  401.694    0.313    0.470   91.631    7.846
  401.994    0.325    0.451   95.972    7.704
  402.294    0.352    0.480  104.687    7.418
  402.594    0.410    0.495  103.409    6.362
  402.894    0.420    0.500   94.016    5.671
  403.194    0.379    0.487   96.483    4.864
  403.494    0.303    0.495  101.451    4.594
  403.794    0.300    0.511  112.666    4.688
  404.094    0.307    0.510  110.136    4.876
  404.394    0.353    0.535  110.108    5.376
  404.694    0.393    0.517  114.454    6.402
  404.994    0.305    0.534  110.678    7.335
  405.294    0.321    0.490   91.913    8.086
  405.594    0.378    0.479   93.124    8.743
  405.894    0.343    0.454   91.853   10.018
  406.194    0.287    0.387   89.958   11.259
  406.494    0.049    0.326   79.940   11.487
  406.794    0.101    0.254   59.303   11.278
  407.094    0.229    0.367   63.642   10.449
  407.394    0.249    0.435   76.730    8.458
  407.694    0.224    0.487  107.303    7.988
  407.994    0.226    0.502  107.275    7.995
  408.294    0.232    0.491   97.876    8.480
  408.594    0.237    0.475   94.105    8.996
  408.894    0.232    0.502  105.318    9.359
  409.194    0.186    0.505  107.787    9.924
  409.494    0.184    0.480   99.636   10.524
  409.794    0.164    0.426  106.483   11.162
  410.094    0.167    0.396  105.828   11.390
  410.394    0.250    0.406  100.804   10.351
  410.694    0.275    0.430  112.015    9.226
  410.994    0.302    0.443  115.106    8.224
  411.294    0.306    0.487  115.707    7.191
  411.594    0.282    0.509  129.419    6.411
  411.894    0.271    0.495  104.412    5.825
  412.194    0.270    0.498  103.755    4.715
  412.494    0.279    0.520  124.963    2.912
  412.794    0.304    0.534  111.193    2.596
  413.094    0.357    0.591   99.927    2.862
  413.394    0.329    0.601  107.388    3.343
  413.694    0.284    0.605  107.365    4.137
  413.994    0.259    0.578   93.597    4.834
  414.294    0.264    0.472   92.319    6.588
  414.594    0.268    0.452   89.169    7.696
  414.894    0.275    0.447   92.886    8.484
  415.194    0.289    0.456   90.985    8.328
  415.494    0.287    0.492   79.718    7.006
  415.794    0.206    0.487   85.932    6.246
  416.094    0.201    0.468   87.150    5.787
  416.394    0.226    0.483   92.125    5.258
  416.694    0.266    0.511  110.828    4.967
  416.994    0.261    0.479  119.545    5.269
  417.294    0.257    0.482  115.145    5.376
  417.594    0.260    0.484  105.119    5.278
  417.894    0.271    0.510  102.601    4.889
  418.194    0.281    0.486  103.192    4.443
  418.494    0.288    0.506  103.788    4.279
  418.794    0.297    0.495  107.511    4.043
  419.094    0.287    0.511  115.602    4.125
  419.394    0.280    0.509  108.079    4.128
  419.694    0.272    0.531  116.793    4.295
  419.993    0.270    0.505  121.762    4.382
  420.293    0.263    0.511  109.243    4.559
  420.593    0.197    0.531  101.720    4.743
  420.893    0.274    0.459  110.437    5.129
  421.193    0.285    0.478  130.389    5.334
  421.493    0.290    0.498  118.499    5.658
  421.793    0.275    0.492  124.091    6.482
  422.093    0.293    0.483  119.690    7.720
  422.393    0.263    0.453  108.418    9.556
  422.693    0.232    0.424   97.153   10.135
  422.993    0.336    0.419   90.880   10.749
  423.293    0.374    0.468   95.847   10.757
  423.593    0.272    0.496   92.073   10.163
  423.893    0.286    0.424   88.295    9.786
  424.193    0.308    0.440  100.136    9.243
  424.493    0.318    0.481  104.475    7.775
  424.793    0.319    0.477   97.573    8.738
  425.093    0.275    0.463   93.176    7.941
  425.393    0.185    0.415   88.782    9.099
  425.693    0.186    0.347   78.138   13.400
  425.993    0.247    0.367   76.235   19.733
  426.293    0.247    0.336   69.958   26.387
  426.593    0.308    0.402   64.939   30.823
  426.893    0.252    0.371   44.926   33.978
  427.193    0.243    0.368   50.513   33.353
  427.493    0.258    0.393   54.860   30.903
  427.793    0.248    0.386   62.322   28.633
  428.093    0.230    0.400   67.920   26.023
  428.393    0.223    0.417   74.135   23.646
  428.693    0.263    0.423   84.101   20.676
  428.993    0.272    0.423  112.175   18.079
  429.293    0.252    0.441  123.384   19.175
  429.593    0.254    0.440  116.490   22.398
  429.893    0.262    0.417   95.229   26.159
  430.193    0.198    0.358   86.458   40.821
  430.493    0.213    0.361   85.804   42.468
  430.793    0.227    0.378  101.389   36.424
  431.093    0.227    0.390   96.989   30.642
  431.393    0.227    0.393  106.328   26.789
  431.693    0.225    0.388  110.672   28.967
  431.993    0.225    0.382   90.035   35.169
  432.293    0.226    0.367   84.386   42.698
  432.593    0.232    0.363   78.111   52.851
  432.893    0.271    0.376   61.842   50.896
  433.193    0.293    0.407   63.691   45.371
  433.493    0.280    0.415   68.662   41.227
  433.793    0.249    0.407   76.751   36.758
  434.093    0.226    0.398   90.460   33.407
  434.393    0.230    0.397   93.552   30.947
  434.693    0.234    0.406  101.645   29.227
  434.993    0.231    0.360   86.631   26.562
  435.293    0.225    0.373   95.346   25.580
  435.593    0.222    0.415  109.057   24.634
  435.893    0.230    0.387  105.906   24.181
  436.193    0.247    0.374   94.632   24.676
  436.493    0.234    0.366   97.103   27.202
  436.793    0.231    0.358   87.704   29.987
  437.093    0.248    0.349   87.680   34.358
  437.393    0.259    0.351   92.645   40.135
  437.693    0.259    0.350   87.001   46.882
  437.993    0.269    0.338   80.724   56.919
  438.293    0.291    0.330   75.706   67.772
  438.593    0.279    0.334   45.076   65.266
  438.893    0.274    0.345   51.914   58.181
  439.193    0.266    0.419   62.506   48.946
  439.493    0.256    0.393   59.980   41.170
  439.793    0.235    0.374   69.945   35.310
  440.093    0.216    0.392   91.148   30.875
  440.393    0.180    0.383   96.741   28.060
  440.693    0.234    0.379   86.718   28.081
  440.993    0.236    0.411   96.685   27.043
  441.293    0.231    0.412   88.533   24.107
  441.593    0.245    0.413   94.751   22.772
  441.893    0.316    0.411  110.333   23.238
  442.193    0.311    0.439   99.067   25.122
  442.493    0.312    0.429   91.548   28.784
  442.793    0.269    0.392   70.280   34.279
  443.093    0.259    0.398   73.380   39.276
  443.393    0.242    0.391   79.595   33.042
  443.693    0.212    0.386   87.064   30.024
  443.993    0.206    0.387  103.272   26.765
  444.293    0.200    0.390  113.861   22.955
  444.592    0.196    0.391  101.342   18.225
  444.892    0.201    0.375  108.808   16.883
  445.192    0.221    0.369  130.014   17.910
  445.492    0.247    0.401  129.980   19.740
  445.792    0.221    0.445  103.728   22.617
  446.092    0.199    0.420   98.079   27.460
  446.392    0.227    0.405  101.799   29.125
  446.692    0.232    0.404  103.643   28.589
  446.992    0.240    0.405  109.855   25.987
  447.292    0.260    0.400  108.584   25.026
  447.592    0.245    0.382  111.053   24.096
  447.892    0.256    0.369  117.271   25.557
  448.192    0.303    0.379  117.239   29.283
  448.492    0.355    0.373  107.220   32.904
