~VERSION INFORMATION
 VERS.                 2.0:   CWLS LOG ASCII STANDARD -VERSION 2.0
 WRAP.                  NO:   ONE LINE PER DEPTH STEP
~WELL INFORMATION BLOCK
#MNEM.UNIT           DATA                    DESCRIPTION OF MNEMONIC
#---------    -------------------            -------------------------------
# Generated from Intellog Unique Number	CW_82_90/WELL/1035
WELL.         14-17-082-21W4                 : Well_name    - WELL
LOC .         AA/14-17-082-21W4/0            : Location     - LOCATION
UWI .         AA/14-17-082-21W4/0            : Uwi          - UNIQUE WELL ID
ENTR.         JAYE                           : Entered      - ENTERED BY
SRVC.         SCHLUMBERGER                   : Scn          - SERVICE COMPANY
DATE.         1FEB 82                        : Date         - LOG DATE
STRT.M        220                            : top_depth    - START DEPTH
STOP.M        445                            : bot_depth    - STOP DEPTH
STEP.M        0.25                           : increment    - STEP LENGTH
 NULL. -999.2500:NULL Value
~CURVE INFORMATION BLOCK
#MNEM UNIT       ERCB CURVE CODE    CURVE DESCRIPTION
#-----------   ------------------   ----------------------------------
DEPT.M        00 001 00 00         : DEPTH        - DEPTH
CALI.MM       00 280 01 00         : CAL          - CALIPER
GR  .API      00 310 00 00         : GR           - GAMMA RAY
NPHI.V/V      00 330 00 00         : PHIN         - NEUTRON POROSITY (SANDSTONE)
DPHI.V/V      00 890 00 00         : PHID         - DENSITY POROSITY (SANDSTONE)
ILD .OHMM     00 120 00 00         : RESD         - DEEP RESISTIVITY (DIL)
~PARAMETER INFORMATION
#MNEM.UNIT           DATA             DESCRIPTION OF MNEMONIC
#---------         -----------     ------------------------------
GL  .M        619.5                : gl           - GROUND LEVEL ELEVATION
EREF.M        623.9                : kb           - ELEVATION OF DEPTH REFERENCE
DATM.M        619.5                : datum        - DATUM ELEVATION
TDD .M        453.5                : tdd          - TOTAL DEPTH DRILLER
RUN .         ONE                  : Run          - RUN NUMBER
ENG .         VANDENBRINK          : Engineer     - RECORDING ENGINEER
WIT .         WALKER               : Witness      - WITNESSED BY
BASE.         EDMONTON             : Branch       - HOME BASE OF LOGGING UNIT
MUD .         GEL CHEM             : Mud_type     - MUD TYPE
MATR.         SANDSTONE            : Logunit      - NEUTRON MATRIX
TMAX.C        22.2                 : BHT          - MAXIMUM RECORDED TEMPERATURE
BHTD.M        453.5                : BHTDEP       - MAXIMUM RECORDED TEMPERATURE
RMT .C        20.5                 : MDTP         - TEMPERATURE OF MUD
MUDD.KG/M     1070                 : MWT          - MUD DENSITY
NEUT.         1                    : NEUTRON      - NEUTRON TYPE
RESI.         0                    : RESIST       - RESISTIVITY TYPE
RM  .OHMM     4.89                 : RM           - RESISTIVITY OF MUD
RMC .OHMM     0.25                 : RMC          - RESISTIVITY OF MUD CAKE
RMF .OHMM     4.77                 : RMF          - RESISTIVITY OF MUD FILTRATE
SUFT.C        4                    : SUFT         - SURFACE TEMPERATURE
~A  DEPTH      CAL       GR     PHIN     PHID     RESD
# ...
  402.500  168.779  104.611    0.363    0.208   21.383
  402.750  167.213  103.056    0.374    0.196   22.007
  403.000  166.582  105.052    0.383    0.205   21.446
  403.250  165.950  106.548    0.393    0.222   20.939
  403.500  165.837  103.560    0.401    0.233   21.388
  403.750  165.514  101.818    0.401    0.236   22.515
  404.000  164.884   87.804    0.399    0.234   24.985
  404.250  164.976   72.358    0.333    0.241   27.988
  404.500  165.071   59.465    0.295    0.261   31.292
  404.750  164.749   48.192    0.270    0.286   35.250
  405.000  164.534   39.660    0.254    0.306   43.876
  405.250  164.107   38.042    0.243    0.303   50.461
  405.500  164.098   35.989    0.246    0.296   58.256
  405.750  164.086   34.620    0.279    0.303   58.284
  406.000  163.663   37.426    0.311    0.299   54.191
  406.250  163.134   38.736    0.334    0.298   52.807
  406.500  163.126   39.236    0.361    0.298   50.311
  406.750  163.011   40.671    0.367    0.302   46.597
  407.000  163.003   43.476    0.371    0.302   42.837
  407.250  163.095   46.032    0.383    0.294   40.126
  407.500  163.500   47.031    0.416    0.296   36.403
  407.750  163.804   46.722    0.423    0.304   34.228
  408.000  164.104   49.589    0.416    0.315   30.645
  408.250  164.095   54.886    0.405    0.323   27.439
  408.500  164.189   63.049    0.407    0.307   22.276
  408.750  164.283   74.388    0.402    0.243   17.882
  409.000  165.104   82.987    0.379    0.162   13.824
  409.250  170.383   97.877    0.369    0.133   10.748
  409.500  173.383   99.685    0.367    0.153    7.912
  409.750  175.031   97.756    0.380    0.177    7.342
  410.000  175.645   95.017    0.390    0.185    6.865
  410.250  176.050   95.331    0.395    0.197    5.776
  410.500  174.692  108.414    0.404    0.211    4.734
  410.750  172.815  117.449    0.435    0.226    3.779
  411.000  171.870  114.150    0.476    0.242    2.888
  411.250  173.002  104.932    0.482    0.217    2.245
  411.500  175.897   98.830    0.449    0.202    3.412
  411.750  177.963   89.363    0.428    0.171    5.274
  412.000  176.085   76.159    0.366    0.117    7.104
  412.250  170.060   88.807    0.304    0.100    7.650
  412.500  170.568  101.018    0.344    0.124    7.697
  412.750  175.742  107.873    0.419    0.157    7.417
  413.000  177.396  112.796    0.448    0.175    6.691
  413.250  177.385  116.909    0.434    0.191    5.957
  413.500  176.337  119.839    0.450    0.216    5.456
  413.750  175.186  119.592    0.474    0.224    4.748
  414.000  174.556  115.856    0.485    0.224    3.870
  414.250  174.857   98.790    0.478    0.220    3.177
  414.500  172.150   84.091    0.467    0.224    4.828
  414.750  169.547   79.795    0.387    0.231    8.873
  415.000  167.566   78.177    0.378    0.230   10.636
  415.250  166.413   80.235    0.370    0.220   14.683
  415.500  165.991   82.106    0.370    0.208   19.744
  415.750  165.356   79.554    0.366    0.201   22.115
  416.000  165.556   74.573    0.359    0.188   23.238
  416.250  165.753   75.322    0.341    0.159   23.514
  416.500  166.365   81.803    0.314    0.140   22.529
  416.750  166.873   88.283    0.385    0.145   20.249
  417.000  167.281   82.679    0.423    0.174   17.725
  417.250  167.995   75.019    0.422    0.195   14.718
  417.500  168.195   86.047    0.373    0.219   12.130
  417.750  168.703   90.908    0.392    0.228   10.421
  418.000  169.006   90.723    0.405    0.219    8.428
  418.250  169.410   85.368    0.387    0.204    8.433
  418.500  169.400   82.504    0.379    0.200    8.202
  418.750  169.287   85.621    0.399    0.215    7.372
  419.000  169.275   91.292    0.425    0.211    6.441
  419.250  169.475   94.284    0.443    0.209    5.575
  419.500  169.362   95.096    0.468    0.201    5.163
  419.750  169.144   95.908    0.458    0.152    5.751
  420.000  168.824  100.520    0.413    0.150    7.447
  420.250  168.605  101.394    0.413    0.163    7.693
  420.500  168.597  101.458    0.421    0.162    7.843
  420.750  168.585  101.647    0.416    0.170    7.643
  421.000  168.577   94.485    0.435    0.188    6.666
  421.250  168.464   80.409    0.437    0.201    5.969
  421.500  168.558   68.140    0.391    0.200    7.656
  421.750  168.445   68.703    0.359    0.189    9.476
  422.000  168.538   70.947    0.355    0.168   11.104
  422.250  169.046   72.943    0.368    0.191   13.162
  422.500  169.659   70.453    0.384    0.211   14.198
  422.750  170.480   73.881    0.367    0.238   14.641
  423.000  171.713   79.863    0.356    0.248   15.470
  423.250  172.741   85.471    0.359    0.227   16.255
  423.500  173.250   79.556    0.369    0.244   15.574
  423.750  173.034   71.460    0.376    0.259   16.119
  424.000  172.297   61.370    0.384    0.271   16.343
  424.250  171.667   67.415    0.389    0.257   16.475
  424.500  171.138   71.840    0.399    0.251   16.484
  424.750  171.334   70.285    0.414    0.260   16.214
  425.000  171.014   70.100    0.394    0.262   16.163
  425.250  171.003   72.843    0.381    0.257   16.171
  425.500  170.683   76.146    0.380    0.249   15.969
  425.750  170.880   77.145    0.377    0.255   15.856
  426.000  171.287   77.272    0.371    0.260   15.569
  426.250  171.692   77.647    0.363    0.254   15.460
  426.500  172.200   78.335    0.354    0.242   15.323
  426.750  172.399   77.589    0.354    0.228   15.189
  427.000  172.388   74.850    0.349    0.227   15.196
  427.250  172.378   71.115    0.332    0.220   15.377
  427.500  172.265   73.235    0.322    0.211   15.619
  427.750  171.943   73.237    0.320    0.210   15.866
  428.000  171.727   74.174    0.320    0.202   15.962
  428.250  171.613   75.920    0.336    0.196   16.001
  428.500  171.604   76.358    0.335    0.201   15.859
  428.750  172.527   74.678    0.325    0.204   15.543
  429.000  173.037   75.179    0.319    0.192   15.261
  429.250  176.136   80.662    0.320    0.195   15.041
  429.500  176.647   83.717    0.343    0.217   14.824
  429.750  176.224   85.338    0.367    0.243   14.555
  430.000  175.798   82.475    0.386    0.244   14.563
  430.250  176.409   80.359    0.398    0.249   14.763
  430.500  176.713   78.119    0.392    0.250   15.109
  430.750  176.703   75.255    0.372    0.242   15.404
  431.000  176.589   69.838    0.364    0.238   15.706
  431.250  176.372   60.807    0.383    0.262   15.862
  431.500  176.052   59.003    0.383    0.284   15.960
  431.750  176.248   64.798    0.374    0.276   16.060
  432.000  176.966   68.164    0.376    0.274   16.068
  432.250  179.548   74.271    0.366    0.280   15.366
  432.500  181.302   88.600    0.361    0.250   13.967
  432.750  181.708   95.455    0.370    0.241   12.887
  433.000  182.320  109.597    0.367    0.230   11.781
  433.250  184.072  128.412    0.345    0.207   10.390
  433.500  185.413  131.217    0.376    0.169    8.531
  433.750  185.195  132.403    0.394    0.156    7.425
  434.000  184.044  130.661    0.411    0.157    7.686
  434.250  183.619  129.355    0.436    0.159    8.061
  434.500  184.647  127.114    0.444    0.154    8.187
  434.750  186.192  121.821    0.424    0.147    8.284
  435.000  187.014  115.096    0.410    0.145    8.655
  435.250  187.107  112.233    0.391    0.157    9.060
  435.500  187.824  112.857    0.374    0.172    9.272
  435.750  191.861  115.787    0.371    0.164    9.207
  436.000  194.028  117.907    0.380    0.145    8.822
  436.250  192.152  121.086    0.387    0.141    8.280
  436.500  187.163  123.331    0.392    0.162    8.207
  436.750  184.767  126.074    0.392    0.184    8.304
  437.000  182.683  125.951    0.384    0.184    8.725
  437.250  180.597  119.101    0.374    0.171    8.929
  437.500  179.654  107.703    0.376    0.172    9.190
  437.750  178.401  108.205    0.371    0.194    9.638
  438.000  176.317  110.012    0.357    0.190    9.863
  438.250  172.988  103.598    0.338    0.179   10.131
  438.500  172.874  101.856    0.333    0.184   10.349
  438.750  173.798  102.232    0.338    0.199   10.671
