~VERSION INFORMATION
 VERS.                 2.0:   CWLS LOG ASCII STANDARD -VERSION 2.0
 WRAP.                  NO:   ONE LINE PER DEPTH STEP
~WELL INFORMATION BLOCK
#MNEM.UNIT           DATA                    DESCRIPTION OF MNEMONIC
#---------    -------------------            -------------------------------
# Generated from Intellog Unique Number	CX_WELLS/WELL/3217
WELL.         ATLANTIC RICHFIELD             : Well_name    - WELL
LOC .         AA/10-11-083-11W4/0            : Location     - LOCATION
UWI .         AA/10-11-083-11W4/0            : Uwi          - UNIQUE WELL ID
ENTR.         T                              : Entered      - ENTERED BY
SRVC.         SCHLUMBERGER                   : Scn          - SERVICE COMPANY
STRT.F        900                            : top_depth    - START DEPTH
STOP.F        1639.83                        : bot_depth    - STOP DEPTH
STEP.F        0.82                           : increment    - STEP LENGTH
 NULL. -999.2500:NULL Value
~CURVE INFORMATION BLOCK
#MNEM UNIT       ERCB CURVE CODE    CURVE DESCRIPTION
#-----------   ------------------   ----------------------------------
DEPT.F        00 001 00 00         : DEPTH        - DEPTH
GR  .API      00 310 00 00         : GR           - GAMMA RAY
NPHI.V/V      00 330 00 00         : PHIN         - NEUTRON POROSITY (SANDSTONE)
ILD .OHMM     00 120 00 00         : RESD         - DEEP RESISTIVITY (DIL)
~PARAMETER INFORMATION
#MNEM.UNIT           DATA             DESCRIPTION OF MNEMONIC
#---------         -----------     ------------------------------
GL  .F        2392                 : gl           - GROUND LEVEL ELEVATION
EREF.F        2402                 : kb           - ELEVATION OF DEPTH REFERENCE
DATM.F        2402                 : datum        - DATUM ELEVATION
TDD .F        1635                 : tdd          - TOTAL DEPTH DRILLER
RUN .         ONE                  : Run          - RUN NUMBER
ENG .         BILL                 : Engineer     - RECORDING ENGINEER
WIT .         JIM                  : Witness      - WITNESSED BY
MUD .         GEL                  : Mud_type     - MUD TYPE
MATR.         SANDSTONE            : Logunit      - NEUTRON MATRIX
TMAX.F        70                   : BHT          - MAXIMUM RECORDED TEMPERATURE
BHTD.F        1632                 : BHTDEP       - MAXIMUM RECORDED TEMPERATURE
MATR.         1                    : LOGUNIT      - NEUTRON MATRIX
RMT .F        43                   : MDTP         - TEMPERATURE OF MUD
NEUT.         1                    : NEUTRON      - NEUTRON TYPE
RESI.         4.68                 : RESIST       - RESISTIVITY TYPE
RMC .OHMM     4.68                 : RMC          - RESISTIVITY OF MUD CAKE
RMF .OHMM     4.68                 : RMF          - RESISTIVITY OF MUD FILTRATE
SUFT.F        32                   : SUFT         - SURFACE TEMPERATURE
~A  DEPTH       GR     PHIN     RESD
# ...
 1077.990   78.178    0.369    9.059
 1078.810   74.379    0.372    9.796
 1079.630   61.947    0.377   10.194
 1080.450   56.722    0.383   11.037
 1081.270   55.341    0.391   11.485
 1082.090   55.417    0.399   12.183
 1082.910   55.477    0.411   13.174
 1083.730   53.616    0.415   14.264
 1084.550   52.220    0.420   14.843
 1085.370   49.413    0.423   16.093
 1086.190   49.473    0.424   16.405
 1087.010   50.480    0.425   17.093
 1087.830   52.012    0.425   18.156
 1088.650   52.569    0.424   18.917
 1089.470   53.080    0.424   20.119
 1090.290   52.675    0.424   20.619
 1091.110   52.240    0.426   21.046
 1091.930   49.913    0.427   21.568
 1092.750   48.532    0.427   21.711
 1093.570   50.035    0.427   22.191
 1094.390   51.537    0.426   22.338
 1095.210   52.078    0.426   22.486
 1096.030   51.673    0.426   22.546
 1096.850   51.238    0.426   22.292
 1097.670   50.368    0.426   22.381
 1098.490   49.949    0.426   22.158
 1099.310   49.994    0.424   22.246
 1100.130   50.550    0.423   21.996
 1100.950   51.076    0.418   21.721
 1101.770   51.137    0.412   21.807
 1102.590   49.291    0.406   21.533
 1103.410   48.391    0.367   21.676
 1104.230   51.845    0.318   21.791
 1105.050   52.867    0.260   22.302
 1105.870   50.014    0.314   24.084
 1106.690   45.765    0.391   27.028
 1107.510   47.733    0.412   28.124
 1108.330   51.668    0.414   29.381
 1109.150   50.302    0.416   26.972
 1109.970   49.372    0.419   24.354
 1110.790   47.991    0.420   22.791
 1111.610   46.610    0.422   21.742
 1112.430   44.283    0.427   21.033
 1113.250   43.368    0.429   20.797
 1114.070   42.002    0.432   20.879
 1114.900   43.024    0.433   21.018
 1115.720   43.565    0.434   21.129
 1116.540   45.082    0.435   21.241
 1117.360   45.608    0.436   21.353
 1118.180   47.141    0.440   21.495
 1119.000   47.667    0.443   21.609
 1119.820   47.743    0.443   21.723
 1120.640   47.338    0.441   21.451
 1121.460   46.407    0.436   21.209
 1122.280   45.026    0.429   20.916
 1123.100   42.685    0.427   20.654
 1123.920   41.784    0.426   20.790
 1124.740   41.875    0.425   20.530
 1125.560   42.432    0.425   20.611
 1126.380   42.943    0.428   20.407
 1127.200   43.018    0.433   20.488
 1128.020   43.064    0.432   20.231
 1128.840   43.140    0.428   20.338
 1129.660   43.666    0.427   20.472
 1130.480   45.198    0.423   20.554
 1131.300   47.196    0.424   20.662
 1132.120   47.707    0.429   20.772
 1132.940   48.263    0.430   20.909
 1133.760   46.867    0.429   21.020
 1134.580   42.603    0.426   21.131
 1135.400   41.703    0.422   21.243
 1136.220   43.221    0.421   21.412
 1137.040   45.699    0.421   21.469
 1137.860   47.186    0.422   21.582
 1138.680   49.199    0.422   21.783
 1139.500   49.275    0.419   21.453
 1140.320   49.320    0.419   21.567
 1141.140   49.366    0.419   21.681
 1141.960   49.427    0.419   21.465
 1142.780   50.448    0.420   21.551
 1143.600   50.524    0.423   21.693
 1144.420   51.096    0.423   21.393
 1145.240   51.622    0.420   21.535
 1146.060   52.643    0.418   21.649
 1146.880   53.650    0.418   21.406
 1147.700   54.206    0.418   21.462
 1148.520   54.282    0.418   21.193
 1149.340   53.877    0.418   21.333
 1150.160   53.427    0.418   21.066
 1150.980   54.464    0.418   21.205
 1151.800   56.958    0.417   21.318
 1152.620   57.484    0.412   21.430
 1153.440   58.010    0.395   21.515
 1154.270   58.086    0.334   22.477
 1155.090   57.185    0.265   22.974
 1155.910   54.843    0.217   24.434
 1156.730   52.486    0.128   26.352
 1157.550   49.199    0.120   29.010
 1158.370   50.220    0.174   33.101
 1159.190   53.164    0.338   33.832
 1160.010   56.603    0.403   30.006
 1160.830   60.043    0.421   27.057
 1161.650   61.560    0.414   24.463
 1162.470   61.141    0.387   22.893
 1163.290   60.225    0.374   21.480
 1164.110   58.844    0.334   21.183
 1164.930   55.541    0.265   20.862
 1165.750   52.223    0.263   20.628
 1166.570   50.377    0.354   20.765
 1167.390   52.360    0.383   21.252
 1168.210   56.745    0.405   20.985
 1169.030   62.091    0.405   19.290
 1169.850   74.691    0.398   18.330
 1170.670   76.658    0.383   15.968
 1171.490   80.563    0.371   13.422
 1172.310   81.119    0.372   12.103
 1173.130   80.234    0.379    9.641
 1173.950   79.814    0.382    8.239
 1174.770   79.860    0.387    7.439
 1175.590   78.960    0.392    7.488
 1176.410   78.074    0.397    7.813
 1177.230   77.159    0.398    8.130
 1178.050   75.793    0.393    8.470
 1178.870   73.947    0.385    9.678
 1179.690   73.031    0.377   10.252
 1180.510   72.597    0.370   10.875
 1181.330   73.138    0.362   11.130
 1182.150   75.616    0.360   11.406
 1182.970   80.962    0.362   11.466
 1183.790   80.543    0.367   11.352
 1184.610   78.681    0.375   11.181
 1185.430   77.331    0.382   11.040
 1186.250   77.872    0.382   11.099
 1187.070   78.398    0.380   11.158
 1187.890   79.900    0.381   11.867
 1188.710   81.418    0.380   12.129
 1189.530   82.920    0.380   12.209
 1190.350   83.941    0.382   11.842
 1191.170   84.483    0.391   10.886
 1191.990   83.582    0.407    9.829
 1192.810   83.162    0.421    8.706
 1193.640   83.238    0.392    8.283
 1194.460   83.795    0.388    8.190
 1195.280   84.321    0.382    7.944
 1196.100   84.397    0.373    7.716
 1196.920   83.962    0.365    7.609
 1197.740   82.611    0.350    7.139
 1198.560   82.176    0.341    6.906
 1199.380   82.252    0.334    6.463
 1200.200   84.730    0.343    6.261
 1201.020   85.722    0.349    5.763
 1201.840   91.564    0.361    5.393
 1202.660   95.484    0.380    5.131
 1203.480   96.986    0.402    4.729
 1204.300   98.518    0.415    4.575
 1205.120   99.525    0.390    4.211
 1205.940  101.508    0.368    3.946
 1206.760  103.986    0.360    3.822
 1207.580  106.449    0.345    3.707
 1208.400  107.471    0.345    3.666
 1209.220  105.114    0.351    3.680
 1210.040   99.408    0.359    3.695
 1210.860   98.523    0.369    3.724
 1211.680   99.064    0.366    3.802
 1212.500   99.590    0.358    3.837
 1213.320   99.186    0.349    3.847
 1214.140   97.835    0.345    3.736
 1214.960   97.866    0.343    3.497
 1215.780   99.368    0.341    3.210
 1216.600  107.612    0.339    2.898
 1217.420  112.013    0.336    2.617
 1218.240  110.136    0.333    2.538
 1219.060  104.431    0.336    2.506
 1219.880  101.128    0.341    2.569
 1220.700   97.855    0.345    2.725
 1221.520   96.459    0.358    2.890
 1222.340   94.117    0.371    3.070
 1223.160   92.256    0.383    3.379
 1223.980   88.473    0.384    3.512
 1224.800   86.116    0.387    4.085
 1225.620   86.176    0.389    4.417
 1226.440   86.252    0.394    4.685
 1227.260   86.328    0.406    4.882
 1228.080   86.389    0.384    4.901
 1228.900   84.527    0.391    5.036
 1229.720   81.209    0.401    5.147
 1230.540   76.930    0.409    5.363
 1231.360   65.939    0.405    5.697
 1232.190   59.753    0.371    6.255
 1233.010   56.450    0.356    7.667
 1233.830   60.355    0.356    9.752
 1234.650   64.260    0.396   10.930
 1235.470   68.675    0.401   11.186
 1236.290   68.271    0.407   11.230
 1237.110   66.875    0.423   11.540
 1237.930   65.479    0.440   11.585
 1238.750   62.191    0.434   11.662
 1239.570   60.345    0.429   11.693
 1240.390   59.894    0.423   11.770
 1241.210   59.955    0.412   11.833
 1242.030   60.031    0.406   11.684
 1242.850   60.092    0.402   11.746
 1243.670   60.152    0.397   11.630
 1244.490   60.724    0.392   11.676
 1245.310   60.754    0.399   11.514
 1246.130   60.349    0.407   11.606
 1246.950   59.914    0.410   11.460
 1247.770   59.990    0.413   11.505
 1248.590   60.066    0.414   11.376
 1249.410   60.607    0.415   11.437
 1250.230   62.110    0.422   11.093
 1251.050   64.092    0.417   10.788
 1251.870   64.633    0.413   10.610
 1252.690   62.307    0.412   10.305
 1253.510   59.965    0.413   10.346
 1254.330   59.080    0.414   10.216
 1255.150   59.110    0.415   10.270
