~VERSION INFORMATION
 VERS.                 2.0:   CWLS LOG ASCII STANDARD -VERSION 2.0
 WRAP.                  NO:   ONE LINE PER DEPTH STEP
~WELL INFORMATION BLOCK
#MNEM.UNIT           DATA                    DESCRIPTION OF MNEMONIC
#---------    -------------------            -------------------------------
# Generated from Intellog Unique Number	CN_91_93/WELL/1171
WELL.         12-08-091-14W4                 : Well_name    - WELL
LOC .         AA/12-08-091-14W4/0            : Location     - LOCATION
UWI .         AA/12-08-091-14W400            : Uwi          - UNIQUE WELL ID
ENTR.         JOETTE                         : Entered      - ENTERED BY
SRVC.         SCHLUMBERGER                   : Scn          - SERVICE COMPANY
STRT.F        246.063                        : top_depth    - START DEPTH
STOP.F        656.168                        : bot_depth    - STOP DEPTH
STEP.F        0.82                           : increment    - STEP LENGTH
 NULL. -999.2500:NULL Value
~CURVE INFORMATION BLOCK
#MNEM UNIT       ERCB CURVE CODE    CURVE DESCRIPTION
#-----------   ------------------   ----------------------------------
DEPT.F        00 001 00 00         : DEPTH        - DEPTH
ILD .OHMM     00 120 00 00         : RESD         - DEEP RESISTIVITY (DIL)
DPHI.V/V      00 890 00 00         : PHID         - DENSITY POROSITY (SANDSTONE)
CALI.IN       00 280 01 00         : CAL          - CALIPER
GR  .API      00 310 00 00         : GR           - GAMMA RAY
~PARAMETER INFORMATION
#MNEM.UNIT           DATA             DESCRIPTION OF MNEMONIC
#---------         -----------     ------------------------------
GL  .M        475.5                : gl           - GROUND LEVEL ELEVATION
EREF.M        478.5                : kb           - ELEVATION OF DEPTH REFERENCE
DATM.M        478.5                : datum        - DATUM ELEVATION
TDD .M        208.7                : tdd          - TOTAL DEPTH DRILLER
RUN .         ONE                  : Run          - RUN NUMBER
ENG .         BILL                 : Engineer     - RECORDING ENGINEER
WIT .         JIM                  : Witness      - WITNESSED BY
MUD .         GEL                  : Mud_type     - MUD TYPE
MATR.         SANDSTONE            : Logunit      - NEUTRON MATRIX
TMAX.F        140                  : BHT          - MAXIMUM RECORDED TEMPERATURE
BHTD.F        6797.9               : BHTDEP       - MAXIMUM RECORDED TEMPERATURE
RMT .F        77                   : MDTP         - TEMPERATURE OF MUD
MUDD.LB/G     9.5                  : MWT          - MUD DENSITY
NEUT.         1                    : NEUTRON      - NEUTRON TYPE
RESI.         0                    : RESIST       - RESISTIVITY TYPE
RM  .OHMM     1.43                 : RM           - RESISTIVITY OF MUD
RMC .OHMM     0.25                 : RMC          - RESISTIVITY OF MUD CAKE
RMF .OHMM     1.88                 : RMF          - RESISTIVITY OF MUD FILTRATE
SUFT.F        39.2                 : SUFT         - SURFACE TEMPERATURE
~A  DEPTH     RESD     PHID      CAL       GR
# ...
  531.496   31.795    0.293    7.603   48.657
  532.316   26.021    0.277    7.587   51.704
  533.136   22.508    0.241    7.551   56.555
  533.957   19.826    0.213    7.515   61.699
  534.777   18.112    0.234    7.460   68.347
  535.597   15.664    0.234    7.424   78.588
  536.417   15.264    0.232    7.388   80.437
  537.238   16.152    0.233    7.372   81.096
  538.058   16.475    0.238    7.375   79.651
  538.878   16.345    0.240    7.340   75.810
  539.698   15.782    0.239    7.364   78.558
  540.518   16.242    0.234    7.386   80.108
  541.339   18.326    0.237    7.409   73.272
  542.159   21.446    0.234    7.413   57.745
  542.979   26.279    0.259    7.416   43.716
  543.799   32.201    0.250    7.440   40.474
  544.619   40.180    0.241    7.466   42.024
  545.440   46.608    0.246    7.486   42.077
  546.260   49.322    0.267    7.607   39.141
  547.080   49.829    0.284    7.607   41.290
  547.900   49.444    0.300    7.693   42.254
  548.720   46.891    0.300    7.894   41.102
  549.541   43.232    0.302    8.035   39.957
  550.361   39.859    0.291    8.136   39.104
  551.181   37.100    0.280    8.277   42.165
  552.001   35.809    0.271    8.419   42.816
  552.822   34.569    0.269    8.521   42.869
  553.642   33.990    0.297    8.642   44.119
  554.462   33.420    0.296    8.743   46.268
  555.282   32.866    0.293    8.808   44.224
  556.102   32.606    0.297    8.968   44.283
  556.923   31.784    0.282    8.971   44.928
  557.743   31.246    0.286    8.974   48.275
  558.563   30.727    0.290    8.978   45.932
  559.383   30.480    0.290    8.978   47.189
  560.203   30.528    0.297    8.986   47.840
  561.024   31.143    0.300    8.988   48.798
  561.844   32.352    0.291    8.991   47.646
  562.664   32.997    0.292    8.995   50.407
  563.484   32.154    0.293    8.959   52.250
  564.304   30.752    0.293    8.959   51.404
  565.125   28.352    0.288    8.927   52.655
  565.945   30.008    0.292    8.927   51.516
  566.765   33.538    0.295    8.877   48.867
  567.585   43.819    0.298    8.878   45.931
  568.406   57.778    0.294    8.883   44.180
  569.226   66.998    0.299    8.887   37.644
  570.046   71.564    0.305    8.887   32.905
  570.866   68.456    0.308    8.893   35.653
  571.686   68.456    0.301    8.893   36.604
  572.507   63.843    0.290    8.901   35.771
  573.327   59.918    0.291    8.923   37.620
  574.147   56.265    0.287    9.006   40.362
  574.967   53.330    0.279    9.067   43.422
  575.787   51.484    0.286    9.189   41.977
  576.608   52.530    0.296    9.291   38.436
  577.428   55.061    0.295    9.373   36.692
  578.248   60.999    0.293    9.373   35.846
  579.068   67.565    0.293    9.439   33.802
  579.888   74.851    0.297    9.541   32.051
  580.709   72.925    0.295    9.584   28.217
  581.529   68.503    0.279    9.607   29.468
  582.349   68.576    0.291    9.607   32.508
  583.169   79.547    0.314    9.634   33.779
  583.990   89.740    0.334    9.756   28.733
  584.810  104.079    0.331    9.759   26.377
  585.630  111.132    0.322    9.704   26.436
  586.450  115.425    0.313    9.667   25.896
  587.270  104.505    0.312    9.534   29.236
  588.091   95.506    0.311    9.380   29.595
  588.911   94.803    0.308    9.108   29.954
  589.731   92.347    0.304    9.108   30.599
  590.551   86.732    0.298    8.763   31.550
  591.371   69.681    0.285    8.666   29.812
  592.192   56.003    0.285    8.532   34.057
  593.012   49.329    0.300    8.437   39.500
  593.832   42.662    0.310    8.362   46.754
  594.652   37.585    0.304    8.287   51.591
  595.472   34.348    0.295    8.212   51.650
  596.293   34.071    0.296    8.137   48.109
  597.113   35.394    0.296    8.137   45.772
  597.933   38.853    0.294    8.106   45.825
  598.753   42.650    0.298    8.050   48.573
  599.573   45.541    0.316    8.050   50.116
  600.394   46.025    0.303    8.038   50.774
  601.214   43.242    0.303    7.981   50.833
  602.034   41.357    0.301    7.907   47.891
  602.854   41.797    0.297    7.851   45.847
  603.675   42.234    0.303    7.815   44.695
  604.495   39.311    0.306    7.799   45.953
  605.315   35.586    0.294    7.764   49.293
  606.135   32.527    0.286    7.746   49.964
  606.955   31.724    0.292    7.711   50.017
  607.776   31.159    0.290    7.711   50.062
  608.596   30.357    0.292    7.679   47.713
  609.416   29.843    0.293    7.603   48.065
  610.236   33.359    0.293    7.489   48.417
  611.056   33.419    0.306    7.395   46.679
  611.877   36.012    0.312    7.359   45.833
  612.697   38.446    0.326    7.342   44.688
  613.517   41.444    0.319    7.385   42.644
  614.337   43.841    0.317    7.448   39.402
  615.157   45.971    0.320    7.393   39.754
  615.978   48.203    0.327    7.357   40.412
  616.798   49.608    0.313    7.340   40.465
  617.618   47.029    0.311    7.344   39.612
  618.438   45.393    0.307    7.348   38.474
  619.259   42.641    0.311    7.332   39.132
  620.079   40.048    0.310    7.296   39.184
  620.899   35.594    0.320    7.260   38.631
  621.719   29.675    0.310    7.185   38.085
  622.539   26.867    0.307    7.090   39.042
  623.360   24.780    0.318    6.976   40.306
  624.180   22.851    0.321    6.940   40.059
  625.000   22.259    0.337    6.923   39.513
  625.820   24.207    0.335    6.848   38.966
  626.640   27.565    0.329    6.675   38.114
  627.461   27.604    0.339    6.580   37.275
  628.281   24.538    0.335    6.466   37.321
  629.101   17.668    0.326    6.352   37.373
  629.921   12.602    0.328    6.315   37.432
  630.741    9.945    0.321    6.260   37.179
  631.562    8.680    0.310    6.283   40.825
  632.382    7.787    0.291    6.385   48.371
  633.202    8.704    0.268    6.644   67.004
  634.022   10.377    0.161    7.002   78.151
  634.843   13.311    0.139    6.965   78.204
  635.663   16.012    0.099    6.576   70.756
  636.483   17.735    0.010    6.363   58.530
  637.303   21.142   -0.011    6.249   50.789
  638.123   24.969   -0.010    6.213   47.854
  638.944   25.711   -0.007    6.197   52.398
  639.764   23.927   -0.005    6.200   59.346
  640.584   21.863   -0.005    6.207   61.501
  641.404   24.217   -0.006    6.208   59.750
  642.224   27.571   -0.008    6.211   56.508
  643.045   30.260   -0.008    6.214   53.566
  643.865   31.435    0.011    6.218   51.223
  644.685   30.352   -0.002    6.242   50.384
  645.505   29.301   -0.000    6.245   53.424
  646.325   26.529    0.001    6.268   59.779
  647.146   23.578   -0.000    6.271   61.928
  647.966   20.960   -0.008    6.314   62.273
  648.786   19.509   -0.008    6.338   61.447
  649.606   20.274    0.007    6.361   60.894
  650.427   20.671    0.019    6.365   60.348
  651.247   19.244    0.010    6.388   63.988
  652.067   19.244    0.025    6.391   60.154
  652.887   18.945    0.023    6.394   61.105
  653.707   17.310    0.002    6.399   61.763
  654.528   17.824    0.026    6.402   63.313
  655.348   18.513    0.037    6.405   63.059
  656.168   17.869    0.033    6.408   63.118
