~VERSION INFORMATION
 VERS.                 2.0:   CWLS LOG ASCII STANDARD -VERSION 2.0
 WRAP.                  NO:   ONE LINE PER DEPTH STEP
~WELL INFORMATION BLOCK
#MNEM.UNIT           DATA                    DESCRIPTION OF MNEMONIC
#---------    -------------------            -------------------------------
# Generated from Intellog Unique Number	CN_94_101/WELL/1069
WELL.         SUNCOR INC.                    : Well_name    - WELL
LOC .         AA/10-20-094-06W4/0            : Location     - LOCATION
UWI .         AA/10-20-094-06W400            : Uwi          - UNIQUE WELL ID
ENTR.         JOETTE                         : Entered      - ENTERED BY
SRVC.         SCHLUMBERGER                   : Scn          - SERVICE COMPANY
DATE.         04/10/92                       : Date         - LOG DATE
STRT.M        50                             : top_depth    - START DEPTH
STOP.M        300                            : bot_depth    - STOP DEPTH
STEP.M        0.25                           : increment    - STEP LENGTH
 NULL. -999.2500:NULL Value
~CURVE INFORMATION BLOCK
#MNEM UNIT       ERCB CURVE CODE    CURVE DESCRIPTION
#-----------   ------------------   ----------------------------------
DEPT.M        00 001 00 00         : DEPTH        - DEPTH
ILD .OHMM     00 120 00 00         : RESD         - DEEP RESISTIVITY (DIL)
DPHI.V/V      00 890 00 00         : PHID         - DENSITY POROSITY (SANDSTONE)
NPHI.V/V      00 330 00 00         : PHIN         - NEUTRON POROSITY (SANDSTONE)
GR  .API      00 310 00 00         : GR           - GAMMA RAY
CALI.MM       00 280 01 00         : CAL          - CALIPER
~PARAMETER INFORMATION
#MNEM.UNIT           DATA             DESCRIPTION OF MNEMONIC
#---------         -----------     ------------------------------
GL  .M        578.2                : gl           - GROUND LEVEL ELEVATION
EREF.M        581.4                : kb           - ELEVATION OF DEPTH REFERENCE
DATM.M        581.4                : datum        - DATUM ELEVATION
TDD .M        304                  : tdd          - TOTAL DEPTH DRILLER
RUN .         ONE                  : Run          - RUN NUMBER
ENG .         BILL                 : Engineer     - RECORDING ENGINEER
WIT .         JIM                  : Witness      - WITNESSED BY
MUD .         GEL                  : Mud_type     - MUD TYPE
MATR.         SANDSTONE            : Logunit      - NEUTRON MATRIX
TMAX.C        15                   : BHT          - MAXIMUM RECORDED TEMPERATURE
BHTD.M        304                  : BHTDEP       - MAXIMUM RECORDED TEMPERATURE
RMT .C        10                   : MDTP         - TEMPERATURE OF MUD
MUDD.KG/M     1050                 : MWT          - MUD DENSITY
NEUT.         1                    : NEUTRON      - NEUTRON TYPE
RESI.         0                    : RESIST       - RESISTIVITY TYPE
RM  .OHMM     13.1                 : RM           - RESISTIVITY OF MUD
RMC .OHMM     13.1                 : RMC          - RESISTIVITY OF MUD CAKE
RMF .OHMM     13.1                 : RMF          - RESISTIVITY OF MUD FILTRATE
SUFT.C        4                    : SUFT         - SURFACE TEMPERATURE
~A  DEPTH     RESD     PHID     PHIN       GR      CAL
# ...
  232.500   25.026    0.281    0.066   53.570  166.911
  232.750   45.003    0.307    0.075   42.459  165.895
  233.000   54.400    0.305    0.085   34.438  165.919
  233.250  120.445    0.305    0.096   30.127  164.903
  233.500  109.698    0.310    0.117   30.138  164.932
  233.750  103.731    0.313    0.123   30.765  164.946
  234.000   98.137    0.308    0.144   33.248  164.970
  234.250   94.615    0.300    0.152   32.023  164.985
  234.500   92.890    0.302    0.174   30.184  165.008
  234.750   98.403    0.308    0.200   29.580  165.027
  235.000  106.231    0.314    0.225   30.204  165.042
  235.250  106.336    0.316    0.235   32.072  165.070
  235.500  100.576    0.314    0.265   34.558  165.080
  235.750   88.206    0.313    0.278   37.038  165.104
  236.000   69.068    0.312    0.303   40.136  165.118
  236.250   52.078    0.309    0.314   45.091  166.172
  236.500   41.556    0.303    0.333   50.045  166.200
  236.750   34.437    0.294    0.337   56.236  167.235
  237.000   31.357    0.284    0.342   63.047  167.254
  237.250   29.104    0.257    0.349   68.001  167.278
  237.500   29.695    0.252    0.356   72.956  167.297
  237.750   33.291    0.231    0.365   78.529  167.316
  238.000   38.045    0.230    0.343   84.101  167.335
  238.250   43.455    0.271    0.341   90.291  167.350
  238.500   48.718    0.287    0.333   84.742  166.353
  238.750   72.509    0.289    0.329   76.721  166.367
  239.000   79.789    0.269    0.356   69.935  166.382
  239.250   96.473    0.267    0.356   71.800  166.410
  239.500   39.734    0.266    0.351   74.284  166.425
  239.750   28.849    0.256    0.357   75.531  166.448
  240.000   24.833    0.238    0.362   81.106  165.428
  240.250   27.834    0.218    0.377   87.912  164.417
  240.500   32.406    0.228    0.386  100.284  164.437
  240.750   40.691    0.241    0.378   95.349  164.456
  241.000   55.105    0.253    0.350   86.710  164.479
  241.250   74.641    0.301    0.325   73.746  165.524
  241.500  124.424    0.314    0.260   58.310  165.552
  241.750  168.495    0.308    0.223   45.963  165.567
  242.000  265.531    0.301    0.250   42.885  165.581
  242.250  215.872    0.299    0.267   49.076  166.639
  242.500  196.610    0.303    0.288   55.887  166.658
  242.750  182.482    0.303    0.298   55.281  166.673
  243.000  175.890    0.300    0.300   51.584  166.697
  243.250  179.420    0.303    0.298   47.274  166.706
  243.500  197.483    0.304    0.299   44.193  166.725
  243.750  205.188    0.304    0.293   41.733  166.725
  244.000  221.510    0.306    0.290   39.275  168.842
  244.250  239.131    0.305    0.291   38.048  165.757
  244.500  230.492    0.297    0.297   36.824  165.781
  244.750  202.193    0.278    0.312   38.692  165.800
  245.000  173.963    0.274    0.331   40.554  165.815
  245.250  152.567    0.271    0.347   44.894  164.813
  245.500  152.717    0.279    0.347   47.995  164.823
  245.750  171.255    0.292    0.335   51.098  164.847
  246.000  191.949    0.305    0.312   51.722  164.861
  246.250  227.800    0.307    0.279   52.975  164.885
  246.500  265.157    0.310    0.263   52.981  164.899
  246.750  314.680    0.313    0.246   51.756  164.923
  247.000  309.096    0.320    0.236   46.209  164.947
  247.250  287.026    0.323    0.226   41.893  163.927
  247.500  276.521    0.325    0.229   35.725  163.946
  247.750  251.847    0.316    0.236   33.889  163.965
  248.000  220.980    0.307    0.249   34.512  162.954
  248.250  212.893    0.298    0.259   35.142  162.973
  248.500  186.754    0.312    0.266   34.538  162.992
  248.750  179.919    0.322    0.275   33.314  161.986
  249.000  170.174    0.329    0.281   38.269  162.015
  249.250  170.468    0.329    0.296   43.223  162.024
  249.500  170.552    0.326    0.314   47.560  162.053
  249.750  180.718    0.321    0.336   51.897  162.067
  250.000  191.396    0.313    0.340   56.854  162.086
  250.250  218.668    0.299    0.348   59.952  162.101
  250.500  264.392    0.285    0.354   64.289  162.129
  250.750  313.696    0.293    0.359   60.593  162.139
  251.000  338.650    0.304    0.363   53.190  162.158
  251.250  332.640    0.314    0.365   39.610  162.177
  251.500  314.624    0.328    0.364   36.529  162.206
  251.750  292.087    0.332    0.363   36.541  162.225
  252.000  292.447    0.337    0.360   36.558  162.244
  252.250  287.116    0.349    0.368   36.566  162.253
  252.500  233.478    0.348    0.376   37.814  162.277
  252.750  157.180    0.309    0.400   40.294  162.292
  253.000  111.985    0.297    0.416   44.013  162.315
  253.250   92.824    0.305    0.412   50.206  162.339
  253.500   89.449    0.312    0.400   51.453  162.349
  253.750   93.030    0.302    0.392   50.232  162.373
  254.000   96.659    0.290    0.392   48.387  163.431
  254.250  110.432    0.287    0.392   45.929  163.445
  254.500  126.199    0.294    0.385   47.174  163.460
  254.750  136.204    0.313    0.376   48.424  163.479
  255.000  136.339    0.315    0.367   41.018  164.537
  255.250  128.954    0.320    0.366   32.996  164.547
  255.500  110.977    0.325    0.374   32.396  164.571
  255.750   97.328    0.333    0.385   33.019  164.585
  256.000   87.006    0.335    0.397   36.120  164.609
  256.250   83.863    0.332    0.412   39.221  164.623
  256.500   90.557    0.321    0.406   44.176  164.642
  256.750   95.884    0.314    0.387   47.277  163.636
  257.000  109.546    0.313    0.385   45.434  163.655
  257.250  125.217    0.318    0.387   44.210  161.615
  257.500  132.648    0.325    0.398   43.604  160.609
  257.750  132.746    0.331    0.407   46.708  159.588
  258.000  123.207    0.330    0.425   47.955  158.578
  258.250  108.054    0.320    0.401   46.112  157.572
  258.500   96.594    0.310    0.396   46.124  157.586
  258.750  104.278    0.289    0.374   47.374  157.610
  259.000  119.108    0.288    0.370   43.675  157.629
  259.250  146.760    0.295    0.360   35.654  157.653
  259.500  174.127    0.305    0.356   30.722  157.672
  259.750  202.732    0.311    0.373   30.734  157.696
  260.000  214.817    0.317    0.388   36.306  157.705
  260.250  203.232    0.320    0.391   41.882  157.729
  260.500  199.527    0.315    0.392   40.039  157.748
  260.750  219.561    0.296    0.389   37.577  157.767
  261.000  241.546    0.297    0.378   34.498  157.782
  261.250  292.126    0.306    0.367   35.749  157.801
  261.500  346.516    0.310    0.372   37.611  157.820
  261.750  381.308    0.306    0.374   38.858  157.844
  262.000  347.285    0.296    0.364   37.639  157.863
  262.250  316.220    0.298    0.361   37.027  157.882
  262.500  277.327    0.305    0.375   35.191  157.896
  262.750  234.200    0.312    0.395   34.579  157.915
  263.000  197.829    0.318    0.405   35.826  157.934
  263.250  190.635    0.313    0.394   41.398  157.953
  263.500  190.917    0.300    0.373   43.266  157.977
  263.750  191.011    0.303    0.369   38.955  157.996
  264.000  194.845    0.297    0.365   36.495  158.020
  264.250  198.756    0.310    0.369   37.742  158.039
  264.500  187.992    0.318    0.380   40.843  158.063
  264.750  161.785    0.323    0.391   43.941  158.063
  265.000  134.069    0.311    0.405   48.278  158.106
  265.250  119.822    0.290    0.411   53.233  160.170
  265.500  111.211    0.291    0.385   56.952  159.160
  265.750  117.811    0.302    0.379   53.874  159.179
  266.000  142.446    0.309    0.366   53.267  159.198
  266.250  175.516    0.303    0.369   56.989  159.222
  266.500  200.526    0.291    0.379   54.526  159.241
  266.750  200.723    0.278    0.376   44.651  159.260
  267.000  163.225    0.276    0.366   37.868  159.279
  267.250  157.406    0.284    0.363   40.349  159.293
  267.500  163.547    0.292    0.365   43.450  160.342
  267.750  176.556    0.297    0.375   46.550  160.361
  268.000  166.994    0.293    0.384   47.183  160.385
  268.250  138.386    0.303    0.381   45.955  160.399
  268.500  126.038    0.313    0.376   45.355  160.423
  268.750  108.495    0.318    0.376   44.745  160.442
