~VERSION INFORMATION
 VERS.                 2.0:   CWLS LOG ASCII STANDARD -VERSION 2.0
 WRAP.                  NO:   ONE LINE PER DEPTH STEP
~WELL INFORMATION BLOCK
#MNEM.UNIT           DATA                    DESCRIPTION OF MNEMONIC
#---------    -------------------            -------------------------------
# Generated from Intellog Unique Number	CN_91_93/WELL/3943
WELL.         16-23-092-08W4                 : Well_name    - WELL
LOC .         AA/16-23-092-08W4/0            : Location     - LOCATION
UWI .         AA/16-23-092-08W400            : Uwi          - UNIQUE WELL ID
ENTR.         JOETTE                         : Entered      - ENTERED BY
SRVC.         SCHLUMBERGER                   : Scn          - SERVICE COMPANY
DATE.         03/16/92                       : Date         - LOG DATE
STRT.F        30                             : top_depth    - START DEPTH
STOP.F        609.888                        : bot_depth    - STOP DEPTH
STEP.F        0.8202                         : increment    - STEP LENGTH
 NULL. -999.2500:NULL Value
~CURVE INFORMATION BLOCK
#MNEM UNIT       ERCB CURVE CODE    CURVE DESCRIPTION
#-----------   ------------------   ----------------------------------
DEPT.F        00 001 00 00         : DEPTH        - DEPTH
GR  .API      00 310 00 00         : GR           - GAMMA RAY
NPHI.V/V      00 330 00 00         : PHIN         - NEUTRON POROSITY (SANDSTONE)
ILD .OHMM     00 120 00 00         : RESD         - DEEP RESISTIVITY (DIL)
~PARAMETER INFORMATION
#MNEM.UNIT           DATA             DESCRIPTION OF MNEMONIC
#---------         -----------     ------------------------------
GL  .M        456.286              : gl           - GROUND LEVEL ELEVATION
EREF.M        457.505              : kb           - ELEVATION OF DEPTH REFERENCE
DATM.M        457.505              : datum        - DATUM ELEVATION
TDD .M        192.024              : tdd          - TOTAL DEPTH DRILLER
RUN .         ONE                  : Run          - RUN NUMBER
ENG .         BILL                 : Engineer     - RECORDING ENGINEER
WIT .         JIM                  : Witness      - WITNESSED BY
MUD .         GEL                  : Mud_type     - MUD TYPE
MATR.         SANDSTONE            : Logunit      - NEUTRON MATRIX
TMAX.F        50                   : BHT          - MAXIMUM RECORDED TEMPERATURE
BHTD.F        630                  : BHTDEP       - MAXIMUM RECORDED TEMPERATURE
RMT .F        50                   : MDTP         - TEMPERATURE OF MUD
MUDD.LB/G     9.5                  : MWT          - MUD DENSITY
NEUT.         1                    : NEUTRON      - NEUTRON TYPE
RESI.         0                    : RESIST       - RESISTIVITY TYPE
RM  .OHMM     2.45                 : RM           - RESISTIVITY OF MUD
RMC .OHMM     1.4                  : RMC          - RESISTIVITY OF MUD CAKE
RMF .OHMM     1.4                  : RMF          - RESISTIVITY OF MUD FILTRATE
SUFT.F        39.2                 : SUFT         - SURFACE TEMPERATURE
~A  DEPTH       GR     PHIN     RESD
   30.000   57.715    0.395   32.255
   30.820   59.531    0.421   38.242
   31.640   63.160    0.450   53.660
   32.461   66.187    0.467   92.442
   33.281   65.003    0.467  181.468
   34.101   61.409    0.457  165.702
   34.921   51.213    0.440  123.238
   35.742   50.032    0.424   98.756
   36.562   49.440    0.433   83.643
   37.382   49.462    0.445   69.616
   38.202   51.287    0.468   84.092
   39.022   51.305    0.515   81.205
   39.843   48.922    0.534   67.547
   40.663   47.128    0.489   58.322
   41.483   44.140    0.465   50.417
   42.303   48.370    0.439   52.395
   43.123   55.004    0.396   56.622
   43.944   56.820    0.389   54.679
   44.764   55.035    0.374   48.071
   45.584   52.047    0.411   40.763
   46.404   48.458    0.436   38.614
   47.224   44.873    0.430   51.233
   48.045   43.087    0.422   59.619
   48.865   43.105    0.417   53.434
   49.685   43.122    0.406   47.889
   50.505   43.140    0.402   47.117
   51.325   43.162    0.396   55.895
   52.146   43.179    0.404   61.505
   52.966   43.201    0.425   54.105
   53.786   43.223    0.427   47.595
   54.606   43.237    0.425   51.404
   55.426   43.254    0.429   63.337
   56.247   42.671    0.445   68.366
   57.067   43.890    0.453   72.473
   57.887   45.716    0.475   55.949
   58.707   45.729    0.523   43.193
   59.528   45.145    0.545   37.996
   60.348   45.764    0.553   38.087
   61.168   47.585    0.549   39.652
   61.988   50.016    0.447   39.723
   62.808   48.230    0.441   40.615
   63.629   47.045    0.441   41.478
   64.449   47.063    0.440   42.335
   65.269   47.682    0.440   45.778
   66.089   47.098    0.440   46.695
   66.909   47.116    0.439   48.614
   67.730   47.739    0.431   47.829
   68.550   47.752    0.424   47.057
   69.370   48.375    0.414   48.057
   70.190   49.595    0.401   50.944
   71.010   50.218    0.401   52.058
   71.831   49.630    0.408   50.271
   72.651   47.849    0.412   53.291
   73.471   46.059    0.414   62.015
   74.291   46.081    0.412   55.614
   75.112   48.502    0.419   44.539
   75.932   52.127    0.422   35.691
   76.752   55.150    0.408   22.865
   77.572   57.572    0.401   20.102
   78.392   60.595    0.398   17.683
   79.213   64.820    0.402   15.858
   80.033   68.449    0.408   14.753
   80.853   69.669    0.412   13.983
   81.673   72.692    0.414   13.758
   82.493   74.513    0.417   13.285
   83.314   64.913    0.409   13.071
   84.134   58.919    0.400   14.654
   84.954   52.325    0.389   22.996
   85.774   47.533    0.378   38.166
   86.594   39.135    0.368   49.703
   87.415   35.546    0.368   48.901
   88.235   34.967    0.370   46.350
   89.055   35.590    0.378   40.797
   89.875   36.205    0.384   36.543
   90.695   39.236    0.391   44.141
   91.516   40.452    0.385   65.502
   92.336   42.273    0.378   85.302
   93.156   39.890    0.374   73.652
   93.976   38.105    0.358   69.851
   94.797   36.916    0.353   67.454
   95.617   35.731    0.352   62.753
   96.437   35.748    0.352   58.380
   97.257   35.766    0.354   53.276
   98.077   34.590    0.359   54.408
   98.898   33.406    0.365   57.745
   99.718   31.620    0.368   60.047
  100.538   30.435    0.373   64.892
  101.358   29.251    0.377   63.806
  102.178   31.072    0.365   55.125
  102.999   33.493    0.347   48.492
  103.819   34.112    0.347   46.800
  104.639   33.533    0.353   63.263
  105.459   33.551    0.359   54.623
  106.280   35.367    0.365   48.956
  107.100   40.194    0.370   43.903
  107.920   43.225    0.370   40.088
  108.740   42.045    0.365   34.593
  109.560   40.852    0.353   28.243
  110.381   39.672    0.346   28.843
  111.201   39.084    0.346   37.539
  112.021   37.307    0.347   55.706
  112.841   36.723    0.349   64.863
  113.661   36.140    0.353   61.479
  114.482   36.157    0.359   48.327
  115.302   36.776    0.363   53.209
  116.122   34.990    0.366   45.120
  116.942   33.205    0.371   39.691
  117.762   36.228    0.379   37.598
  118.583   41.058    0.383   29.026
  119.403   43.476    0.388   23.246
  120.223   46.499    0.392   28.625
  121.043   41.107    0.396   39.400
  121.864   36.917    0.397   44.197
  122.684   36.342    0.391   36.084
  123.504   36.961    0.385   31.780
  124.324   39.984    0.380   31.230
  125.144   41.203    0.375   29.054
  125.965   39.418    0.369   24.622
  126.785   38.830    0.363   22.081
  127.605   39.453    0.354   24.740
  128.425   41.274    0.355   27.223
  129.245   43.696    0.358   28.875
  130.066   44.920    0.365   26.879
  130.886   41.928    0.371   28.494
  131.706   39.541    0.377   29.082
  132.526   37.154    0.375   30.866
  133.346   35.377    0.375   32.739
  134.167   35.390    0.369   32.779
  134.987   36.009    0.361   23.052
  135.807   36.632    0.367   24.451
  136.627   38.457    0.375   26.889
  137.448   39.673    0.378   28.504
  138.268   42.095    0.377   24.611
  139.088   44.521    0.380   21.250
  139.908   45.140    0.384   29.266
  140.728   43.354    0.388   42.627
  141.549   40.362    0.391   38.923
  142.369   36.176    0.388   30.596
  143.189   34.390    0.382   27.955
  144.009   36.211    0.375   31.340
  144.829   41.038    0.375   30.834
  145.650   40.454    0.378   26.131
  146.470   38.072    0.381   25.724
  147.290   36.290    0.382   27.253
  148.110   35.702    0.382   29.452
  148.930   36.321    0.380   28.977
  149.751   38.146    0.377   25.034
  150.571   38.769    0.376   25.079
  151.391   38.782    0.376   26.094
  152.211   38.195    0.378   28.199
  153.031   38.818    0.381   29.341
  153.852   40.046    0.383   26.312
  154.672   40.656    0.383   26.855
  155.492   40.678    0.384   26.422
  156.312   41.297    0.386   29.639
  157.133   41.911    0.371   32.614
  157.953   41.933    0.362   40.137
  158.773   38.945    0.377   35.308
  159.593   35.356    0.390   32.847
  160.413   34.171    0.399   32.945
  161.234   35.396    0.409   30.631
  162.054   36.615    0.417   27.453
  162.874   37.835    0.423   27.518
  163.694   39.660    0.428   26.589
  164.514   42.684    0.434   22.117
  165.335   45.702    0.438   20.576
  166.155   49.928    0.440   18.090
  166.975   57.764    0.443   13.205
  167.795   64.995    0.444    9.821
  168.615   79.439    0.442    9.668
  169.436   90.285    0.446    9.691
  170.256   90.899    0.449    9.011
  171.076   90.320    0.455    8.076
  171.896   89.732    0.459    7.659
  172.717   88.552    0.463    7.677
  173.537   87.969    0.452    7.695
  174.357   87.389    0.437    7.576
  175.177   86.802    0.433    7.594
  175.997   86.218    0.445    7.612
  176.818   85.038    0.460    7.774
  177.638   83.853    0.484    7.939
  178.458   83.270    0.480    7.525
  179.278   82.691    0.467    7.403
  180.098   82.708    0.455    7.288
  180.919   82.721    0.449    7.305
  181.739   82.739    0.460    7.327
  182.559   83.362    0.466    7.336
  183.379   83.981    0.471    7.222
  184.199   83.998    0.471    7.384
  185.020   87.021    0.469    7.393
  185.840   91.852    0.462    7.410
  186.660   91.870    0.454    7.291
  187.480   90.084    0.447    7.045
  188.301   86.490    0.440    6.927
  189.121   81.699    0.433    6.815
  189.941   80.528    0.432    7.095
  190.761   80.545    0.432    7.668
  191.581   81.765    0.434    8.128
  192.402   82.375    0.438    7.997
  193.222   82.393    0.441    7.440
  194.042   78.812    0.446    7.320
  194.862   77.018    0.447    8.059
  195.682   72.231    0.435    8.863
  196.503   68.642    0.436   10.319
  197.323   65.053    0.439   11.569
  198.143   62.666    0.442   12.978
  198.963   62.684    0.449   13.008
  199.783   64.505    0.455   13.040
  200.604   66.326    0.464   13.070
  201.424   63.342    0.475   13.864
  202.244   60.955    0.488   15.845
  203.064   63.382    0.499   15.873
  203.885   66.400    0.508   12.020
  204.705   71.231    0.505    9.280
  205.525   75.456    0.494    7.864
  206.345   74.272    0.475    7.594
  207.165   71.284    0.456    8.685
