~VERSION INFORMATION
 VERS.                 2.0:   CWLS LOG ASCII STANDARD -VERSION 2.0
 WRAP.                  NO:   ONE LINE PER DEPTH STEP
~WELL INFORMATION BLOCK
#MNEM.UNIT           DATA                    DESCRIPTION OF MNEMONIC
#---------    -------------------            -------------------------------
# Generated from Intellog Unique Number	CC_88_90/WELL/1173
WELL.         10-11-089-16W4                 : Well_name    - WELL
LOC .         AA/10-11-089-16W4/0            : Location     - LOCATION
UWI .         AA/10-11-089-16W400            : Uwi          - UNIQUE WELL ID
ENTR.         DW                             : Entered      - ENTERED BY
SRVC.         SCHLUMBERGER                   : Scn          - SERVICE COMPANY
STRT.M        65                             : top_depth    - START DEPTH
STOP.M        249.75                         : bot_depth    - STOP DEPTH
STEP.M        0.25                           : increment    - STEP LENGTH
 NULL. -999.2500:NULL Value
~CURVE INFORMATION BLOCK
#MNEM UNIT       ERCB CURVE CODE    CURVE DESCRIPTION
#-----------   ------------------   ----------------------------------
DEPT.M        00 001 00 00         : DEPTH        - DEPTH
GR  .API      00 310 00 00         : GR           - GAMMA RAY
DPHI.V/V      00 890 00 00         : PHID         - DENSITY POROSITY (SANDSTONE)
NPHI.V/V      00 330 00 00         : PHIN         - NEUTRON POROSITY (SANDSTONE)
ILD .OHMM     00 120 00 00         : RESD         - DEEP RESISTIVITY (DIL)
~PARAMETER INFORMATION
#MNEM.UNIT           DATA             DESCRIPTION OF MNEMONIC
#---------         -----------     ------------------------------
GL  .M        509.6                : gl           - GROUND LEVEL ELEVATION
EREF.M        512.8                : kb           - ELEVATION OF DEPTH REFERENCE
DATM.M        512.8                : datum        - DATUM ELEVATION
TDD .M        258                  : tdd          - TOTAL DEPTH DRILLER
RUN .         ONE                  : Run          - RUN NUMBER
ENG .         BILL                 : Engineer     - RECORDING ENGINEER
WIT .         JIM                  : Witness      - WITNESSED BY
MUD .         GEL                  : Mud_type     - MUD TYPE
MATR.         SANDSTONE            : Logunit      - NEUTRON MATRIX
TMAX.C        25                   : BHT          - MAXIMUM RECORDED TEMPERATURE
BHTD.M        258                  : BHTDEP       - MAXIMUM RECORDED TEMPERATURE
MATR.         1                    : LOGUNIT      - NEUTRON MATRIX
RMT .C        25                   : MDTP         - TEMPERATURE OF MUD
NEUT.         1                    : NEUTRON      - NEUTRON TYPE
RESI.         0                    : RESIST       - RESISTIVITY TYPE
RMC .OHMM     0.25                 : RMC          - RESISTIVITY OF MUD CAKE
RMF .OHMM     0.25                 : RMF          - RESISTIVITY OF MUD FILTRATE
SUFT.C        15                   : SUFT         - SURFACE TEMPERATURE
~A  DEPTH       GR     PHID     PHIN     RESD
# ...
  108.500   73.590    0.300    0.554    7.875
  108.750   73.136    0.316    0.523    7.867
  109.000   72.360    0.340    0.497    7.895
  109.250   72.980    0.320    0.502    7.753
  109.500   76.680    0.277    0.509    7.454
  109.750   80.770    0.255    0.497    7.068
  110.000   81.512    0.273    0.488    6.515
  110.250   83.034    0.330    0.510    5.986
  110.500   84.150    0.327    0.546    5.898
  110.750   85.139    0.303    0.566    5.942
  111.000   81.293    0.309    0.582    6.209
  111.250   73.476    0.320    0.584    6.918
  111.500   69.763    0.307    0.556    8.308
  111.750   65.691    0.302    0.553   10.990
  112.000   61.379    0.289    0.518   12.296
  112.250   55.754    0.273    0.466   12.105
  112.500   55.916    0.267    0.450   11.238
  112.750   63.913    0.286    0.474    9.909
  113.000   70.308    0.319    0.493    8.613
  113.250   75.130    0.316    0.492    8.298
  113.500   77.638    0.309    0.477    8.261
  113.750   79.100    0.308    0.471    8.437
  114.000   77.691    0.303    0.488    8.673
  114.250   74.022    0.305    0.505    8.802
  114.500   73.914    0.326    0.501    8.930
  114.750   76.325    0.318    0.519    8.677
  115.000   74.622    0.312    0.514    8.284
  115.250   77.162    0.310    0.490    7.867
  115.500   80.235    0.302    0.506    7.250
  115.750   79.710    0.293    0.538    6.648
  116.000   83.676    0.284    0.508    6.598
  116.250   84.875    0.268    0.492    6.895
  116.500   79.756    0.256    0.515    7.222
  116.750   76.168    0.242    0.502    6.499
  117.000   79.751    0.259    0.514    5.214
  117.250   85.683    0.301    0.582    4.524
  117.500   84.874    0.305    0.599    4.275
  117.750   76.612    0.313    0.620    4.050
  118.000   70.988    0.319    0.659    4.264
  118.250   66.594    0.334    0.578    5.488
  118.500   59.578    0.340    0.484    8.290
  118.750   52.276    0.377    0.510   12.083
  119.000   49.132    0.459    0.548   15.621
  119.250   49.969    0.377    0.578   19.055
  119.500   51.648    0.236    0.540   20.712
  119.750   52.704    0.254    0.458   20.157
  120.000   52.527    0.337    0.444   18.559
  120.250   52.255    0.329    0.489   16.779
  120.500   53.968    0.311    0.472   14.761
  120.750   56.840    0.316    0.460   12.993
  121.000   61.797    0.310    0.461   11.702
  121.250   68.485    0.314    0.465   10.931
  121.500   72.855    0.313    0.478   10.646
  121.750   72.743    0.298    0.497   10.742
  122.000   69.910    0.304    0.500   10.901
  122.250   65.298    0.302    0.494   10.504
  122.500   66.698    0.311    0.482    9.149
  122.750   68.761    0.323    0.482    7.814
  123.000   68.435    0.331    0.504    7.147
  123.250   65.838    0.340    0.540    7.106
  123.500   58.788    0.356    0.585    8.048
  123.750   51.774    0.378    0.624   10.409
  124.000   48.563    0.355    0.538   12.284
  124.250   48.405    0.373    0.486   13.762
  124.500   49.266    0.410    0.494   13.894
  124.750   52.291    0.386    0.473   12.317
  125.000   57.446    0.348    0.472   11.078
  125.250   57.619    0.346    0.527   10.540
  125.500   57.971    0.338    0.510   10.060
  125.750   62.592    0.322    0.477    8.926
  126.000   69.084    0.307    0.491    7.524
  126.250   74.326    0.286    0.525    6.885
  126.500   78.272    0.215    0.553    8.172
  126.750   79.701    0.055    0.534   12.960
  127.000   76.334   -0.001    0.302   21.806
  127.250   64.947    0.017    0.183   37.370
  127.500   54.252    0.039    0.209   49.149
  127.750   50.623    0.063    0.213   50.879
  128.000   49.929    0.092    0.259   48.858
  128.250   57.005    0.134    0.304   36.632
  128.500   67.846    0.194    0.351   22.438
  128.750   74.534    0.244    0.389   16.455
  129.000   75.903    0.269    0.423   15.624
  129.250   75.626    0.280    0.454   14.141
  129.500   73.864    0.288    0.471   13.818
  129.750   69.200    0.276    0.489   14.005
  130.000   71.494    0.287    0.487   14.423
  130.250   73.941    0.299    0.468   14.841
  130.500   72.433    0.301    0.452   14.745
  130.750   70.299    0.303    0.467   13.826
  131.000   70.686    0.303    0.503   12.104
  131.250   77.874    0.300    0.493    9.707
  131.500   82.351    0.285    0.467    8.208
  131.750   83.505    0.264    0.478    7.345
  132.000   83.215    0.243    0.509    6.925
  132.250   79.225    0.210    0.513    7.031
  132.500   71.882    0.172    0.488    7.400
  132.750   69.999    0.215    0.451    8.393
  133.000   75.263    0.277    0.465    9.341
  133.250   78.132    0.281    0.499   10.748
  133.500   73.595    0.261    0.498   11.951
  133.750   67.184    0.269    0.474   12.375
  134.000   65.031    0.275    0.468   12.065
  134.250   64.825    0.274    0.459    9.430
  134.500   67.071    0.283    0.464    7.774
  134.750   74.330    0.277    0.481    6.665
  135.000   84.178    0.258    0.502    5.478
  135.250   94.096    0.247    0.545    4.776
  135.500  103.052    0.239    0.599    4.360
  135.750  104.483    0.236    0.588    3.959
  136.000  103.909    0.235    0.579    3.722
  136.250  105.682    0.239    0.571    3.646
  136.500  108.030    0.245    0.572    3.737
  136.750  107.548    0.252    0.593    3.915
  137.000  104.245    0.255    0.603    4.035
  137.250  101.008    0.245    0.611    4.243
  137.500   99.438    0.215    0.620    4.271
  137.750   99.417    0.196    0.634    4.326
  138.000  100.312    0.207    0.641    4.501
  138.250  101.216    0.236    0.622    4.749
  138.500  101.092    0.253    0.587    5.242
  138.750   99.674    0.230    0.549    6.033
  139.000   96.639    0.238    0.521    6.970
  139.250   89.203    0.228    0.506    8.533
  139.500   79.588    0.215    0.505   10.539
  139.750   73.104    0.241    0.495   12.296
  140.000   70.905    0.256    0.468   13.416
  140.250   70.679    0.243    0.477   13.521
  140.500   72.629    0.223    0.477   12.672
  140.750   76.148    0.247    0.466   11.543
  141.000   79.294    0.280    0.469   10.492
  141.250   80.891    0.272    0.483    9.870
  141.500   81.887    0.258    0.480    9.915
  141.750   83.858    0.240    0.462    9.747
  142.000   86.120    0.205    0.459    9.881
  142.250   87.207    0.210    0.455   10.555
  142.500   85.977    0.233    0.445   11.420
  142.750   84.108    0.232    0.446   12.041
  143.000   84.892    0.230    0.455   12.406
  143.250   87.483    0.230    0.461   12.835
  143.500   89.202    0.238    0.447   12.795
  143.750   90.892    0.240    0.446   12.325
  144.000   91.535    0.250    0.450   11.664
  144.250   90.999    0.258    0.446   11.261
  144.500   90.375    0.232    0.454   11.489
  144.750   84.967    0.224    0.470   11.946
  145.000   78.009    0.217    0.479   13.437
  145.250   67.615    0.246    0.460   14.859
  145.500   60.556    0.287    0.434   15.275
  145.750   59.946    0.312    0.431   15.231
  146.000   58.331    0.333    0.442   15.216
  146.250   60.981    0.279    0.449   14.375
  146.500   66.564    0.256    0.439   12.932
  146.750   71.169    0.252    0.434   11.697
  147.000   72.500    0.237    0.434   11.078
  147.250   69.633    0.225    0.435   11.087
  147.500   63.205    0.221    0.447   11.670
  147.750   57.588    0.235    0.459   12.746
  148.000   56.992    0.288    0.453   14.550
  148.250   58.591    0.332    0.439   15.697
  148.500   63.168    0.331    0.428   16.391
  148.750   69.566    0.312    0.427   16.518
  149.000   71.709    0.310    0.443   14.892
  149.250   72.428    0.310    0.463   13.420
  149.500   70.987    0.292    0.469   11.149
  149.750   70.636    0.242    0.478    9.199
  150.000   72.548    0.225    0.492    8.026
  150.250   74.350    0.255    0.495    7.815
  150.500   74.106    0.258    0.488    9.107
  150.750   71.215    0.271    0.495   10.258
  151.000   67.004    0.292    0.480   12.322
  151.250   63.824    0.303    0.452   13.350
  151.500   62.952    0.288    0.451   13.243
  151.750   65.811    0.257    0.469   12.839
