~VERSION INFORMATION
 VERS.                 2.0:   CWLS LOG ASCII STANDARD -VERSION 2.0
 WRAP.                  NO:   ONE LINE PER DEPTH STEP
~WELL INFORMATION BLOCK
#MNEM.UNIT           DATA                    DESCRIPTION OF MNEMONIC
#---------    -------------------            -------------------------------
# Generated from Intellog Unique Number	CS_77_79/WELL/944
LOC .         AA/10-11-077-08W4/0            : Location     - LOCATION
UWI .         AA/10-11-077-08W4/0            : Uwi          - UNIQUE WELL ID
ENTR.         SP                             : Entered      - ENTERED BY
SRVC.         SCHLUMBERGER                   : Scn          - SERVICE COMPANY
STRT.M        140                            : top_depth    - START DEPTH
STOP.M        385                            : bot_depth    - STOP DEPTH
STEP.M        0.25                           : increment    - STEP LENGTH
 NULL. -999.2500:NULL Value
~CURVE INFORMATION BLOCK
#MNEM UNIT       ERCB CURVE CODE    CURVE DESCRIPTION
#-----------   ------------------   ----------------------------------
DEPT.M        00 001 00 00         : DEPTH        - DEPTH
ILD .OHMM     00 120 00 00         : RESD         - DEEP RESISTIVITY (DIL)
DPHI.V/V      00 890 00 00         : PHID         - DENSITY POROSITY (LIMESTONE)
NPHI.V/V      00 330 00 00         : PHIN         - NEUTRON POROSITY (LIMESTONE)
GR  .API      00 310 00 00         : GR           - GAMMA RAY
~PARAMETER INFORMATION
#MNEM.UNIT           DATA             DESCRIPTION OF MNEMONIC
#---------         -----------     ------------------------------
GL  .M        566.83               : gl           - GROUND LEVEL ELEVATION
EREF.M        570.4                : kb           - ELEVATION OF DEPTH REFERENCE
DATM.M        566.83               : datum        - DATUM ELEVATION
TDD .M        391                  : tdd          - TOTAL DEPTH DRILLER
RUN .         ONE                  : Run          - RUN NUMBER
ENG .         BILL                 : Engineer     - RECORDING ENGINEER
WIT .         JIM                  : Witness      - WITNESSED BY
MUD .         GEL                  : Mud_type     - MUD TYPE
MATR.         LIMESTONE            : Logunit      - NEUTRON MATRIX
TMAX.C        16                   : BHT          - MAXIMUM RECORDED TEMPERATURE
BHTD.M        391                  : BHTDEP       - MAXIMUM RECORDED TEMPERATURE
MATR.         1                    : LOGUNIT      - NEUTRON MATRIX
RMT .C        25                   : MDTP         - TEMPERATURE OF MUD
NEUT.         1                    : NEUTRON      - NEUTRON TYPE
RESI.         0                    : RESIST       - RESISTIVITY TYPE
RMC .OHMM     0.25                 : RMC          - RESISTIVITY OF MUD CAKE
RMF .OHMM     0.25                 : RMF          - RESISTIVITY OF MUD FILTRATE
SUFT.C        15                   : SUFT         - SURFACE TEMPERATURE
~A  DEPTH     RESD     PHID     PHIN       GR
# ...
  183.500   13.545    0.227    0.376  101.829
  183.750   13.294    0.246    0.362   99.974
  184.000   13.296    0.262    0.364  104.291
  184.250   13.297    0.276    0.364  109.843
  184.500   13.554    0.286    0.369  108.605
  184.750   14.075    0.269    0.375   91.934
  185.000   14.617    0.275    0.362   75.264
  185.250   16.996    0.289    0.343   62.298
  185.500   17.985    0.289    0.332   56.739
  185.750   20.522    0.289    0.346   62.290
  186.000   20.915    0.289    0.353   63.521
  186.250   21.314    0.287    0.364   64.135
  186.500   20.148    0.276    0.362   67.218
  186.750   18.342    0.269    0.357   71.535
  187.000   17.337    0.253    0.362   74.618
  187.250   15.782    0.229    0.345   80.170
  187.500   14.100    0.217    0.337   83.869
  187.750   13.580    0.207    0.340   86.952
  188.000   11.906    0.201    0.362   90.652
  188.250   10.838    0.190    0.385   96.822
  188.500   10.245    0.184    0.406  109.780
  188.750    9.503    0.182    0.419  120.888
  189.000    8.651    0.183    0.405  116.563
  189.250    7.875    0.193    0.400  112.856
  189.500    7.444    0.201    0.396  111.000
  189.750    7.170    0.205    0.375  110.997
  190.000    7.307    0.205    0.369   96.179
  190.250    7.880    0.201    0.356   88.151
  190.500    8.823    0.195    0.364   91.233
  190.750    9.696    0.201    0.364   93.698
  191.000   10.069    0.244    0.369   94.930
  191.250   10.262    0.259    0.383  110.357
  191.500    9.884    0.270    0.394  110.971
  191.750    9.344    0.279    0.407  107.881
  192.000    8.999    0.285    0.407   99.236
  192.250    8.669    0.390    0.402   89.356
  192.500    9.174    0.401    0.389   86.266
  192.750    9.349    0.379    0.368   93.669
  193.000   10.468    0.214    0.367   96.751
  193.250   11.289    0.206    0.378   97.983
  193.500   11.506    0.205    0.377   96.127
  193.750   11.726    0.215    0.383  100.444
  194.000   11.728    0.250    0.384  100.441
  194.250   11.511    0.277    0.378   98.585
  194.500   11.512    0.261    0.366   97.346
  194.750   11.734    0.242    0.355   94.875
  195.000   11.958    0.236    0.348   89.932
  195.250   12.656    0.238    0.357   89.310
  195.500   12.898    0.248    0.366   89.308
  195.750   12.659    0.252    0.375   91.156
  196.000   12.660    0.263    0.380   93.004
  196.250   12.195    0.284    0.373   94.852
  196.500   11.969    0.311    0.375   92.997
  196.750   11.748    0.340    0.420   88.055
  197.000   11.973    0.385    0.431   88.668
  197.250   12.671    0.320    0.417   82.492
  197.500   12.913    0.244    0.379   78.785
  197.750   14.459    0.232    0.371   79.398
  198.000   12.917    0.246    0.379   89.271
  198.250   11.540    0.281    0.391   86.798
  198.500    9.928    0.295    0.417   92.350
  198.750    9.384    0.260    0.399   95.433
  199.000    7.924    0.274    0.404   87.404
  199.250    7.078    0.297    0.423   80.611
  199.500    6.566    0.308    0.440   83.076
  199.750    5.977    0.312    0.429   88.628
  200.000    5.867    0.295    0.432   89.242
  200.250    5.979    0.218    0.393   89.238
  200.500    6.570    0.213    0.369   86.148
  200.750    8.083    0.219    0.363   72.564
  201.000    9.944    0.223    0.358   62.684
  201.250   12.005    0.249    0.356   54.655
  201.500   14.493    0.256    0.354   51.566
  201.750   17.830    0.263    0.357   59.587
  202.000   21.936    0.265    0.349   57.114
  202.250   24.562    0.270    0.344   58.962
  202.500   25.508    0.269    0.336   55.871
  202.750   25.996    0.267    0.332   54.016
  203.000   26.001    0.268    0.330   56.482
  203.250   26.007    0.270    0.332   57.712
  203.500   26.505    0.272    0.333   57.709
  203.750   26.509    0.273    0.341   59.558
  204.000   27.017    0.273    0.351   53.998
  204.250   27.021    0.273    0.349   57.080
  204.500   27.026    0.274    0.341   59.547
  204.750   27.544    0.275    0.338   59.543
  205.000   28.071    0.277    0.337   59.539
  205.250   28.609    0.277    0.337   60.153
  205.500   29.711    0.274    0.343   63.852
  205.750   30.280    0.278    0.355   61.380
  206.000   30.284    0.283    0.356   59.525
  206.250   30.863    0.284    0.350   60.138
  206.500   31.456    0.284    0.342   63.221
  206.750   31.460    0.288    0.333   66.304
  207.000   31.464    0.293    0.327   62.596
  207.250   32.679    0.297    0.329   63.827
  207.500   33.304    0.297    0.332   67.527
  207.750   33.943    0.299    0.340   66.288
  208.000   34.592    0.296    0.342   66.284
  208.250   35.254    0.294    0.343   65.663
  208.500   35.929    0.291    0.342   65.660
  208.750   36.617    0.291    0.344   66.274
  209.000   36.623    0.295    0.344   65.035
  209.250   37.327    0.299    0.344   66.884
  209.500   38.041    0.302    0.348   68.732
  209.750   38.048    0.305    0.351   65.642
  210.000   38.054    0.306    0.355   63.169
  210.250   38.059    0.305    0.353   58.845
  210.500   36.657    0.304    0.339   59.459
  210.750   35.310    0.299    0.343   61.306
  211.000   34.010    0.296    0.345   66.241
  211.250   33.380    0.298    0.355   68.706
  211.500   32.156    0.298    0.356   69.938
  211.750   32.160    0.294    0.358   68.082
  212.000   31.564    0.295    0.363   69.313
  212.250   30.981    0.296    0.375   69.927
  212.500   30.983    0.296    0.361   73.626
  212.750   30.412    0.296    0.352   75.474
  213.000   29.849    0.296    0.361   72.385
  213.250   29.296    0.299    0.365   72.381
  213.500   28.755    0.304    0.363   79.784
  213.750   28.226    0.305    0.365   72.374
  214.000   28.229    0.303    0.366   63.111
  214.250   28.232    0.301    0.365   63.106
  214.500   28.239    0.300    0.363   58.781
  214.750   28.242    0.300    0.360   58.779
  215.000   28.245    0.301    0.365   63.094
  215.250   28.789    0.303    0.359   64.944
  215.500   29.339    0.304    0.354   64.940
  215.750   29.343    0.301    0.358   66.172
  216.000   29.347    0.298    0.364   62.463
  216.250   29.912    0.295    0.360   64.312
  216.500   29.916    0.297    0.353   65.543
  216.750   29.921    0.304    0.365   60.601
  217.000   29.925    0.304    0.368   57.512
  217.250   29.930    0.301    0.369   63.062
  217.500   29.933    0.301    0.366   61.825
  217.750   29.941    0.300    0.377   58.735
  218.000   29.387    0.302    0.386   60.583
  218.250   29.391    0.303    0.377   63.665
  218.500   28.847    0.303    0.368   63.044
  218.750   28.852    0.303    0.362   59.954
  219.000   28.855    0.295    0.362   56.247
  219.250   28.321    0.295    0.369   63.033
  219.500   28.326    0.297    0.379   58.091
  219.750   27.802    0.298    0.373   52.533
  220.000   27.805    0.297    0.365   48.207
  220.250   27.810    0.294    0.358   50.674
  220.500   27.814    0.295    0.366   55.608
  220.750   27.821    0.294    0.380   53.136
  221.000   28.353    0.291    0.368   53.749
  221.250   28.356    0.292    0.354   51.893
  221.500   28.363    0.293    0.349   52.507
  221.750   28.365    0.294    0.341   53.738
  222.000   28.373    0.296    0.356   59.906
  222.250   28.376    0.293    0.360   64.224
  222.500   28.918    0.288    0.353   63.603
  222.750   28.922    0.285    0.351   61.748
  223.000   28.929    0.286    0.340   64.212
  223.250   28.932    0.286    0.352   67.294
  223.500   28.935    0.283    0.345   69.144
  223.750   28.401    0.275    0.343   66.671
  224.000   26.846    0.266    0.353   66.667
  224.250   25.375    0.264    0.353   68.516
  224.500   23.540    0.260    0.352   62.957
  224.750   22.673    0.260    0.353   66.040
  225.000   21.839    0.261    0.353   69.122
  225.250   21.036    0.259    0.345   65.415
  225.500   20.646    0.255    0.334   63.559
  225.750   19.516    0.249    0.347   62.320
  226.000   19.154    0.243    0.356   62.935
  226.250   17.769    0.238    0.354   67.252
  226.500   16.482    0.236    0.351   74.038
  226.750   15.289    0.226    0.352   77.121
