~VERSION INFORMATION
 VERS.                 2.0:   CWLS LOG ASCII STANDARD -VERSION 2.0
 WRAP.                  NO:   ONE LINE PER DEPTH STEP
~WELL INFORMATION BLOCK
#MNEM.UNIT           DATA                    DESCRIPTION OF MNEMONIC
#---------    -------------------            -------------------------------
# Generated from Intellog Unique Number	CN_94_101/WELL/5060
WELL.         16-21-098-13W4                 : Well_name    - WELL
LOC .         AA/16-21-098-13W4/0            : Location     - LOCATION
UWI .         AA/16-21-098-13W400            : Uwi          - UNIQUE WELL ID
ENTR.         JOETTE                         : Entered      - ENTERED BY
SRVC.         SCHLUMBERGER                   : Scn          - SERVICE COMPANY
DATE.         08/28/92                       : Date         - LOG DATE
STRT.M        350                            : top_depth    - START DEPTH
STOP.M        560                            : bot_depth    - STOP DEPTH
STEP.M        0.25                           : increment    - STEP LENGTH
 NULL. -999.2500:NULL Value
~CURVE INFORMATION BLOCK
#MNEM UNIT       ERCB CURVE CODE    CURVE DESCRIPTION
#-----------   ------------------   ----------------------------------
DEPT.M        00 001 00 00         : DEPTH        - DEPTH
DPHI.V/V      00 890 00 00         : PHID         - DENSITY POROSITY (SANDSTONE)
NPHI.V/V      00 330 00 00         : PHIN         - NEUTRON POROSITY (SANDSTONE)
GR  .API      00 310 00 00         : GR           - GAMMA RAY
ILD .OHMM     00 120 00 00         : RESD         - DEEP RESISTIVITY (DIL)
~PARAMETER INFORMATION
#MNEM.UNIT           DATA             DESCRIPTION OF MNEMONIC
#---------         -----------     ------------------------------
GL  .M        790.35               : gl           - GROUND LEVEL ELEVATION
EREF.M        793.6                : kb           - ELEVATION OF DEPTH REFERENCE
DATM.M        793.6                : datum        - DATUM ELEVATION
TDD .M        494                  : tdd          - TOTAL DEPTH DRILLER
RUN .         ONE                  : Run          - RUN NUMBER
ENG .         BILL                 : Engineer     - RECORDING ENGINEER
WIT .         JIM                  : Witness      - WITNESSED BY
MUD .         GEL                  : Mud_type     - MUD TYPE
MATR.         SANDSTONE            : Logunit      - NEUTRON MATRIX
TMAX.C        21                   : BHT          - MAXIMUM RECORDED TEMPERATURE
BHTD.M        494                  : BHTDEP       - MAXIMUM RECORDED TEMPERATURE
RMT .C        16                   : MDTP         - TEMPERATURE OF MUD
MUDD.KG/M     1090                 : MWT          - MUD DENSITY
NEUT.         1                    : NEUTRON      - NEUTRON TYPE
RESI.         0                    : RESIST       - RESISTIVITY TYPE
RM  .OHMM     4.6                  : RM           - RESISTIVITY OF MUD
RMC .OHMM     4.3                  : RMC          - RESISTIVITY OF MUD CAKE
RMF .OHMM     4                    : RMF          - RESISTIVITY OF MUD FILTRATE
SUFT.C        4                    : SUFT         - SURFACE TEMPERATURE
~A  DEPTH     PHID     PHIN       GR     RESD
# ...
  437.000    0.213    0.550  118.272    4.959
  437.250    0.208    0.543  117.087    4.778
  437.500    0.202    0.543  116.503    4.603
  437.750    0.199    0.546  118.952    4.191
  438.000    0.237    0.550  120.182    3.816
  438.250    0.242    0.551  122.024    3.475
  438.500    0.248    0.551  123.867    3.165
  438.750    0.256    0.550  126.928    2.992
  439.000    0.262    0.547  122.097    2.829
  439.250    0.264    0.545  119.081    2.726
  439.500    0.265    0.536  117.289    2.831
  439.750    0.269    0.529  115.492    2.996
  440.000    0.271    0.530  113.088    3.292
  440.250    0.272    0.531  111.891    3.618
  440.500    0.277    0.532  110.706    3.829
  440.750    0.278    0.518  109.515    4.207
  441.000    0.271    0.369  108.319    4.984
  441.250    0.228    0.277  102.882    6.016
  441.500    0.171    0.248   96.231    7.401
  441.750    0.115    0.209   83.514    8.933
  442.000    0.063    0.200   70.190   14.843
  442.250    0.050    0.205   65.966   63.108
  442.500    0.020    0.216   64.781   80.598
  442.750   -0.019    0.247   67.225   99.137
  443.000    0.144    0.291   80.593  115.257
  443.250    0.190    0.349   82.441   19.340
  443.500    0.233    0.374   86.109   15.733
  443.750    0.252    0.399   94.614   11.872
  444.000    0.273    0.427   95.855    8.959
  444.250    0.279    0.451   98.911    7.288
  444.500    0.268    0.476  101.966    7.428
  444.750    0.259    0.493  101.989    7.862
  445.000    0.260    0.489  100.798    7.159
  445.250    0.264    0.497  103.247    5.824
  445.500    0.270    0.506  107.522    5.304
  445.750    0.269    0.516  107.544    5.014
  446.000    0.244    0.525  107.561    4.831
  446.250    0.244    0.534  106.370    4.833
  446.500    0.248    0.534  104.573    4.834
  446.750    0.257    0.530  102.169    4.927
  447.000    0.262    0.525  102.798    5.022
  447.250    0.268    0.525  104.640    5.119
  447.500    0.279    0.526  108.308    5.121
  447.750    0.299    0.530  109.544    5.122
  448.000    0.312    0.533  109.572    5.124
  448.250    0.312    0.531  108.983    5.030
  448.500    0.314    0.533  106.584    4.938
  448.750    0.311    0.533  105.382    4.669
  449.000    0.300    0.534  102.978    4.498
  449.250    0.293    0.535  102.399    4.499
  449.500    0.292    0.539  103.641    4.501
  449.750    0.286    0.541  104.259    4.502
  450.000    0.280    0.544  107.314    4.100
  450.250    0.280    0.550  112.190    3.664
  450.500    0.283    0.557  117.066    3.274
  450.750    0.289    0.559  121.941    3.038
  451.000    0.294    0.554  125.003    2.982
  451.250    0.278    0.500  119.560    2.983
  451.500    0.255    0.462  115.336    3.041
  451.750    0.239    0.447  111.117    3.342
  452.000    0.237    0.445  108.713    3.672
  452.250    0.236    0.454  107.523    4.189
  452.500    0.225    0.467  108.758    4.604
  452.750    0.232    0.494  112.415    5.059
  453.000    0.256    0.504  119.111    4.521
  453.250    0.272    0.531  121.560    3.891
  453.500    0.261    0.545  120.375    3.543
  453.750    0.256    0.549  122.217    3.478
  454.000    0.253    0.548  122.846    3.479
  454.250    0.247    0.544  126.503    3.753
  454.500    0.242    0.512  125.919    3.897
  454.750    0.236    0.484  121.088    4.704
  455.000    0.234    0.462  118.077    7.816
  455.250    0.226    0.440  115.067    9.087
  455.500    0.223    0.432  114.488   11.177
  455.750    0.220    0.427  113.898   12.995
  456.000    0.215    0.426  111.494   12.998
  456.250    0.209    0.427  109.697   12.523
  456.500    0.203    0.432  110.332   11.619
  456.750    0.202    0.438  110.961   50.341
  457.000    0.208    0.462  111.590   59.636
  457.250    0.213    0.469  111.011   66.781
  457.500    0.221    0.474  111.023   58.563
  457.750    0.226    0.481  111.652   34.613
  458.000    0.229    0.491  112.887   25.155
  458.250    0.237    0.498  114.741   19.709
  458.500    0.249    0.508  114.752   17.285
  458.750    0.246    0.497  114.174   16.653
  459.000    0.236    0.468  112.371   17.625
  459.250    0.228    0.459  109.967   16.665
  459.500    0.218    0.449  108.169   16.358
  459.750    0.186    0.442  106.979   17.977
  460.000    0.171    0.439  105.788   18.670
  460.250    0.173    0.443  105.204   19.760
  460.500    0.177    0.451  104.625   25.713
  460.750    0.173    0.465  104.648   18.339
  461.000    0.181    0.468  105.883   17.017
  461.250    0.202    0.467  106.512   17.346
  461.500    0.215    0.466  105.928   18.358
  461.750    0.215    0.463  105.339   18.021
  462.000    0.215    0.458  103.541   17.692
  462.250    0.215    0.452  102.350   18.032
  462.500    0.219    0.446  102.985   20.194
  462.750    0.227    0.442  103.008   20.972
  463.000    0.232    0.448  104.243   21.375
  463.250    0.236    0.461  106.692   20.210
  463.500    0.237    0.471  109.754   17.394
  463.750    0.237    0.473  110.372   14.971
  464.000    0.240    0.475  110.394   12.410
  464.250    0.243    0.482  110.417   11.091
  464.500    0.236    0.477  108.619   12.187
  464.750    0.235    0.453  105.008   15.564
  465.000    0.242    0.443  105.024   17.104
  465.250    0.244    0.443  106.872   16.791
  465.500    0.250    0.453  108.715   15.579
  465.750    0.258    0.471  111.164   12.673
  466.000    0.257    0.488  114.826    9.745
  466.250    0.254    0.498  117.888    9.748
  466.500    0.253    0.504  117.910    9.391
  466.750    0.255    0.497  116.714    8.236
  467.000    0.252    0.477  114.310    8.085
  467.250    0.249    0.471  113.726    9.579
  467.500    0.247    0.449  112.535   10.725
  467.750    0.238    0.445  110.737   12.469
  468.000    0.234    0.451  108.940   14.226
  468.250    0.233    0.462  109.569   13.706
  468.500    0.233    0.481  111.417   13.204
  468.750    0.234    0.487  113.259   12.024
  469.000    0.237    0.512  115.714   10.349
  469.250    0.241    0.515  117.551    8.262
  469.500    0.248    0.526  120.000    5.893
  469.750    0.251    0.539  121.848    4.048
  470.000    0.252    0.541  121.865    2.942
  470.250    0.252    0.536  121.887    2.782
  470.500    0.255    0.532  120.096    2.889
  470.750    0.256    0.533  118.899    3.000
  471.000    0.261    0.538  120.135    2.441
  471.250    0.264    0.545  121.371    2.062
  471.500    0.260    0.544  121.994    1.986
  471.750    0.273    0.519  119.596    2.142
  472.000    0.269    0.518  116.585    2.225
  472.250    0.260    0.514  111.749    2.445
  472.500    0.255    0.508  111.165    2.789
  472.750    0.254    0.502  113.614    4.464
  473.000    0.254    0.480  113.636    7.279
  473.250    0.231    0.478  111.232    8.785
  473.500    0.224    0.472  111.255   11.871
  473.750    0.221    0.467  114.310   12.802
  474.000    0.210    0.457  116.759   10.220
  474.250    0.193    0.451  117.995   10.418
  474.500    0.190    0.446  114.384   10.820
  474.750    0.212    0.443  115.625   14.897
  475.000    0.215    0.443  117.462   16.373
  475.250    0.209    0.446  118.692   16.687
  475.500    0.202    0.447  121.147   17.008
  475.750    0.194    0.448  122.377   17.013
  476.000    0.188    0.450  123.613   17.344
  476.250    0.180    0.450  124.242   17.677
  476.500    0.175    0.448  124.270   18.709
  476.750    0.177    0.442  123.680   20.948
  477.000    0.181    0.439  123.096   23.899
  477.250    0.186    0.436  123.118   50.705
  477.500    0.190    0.434  123.141   81.131
  477.750    0.195    0.439  123.163  583.834
  478.000    0.197    0.439  122.579  788.881
  478.250    0.194    0.433  120.782  531.809
  478.500    0.192    0.430  117.170  338.855
  478.750    0.188    0.427  117.193  111.846
  479.000    0.186    0.427  119.035   59.056
  479.250    0.185    0.431  118.445   38.340
  479.500    0.186    0.444  116.648   31.190
  479.750    0.195    0.454  115.457   26.849
  480.000    0.204    0.463  116.086   25.862
  480.250    0.210    0.465  117.929   25.393
