~VERSION INFORMATION
 VERS.                 2.0:   CWLS LOG ASCII STANDARD -VERSION 2.0
 WRAP.                  NO:   ONE LINE PER DEPTH STEP
~WELL INFORMATION BLOCK
#MNEM.UNIT           DATA                    DESCRIPTION OF MNEMONIC
#---------    -------------------            -------------------------------
# Generated from Intellog Unique Number	CN_94_101/WELL/5054
WELL.         FRENCH PETROLEUM               : Well_name    - WELL
LOC .         AA/16-04-099-09W4/0            : Location     - LOCATION
UWI .         AA/16-04-099-09W400            : Uwi          - UNIQUE WELL ID
ENTR.         T                              : Entered      - ENTERED BY
SRVC.         SCHLUMBERGER                   : Scn          - SERVICE COMPANY
DATE.         08/13/92                       : Date         - LOG DATE
STRT.M        3.048                          : top_depth    - START DEPTH
STOP.M        51.798                         : bot_depth    - STOP DEPTH
STEP.M        0.25                           : increment    - STEP LENGTH
 NULL. -999.2500:NULL Value
~CURVE INFORMATION BLOCK
#MNEM UNIT       ERCB CURVE CODE    CURVE DESCRIPTION
#-----------   ------------------   ----------------------------------
DEPT.M        00 001 00 00         : DEPTH        - DEPTH
GR  .API      00 310 00 00         : GR           - GAMMA RAY
NPHI.V/V      00 330 00 00         : PHIN         - NEUTRON POROSITY (SANDSTONE)
ILD .OHMM     00 120 00 00         : RESD         - DEEP RESISTIVITY (DIL)
~PARAMETER INFORMATION
#MNEM.UNIT           DATA             DESCRIPTION OF MNEMONIC
#---------         -----------     ------------------------------
GL  .M        296.342              : gl           - GROUND LEVEL ELEVATION
EREF.M        296.342              : kb           - ELEVATION OF DEPTH REFERENCE
DATM.M        296.342              : datum        - DATUM ELEVATION
TDD .M        52.4256              : tdd          - TOTAL DEPTH DRILLER
RUN .         ONE                  : Run          - RUN NUMBER
ENG .         BILL                 : Engineer     - RECORDING ENGINEER
WIT .         JIM                  : Witness      - WITNESSED BY
MUD .         GEL                  : Mud_type     - MUD TYPE
MATR.         SANDSTONE            : Logunit      - NEUTRON MATRIX
TMAX.C        17.7778              : BHT          - MAXIMUM RECORDED TEMPERATURE
BHTD.M        52.4256              : BHTDEP       - MAXIMUM RECORDED TEMPERATURE
RMT .C        17.7778              : MDTP         - TEMPERATURE OF MUD
MUDD.KG/M     1090                 : MWT          - MUD DENSITY
NEUT.         1                    : NEUTRON      - NEUTRON TYPE
RESI.         0                    : RESIST       - RESISTIVITY TYPE
RM  .OHMM     7.3                  : RM           - RESISTIVITY OF MUD
RMC .OHMM     7.25                 : RMC          - RESISTIVITY OF MUD CAKE
RMF .OHMM     9.25                 : RMF          - RESISTIVITY OF MUD FILTRATE
SUFT.C        4                    : SUFT         - SURFACE TEMPERATURE
~A  DEPTH       GR     PHIN     RESD
    3.048   87.047    0.160  261.327
    3.298   88.687    0.165  257.233
    3.548   85.875    0.172  256.861
    3.798   89.368    0.173  260.210
    4.048   96.417    0.174  270.630
    4.298   96.295    0.176  281.142
    4.548   87.177    0.183  288.027
    4.798   80.779    0.198  265.978
    5.048   73.454    0.213  225.509
    5.298   68.819    0.233  243.278
    5.548   67.800    0.245  250.163
    5.798   68.604    0.258  217.230
    6.048   77.415    0.253  195.088
    6.298   76.427    0.142  198.344
    6.548   84.372    0.090  208.857
    6.798   86.043    0.024  244.767
    7.048   85.920   -0.008  295.097
    7.298   83.108    0.002  276.677
    7.548   75.753    0.021  283.561
    7.798   71.148    0.043  406.643
    8.048   67.470    0.032  569.634
    8.298   74.519   -0.037  543.865
    8.548   77.982   -0.081  358.266
    8.798   85.000   -0.070  245.325
    9.048   88.494    0.011  201.414
    9.298   93.750    0.051  211.927
    9.548   91.835    0.063  324.123
    9.798   84.540    0.026  381.803
   10.048   77.216   -0.041  297.888
   10.298   75.269   -0.149  642.478
   10.548   76.043   -0.172  732.812
   10.798   75.024   -0.155  728.812
   11.048   74.036   -0.051  761.094
   11.298   77.468    0.005  702.670
   11.548   81.859    0.025  440.878
   11.798   87.115    0.037  367.848
   12.048   86.961    0.074  338.450
   12.298   79.667    0.183  240.022
   12.548   71.476    0.241  163.364
   12.798   61.462    0.272  202.903
   13.048   65.822    0.298  493.069
   13.298   78.280    0.334  539.864
   13.548   95.190    0.360  481.347
   13.798   86.103    0.367  401.154
   14.048   68.917    0.348  407.945
   14.298   62.489    0.336  556.517
   14.548   67.775    0.334  617.825
   14.798   84.654    0.333  624.709
   15.048   80.080    0.344  660.620
   15.298   66.480    0.349  667.411
   15.548   58.290    0.341  667.039
   15.798   58.136    0.334  648.619
   16.048   66.112    0.334  622.756
   16.298   74.924    0.337  593.358
   16.548   69.422    0.331  556.703
   16.798   66.641    0.341  494.558
   17.048   71.897    0.346  417.992
   17.298   75.329    0.342  330.449
   17.548   71.621    0.319  279.189
   17.798   67.016    0.328  256.954
   18.048   65.966    0.353  249.419
   18.298   73.046    0.361  234.533
   18.548   77.406    0.373  208.764
   18.798   72.770    0.378  201.042
   19.048   70.885    0.356  204.298
   19.298   80.624    0.350  207.461
   19.548   88.538    0.352  217.974
   19.798   85.757    0.372  224.951
   20.048   96.392    0.372  235.464
   20.298  108.850    0.378  242.348
   20.548  104.214    0.381  245.604
   20.798   93.334    0.375  252.489
   21.048   95.005    0.388  241.139
   21.298  107.432    0.390  219.090
   21.548  119.860    0.390  185.971
   21.798  136.800    0.396  200.112
   22.048  145.611    0.402  192.483
   22.298  139.244    0.409  170.248
   22.548  131.920    0.423  155.456
   22.798  131.766    0.411  151.363
   23.048  131.613    0.394  158.247
   23.298  130.625    0.389  165.225
   23.548  127.843    0.386  161.224
   23.798  124.104    0.398  157.131
   24.048  125.774    0.390  178.435
   24.298  124.755    0.385  170.714
   24.548  121.047    0.389  170.434
   24.798  123.614    0.393  184.575
   25.048  127.973    0.390  187.831
   25.298  126.058    0.384  187.459
   25.548  123.246    0.379  194.344
   25.798  122.227    0.384  193.972
   26.048  105.041    0.388  190.064
   26.298   93.203    0.408  193.320
   26.548   95.801    0.413  200.205
   26.798  102.819    0.382  199.833
   27.048  100.007    0.385  195.739
   27.298   95.433    0.401  206.159
   27.548   90.797    0.401  202.158
   27.798   93.394    0.384  201.786
   28.048  104.926    0.377  201.507
   28.298  120.939    0.384  204.763
   28.548  127.988    0.389  204.298
   28.798  123.352    0.393  204.019
   29.048  117.851    0.382  203.647
   29.298  114.173    0.371  206.903
   29.548   93.371    0.378  221.044
   29.798   89.694    0.390  238.813
   30.048   84.131    0.389  227.556
   30.298   89.418    0.385  216.299
   30.548   97.363    0.377  193.972
   30.798  103.546    0.370  186.343
   31.048  110.595    0.366  193.227
   31.298   90.720    0.369  200.205
   31.548   89.701    0.375  207.089
   31.798  113.813    0.389  206.717
   32.048  119.038    0.409  224.393
   32.298  108.158    0.391  224.021
   32.548  106.243    0.372  205.507
   32.798  109.706    0.372  237.883
   33.048  102.412    0.407  306.447
   33.298  110.326    0.407  287.934
   33.548  113.790    0.390  254.907
   33.798  102.013    0.397  207.275
   34.048   89.340    0.389  192.297
   34.298   91.010    0.376  184.668
   34.548  115.092    0.361  187.831
   34.798  127.550    0.362  191.274
   35.048  130.117    0.394  198.065
   35.298  115.620    0.403  197.786
   35.548   92.160    0.388  197.414
   35.798   85.762    0.386  197.042
   36.048   97.262    0.376  200.112
   36.298   94.481    0.365  199.740
   36.548   92.566    0.371  206.531
   36.798   96.925    0.400  209.973
   37.048  123.726    0.428  231.370
   37.298  139.740    0.451  158.433
   37.548  143.203    0.475  110.801
   37.798  148.459    0.454  101.401
   38.048  154.611    0.440   94.933
   38.298  150.872    0.444   52.245
   38.548  143.609    0.440   52.923
   38.798  132.698    0.443   58.867
   39.048  137.027    0.448   58.774
   39.298  139.594    0.447   59.076
   39.548  136.782    0.441   59.736
   39.798  132.208    0.434   58.552
   40.048  131.158    0.430   56.973
   40.298  137.310    0.433   56.467
   40.548  135.395    0.439   57.540
   40.798  140.651    0.432   57.861
   41.048  138.735    0.424   56.603
   41.298  151.194    0.419   55.813
   41.548  158.212    0.412   54.592
   41.798  150.887    0.409   52.600
   42.048  146.282    0.402   51.040
   42.298  140.781    0.390   47.563
   42.548  133.487    0.372   47.507
   42.798  123.503    0.373   49.671
   43.048  126.966    0.375   51.120
   43.298  137.601    0.378   53.284
   43.548  148.236    0.385   54.696
   43.798  160.694    0.388   51.613
   44.048  157.882    0.393   50.034
   44.298  162.242    0.395   49.566
   44.548  145.952    0.389   49.473
   44.798  121.595    0.378   50.564
   45.048  104.409    0.376   52.747
   45.298  130.314    0.378   49.645
   45.548  144.504    0.378   48.029
   45.798  143.485    0.377   49.084
   46.048  143.393    0.383   49.010
   46.298  146.856    0.391   50.440
   46.548  150.289    0.384   51.870
   46.798  151.093    0.374   50.668
   47.048  146.458    0.366   47.961
   47.298  147.262    0.381   45.235
   47.548  149.829    0.393   47.794
   47.798  143.400    0.382   51.481
   48.048  136.972    0.379   49.527
   48.298  135.953    0.383   46.030
   48.548  144.825    0.387   46.727
   48.798  149.185    0.390   47.010
   49.048  152.617    0.392   48.046
   49.298  148.940    0.390   49.138
   49.548  140.718    0.387   48.650
   49.798  138.803    0.397   46.714
   50.048  140.473    0.409   46.603
   50.298  145.729    0.409   47.300
   50.548  153.675    0.393   49.858
   50.798  157.107    0.377   52.041
   51.048  155.222    0.371   56.875
   51.298  147.032    0.371   59.415
   51.548  142.396    0.372   57.837
   51.798  141.377    0.369   54.735
