~VERSION INFORMATION
 VERS.                 2.0:   CWLS LOG ASCII STANDARD -VERSION 2.0
 WRAP.                  NO:   ONE LINE PER DEPTH STEP
~WELL INFORMATION BLOCK
#MNEM.UNIT           DATA                    DESCRIPTION OF MNEMONIC
#---------    -------------------            -------------------------------
# Generated from Intellog Unique Number	CX_WELLS/WELL/3871
WELL.         HUDSON BAY HORSE               : Well_name    - WELL
LOC .         AA/10-16-087-11W4/0            : Location     - LOCATION
UWI .         AA/10-16-087-11W400            : Uwi          - UNIQUE WELL ID
ENTR.         TIM                            : Entered      - ENTERED BY
SRVC.         SCHLUMBERGER                   : Scn          - SERVICE COMPANY
STRT.F        150                            : top_depth    - START DEPTH
STOP.F        569.948                        : bot_depth    - STOP DEPTH
STEP.F        0.82                           : increment    - STEP LENGTH
 NULL. -999.2500:NULL Value
~CURVE INFORMATION BLOCK
#MNEM UNIT       ERCB CURVE CODE    CURVE DESCRIPTION
#-----------   ------------------   ----------------------------------
DEPT.F        00 001 00 00         : DEPTH        - DEPTH
GR  .API      00 310 00 00         : GR           - GAMMA RAY
NPHI.V/V      00 330 00 00         : PHIN         - NEUTRON POROSITY (SANDSTONE)
ILD .OHMM     00 120 00 00         : RESD         - DEEP RESISTIVITY (DIL)
~PARAMETER INFORMATION
#MNEM.UNIT           DATA             DESCRIPTION OF MNEMONIC
#---------         -----------     ------------------------------
GL  .F        1450                 : gl           - GROUND LEVEL ELEVATION
EREF.F        1450                 : kb           - ELEVATION OF DEPTH REFERENCE
DATM.F        1450                 : datum        - DATUM ELEVATION
TDD .F        598                  : tdd          - TOTAL DEPTH DRILLER
RUN .         ONE                  : Run          - RUN NUMBER
ENG .         BILL                 : Engineer     - RECORDING ENGINEER
WIT .         JIM                  : Witness      - WITNESSED BY
MUD .         GEL                  : Mud_type     - MUD TYPE
MATR.         SANDSTONE            : Logunit      - NEUTRON MATRIX
TMAX.F        44                   : BHT          - MAXIMUM RECORDED TEMPERATURE
BHTD.F        598                  : BHTDEP       - MAXIMUM RECORDED TEMPERATURE
MATR.         1                    : LOGUNIT      - NEUTRON MATRIX
RMT .F        44                   : MDTP         - TEMPERATURE OF MUD
NEUT.         1                    : NEUTRON      - NEUTRON TYPE
RESI.         4                    : RESIST       - RESISTIVITY TYPE
RMC .OHMM     3.2                  : RMC          - RESISTIVITY OF MUD CAKE
RMF .OHMM     5                    : RMF          - RESISTIVITY OF MUD FILTRATE
SUFT.F        35.6                 : SUFT         - SURFACE TEMPERATURE
~A  DEPTH       GR     PHIN     RESD
  150.000   31.453    0.283   17.682
  150.820   28.312    0.277   17.311
  151.640   26.942    0.295   17.296
  152.461   26.890    0.311   17.113
  153.281   27.735    0.330   16.925
  154.101   29.887    0.336   17.569
  154.921   31.195    0.329   17.890
  155.741   32.925    0.312   18.044
  156.562   34.202    0.304   17.346
  157.382   35.056    0.300   16.317
  158.202   35.901    0.306   14.951
  159.022   34.973    0.307   14.927
  159.843   33.161    0.303   15.916
  160.663   31.348    0.305   16.396
  161.483   29.082    0.313   16.209
  162.303   28.155    0.314   15.679
  163.123   27.217    0.320   15.333
  163.944   27.176    0.327   14.803
  164.764   28.020    0.328   14.111
  165.584   27.546    0.322   13.923
  166.404   25.291    0.318   14.235
  167.224   23.468    0.311   14.388
  168.045   25.187    0.307   14.363
  168.865   26.474    0.303   14.180
  169.685   27.319    0.305   13.651
  170.505   28.606    0.306   13.295
  171.325   29.007    0.311   13.102
  172.146   27.184    0.319   12.919
  172.966   25.825    0.324   12.899
  173.786   24.908    0.327   13.048
  174.606   23.085    0.321   13.360
  175.427   21.704    0.315   13.671
  176.247   22.096    0.310   13.825
  177.067   22.518    0.306   13.805
  177.887   23.805    0.305   13.612
  178.707   24.206    0.311   13.592
  179.528   25.051    0.317   13.573
  180.348   28.552    0.323   14.226
  181.168   31.601    0.324   14.884
  181.988   29.798    0.315   14.187
  182.808   26.636    0.310   13.494
  183.629   26.162    0.311   12.970
  184.449   24.782    0.316   13.118
  185.269   23.865    0.318   13.430
  186.089   23.824    0.325   13.410
  186.909   24.204    0.330   12.549
  187.730   24.184    0.331   12.356
  188.550   23.689    0.330   12.000
  189.370   24.976    0.329   11.985
  190.190   26.696    0.325   12.124
  191.010   26.665    0.317   12.273
  191.831   26.613    0.313   12.589
  192.651   27.015    0.309   12.575
  193.471   26.088    0.315   12.718
  194.291   24.285    0.319   12.699
  195.112   23.801    0.327   12.679
  195.932   25.521    0.336   12.659
  196.752   26.344    0.346   12.813
  197.572   26.766    0.357   12.788
  198.392   27.168    0.355   12.600
  199.213   28.012    0.347   11.907
  200.033   27.971    0.337   11.551
  200.853   27.476    0.332   11.527
  201.673   27.435    0.332   12.011
  202.493   28.279    0.331   12.160
  203.314   30.452    0.312   12.640
  204.134   33.068    0.304   12.962
  204.954   35.241    0.312   13.274
  205.774   35.653    0.319   13.259
  206.594   34.272    0.332   13.234
  207.415   35.117    0.338   13.220
  208.235   35.961    0.345   13.190
  209.055   35.920    0.350   13.180
  209.875   35.878    0.348   13.156
  210.696   31.408    0.334   13.136
  211.516   27.381    0.319   12.775
  212.336   19.358    0.307   12.760
  213.156   12.674    0.288   12.909
  213.976    9.079    0.291   13.220
  214.797   10.799    0.297   13.542
  215.617   12.529    0.301   14.359
  216.437   11.591    0.295   14.171
  217.257   11.571    0.292   14.315
  218.077   12.415    0.288   14.636
  218.898   14.135    0.272   15.963
  219.718   15.422    0.233   17.457
  220.538   17.163    0.219   19.630
  221.358   22.435    0.187   23.312
  222.178   22.837    0.168   26.999
  222.999   18.810    0.198   27.147
  223.819   18.294    0.235   24.767
  224.639   19.160    0.270   20.368
  225.459   19.561    0.290   17.146
  226.280   19.520    0.290   18.477
  227.100   19.025    0.292   21.991
  227.920   18.541    0.291   17.928
  228.740   18.953    0.279   15.553
  229.560   21.115    0.268   18.557
  230.381   23.298    0.259   17.869
  231.201   25.018    0.226   20.710
  232.021   23.205    0.235   23.550
  232.841   20.950    0.263   21.848
  233.661   19.580    0.270   20.146
  234.482   17.756    0.280   18.770
  235.302   16.840    0.292   18.078
  236.122   15.913    0.303   17.390
  236.942   16.757    0.310   16.687
  237.762   15.820    0.321   16.499
  238.583   14.439    0.328   15.643
  239.403   13.059    0.326   14.777
  240.223   12.585    0.320   15.099
  241.043   13.419    0.309   16.257
  241.864   14.284    0.296   19.098
  242.684   16.457    0.280   23.111
  243.504   19.073    0.280   23.096
  244.324   22.574    0.289   22.572
  245.144   22.533    0.298   20.701
  245.965   20.267    0.291   15.797
  246.785   19.783    0.278   12.576
  247.605   20.184    0.262    9.691
  248.425   19.236    0.246    9.166
  249.245   18.773    0.230   14.367
  250.066   20.060    0.220   17.881
  250.886   24.004    0.222   20.727
  251.706   28.392    0.226   19.693
  252.526   32.336    0.237   17.990
  253.346   37.166    0.271   12.582
  254.167   42.882    0.295   13.062
  254.987   49.051    0.329   15.066
  255.807   60.081    0.377   23.632
  256.627   66.672    0.386   24.286
  257.448   67.969    0.397   25.612
  258.268   68.371    0.419   24.914
  259.088   69.658    0.445   23.722
  259.908   72.274    0.456   21.678
  260.728   76.218    0.467   20.144
  261.549   76.166    0.491   17.091
  262.369   75.672    0.506   15.388
  263.189   76.094    0.517   13.003
  264.009   78.267    0.521   12.474
  264.829   79.997    0.521   12.459
  265.650   78.174    0.515   13.112
  266.470   75.918    0.507   14.107
  267.290   76.773    0.496   15.938
  268.110   74.507    0.480   18.106
  268.930   70.037    0.468   19.601
  269.751   65.567    0.455   20.754
  270.571   61.529    0.443   23.099
  271.391   61.045    0.433   27.954
  272.211   62.332    0.433   26.425
  273.031   62.724    0.436   24.891
  273.852   61.343    0.439   22.006
  274.672   60.426    0.439   20.804
  275.492   59.499    0.437   19.438
  276.312   60.344    0.437   17.904
  277.133   62.517    0.438   17.380
  277.953   65.132    0.434   19.715
  278.773   67.305    0.424   21.210
  279.593   66.821    0.410   21.695
  280.413   65.451    0.382   21.844
  281.234   62.753    0.344   25.021
  282.054   59.611    0.295   29.044
  282.874   50.260    0.272   33.736
  283.694   45.336    0.248   31.360
  284.514   49.291    0.244   27.634
  285.335   55.892    0.321   21.384
  286.155   62.051    0.352   17.489
  286.975   63.771    0.398   16.287
  287.795   65.501    0.428   16.099
  288.615   64.574    0.436   16.074
  289.436   64.090    0.453   15.891
  290.256   65.820    0.465   15.367
  291.076   67.550    0.469   15.011
  291.896   69.290    0.468   15.664
  292.717   70.114    0.467   16.822
  293.537   69.650    0.463   18.485
  294.357   69.588    0.444   20.316
  295.177   69.547    0.423   20.465
  295.997   69.073    0.416   19.099
  296.818   66.817    0.421   17.896
  297.638   63.676    0.420   17.708
  298.458   60.081    0.414   18.530
  299.278   57.383    0.408   28.111
  300.098   56.013    0.399   30.783
  300.919   56.404    0.367   30.086
  301.739   57.691    0.357   29.052
  302.559   58.535    0.354   28.195
  303.379   58.504    0.358   26.998
  304.199   58.020    0.366   24.949
  305.020   56.629    0.376   24.598
  305.840   54.384    0.385   25.588
  306.660   49.028    0.388   25.736
  307.480   45.423    0.387   25.370
  308.301   48.492    0.372   25.524
  309.121   52.890    0.352   24.826
  309.941   56.834    0.336   24.470
  310.761   61.664    0.319   24.282
  311.581   63.837    0.347   23.589
  312.402   64.671    0.389   22.555
  313.222   65.516    0.401   22.199
  314.042   67.235    0.420   21.679
  314.862   68.090    0.422   20.818
  315.682   68.945    0.425   19.448
  316.503   70.664    0.424   18.755
  317.323   71.941    0.421   17.721
  318.143   72.796    0.425   16.691
  318.963   73.640    0.433   15.152
  319.783   74.484    0.442   14.633
  320.604   74.443    0.450   15.449
  321.424   73.506    0.461   16.444
  322.244   72.589    0.457   17.939
  323.064   69.890    0.448   19.433
  323.885   68.067    0.438   19.409
  324.705   67.140    0.436   17.875
  325.525   66.192    0.436   16.846
  326.345   65.286    0.433   17.667
  327.165   63.030    0.425   21.186
