~VERSION INFORMATION
 VERS.                 2.0:   CWLS LOG ASCII STANDARD -VERSION 2.0
 WRAP.                  NO:   ONE LINE PER DEPTH STEP
~WELL INFORMATION BLOCK
#MNEM.UNIT           DATA                    DESCRIPTION OF MNEMONIC
#---------    -------------------            -------------------------------
# Generated from Intellog Unique Number	CS_77_79/WELL/982
LOC .         AA/10-36-079-09W4/0            : Location     - LOCATION
UWI .         AA/10-36-079-09W4/0            : Uwi          - UNIQUE WELL ID
ENTR.         JHS                            : Entered      - ENTERED BY
SRVC.         SCHLUMBERGER                   : Scn          - SERVICE COMPANY
STRT.M        235                            : top_depth    - START DEPTH
STOP.M        455                            : bot_depth    - STOP DEPTH
STEP.M        0.25                           : increment    - STEP LENGTH
 NULL. -999.2500:NULL Value
~CURVE INFORMATION BLOCK
#MNEM UNIT       ERCB CURVE CODE    CURVE DESCRIPTION
#-----------   ------------------   ----------------------------------
DEPT.M        00 001 00 00         : DEPTH        - DEPTH
DPHI.V/V      00 890 00 00         : PHID         - DENSITY POROSITY (LIMESTONE)
NPHI.V/V      00 330 00 00         : PHIN         - NEUTRON POROSITY (LIMESTONE)
GR  .API      00 310 00 00         : GR           - GAMMA RAY
ILD .OHMM     00 120 00 00         : RESD         - DEEP RESISTIVITY (DIL)
RHOB.KG/M3    00 350 00 00         : DENS         - BULK DENSITY
~PARAMETER INFORMATION
#MNEM.UNIT           DATA             DESCRIPTION OF MNEMONIC
#---------         -----------     ------------------------------
GL  .M        672.8                : gl           - GROUND LEVEL ELEVATION
EREF.M        676.49               : kb           - ELEVATION OF DEPTH REFERENCE
DATM.M        676.49               : datum        - DATUM ELEVATION
TDD .M        434.08               : tdd          - TOTAL DEPTH DRILLER
RUN .         ONE                  : Run          - RUN NUMBER
ENG .         BILL                 : Engineer     - RECORDING ENGINEER
WIT .         JIM                  : Witness      - WITNESSED BY
MUD .         GEL                  : Mud_type     - MUD TYPE
MATR.         LIMESTONE            : Logunit      - NEUTRON MATRIX
TMAX.C        18                   : BHT          - MAXIMUM RECORDED TEMPERATURE
BHTD.M        434.08               : BHTDEP       - MAXIMUM RECORDED TEMPERATURE
MATR.         1                    : LOGUNIT      - NEUTRON MATRIX
RMT .C        25                   : MDTP         - TEMPERATURE OF MUD
NEUT.         1                    : NEUTRON      - NEUTRON TYPE
RESI.         0                    : RESIST       - RESISTIVITY TYPE
RMC .OHMM     0.25                 : RMC          - RESISTIVITY OF MUD CAKE
RMF .OHMM     0.25                 : RMF          - RESISTIVITY OF MUD FILTRATE
SUFT.C        15                   : SUFT         - SURFACE TEMPERATURE
~A  DEPTH     PHID     PHIN       GR     RESD     DENS
# ...
  381.000    0.199    0.408  109.598    6.321 2370.530
  381.250    0.178    0.412  121.960    6.207 2406.270
  381.500    0.174    0.405  117.046    6.096 2412.670
  381.750    0.234    0.436  124.479    5.988 2309.930
  382.000    0.274    0.436  122.031    5.771 2240.800
  382.250    0.280    0.451  118.355    5.665 2230.390
  382.500    0.291    0.485  116.527    5.360 2211.590
  382.750    0.309    0.498  121.486    5.263 2182.290
  383.000    0.344    0.505  119.047    5.073 2121.530
  383.250    0.342    0.512  119.688    4.889 2125.810
  383.500    0.343    0.494  120.326    4.802 2123.810
  383.750    0.334    0.475  120.966    4.989 2138.560
  384.000    0.301    0.462  122.223    5.587 2195.290
  384.250    0.285    0.448  117.927    6.142 2222.670
  384.500    0.327    0.468  127.208    6.501 2151.400
  384.750    0.355    0.489  134.021    7.420 2103.230
  385.000    0.296    0.469  133.427    7.564 2204.020
  385.250    0.287    0.459  121.725    7.024 2218.790
  385.500    0.344    0.484  122.985    6.398 2122.360
  385.750    0.388    0.499  123.007    5.408 2046.920
  386.000    0.405    0.518  122.415    4.657 2017.640
  386.250    0.412    0.541  115.030    4.010 2005.130
  386.500    0.334    0.566  114.440    3.389 2139.490
  386.750    0.318    0.584  119.404    2.918 2166.850
  387.000    0.335    0.599  119.423    2.513 2137.570
  387.250    0.324    0.579  119.447    2.164 2156.530
  387.500    0.316    0.547  126.262    1.972 2169.200
  387.750    0.314    0.532  129.369    1.900 2173.470
  388.000    0.312    0.538  115.818    1.902 2175.660
  388.250    0.309    0.512  109.050    1.903 2182.020
  388.500    0.303    0.517  112.159    2.053 2192.630
  388.750    0.301    0.547  115.271    2.214 2194.780
  389.000    0.310    0.518  120.847    2.575 2180.180
  389.250    0.342    0.523  117.169    2.939 2125.720
  389.500    0.347    0.497  115.340    3.291 2117.410
  389.750    0.354    0.469  119.684    3.756 2104.910
  390.000    0.359    0.438  112.919    4.127 2096.600
  390.250    0.340    0.415  113.564    4.891 2128.150
  390.500    0.292    0.405  117.905    5.581 2210.050
  390.750    0.244    0.409  121.019    6.490 2291.970
  391.000    0.219    0.427  117.953    7.000 2336.090
  391.250    0.184    0.437  125.383    6.500 2394.920
  391.500    0.241    0.480  134.669    5.811 2298.500
  391.750    0.253    0.493  137.777    5.293 2277.600
  392.000    0.252    0.485  127.922    4.559 2279.790
  392.250    0.247    0.490  126.098    4.000 2288.280
  392.500    0.244    0.498  127.353    3.577 2292.550
  392.750    0.243    0.486  133.550    3.447 2294.740
  393.000    0.244    0.493  136.663    3.322 2292.720
  393.250    0.243    0.488  118.789    3.263 2294.920
  393.500    0.244    0.505  125.597    3.204 2292.890
  393.750    0.252    0.514  128.092    3.089 2278.270
  394.000    0.303    0.513  131.200    3.034 2192.340
  394.250    0.344    0.499  113.942    3.093 2121.100
  394.500    0.308    0.487  125.695    3.274 2184.110
  394.750    0.272    0.474  133.745    3.599 2245.040
  395.000    0.234    0.464  133.152    3.739 2310.170
  395.250    0.244    0.521  125.764    3.741 2293.460
  395.500    0.278    0.532  117.145    3.887 2234.790
  395.750    0.300    0.497  117.796    4.115 2197.120
  396.000    0.268    0.461  123.986    4.439 2251.750
  396.250    0.252    0.431  128.327    5.163 2279.100
  396.500    0.247    0.413  129.589    5.464 2287.600
  396.750    0.237    0.425  119.118    5.894 2304.450
  397.000    0.226    0.402  113.585    6.126 2323.430
  397.250    0.316    0.453  117.935    6.364 2170.340
  397.500    0.335    0.427  111.166    6.611 2136.860
  397.750    0.323    0.398  108.111    6.998 2157.920
  398.000    0.182    0.355  100.719    7.549 2399.270
  398.250    0.184    0.346   89.018    8.298 2395.170
  398.500    0.233    0.361   91.512    9.121 2311.340
  398.750    0.242    0.358   99.561    9.127 2296.730
  399.000    0.245    0.368  100.815    8.797 2290.540
  399.250    0.253    0.370  101.456    8.166 2278.030
  399.500    0.264    0.385  105.184    7.440 2259.230
  399.750    0.268    0.390   91.011    6.778 2250.910
  400.000    0.271    0.379   88.565    6.657 2246.800
  400.250    0.279    0.381   94.761    7.046 2232.210
  400.500    0.281    0.365   87.998    8.042 2230.180
  400.750    0.276    0.363   83.700   10.081 2238.700
  401.000    0.276    0.353   96.070   12.400 2238.740
  401.250    0.277    0.361  102.880   16.443 2236.730
  401.500    0.282    0.376  109.701   22.638 2228.410
  401.750    0.286    0.364   98.608   27.338 2220.100
  402.000    0.285    0.359   81.968   28.936 2222.290
  402.250    0.283    0.367   77.059   33.646 2226.570
  402.500    0.283    0.365   75.841   46.324 2226.660
  402.750    0.281    0.370   72.162   54.889 2228.840
  403.000    0.279    0.371   70.951   58.110 2233.130
  403.250    0.278    0.365   64.185   52.940 2235.290
  403.500    0.278    0.366   66.064   48.240 2235.400
  403.750    0.280    0.361   90.161   46.498 2231.290
  404.000    0.281    0.361   91.417   41.571 2229.280
  404.250    0.277    0.368   99.468   35.127 2235.650
  404.500    0.274    0.369  106.279   28.060 2241.990
  404.750    0.265    0.373  110.005   22.418 2256.770
  405.000    0.255    0.382  117.437   19.668 2273.640
  405.250    0.250    0.375  113.756   16.937 2282.120
  405.500    0.244    0.372  110.075   15.146 2292.710
  405.750    0.237    0.379  118.123   13.541 2305.370
  406.000    0.228    0.396  131.113   11.444 2320.140
  406.250    0.218    0.406  141.627   10.041 2337.000
  406.500    0.208    0.403  144.737    8.648 2353.860
  406.750    0.205    0.400  150.315    7.877 2360.240
  407.000    0.206    0.391  149.108    7.045 2358.230
  407.250    0.219    0.398  150.363    7.321 2335.240
  407.500    0.234    0.387  154.089    7.748 2310.140
  407.750    0.255    0.403  150.413    9.008 2274.550
  408.000    0.258    0.390  138.089   12.173 2268.340
  408.250    0.250    0.369  109.720   15.548 2283.120
  408.500    0.270    0.359   93.696   18.772 2247.550
  408.750    0.263    0.348   86.313   22.661 2260.210
  409.000    0.259    0.334   95.598   25.381 2266.580
  409.250    0.256    0.329   91.924   24.463 2272.970
  409.500    0.240    0.339  102.435   21.466 2300.310
  409.750    0.201    0.332  108.628   18.835 2365.440
  410.000    0.198    0.333  100.015   17.163 2371.830
  410.250    0.216    0.327  109.298   16.540 2340.430
  410.500    0.216    0.322  117.342   15.941 2340.520
  410.750    0.216    0.326  105.642   16.258 2340.630
  411.000    0.216    0.317   97.638   16.571 2340.670
  411.250    0.236    0.320   99.514   17.217 2307.200
  411.500    0.248    0.332  103.242   18.576 2286.300
  411.750    0.253    0.363   94.623   20.035 2277.980
  412.000    0.255    0.349   91.570   21.612 2273.870
  412.250    0.250    0.345   89.740   24.205 2282.350
  412.500    0.250    0.345   86.058   27.627 2282.460
  412.750    0.256    0.335   83.613   29.798 2272.030
  413.000    0.254    0.347   97.213   30.959 2276.330
  413.250    0.246    0.346   94.151   32.774 2289.020
  413.500    0.244    0.338   94.790   35.354 2293.270
  413.750    0.245    0.333   88.642   33.442 2291.250
  414.000    0.261    0.323   78.790   29.901 2264.070
  414.250    0.267    0.334   92.394   25.747 2253.680
  414.500    0.269    0.347   92.416   21.763 2249.560
  414.750    0.247    0.349  101.088   19.825 2287.380
  415.000    0.234    0.348  102.341   18.061 2310.560
  415.250    0.236    0.353  111.006   18.076 2306.440
  415.500    0.268    0.357   99.304   18.778 2251.970
  415.750    0.280    0.375   84.512   21.030 2231.070
  416.000    0.291    0.366   79.600   24.454 2212.270
  416.250    0.297    0.352   70.362   28.974 2201.870
  416.500    0.300    0.357   62.980   32.450 2197.750
  416.750    0.309    0.360   54.979   36.345 2181.070
  417.000    0.308    0.362   67.968   41.476 2183.240
  417.250    0.298    0.358   68.611   46.455 2200.120
