~VERSION INFORMATION
 VERS.                 2.0:   CWLS LOG ASCII STANDARD -VERSION 2.0
 WRAP.                  NO:   ONE LINE PER DEPTH STEP
~WELL INFORMATION BLOCK
#MNEM.UNIT           DATA                    DESCRIPTION OF MNEMONIC
#---------    -------------------            -------------------------------
# Generated from Intellog Unique Number	CN_94_101/WELL/3264
WELL.         10-11-095-06W4                 : Well_name    - WELL
LOC .         AA/10-11-095-06W4/0            : Location     - LOCATION
UWI .         AA/10-11-095-06W400            : Uwi          - UNIQUE WELL ID
ENTR.         TIM                            : Entered      - ENTERED BY
SRVC.         SCHLUMBERGER                   : Scn          - SERVICE COMPANY
DATE.         05/17/92                       : Date         - LOG DATE
STRT.M        100                            : top_depth    - START DEPTH
STOP.M        340                            : bot_depth    - STOP DEPTH
STEP.M        0.25                           : increment    - STEP LENGTH
 NULL. -999.2500:NULL Value
~CURVE INFORMATION BLOCK
#MNEM UNIT       ERCB CURVE CODE    CURVE DESCRIPTION
#-----------   ------------------   ----------------------------------
DEPT.M        00 001 00 00         : DEPTH        - DEPTH
GR  .API      00 310 00 00         : GR           - GAMMA RAY
NPHI.V/V      00 330 00 00         : PHIN         - NEUTRON POROSITY (SANDSTONE)
DPHI.V/V      00 890 00 00         : PHID         - DENSITY POROSITY (SANDSTONE)
ILD .OHMM     00 120 00 00         : RESD         - DEEP RESISTIVITY (DIL)
~PARAMETER INFORMATION
#MNEM.UNIT           DATA             DESCRIPTION OF MNEMONIC
#---------         -----------     ------------------------------
GL  .M        596.9                : gl           - GROUND LEVEL ELEVATION
EREF.M        599.8                : kb           - ELEVATION OF DEPTH REFERENCE
DATM.M        599.8                : datum        - DATUM ELEVATION
TDD .M        342                  : tdd          - TOTAL DEPTH DRILLER
RUN .         0                    : Run          - RUN NUMBER
ENG .         COMPANY:             : Engineer     - RECORDING ENGINEER
MUD .         GEL                  : Mud_type     - MUD TYPE
MATR.         SANDSTONE            : Logunit      - NEUTRON MATRIX
TMAX.C        18                   : BHT          - MAXIMUM RECORDED TEMPERATURE
BHTD.M        342                  : BHTDEP       - MAXIMUM RECORDED TEMPERATURE
RMT .C        18                   : MDTP         - TEMPERATURE OF MUD
MUDD.KG/M     1050                 : MWT          - MUD DENSITY
NEUT.         1                    : NEUTRON      - NEUTRON TYPE
RESI.         0                    : RESIST       - RESISTIVITY TYPE
RM  .OHMM     3.5                  : RM           - RESISTIVITY OF MUD
RMC .OHMM     3.5                  : RMC          - RESISTIVITY OF MUD CAKE
RMF .OHMM     3.5                  : RMF          - RESISTIVITY OF MUD FILTRATE
SUFT.C        4                    : SUFT         - SURFACE TEMPERATURE
~A  DEPTH       GR     PHIN     PHID     RESD
# ...
  187.000   77.819    0.411    0.276   13.968
  187.250   72.695    0.407    0.259   14.506
  187.500   72.050    0.407    0.240   15.354
  187.750   74.606    0.412    0.247   15.944
  188.000   75.881    0.412    0.255   15.941
  188.250   75.876    0.408    0.260   16.242
  188.500   74.591    0.405    0.250   16.235
  188.750   73.307    0.405    0.242   16.232
  189.000   72.663    0.408    0.264   16.226
  189.250   73.299    0.412    0.282   16.534
  189.500   73.935    0.416    0.282   17.170
  189.750   75.210    0.417    0.261   17.831
  190.000   73.927    0.422    0.275   18.873
  190.250   70.723    0.429    0.301   19.977
  190.500   64.959    0.431    0.320   21.145
  190.750   58.555    0.424    0.332   22.379
  191.000   57.912    0.417    0.334   23.691
  191.250   61.746    0.419    0.331   26.548
  191.500   62.381    0.424    0.327   28.638
  191.750   62.378    0.428    0.316   29.745
  192.000   60.454    0.428    0.311   31.484
  192.250   59.807    0.426    0.319   32.080
  192.500   59.805    0.422    0.330   33.310
  192.750   60.440    0.420    0.324   33.943
  193.000   61.075    0.417    0.312   33.935
  193.250   62.351    0.414    0.300   33.925
  193.500   63.627    0.412    0.305   32.648
  193.750   66.180    0.411    0.306   30.242
  194.000   67.457    0.409    0.298   28.018
  194.250   70.650    0.406    0.289   26.455
  194.500   71.927    0.405    0.276   24.506
  194.750   72.563    0.407    0.263   22.702
  195.000   74.477    0.409    0.268   21.031
  195.250   73.193    0.418    0.274   19.859
  195.500   71.909    0.423    0.260   18.396
  195.750   71.906    0.426    0.236   17.369
  196.000   73.181    0.426    0.227   16.715
  196.250   78.295    0.423    0.212   15.782
  196.500   82.130    0.419    0.202   15.189
  196.750   85.326    0.419    0.200   14.340
  197.000   87.241    0.419    0.200   14.066
  197.250   86.595    0.418    0.205   13.797
  197.500   85.953    0.416    0.215   13.275
  197.750   84.669    0.414    0.225   13.022
  198.000   84.665    0.409    0.221   13.268
  198.250   84.659    0.413    0.214   13.521
  198.500   84.655    0.420    0.225   14.041
  198.750   84.651    0.432    0.238   14.580
  199.000   84.647    0.444    0.231   14.857
  199.250   85.283    0.457    0.212   14.852
  199.500   85.918    0.471    0.192   14.568
  199.750   87.833    0.481    0.169   13.495
  200.000   90.386    0.491    0.155   12.267
  200.250   91.663    0.500    0.196   10.733
  200.500   94.858    0.506    0.214    9.040
  200.750   91.015    0.452    0.190    8.699
  201.000   82.692    0.425    0.173    9.385
  201.250   77.567    0.410    0.176   10.518
  201.500   76.283    0.418    0.245   12.014
  201.750   78.839    0.429    0.264   14.529
  202.000   82.674    0.444    0.229   13.718
  202.250   90.349    0.474    0.228   12.234
  202.500   94.824    0.489    0.231   10.910
  202.750   97.379    0.489    0.237    9.016
  203.000   94.815    0.477    0.244    7.037
  203.250   92.250    0.476    0.240    6.902
  203.500   89.685    0.475    0.229    7.446
  203.750   89.042    0.472    0.216    8.504
  204.000   87.757    0.479    0.220    9.351
  204.250   87.754    0.490    0.224    9.711
  204.500   89.028    0.508    0.228    9.524
  204.750   89.666    0.500    0.234    9.342
  205.000   90.939    0.494    0.243    8.820
  205.250   92.215    0.499    0.242    8.489
  205.500   93.492    0.508    0.233    8.170
  205.750   95.406    0.523    0.224    7.285
  206.000   97.320    0.532    0.230    6.497
  206.250   99.235    0.522    0.234    5.794
  206.500   99.873    0.490    0.239    5.576
  206.750   99.228    0.479    0.242    5.902
  207.000   96.024    0.479    0.242    6.247
  207.250   94.740    0.476    0.242    7.000
  207.500   96.015    0.473    0.242    7.271
  207.750   97.290    0.470    0.241    7.696
  208.000   99.845    0.469    0.241    7.992
  208.250  101.761    0.470    0.237    8.300
  208.500  101.118    0.483    0.232    8.296
  208.750   96.634    0.507    0.229    7.985
  209.000   92.149    0.509    0.252    7.539
  209.250   92.146    0.478    0.266    6.723
  209.500   92.781    0.474    0.265    6.348
  209.750   94.695    0.494    0.267    6.227
  210.000   95.971    0.513    0.270    6.107
  210.250   97.247    0.513    0.269    6.105
  210.500   97.883    0.492    0.265    5.988
  210.750   99.159    0.499    0.262    5.873
  211.000  100.434    0.521    0.275    5.338
  211.250  101.070    0.526    0.279    5.236
  211.500  101.065    0.520    0.271    4.851
  211.750  101.059    0.515    0.270    4.668
  212.000  101.053    0.504    0.267    4.667
  212.250  101.050    0.501    0.267    4.665
  212.500   99.766    0.502    0.269    4.753
  212.750   97.842    0.497    0.270    4.844
  213.000   95.278    0.483    0.272    5.127
  213.250   93.995    0.465    0.280    5.856
  213.500   92.711    0.466    0.281    6.439
  213.750   93.346    0.482    0.269    6.815
  214.000   95.261    0.493    0.274    6.685
  214.250   99.096    0.506    0.284    6.076
  214.500  101.012    0.526    0.284    5.216
  214.750  103.567    0.541    0.279    4.393
  215.000  105.482    0.535    0.270    3.630
  215.250  104.198    0.530    0.259    3.561
  215.500  102.274    0.522    0.243    4.225
  215.750  101.630    0.516    0.247    4.558
  216.000  100.345    0.507    0.243    5.306
  216.250  100.342    0.501    0.236    5.835
  216.500   99.698    0.488    0.231    6.415
  216.750   97.774    0.467    0.205    6.791
  217.000   95.850    0.450    0.197    7.466
  217.250   95.204    0.432    0.202    7.608
  217.500   95.838    0.418    0.208    8.207
  217.750   96.474    0.423    0.211    8.686
  218.000   97.111    0.425    0.214    9.022
  218.250   98.385    0.427    0.218    9.732
  218.500   99.021    0.429    0.219   10.107
  218.750   99.656    0.431    0.221   10.697
  219.000   99.652    0.434    0.222   10.900
  219.250  100.288    0.439    0.222   10.691
  219.500  100.282    0.444    0.222   10.289
  219.750  100.280    0.449    0.222    9.002
  220.000  100.276    0.451    0.222    8.028
  220.250  100.910    0.450    0.222    7.437
  220.500  100.905    0.445    0.226    7.435
  220.750  100.902    0.440    0.228    7.720
  221.000  100.898    0.441    0.220    8.019
  221.250   98.973    0.444    0.198    8.487
  221.500   96.409    0.445    0.185    8.814
  221.750   93.206    0.444    0.163    9.153
  222.000   81.684    0.443    0.152    9.151
  222.250   74.639    0.444    0.206    9.148
  222.500   75.276    0.457    0.230    9.501
  222.750   82.311    0.468    0.240    9.680
  223.000   89.345    0.467    0.251    9.677
  223.250   93.818    0.466    0.259    9.490
  223.500   91.253    0.463    0.264    9.309
  223.750   89.330    0.460    0.269    9.307
  224.000   86.766    0.453    0.273    9.305
  224.250   88.041    0.447    0.270    9.481
  224.500   89.318    0.438    0.263    9.660
  224.750   91.873    0.433    0.243    9.842
  225.000   94.427    0.438    0.230   10.221
  225.250   91.224    0.443    0.229   10.414
  225.500   88.660    0.440    0.224   10.411
  225.750   86.096    0.430    0.212   10.407
  226.000   85.453    0.417    0.173   10.208
  226.250   84.168    0.406    0.077   10.205
  226.500   85.444    0.414    0.073   10.597
  226.750   87.359    0.425    0.167   11.007
  227.000   90.554    0.439    0.248   10.795
  227.250   93.109    0.447    0.249   10.589
  227.500   94.384    0.458    0.243    9.625
  227.750   95.021    0.478    0.245    8.583
  228.000   96.295    0.505    0.253    7.654
  228.250   97.570    0.525    0.269    6.957
  228.500   97.567    0.525    0.284    6.324
  228.750   97.563    0.516    0.290    6.321
  229.000   97.557    0.495    0.286    6.319
  229.250   96.913    0.482    0.281    6.081
  229.500   96.909    0.478    0.274    5.852
  229.750   96.903    0.489    0.271    5.422
  230.000   96.900    0.517    0.271    4.835
  230.250   98.812    0.529    0.271    4.395
