~VERSION INFORMATION
 VERS.                 2.0:   CWLS LOG ASCII STANDARD -VERSION 2.0
 WRAP.                  NO:   ONE LINE PER DEPTH STEP
~WELL INFORMATION BLOCK
#MNEM.UNIT           DATA                    DESCRIPTION OF MNEMONIC
#---------    -------------------            -------------------------------
# Generated from Intellog Unique Number	CN_94_101/WELL/5020
WELL.         11-22-099-14W4                 : Well_name    - WELL
LOC .         AA/11-22-099-14W4/0            : Location     - LOCATION
UWI .         AA/11-22-099-14W400            : Uwi          - UNIQUE WELL ID
ENTR.         TIM                            : Entered      - ENTERED BY
SRVC.         SCHLUMBERGER                   : Scn          - SERVICE COMPANY
DATE.         08/13/92                       : Date         - LOG DATE
STRT.M        370                            : top_depth    - START DEPTH
STOP.M        575                            : bot_depth    - STOP DEPTH
STEP.M        0.25                           : increment    - STEP LENGTH
 NULL. -999.2500:NULL Value
~CURVE INFORMATION BLOCK
#MNEM UNIT       ERCB CURVE CODE    CURVE DESCRIPTION
#-----------   ------------------   ----------------------------------
DEPT.M        00 001 00 00         : DEPTH        - DEPTH
GR  .API      00 310 00 00         : GR           - GAMMA RAY
NPHI.V/V      00 330 00 00         : PHIN         - NEUTRON POROSITY (SANDSTONE)
DPHI.V/V      00 890 00 00         : PHID         - DENSITY POROSITY (SANDSTONE)
ILD .OHMM     00 120 00 00         : RESD         - DEEP RESISTIVITY (DIL)
~PARAMETER INFORMATION
#MNEM.UNIT           DATA             DESCRIPTION OF MNEMONIC
#---------         -----------     ------------------------------
GL  .M        815.9                : gl           - GROUND LEVEL ELEVATION
EREF.M        817.1                : kb           - ELEVATION OF DEPTH REFERENCE
DATM.M        817.1                : datum        - DATUM ELEVATION
TDD .M        578                  : tdd          - TOTAL DEPTH DRILLER
RUN .         ONE                  : Run          - RUN NUMBER
ENG .         BILL                 : Engineer     - RECORDING ENGINEER
WIT .         JIM                  : Witness      - WITNESSED BY
MUD .         GEL                  : Mud_type     - MUD TYPE
MATR.         SANDSTONE            : Logunit      - NEUTRON MATRIX
TMAX.C        21                   : BHT          - MAXIMUM RECORDED TEMPERATURE
BHTD.M        583                  : BHTDEP       - MAXIMUM RECORDED TEMPERATURE
RMT .C        25                   : MDTP         - TEMPERATURE OF MUD
MUDD.KG/M     1090                 : MWT          - MUD DENSITY
NEUT.         1                    : NEUTRON      - NEUTRON TYPE
RESI.         0                    : RESIST       - RESISTIVITY TYPE
RM  .OHMM     4.6                  : RM           - RESISTIVITY OF MUD
RMC .OHMM     4.6                  : RMC          - RESISTIVITY OF MUD CAKE
RMF .OHMM     4.6                  : RMF          - RESISTIVITY OF MUD FILTRATE
SUFT.C        4                    : SUFT         - SURFACE TEMPERATURE
~A  DEPTH       GR     PHIN     PHID     RESD
# ...
  544.000   26.649    0.325    0.308   15.877
  544.250   28.416    0.327    0.306   14.753
  544.500   29.007    0.337    0.306   13.708
  544.750   31.363    0.349    0.309   12.048
  545.000   48.420    0.360    0.317    9.653
  545.250   64.302    0.378    0.315    7.879
  545.500   69.009    0.390    0.301    6.674
  545.750   76.069    0.400    0.290    5.550
  546.000   85.481    0.400    0.288    4.878
  546.250   92.541    0.399    0.294    4.532
  546.500   93.721    0.395    0.300    4.291
  546.750   93.137    0.394    0.306    4.136
  547.000   93.141    0.390    0.307    3.989
  547.250   91.968    0.388    0.303    3.846
  547.500   89.620    0.379    0.298    3.708
  547.750   84.919    0.364    0.294    3.575
  548.000   86.688    0.347    0.284    3.577
  548.250   90.220    0.342    0.251    3.580
  548.500   93.162    0.359    0.237    3.582
  548.750   96.694    0.371    0.232    3.584
  549.000  100.226    0.375    0.238    3.587
  549.250  101.406    0.371    0.243    3.656
  549.500   97.293    0.368    0.249    3.591
  549.750   93.769    0.362    0.251    3.527
  550.000   92.596    0.358    0.254    3.464
  550.250   87.895    0.353    0.256    3.466
  550.500   85.547    0.345    0.254    3.405
  550.750   86.138    0.338    0.245    3.407
  551.000   86.144    0.332    0.250    3.473
  551.250   86.147    0.337    0.260    3.606
  551.500   86.150    0.343    0.252    3.886
  551.750   86.154    0.345    0.244    3.961
  552.000   84.982    0.353    0.238    4.037
  552.250   83.809    0.358    0.234    4.351
  552.500   82.637    0.362    0.241    4.602
  552.750   76.171    0.366    0.266    4.691
  553.000   70.882    0.366    0.276    4.608
  553.250   74.414    0.361    0.280    4.611
  553.500   79.122    0.357    0.272    4.615
  553.750   82.653    0.357    0.258    4.703
  554.000   82.071    0.357    0.244    4.705
  554.250   79.134    0.355    0.210    4.710
  554.500   75.021    0.354    0.197    4.799
  554.750   72.084    0.356    0.241    4.802
  555.000   72.676    0.354    0.290    5.175
  555.250   75.031    0.348    0.268    5.374
  555.500   77.975    0.353    0.247    5.379
  555.750   79.155    0.359    0.246    5.381
  556.000   77.982    0.365    0.252    5.383
  556.250   76.222    0.368    0.263    5.387
  556.500   72.109    0.369    0.279    5.492
  556.750   69.760    0.365    0.299    5.598
  557.000   70.941    0.351    0.309    5.600
  557.250   73.298    0.345    0.314    5.709
  557.500   73.890    0.348    0.315    5.818
  557.750   73.305    0.350    0.315    5.822
  558.000   72.720    0.352    0.316    5.825
  558.250   72.137    0.356    0.320    5.829
  558.500   72.138    0.357    0.325    5.833
  558.750   72.730    0.352    0.317    5.945
  559.000   74.498    0.352    0.309    5.949
  559.250   76.853    0.357    0.303    5.952
  559.500   79.798    0.361    0.305    5.848
  559.750   80.978    0.362    0.299    5.851
  560.000   80.393    0.363    0.293    5.964
  560.250   77.457    0.362    0.299    6.548
  560.500   75.696    0.361    0.323    7.055
  560.750   73.936    0.360    0.326    7.601
  561.000   72.176    0.357    0.326    8.040
  561.250   71.592    0.356    0.327    8.349
  561.500   70.420    0.356    0.326    8.355
  561.750   69.246    0.355    0.325    8.207
  562.000   66.897    0.356    0.322    8.061
  562.250   66.902    0.357    0.315    8.065
  562.500   66.317    0.364    0.315    8.065
  562.750   66.322    0.370    0.317    7.500
  563.000   66.912    0.381    0.323    7.500
  563.250   66.916    0.378    0.328    7.510
  563.500   64.568    0.373    0.333    7.242
  563.750   63.983    0.366    0.334    6.981
  564.000   63.986    0.362    0.334    6.985
  564.250   65.166    0.357    0.329    6.990
  564.500   66.346    0.357    0.327    7.126
  564.750   67.526    0.358    0.322    7.129
  565.000   69.882    0.358    0.318    7.133
  565.250   72.826    0.356    0.314    7.138
  565.500   74.593    0.353    0.309    7.143
  565.750   71.657    0.352    0.310    7.147
  566.000   71.073    0.349    0.317    7.284
  566.250   70.487    0.350    0.328    7.292
  566.500   67.551    0.358    0.330    7.295
  566.750   67.555    0.364    0.329    7.298
  567.000   69.910    0.376    0.327    7.305
  567.250   71.091    0.380    0.324    7.308
  567.500   68.742    0.380    0.323    7.178
  567.750   66.393    0.379    0.322    6.794
  568.000   65.221    0.378    0.321    5.862
  568.250   64.049    0.374    0.321    5.058
  568.500   63.464    0.369    0.323    4.528
  568.750   62.291    0.364    0.327    3.908
  569.000   61.707    0.356    0.329    3.564
  569.250   61.710    0.352    0.330    3.132
  569.500   59.951    0.350    0.330    2.753
  569.750   57.602    0.349    0.329    2.420
  570.000   54.078    0.349    0.328    2.127
  570.250   51.141    0.348    0.328    1.835
  570.500   49.968    0.348    0.328    1.674
  570.750   49.384    0.347    0.329    1.471
  571.000   47.623    0.346    0.330    1.342
  571.250   44.099    0.345    0.330    1.270
  571.500   42.927    0.342    0.333    1.202
  571.750   43.518    0.344    0.336    1.159
  572.000   44.697    0.347    0.339    1.139
  572.250   45.877    0.350    0.341    1.119
  572.500   45.880    0.350    0.341    1.119
  572.750   45.885    0.346    0.339    1.120
  573.000   46.477    0.341    0.331    1.121
  573.250   47.657    0.342    0.329    1.142
  573.500   50.012    0.345    0.329    1.208
  573.750   53.544    0.347    0.290    1.302
  574.000   63.544    0.348    0.264    1.539
  574.250   69.428    0.333    0.246    1.721
  574.500   74.136    0.249    0.219    2.111
  574.750   70.611    0.224    0.115    2.895
  575.000   67.674    0.201    0.058    4.518
