~VERSION INFORMATION
 VERS.                 2.0:   CWLS LOG ASCII STANDARD -VERSION 2.0
 WRAP.                  NO:   ONE LINE PER DEPTH STEP
~WELL INFORMATION BLOCK
#MNEM.UNIT           DATA                    DESCRIPTION OF MNEMONIC
#---------    -------------------            -------------------------------
# Generated from Intellog Unique Number	CW_82_90/WELL/875
WELL.         PHILLIPS ET AK GRABIR IV 10-17 : Well_name    - WELL
LOC .         AA/10-17-084-19W4/0            : Location     - LOCATION
UWI .         AA/10-17-084-19W400            : Uwi          - UNIQUE WELL ID
ENTR.         JAYE                           : Entered      - ENTERED BY
SRVC.         SCHLUMBERGER                   : Scn          - SERVICE COMPANY
DATE.         2 MAR 81                       : Date         - LOG DATE
STRT.M        200                            : top_depth    - START DEPTH
STOP.M        365                            : bot_depth    - STOP DEPTH
STEP.M        0.25                           : increment    - STEP LENGTH
 NULL. -999.2500:NULL Value
~CURVE INFORMATION BLOCK
#MNEM UNIT       ERCB CURVE CODE    CURVE DESCRIPTION
#-----------   ------------------   ----------------------------------
DEPT.M        00 001 00 00         : DEPTH        - DEPTH
CALI.MM       00 280 01 00         : CAL          - CALIPER
GR  .API      00 310 00 00         : GR           - GAMMA RAY
DPHI.V/V      00 890 00 00         : PHID         - DENSITY POROSITY (SANDSTONE)
NPHI.V/V      00 330 00 00         : PHIN         - NEUTRON POROSITY (SANDSTONE)
ILD .OHMM     00 120 00 00         : RESD         - DEEP RESISTIVITY (DIL)
~PARAMETER INFORMATION
#MNEM.UNIT           DATA             DESCRIPTION OF MNEMONIC
#---------         -----------     ------------------------------
GL  .M        613                  : gl           - GROUND LEVEL ELEVATION
EREF.M        615.82               : kb           - ELEVATION OF DEPTH REFERENCE
DATM.M        613                  : datum        - DATUM ELEVATION
TDD .M        373                  : tdd          - TOTAL DEPTH DRILLER
RUN .         ONE                  : Run          - RUN NUMBER
ENG .         ISBISTER             : Engineer     - RECORDING ENGINEER
WIT .         THOMAS               : Witness      - WITNESSED BY
BASE.         EDMONTON             : Branch       - HOME BASE OF LOGGING UNIT
MUD .         GEL MUD              : Mud_type     - MUD TYPE
MATR.         SANDSTONE            : Logunit      - NEUTRON MATRIX
TMAX.C        20                   : BHT          - MAXIMUM RECORDED TEMPERATURE
BHTD.M        373                  : BHTDEP       - MAXIMUM RECORDED TEMPERATURE
RMT .C        14                   : MDTP         - TEMPERATURE OF MUD
MUDD.KG/M     1000                 : MWT          - MUD DENSITY
NEUT.         1                    : NEUTRON      - NEUTRON TYPE
RESI.         0                    : RESIST       - RESISTIVITY TYPE
RM  .OHMM     2.6                  : RM           - RESISTIVITY OF MUD
RMC .OHMM     0                    : RMC          - RESISTIVITY OF MUD CAKE
RMF .OHMM     2.11                 : RMF          - RESISTIVITY OF MUD FILTRATE
SUFT.C        0                    : SUFT         - SURFACE TEMPERATURE
~A  DEPTH      CAL       GR     PHID     PHIN     RESD
# ...
  236.500  239.492   49.858    0.291    0.502   33.889
  236.750  242.801   51.596    0.344    0.502   33.290
  237.000  241.332   51.463    0.350    0.515   32.843
  237.250  240.902   50.645    0.349    0.522   32.662
  237.500  243.590   48.579    0.341    0.531   32.553
  237.750  240.145   48.571    0.365    0.541   32.642
  238.000  241.482   49.809    0.350    0.539   32.865
  238.250  246.456   50.239    0.343    0.536   33.024
  238.500  247.689   49.855    0.358    0.535   32.779
  238.750  250.374   49.348    0.369    0.520   32.075
  239.000  250.778   48.842    0.388    0.511   30.562
  239.250  258.867   49.144    0.358    0.507   29.418
  239.500  252.722   49.448    0.375    0.523   28.724
  239.750  242.942   48.879    0.366    0.509   28.103
  240.000  232.537   47.998    0.354    0.502   27.221
  240.250  236.156   47.303    0.363    0.509   26.415
  240.500  241.236   47.359    0.350    0.509   25.223
  240.750  246.625   48.037    0.345    0.509   24.577
  241.000  237.570   49.212    0.337    0.511   23.755
  241.250  239.633   49.952    0.339    0.516   22.916
  241.500  239.309   48.635    0.331    0.527   22.372
  241.750  240.330   46.880    0.332    0.526   21.760
  242.000  243.540   46.311    0.313    0.531   21.377
  242.250  248.306   46.865    0.339    0.541   21.004
  242.500  258.992   48.352    0.339    0.537   20.761
  242.750  258.563   49.716    0.366    0.544   20.480
  243.000  257.719   51.392    0.362    0.527   20.123
  243.250  250.534   51.444    0.370    0.513   19.889
  243.500  241.999   51.687    0.362    0.504   19.623
  243.750  234.192   53.175    0.354    0.496   19.277
  244.000  229.710   54.723    0.340    0.500   18.520
  244.250  224.397   54.904    0.344    0.502   17.863
  244.500  224.070   55.395    0.350    0.486   16.985
  244.750  225.613   56.570    0.341    0.489   15.955
  245.000  226.222   56.625    0.333    0.501   15.015
  245.250  224.754   55.993    0.306    0.510   13.595
  245.500  224.740   56.109    0.300    0.516   12.409
  245.750  226.285   56.912    0.280    0.452   10.501
  246.000  227.829   58.400    0.244    0.410    8.325
  246.250  228.542   60.574    0.226    0.469    7.148
  246.500  229.148   61.562    0.278    0.515    6.564
  246.750  229.241   62.427    0.290    0.531    6.476
  247.000  226.836   65.786    0.281    0.530    6.710
  247.250  210.301   67.648    0.242    0.527    7.023
  247.500  177.859   68.201    0.239    0.515    7.533
  247.750  184.608   68.193    0.271    0.497    8.282
  248.000  212.856   67.560    0.293    0.484    8.920
  248.250  234.662   66.866    0.283    0.482    9.587
  248.500  233.504   66.111    0.264    0.480   11.024
  248.750  232.760   63.110    0.277    0.471   12.119
  249.000  232.021   57.740    0.304    0.467   12.685
  249.250  232.316   54.240    0.324    0.467   12.616
  249.500  232.096   53.858    0.331    0.473   12.144
  249.750  230.833   54.971    0.330    0.477   10.707
  250.000  230.925   56.523    0.322    0.470    8.896
  250.250  231.115   58.259    0.320    0.472    6.840
  250.500  229.337   58.875    0.317    0.471    5.813
  250.750  225.581   59.179    0.324    0.475    6.048
  251.000  225.669   59.171    0.330    0.486    6.407
  251.250  227.008   60.160    0.320    0.507    7.087
  251.500  229.591   61.211    0.304    0.529    8.182
  251.750  230.511   61.827    0.309    0.501    9.544
  252.000  230.703   62.255    0.288    0.488   10.622
  252.250  231.004   62.185    0.270    0.500   11.394
  252.500  230.470   61.803    0.263    0.509   12.172
  252.750  229.518   60.921    0.276    0.496   13.111
  253.000  228.778   58.419    0.275    0.481   14.093
  253.250  228.036   54.545    0.270    0.469   15.495
  253.500  227.605   52.854    0.264    0.486   16.451
  253.750  227.590   52.161    0.277    0.507   17.252
  254.000  227.682   52.587    0.298    0.511   18.281
  254.250  228.185   52.580    0.310    0.516   18.940
  254.500  228.172   52.759    0.315    0.530   19.386
  254.750  227.431   50.817    0.304    0.525   19.960
  255.000  226.481   48.752    0.291    0.513   21.323
  255.250  226.467   46.250    0.280    0.497   23.537
  255.500  226.763   45.806    0.247    0.478   26.194
  255.750  227.062   49.787    0.193    0.445   27.987
  256.000  227.879   52.772    0.177    0.438   28.876
  256.250  228.592   55.008    0.156    0.425   29.797
  256.500  229.198   55.624    0.098    0.356   29.451
  256.750  229.081   50.691    0.081    0.282   27.664
  257.000  228.964   46.069    0.116    0.286   27.347
  257.250  228.639   46.683    0.140    0.305   28.507
  257.500  228.729   47.361    0.128    0.323   29.898
  257.750  229.024   45.732    0.097    0.301   30.479
  258.000  229.426   39.926    0.055    0.245   29.099
  258.250  229.724   37.547    0.064    0.209   27.052
  258.500  230.333   39.535    0.095    0.221   24.492
  258.750  230.732   44.826    0.158    0.254   21.726
  259.000  230.721   50.428    0.252    0.287   19.039
  259.250  230.288   53.413    0.313    0.340   17.628
  259.500  229.861   53.780    0.320    0.453   16.390
  259.750  229.118   54.020    0.314    0.483   15.520
  260.000  228.479   53.512    0.303    0.489   14.910
  260.250  228.049   53.319    0.298    0.488   14.708
  260.500  227.307   53.246    0.302    0.491   14.838
  260.750  226.878   53.738    0.311    0.516   15.155
  261.000  226.658   55.413    0.312    0.526   15.076
  261.250  226.641   55.530    0.313    0.501   14.902
  261.500  226.731   55.708    0.308    0.489   14.638
  261.750  226.718   57.446    0.290    0.485   13.835
  262.000  226.392   58.560    0.279    0.467   12.968
  262.250  226.064   60.609    0.193    0.428   12.281
  262.500  226.363   65.276    0.158    0.371   11.750
  262.750  227.076   67.450    0.152    0.338   11.355
  263.000  228.204   67.380    0.206    0.359   10.910
  263.250  229.124   66.811    0.245    0.466   10.674
  263.500  229.942   68.922    0.272    0.476   10.361
  263.750  230.447   68.289    0.272    0.496   10.261
  264.000  230.642   68.282    0.281    0.495   10.227
  264.250  230.730   70.331    0.277    0.489   10.296
  264.500  230.613   72.068    0.265    0.495   10.452
  264.750  230.286   71.874    0.246    0.497   10.589
  265.000  229.961   71.116    0.236    0.505   10.726
  265.250  229.634   70.112    0.235    0.500   10.888
  265.500  229.100   69.291    0.231    0.471   10.985
  265.750  228.774   68.910    0.252    0.468   11.039
  266.000  228.551   67.530    0.255    0.477   10.845
  266.250  228.639   67.772    0.254    0.493   10.462
  266.500  228.521   69.073    0.249    0.482   10.090
  266.750  228.510   71.994    0.242    0.487    9.732
  267.000  228.704   74.665    0.237    0.494    9.425
  267.250  229.727   75.220    0.233    0.495    8.982
  267.500  230.752   73.653    0.229    0.498    8.680
  267.750  231.051   72.771    0.238    0.511    8.204
  268.000  231.866   72.266    0.245    0.511    7.849
  268.250  233.098   72.006    0.236    0.504    7.664
  268.500  234.437   71.749    0.233    0.502    7.529
  268.750  236.189   70.432    0.230    0.505    7.413
  269.000  237.522   70.485    0.226    0.502    7.760
  269.250  237.718   70.042    0.215    0.493    8.340
  269.500  236.040   69.846    0.246    0.503    9.150
  269.750  235.818   70.150    0.257    0.533   10.415
  270.000  237.364   67.960    0.246    0.535   11.612
  270.250  234.959   63.214    0.259    0.512   13.109
  270.500  231.724   62.020    0.275    0.493   14.921
  270.750  229.526   61.825    0.290    0.501   16.706
  271.000  229.200   62.066    0.290    0.483   18.593
  271.250  229.395   62.059    0.298    0.473   20.608
  271.500  229.586   61.801    0.302    0.472   22.515
  271.750  229.262   56.057    0.304    0.475   24.750
  272.000  228.728   53.556    0.311    0.480   24.979
  272.250  227.986   51.802    0.312    0.483   24.235
  272.500  227.555   50.671    0.315    0.490   22.256
  272.750  227.333   53.780    0.321    0.498   20.195
