~Version : LASO    vs 4.00 
VERS.                2.00:   CWLS Log ASCII Standard -VERSION 2.0
WRAP.                  NO:
~Well Information Block
#MNEM.UNIT       Data                        Description of Mnemonic
#----.----      -------------------------- : -----------------------------
STRT.M             1.0000:
STOP.M           202.5000:
STEP.M             0.1000:
NULL.           -999.2500:
COMP.  MOBIL OIL CANADA                    :COMPANY
WELL.  MOBIL 90 CLARKE CREEK 16-31         :WELL
FLD.   CLARKE CREEK                        :FIELD
LOC.   16-31-089-07W4                      :LOCATION
CTRY.  CANADA                              :COUNTRY
PROV.  ALBERTA                             :PROVINCE
SRVC.  BRITISH PLASTERBOARD                :SERVICE COMPANY
DATE.  22-JAN-90                           :LOG DATE
UWI.   AA/16-31-089-07W400                 :UNIQUE WELL ID
~Parameter Information Block
#MNEM.UNIT       Data                        Description of Mnemonic
#----.----      -------------------------- : -----------------------------
RUN .                   1                 : Run Number
GL  .M           453.6000                 : Ground Level Elevation
DREF.                  GD                 : Depth Reference
EREF.M           453.6000                 : Elevation of Depth Reference
TDL .M           204.5000                 : Total Depth Logger
TDD .M           204.5000                 : Total Depth Driller
~Curve Information Block
#MNEM.UNIT        API CODE    Curve Description
#---------    ------------    -------------------------------------------
DEPT.M                    :   DEPTH
CALI.mm                   :   CALI
DPHI.V/V                  :   DPHI
DT  .US/M     60 520  0  1:   2 SONIC INTERVAL TRANSIT TIME (COMPENSATED)
GR  .API                  :   GR
ILD .Ohmm                 :   ILD
NPHI.V/V                  :   NPHI
RHOB.K/M3     45 350  1  1:   3 BULK DENSITY
~A  Depth           CALI        DPHI          DT          GR         ILD        NPHI        RHOB
# ...
191.9000        140.1816      0.0658    316.3600     65.9590     81.4848      0.2303   1649.4000
192.0000        140.1695      0.0717    314.4400     64.4953     81.6288      0.2277   1648.8000
192.1000        140.1675      0.0731    312.6800     62.2687     80.3612      0.2243   1652.0000
192.2000        140.5305      0.0732    310.9200     58.6853     81.7331      0.2043   1523.3000
192.3000        140.9129      0.0732    299.7200     55.1026     83.3370      0.2082   1518.6001
192.4000        140.9668      0.0753    293.7200     53.2836     83.7237      0.2139   1505.0000
192.5000        141.3754      0.0756    297.0800     56.3726     81.5436      0.2218   1488.3000
192.6000        141.7606      0.0842    301.2800     59.2509     79.6595      0.2186   1486.2000
192.7000        142.4996      0.0913    308.1200     58.0599     77.0767      0.2209   1617.4000
192.8000        142.5896      0.0917    315.9600     56.2909     76.8174      0.2324   1576.1001
192.9000        142.9267      0.0917    312.5200     55.6561     76.8609      0.2443   1613.6001
193.0000        143.0091      0.0927    308.7200     56.1343     74.8733      0.2519   1608.0000
193.1000        143.3795      0.0978    304.5600     58.6896     72.5113      0.2519   1622.4000
193.2000        143.4129      0.1027    308.6400     61.0365     70.1236      0.2494   1631.4000
193.3000        143.7502      0.1039    314.0400     64.4126     67.7944      0.2506   1573.0000
193.4000        143.8230      0.0987    311.1600     66.8027     66.6857      0.2529   1628.1001
193.5000        143.8220      0.0860    307.5600     68.6223     68.9978      0.2563   1644.2000
193.6000        143.8202      0.0703    303.9600     70.7993     71.6312      0.2588   1647.0000
193.7000        144.1649      0.0524    300.3600     72.2102     75.5488      0.2575   1686.5000
193.8000        144.2136      0.0422    296.2800     73.1880     79.4814      0.2522   1650.8000
193.9000        144.2233      0.0484    296.5200     73.8226     81.1337      0.2401   1694.0000
194.0000        144.2217      0.0510    290.8800     72.1538     81.3890      0.2296   1678.0000
194.1000        144.2198      0.0500    290.5200     71.2058     80.2653      0.2213   1689.6000
194.2000        144.2179      0.0436    295.9200     72.0240     79.0058      0.2212   1647.0000
194.3000        144.2160      0.0357    302.2800     72.5155     78.8004      0.2290   1680.9000
194.4000        143.8160      0.0280    304.9600     71.6911     81.6756      0.2351   1685.6000
194.5000        143.8041      0.0200    307.3600     68.6058     83.4339      0.2379   1649.2000
194.6000        143.8015      0.0159    297.2000     65.4522     87.8274      0.2374   1693.9000
194.7000        143.7995      0.0176    287.9600     62.4738     91.4282      0.2337   1733.8000
194.8000        143.7976      0.0218    285.7200     60.6372     94.1634      0.2259   1703.9000
194.9000        143.7957      0.0276    284.4000     61.0029     91.8962      0.2189   1697.1000
195.0000        143.7938      0.0312    295.3200     62.5483     86.9981      0.2178   1692.6000
195.1000        143.4325      0.0369    303.1200     61.6772     84.3931      0.2260   1662.8000
195.2000        143.3891      0.0472    309.4400     63.3782     81.7147      0.2392   1674.8000
195.3000        143.3808      0.0568    317.4000     65.6274     80.6361      0.2489   1652.2000
195.4000        143.0620      0.0613    310.8400     67.9114     79.0932      0.2409   1652.6000
195.5000        142.5955      0.0552    306.1600     70.7857     80.2399      0.2280   1666.2000
195.6000        142.1986      0.0479    307.2800     72.1949     80.6061      0.2156   1649.0000
195.7000        142.1608      0.0455    297.2400     69.9142     82.1954      0.2163   1606.0000
195.8000        141.8149      0.0392    302.6400     67.5543     81.0658      0.2225   1614.2000
195.9000        141.7340      0.0400    307.6000     64.6641     78.5302      0.2320   1602.6001
196.0000        141.7302      0.0402    301.9200     66.1545     75.9281      0.2333   1648.6000
196.1000        141.3662      0.0413    304.6400     67.1046     75.3998      0.2324   1670.6000
196.2000        141.3246      0.0435    307.3600     63.7763     76.8073      0.2406   1674.0000
196.3000        141.3168      0.0489    303.8400     63.9975     78.3327      0.2311   1677.4000
196.4000        141.3135      0.0567    306.6000     64.0576     79.8968      0.2219   1654.6000
196.5000        140.9324      0.0671    312.0800     63.5880     80.3529      0.2295   1655.6000
196.6000        140.9092      0.0639    309.3600     62.2844     80.4994      0.2373   1651.2000
196.7000        140.9002      0.0542    305.9200     63.9143     82.0124      0.2433   1602.3000
196.8000        140.8972      0.0469    302.5600     65.1074     83.3681      0.2458   1648.6001
196.9000        140.8951      0.0416    299.3600     65.7665     82.6846      0.2428   1649.0000
197.0000        140.8932      0.0520    296.5200     63.4348     81.1393      0.2434   1654.0000
197.1000        140.8913      0.0526    304.6400     62.8654     82.6405      0.2411   1651.0000
197.2000        140.8894      0.0495    299.9600     63.2930     84.2816      0.2411   1656.2000
197.3000        141.2143      0.0392    299.9200     63.9542     84.6219      0.2378   1668.4000
197.4000        141.2913      0.0332    299.8800     65.0413     84.8118      0.2323   1652.6001
197.5000        141.2925      0.0341    294.6800     67.6534     83.4578      0.2285   1645.3000
197.6000        141.2908      0.0418    297.9600     68.2897     79.4046      0.2288   1650.4000
197.7000        141.2890      0.0458    300.9600     71.4819     76.6145      0.2243   1676.0000
197.8000        141.2871      0.0444    303.9600     73.4062     75.1581      0.2218   1664.3000
197.9000        141.2852      0.0441    306.2800     71.4271     74.9871      0.2277   1654.2000
198.0000        141.2833      0.0510    307.9600     71.9789     76.3403      0.2326   1660.0000
198.1000        141.2815      0.0547    310.1600     72.0101     78.6427      0.2326   1647.2000
198.2000        141.2796      0.0520    303.4400     70.4298     82.0929      0.2292   1652.2000
198.3000        141.2777      0.0427    293.8000     67.6472     82.9499      0.2236   1713.0000
198.4000        141.2758      0.0440    289.6000     68.6684     83.0985      0.2181   1685.9000
198.5000        141.2739      0.0396    287.3200     70.2516     83.2459      0.2154   1666.4000
198.6000        141.2720      0.0425    298.3200     69.6172     84.7535      0.2189   1666.0000
198.7000        141.2702      0.0428    303.3600     70.5980     86.4244      0.2168   1723.0000
198.8000        141.2683      0.0399    304.2800     68.7127     88.1473      0.2193   1663.0000
198.9000        141.2664      0.0550    305.2000     67.4167     88.7267      0.2232   1650.6001
199.0000        141.2645      0.0634    300.3200     67.0962     91.3585      0.2288   1654.4000
199.1000        141.6106      0.0616    297.8400     65.9573     90.9063      0.2337   1676.4000
199.2000        141.6584      0.0373    297.8000     65.8619     90.9713      0.2316   1688.2000
199.3000        141.6676      0.0225    297.7600     64.8192     91.1089      0.2209   1657.8000
199.4000        141.6660      0.0187    297.7200     66.5985     91.2689      0.2135   1676.4000
199.5000        141.6641      0.0260    303.2400     69.3240     89.9501      0.2130   1665.0000
199.6000        141.6622      0.0258    307.6800     72.6872     87.1679      0.2223   1671.4000
199.7000        141.6603      0.0247    303.6800     73.6140     85.0825      0.2250   1657.1000
199.8000        141.6584      0.0257    300.7200     72.2968     83.7017      0.2200   1651.6001
199.9000        142.0335      0.0326    301.0400     67.7236     83.7370      0.2154   1652.6000
200.0000        142.0597      0.0386    304.4000     63.5224     82.5556      0.2179   1666.2000
200.1000        141.3707      0.0467    307.3600     57.5156     90.3875      0.1971   1671.4000
