~VERSION INFORMATION
 VERS.                 2.0:   CWLS LOG ASCII STANDARD -VERSION 2.0
 WRAP.                  NO:   ONE LINE PER DEPTH STEP
~WELL INFORMATION BLOCK
#MNEM.UNIT           DATA                    DESCRIPTION OF MNEMONIC
#---------    -------------------            -------------------------------
# Generated from Intellog Unique Number	CC_80_83/WELL/2429
NULL.         -999.25                        : NULL_VALUE
WELL.         ARCO ACI McMURRAY              : Well_name    - WELL              
LOC .         12-11-083-12W4                 : Location     - LOCATION          
UWI .         AA/12-11-083-12W400            : Uwi          - UNIQUE WELL ID    
ENTR.         DW                             : Entered      - ENTERED BY        
SRVC.         SCHLUMBERGER                   : Scn          - SERVICE COMPANY   
DATE.         17 MAR 74                      : Date         - LOG DATE
STRT.M        137.16                         : top_depth    - START DEPTH       
STOP.M        399.29                         : bot_depth    - STOP DEPTH        
STEP.M        0.305                          : increment    - STEP LENGTH       
~CURVE INFORMATION BLOCK
#MNEM UNIT       ERCB CURVE CODE    CURVE DESCRIPTION
#-----------   ------------------   ----------------------------------
DEPT.M        00 001 00 00         : DEPTH        - DEPTH                       
DPHI.V/V      00 890 00 00         : PHID         - DENSITY POROSITY (LIMESTONE)
GR  .API      00 310 00 00         : GR           - GAMMA RAY                   
NPHI.V/V      00 330 00 00         : PHIN         - NEUTRON POROSITY (LIMESTONE)
ILD .OHMM     00 120 00 00         : RESD         - DEEP RESISTIVITY (DLL)      
~PARAMETER INFORMATION       
#MNEM.UNIT           DATA             DESCRIPTION OF MNEMONIC
#---------         -----------     ------------------------------
GL  .M        630.631              : gl           - GROUND LEVEL ELEVATION      
EREF.M        632.308              : kb           - ELEVATION OF DEPTH REFERENCE
DATM.M        632.308              : datum        - DATUM ELEVATION             
TDD .M        399.288              : tdd          - TOTAL DEPTH DRILLER         
RUN .         ONE                  : Run          - RUN NUMBER                  
ENG .         BILL                 : Engineer     - RECORDING ENGINEER          
WIT .         JIM                  : Witness      - WITNESSED BY                
MUD .         GEL                  : Mud_type     - MUD TYPE                    
MATR.         LIMESTONE            : Logunit      - NEUTRON MATRIX              
TMAX.C        21.1111              : BHT          - MAXIMUM RECORDED TEMPERATURE
BHTD.M        399.288              : BHTDEP       - MAXIMUM RECORDED TEMPERATURE
MATR.         1                    : LOGUNIT      - NEUTRON MATRIX              
RMT .C        25                   : MDTP         - TEMPERATURE OF MUD          
NEUT.         0                    : NEUTRON      - NEUTRON TYPE                
RESI.         1                    : RESIST       - RESISTIVITY TYPE            
RMC .OHMM     0.25                 : RMC          - RESISTIVITY OF MUD CAKE     
RMF .OHMM     0.25                 : RMF          - RESISTIVITY OF MUD FILTRATE 
SUFT.C        4                    : SUFT         - SURFACE TEMPERATURE         
~A  DEPTH     PHID       GR     PHIN     RESD
  137.160    0.307   89.113    0.407    4.035
  137.465    0.299   93.967    0.410    3.806
  137.770    0.305   96.797    0.426    3.661
  138.074    0.317   96.791    0.442    3.520
  138.379    0.327   99.620    0.436    3.448
  138.684    0.339   94.753    0.444    3.378
  138.989    0.348   96.367    0.460    3.369
  139.294    0.347   97.982    0.445    3.488
  139.598    0.327   94.329    0.430    3.550
  139.903    0.313   97.969    0.454    3.816
  140.208    0.313  104.039    0.468    4.024
  140.513    0.318  104.843    0.479    4.019
  140.818    0.314   97.141    0.463    3.936
  141.122    0.309   95.109    0.439    3.855
  141.427    0.312  101.179    0.456    3.774
  141.732    0.306   99.553    0.435    3.697
  142.037    0.296   95.901    0.418    3.623
  142.342    0.308   98.730    0.414    3.682
  142.646    0.308   95.078    0.411    3.676
  142.951    0.301   96.287    0.430    3.739
  143.256    0.319  100.332    0.422    3.801
  143.561    0.317   99.921    0.394    3.934
  143.865    0.309   97.889    0.420    4.078
  144.170    0.313   97.881    0.420    4.304
  144.475    0.315   97.472    0.437    4.539
  144.780    0.305   97.870    0.447    4.531
  145.085    0.303   99.079    0.435    4.521
  145.389    0.302   99.073    0.433    4.596
  145.694    0.297   97.042    0.402    4.761
  145.999    0.297   90.960    0.387    5.026
  146.304    0.291   86.093    0.382    5.709
  146.609    0.279   81.226    0.375    6.025
  146.913    0.274   80.004    0.373    6.239
  147.218    0.279   75.948    0.396    6.230
  147.523    0.291   75.537    0.395    5.988
  147.828    0.301   81.200    0.416    5.756
  148.133    0.306   82.410    0.393    5.643
  148.437    0.305   81.594    0.406    5.229
  148.742    0.299   78.752    0.417    4.842
  149.047    0.282   79.151    0.420    4.569
  149.352    0.283   81.171    0.402    4.312
  149.657    0.290   81.165    0.404    4.226
  149.961    0.292   82.373    0.410    4.135
  150.266    0.295   84.393    0.416    4.128
  150.571    0.271   85.602    0.410    4.123
  150.876    0.272   85.595    0.418    4.113
  151.181    0.287   79.108    0.418    4.027
  151.485    0.296   82.748    0.424    4.020
  151.790    0.299   86.388    0.426    4.011
  152.095    0.300   80.710    0.408    3.927
  152.400    0.298   77.464    0.398    3.921
  152.705    0.292   80.292    0.412    3.916
  153.009    0.283   81.096    0.429    3.833
  153.314    0.292   81.090    0.419    3.825
  153.619    0.292   81.085    0.408    3.816
  153.924    0.293   84.724    0.412    3.884
  154.228    0.295   89.174    0.403    3.875
  154.533    0.277   90.787    0.415    3.868
  154.838    0.285   85.516    0.403    3.787
  155.143    0.274   90.371    0.389    3.640
  155.448    0.279   90.769    0.386    3.569
  155.752    0.282   89.547    0.393    3.430
  156.057    0.276   87.112    0.398    3.299
  156.362    0.277   91.156    0.416    3.111
  156.667    0.273   93.985    0.437    3.108
  156.972    0.252   84.258    0.419    3.044
  157.276    0.180   87.897    0.415    3.035
  157.581    0.227   98.423    0.442    3.031
  157.886    0.265   96.391    0.459    3.022
  158.191    0.296   90.309    0.439    3.019
  158.496    0.293   91.518    0.429    2.955
  158.800    0.292   92.727    0.433    3.004
  159.105    0.292   91.910    0.437    3.000
  159.410    0.286   86.638    0.434    2.994
  159.715    0.287   83.797    0.432    2.986
  160.020    0.302   82.576    0.435    2.982
  160.324    0.317   87.025    0.413    2.974
  160.629    0.309   90.665    0.412    3.026
  160.934    0.297   90.254    0.421    3.075
  161.239    0.280   81.335    0.424    3.125
  161.544    0.276   87.811    0.441    3.121
  161.848    0.292   90.640    0.446    3.114
  162.153    0.293   92.255    0.434    3.047
  162.458    0.279   90.223    0.439    3.043
  162.763    0.275   86.166    0.452    3.036
  163.068    0.289   85.349    0.477    3.033
  163.372    0.310   83.722    0.453    3.082
  163.677    0.319   83.312    0.440    3.133
  163.982    0.320   86.547    0.428    3.305
  164.287    0.310   80.870    0.436    3.424
  164.591    0.301   78.028    0.433    3.613
  164.896    0.308   73.971    0.392    3.814
  165.201    0.291   78.421    0.392    4.023
  165.506    0.294   75.174    0.410    4.015
  165.811    0.291   76.788    0.415    3.791
  166.115    0.277   82.047    0.428    3.576
  166.420    0.289   80.826    0.436    3.314
  166.725    0.305   82.846    0.441    3.127
  167.030    0.305   82.434    0.421    3.064
  167.335    0.313   79.188    0.425    3.115
  167.639    0.294   79.181    0.424    3.050
  167.944    0.286   80.391    0.426    2.988
  168.249    0.306   82.410    0.446    2.820
  168.554    0.318   80.378    0.465    2.712
  168.859    0.337   85.232    0.481    2.513
  169.163    0.354   84.416    0.497    2.371
  169.468    0.332   82.789    0.492    2.366
  169.773    0.328   79.138    0.484    2.497
  170.078    0.326   75.892    0.442    2.788
  170.383    0.290   71.025    0.351    3.816
  170.687    0.209   56.437    0.249    4.177
  170.992    0.151   45.493    0.327    4.092
  171.297    0.174   66.146    0.415    3.863
  171.602    0.288   84.368    0.450    3.262
  171.907    0.312   79.499    0.454    2.857
  172.211    0.310   81.520    0.454    2.852
  172.516    0.287   81.107    0.448    2.953
  172.821    0.286   79.888    0.420    3.175
  173.126    0.260   77.045    0.395    3.410
  173.431    0.263   79.064    0.396    3.534
  173.735    0.301   81.489    0.399    3.595
  174.040    0.290   83.103    0.405    3.723
  174.345    0.259   83.096    0.411    3.715
  174.650    0.265   82.686    0.382    3.640
  174.954    0.271   83.084    0.398    3.632
  175.259    0.281   84.292    0.411    3.693
  175.564    0.288   83.477    0.430    3.896
  175.869    0.270   81.041    0.412    3.962
  176.174    0.268   84.275    0.389    3.879
  176.478    0.271   86.698    0.403    3.730
  176.783    0.269   85.883    0.407    3.652
  177.088    0.274   86.281    0.414    3.647
  177.393    0.275   83.440    0.425    3.639
  177.698    0.265   81.408    0.380    3.701
  178.002    0.268   80.997    0.388    3.762
  178.307    0.268   82.206    0.401    3.754
  178.612    0.265   84.226    0.397    3.817
  178.917    0.271   86.245    0.382    3.809
  179.222    0.273   84.619    0.369    3.873
  179.526    0.270   77.322    0.363    3.938
  179.831    0.264   75.695    0.361    4.080
  180.136    0.251   79.335    0.351    4.724
  180.441    0.229   78.923    0.303    5.785
  180.746    0.198   72.840    0.246    7.773
  181.050    0.156   50.557    0.293   11.468
  181.355    0.135   57.842    0.370   17.227
  181.660    0.308   59.860    0.339   17.515
  181.965    0.327   58.638    0.332   16.230
  182.270    0.337   58.632    0.350   13.948
  182.574    0.339   60.247    0.375   12.928
  182.879    0.321   64.697    0.385   12.904
  183.184    0.273   73.602    0.391   14.127
  183.489    0.284   72.380    0.353   15.763
  183.794    0.309   69.134    0.350   16.948
  184.098    0.342   61.431    0.344   16.910
  184.403    0.347   61.424    0.366   16.262
  184.708    0.337   62.634    0.371   15.638
  185.013    0.320   59.793    0.365   14.484
  185.318    0.314   59.382    0.369   13.670
  185.622    0.355   63.831    0.373   11.970
  185.927    0.326   74.357    0.374   11.303
  186.232    0.267   78.402    0.361   10.473
  186.537    0.285   77.180    0.323    9.703
  186.841    0.275   77.174    0.338    9.152
  187.146    0.274   78.788    0.359    8.969
  187.451    0.297   74.731    0.380    9.117
  187.756    0.361   60.953    0.399    9.622
  188.061    0.448   55.276    0.451   11.566
  188.365    0.445   56.080    0.371   20.166
  188.670    0.346   46.353    0.346   19.754
  188.975    0.349   47.967    0.355   17.303
  189.280    0.356   70.644    0.370   15.451
  189.585    0.353   85.219    0.373   12.336
  189.889    0.330   83.188    0.362   12.083
