~VERSION INFORMATION
 VERS.                 2.0:   CWLS LOG ASCII STANDARD -VERSION 2.0
 WRAP.                  NO:   ONE LINE PER DEPTH STEP
~WELL INFORMATION BLOCK
#MNEM.UNIT           DATA                    DESCRIPTION OF MNEMONIC
#---------    -------------------            -------------------------------
# Generated from Intellog Unique Number	CN_94_101/WELL/1071
WELL.         CHEVRON CANADA RESOURCES       : Well_name    - WELL
LOC .         AA/10-30-094-07W4/0            : Location     - LOCATION
UWI .         AA/10-30-094-07W400            : Uwi          - UNIQUE WELL ID
ENTR.         JOETTE                         : Entered      - ENTERED BY
SRVC.         SCHLUMBERGER                   : Scn          - SERVICE COMPANY
DATE.         04/12/92                       : Date         - LOG DATE
STRT.M        100                            : top_depth    - START DEPTH
STOP.M        207                            : bot_depth    - STOP DEPTH
STEP.M        0.25                           : increment    - STEP LENGTH
 NULL. -999.2500:NULL Value
~CURVE INFORMATION BLOCK
#MNEM UNIT       ERCB CURVE CODE    CURVE DESCRIPTION
#-----------   ------------------   ----------------------------------
DEPT.M        00 001 00 00         : DEPTH        - DEPTH
GR  .API      00 310 00 00         : GR           - GAMMA RAY
ILD .OHMM     00 120 00 00         : RESD         - DEEP RESISTIVITY (DIL)
DPHI.V/V      00 890 00 00         : PHID         - DENSITY POROSITY (SANDSTONE)
NPHI.V/V      00 330 00 00         : PHIN         - NEUTRON POROSITY (SANDSTONE)
CALI.MM       00 280 01 00         : CAL          - CALIPER
~PARAMETER INFORMATION
#MNEM.UNIT           DATA             DESCRIPTION OF MNEMONIC
#---------         -----------     ------------------------------
GL  .M        463.6                : gl           - GROUND LEVEL ELEVATION
EREF.M        463.6                : kb           - ELEVATION OF DEPTH REFERENCE
DATM.M        463.6                : datum        - DATUM ELEVATION
TDD .M        289.6                : tdd          - TOTAL DEPTH DRILLER
RUN .         ONE                  : Run          - RUN NUMBER
ENG .         BILL                 : Engineer     - RECORDING ENGINEER
WIT .         JIM                  : Witness      - WITNESSED BY
MUD .         GEL                  : Mud_type     - MUD TYPE
MATR.         SANDSTONE            : Logunit      - NEUTRON MATRIX
TMAX.C        14.2                 : BHT          - MAXIMUM RECORDED TEMPERATURE
BHTD.M        289.6                : BHTDEP       - MAXIMUM RECORDED TEMPERATURE
RMT .C        14.5                 : MDTP         - TEMPERATURE OF MUD
MUDD.KG/M     1022                 : MWT          - MUD DENSITY
NEUT.         1                    : NEUTRON      - NEUTRON TYPE
RESI.         0                    : RESIST       - RESISTIVITY TYPE
RM  .OHMM     14.6                 : RM           - RESISTIVITY OF MUD
RMC .OHMM     7.81                 : RMC          - RESISTIVITY OF MUD CAKE
RMF .OHMM     11.3                 : RMF          - RESISTIVITY OF MUD FILTRATE
SUFT.C        4                    : SUFT         - SURFACE TEMPERATURE
~A  DEPTH       GR     RESD     PHID     PHIN      CAL
# ...
  136.500   95.442   12.966    0.221    0.495  164.231
  136.750   92.342   17.068    0.281    0.552  162.987
  137.000   97.854   18.014    0.476    0.583  160.507
  137.250  105.827   13.905    0.406    0.606  159.681
  137.500  105.803   10.929    0.385    0.619  157.206
  137.750   99.626    8.753    0.397    0.644  158.411
  138.000   92.829    7.407    0.405    0.682  164.107
  138.250   87.274    6.748    0.392    0.684  164.904
  138.500   79.240    6.740    0.390    0.672  164.476
  138.750   81.067    6.982    0.394    0.675  162.419
  139.000   84.734    7.371    0.372    0.633  159.950
  139.250   87.170    7.778    0.339    0.612  156.659
  139.500   83.448    7.768    0.314    0.594  155.409
  139.750   85.276    7.478    0.298    0.568  154.986
  140.000   93.249    7.199    0.273    0.524  154.562
  140.250  101.837    7.883    0.259    0.497  154.538
  140.500  106.113    8.793    0.278    0.468  154.508
  140.750   98.712    9.632    0.341    0.497  154.085
  141.000   88.845   10.355    0.364    0.595  153.248
  141.250   89.436   10.930    0.347    0.614  152.820
  141.500   96.793   10.330    0.268    0.592  153.617
  141.750   99.230    9.941    0.202    0.524  154.000
  142.000   89.362   11.508    0.219    0.501  153.582
  142.250   80.725   15.998    0.240    0.515  151.924
  142.500   85.007   16.588    0.271    0.532  150.271
  142.750   99.747    9.712    0.296    0.512  147.801
  143.000  104.638    8.370    0.315    0.512  145.337
  143.250  108.311    7.910    0.312    0.543  146.537
  143.500  113.202    7.759    0.310    0.589  148.150
  143.750  109.486    7.891    0.310    0.555  150.176
  144.000  103.316    7.738    0.303    0.531  153.831
  144.250   99.601    7.313    0.297    0.521  157.077
  144.500   99.570    7.306    0.321    0.544  160.732
  144.750   93.394    7.707    0.353    0.569  165.611
  145.000   93.984    8.137    0.394    0.631  169.674
  145.250  100.112    8.591    0.366    0.680  169.246
  145.500  102.542    8.265    0.344    0.638  164.327
  145.750   98.833    8.107    0.338    0.604  158.591
  146.000   96.348    7.804    0.361    0.579  154.887
  146.250  101.854    7.653    0.381    0.553  154.867
  146.500  106.751    7.783    0.348    0.530  156.480
  146.750  107.951    8.215    0.309    0.513  156.052
  147.000  104.856    9.336    0.312    0.506  155.629
  147.250  107.299    9.671    0.314    0.562  154.384
  147.500  114.657    9.483    0.316    0.566  153.139
  147.750  113.402    9.471    0.315    0.518  151.889
  148.000  105.995   10.179    0.279    0.506  151.466
  148.250  100.428   10.555    0.272    0.502  150.625
  148.500   95.488   11.987    0.315    0.477  151.013
  148.750   85.005   13.135    0.378    0.451  151.402
  149.000   85.596   14.646    0.332    0.413  151.387
  149.250   86.802   12.625    0.274    0.424  151.362
  149.500   81.850   15.444    0.322    0.469  150.520
  149.750   75.059   19.960    0.366    0.476  150.102
  150.000   75.643   19.209    0.357    0.469  147.628
  150.250   79.316   15.102    0.348    0.457  145.158
  150.500   78.677   14.804    0.331    0.473  145.133
  150.750   72.500   18.441    0.324    0.492  145.118
  151.000   73.706   19.838    0.323    0.495  145.093
  151.250   76.758   18.066    0.303    0.502  144.660
  151.500   77.349   15.284    0.274    0.452  144.650
  151.750   77.939   17.693    0.229    0.397  143.401
  152.000   81.606   21.637    0.184    0.376  142.156
  152.250   77.275   27.971    0.243    0.403  141.319
  152.500   75.405   48.527    0.259    0.416  141.299
  152.750   83.993   38.850    0.263    0.402  141.275
  153.000   90.736   42.556    0.380    0.532  141.265
  153.250   93.781   32.250    0.398    0.554  142.061
  153.500   91.296   39.439    0.352    0.534  143.675
  153.750   94.354   30.998    0.316    0.499  143.650
  154.000  112.785   28.763    0.311    0.445  143.222
  154.250  113.376   27.184    0.328    0.451  143.197
  154.500   93.665   31.459    0.334    0.460  142.360
  154.750   75.795   38.471    0.298    0.431  143.978
  155.000   68.388   47.936    0.308    0.419  146.000
  155.250   78.822   24.223    0.319    0.484  146.383
  155.500  104.026   18.692    0.328    0.506  145.144
  155.750  120.612   17.672    0.341    0.520  143.894
  156.000  110.744   22.421    0.352    0.541  144.696
  156.250   95.949   30.062    0.353    0.571  145.900
  156.500   89.152   26.396    0.344    0.546  145.467
  156.750   83.597   43.334    0.336    0.449  143.814
  157.000   72.499   66.113    0.335    0.463  141.753
  157.250   61.401   54.914    0.338    0.463  141.325
  157.500   57.064   56.903    0.337    0.453  140.897
  157.750   59.501   57.889    0.334    0.441  140.877
  158.000   60.700   46.360    0.333    0.424  141.673
  158.250   61.906   46.303    0.335    0.456  143.287
  158.500   65.579   47.981    0.342    0.500  145.721
  158.750   76.013   41.348    0.340    0.501  145.692
  159.000   85.222   33.739    0.322    0.546  144.452
  159.250  114.112   18.352    0.302    0.531  143.207
  159.500  121.469   23.284    0.323    0.503  143.187
  159.750  114.063   28.474    0.355    0.502  144.392
  160.000  109.111   29.506    0.346    0.579  146.822
  160.250  115.859   26.879    0.329    0.553  147.210
  160.500  129.369   21.925    0.317    0.560  149.232
  160.750  127.499   16.615    0.323    0.577  154.116
  161.000  115.786   14.323    0.331    0.598  153.678
  161.250  116.986   14.562    0.319    0.611  155.705
  161.500  113.277   13.767    0.297    0.620  157.726
  161.750  110.785   11.439    0.274    0.598  154.032
  162.000  110.146   10.804    0.257    0.579  155.640
  162.250  110.736   11.411    0.256    0.556  158.075
  162.500  114.403   15.021    0.262    0.537  162.138
  162.750  112.533   19.052    0.268    0.524  159.255
  163.000  110.048   19.388    0.257    0.569  158.010
  163.250  114.330   19.364    0.256    0.563  157.995
  163.500  118.612   19.688    0.263    0.555  160.425
  163.750  125.354   19.663    0.262    0.558  158.364
  164.000  121.024   20.017    0.251    0.540  153.853
  164.250  117.917   20.363    0.254    0.520  155.874
  164.500  120.360   20.716    0.261    0.495  151.358
  164.750  125.872   21.069    0.264    0.454  154.610
  165.000  127.687   21.043    0.237    0.465  157.039
  165.250  122.741   21.408    0.223    0.474  154.570
  165.500  119.647   21.772    0.237    0.460  151.687
  165.750  115.310   21.759    0.253    0.454  159.021
  166.000  112.831   21.725    0.259    0.487  155.735
  166.250  118.958   22.108    0.264    0.527  154.072
  166.500  124.464   22.492    0.269    0.473  151.607
  166.750  126.907   22.054    0.269    0.461  154.446
  167.000  127.492   22.436    0.261    0.473  159.320
  167.250  125.012   21.205    0.248    0.478  157.264
  167.500  128.064   21.173    0.233    0.489  156.019
  167.750  132.961   20.761    0.229    0.495  153.549
  168.000  131.091   20.736    0.221    0.511  150.667
  168.250  127.985   20.333    0.215    0.500  152.285
  168.500  128.575   21.461    0.205    0.485  152.260
  168.750  121.169   23.508    0.211    0.470  148.979
  169.000  111.916   25.742    0.239    0.458  145.279
  169.250  105.125   23.443    0.251    0.461  146.484
  169.500  111.862   25.211    0.256    0.460  146.464
  169.750  112.458   29.707    0.265    0.433  141.545
  170.000  101.976   33.146    0.276    0.406  139.071
  170.250   66.880   37.657    0.300    0.394  138.642
  170.500   42.248   45.212    0.324    0.379  138.622
  170.750   32.996   52.304    0.327    0.363  138.608
  171.000   30.504   55.189    0.327    0.351  138.583
  171.250   28.019   58.286    0.327    0.368  138.563
  171.500   25.528   62.663    0.327    0.378  138.543
  171.750   31.662   63.748    0.323    0.376  138.528
  172.000   35.937   64.813    0.321    0.377  138.095
  172.250   34.676   67.203    0.332    0.371  138.080
  172.500   33.434   72.248    0.332    0.362  137.647
  172.750   35.864   74.866    0.332    0.355  137.632
