~Version : LASO    vs 4.00 - DATA COPYRIGHT - RILEYS DATASHARE INTERNATIONAL
 VERS.                2.0 :   CWLS Log ASCII Standard -VERSION 2.0
 WRAP.                 NO :   One line per depth step
~Well Information Block
#MNEM.UNIT       Data                        Description of Mnemonic
#----.----      -------------------------- : -----------------------------
 STRT.FT           30.0000                 : Start Depth
 STOP.FT          463.0000                 : End Depth
 STEP.FT            0.5000                 : Depth Increment
 NULL.           -999.25                   : NULL Value
 COMP.    PACIFIC PETROLEUMS LIMITED       : COMPANY
 WELL.    BAYSEL-ASHLAND STPBK CH#21 13-30 : WELL NAME
 FLD .    STPBK. OIL SANDS                 : FIELD NAME
 LOC .    13-30-091-08W4                     : WELL LOCATION
 PROV.    ALBERTA                          : PROVINCE
 SRVC.    SCHLUMBERGER                     : LOGGING SERVICE COMPANY
 DATE.    01-MAR-73                        : DATE LOGGED
 UWI .    AA/13-30-091-08W400              : UNIQUE WELL ID
~Curve Information Block
#MNEM.UNIT        API CODE                   Curve Description
#----.----      LG--CV-CL--M               : -----------------
 DEPT.FT         0   1  0  0               : 1 DEPTH
 CALI.IN        45 280  1  1               : 2 DENSITY CALIPER
 DPHI.%         45 890 12  1               : 3 DENSITY POROSITY (SANDSTONE)
 GR  .GAPI      45 310  1  1               : 4 GAMMA RAY
 RHOB.G/C3      45 350  1  1               : 5 BULK DENSITY
 LLS .OHMM      11 220  9  1               : 6 FOCUSSED RESISTIVITY
 SP  .MV        11  10  1  1               : 7 SPONTANEOUS POTENTIAL
 NPHI.%         41 890  3  1               : 8 NEUTRON POROSITY (SANDSTONE)
~Parameter Information Block
#MNEM.UNIT       Data                        Description of Mnemonic
#----.----      -------------------------- : -----------------------------
 RUN .                   1                 : Run Number
 GL  .FT         1240.0000                 : Ground Level Elevation
 DREF.                  KB                 : Depth Reference
 EREF.FT         1244.0000                 : Elevation of Depth Reference
 TDL .FT          464.0000                 : Total Depth Logger
 TDD .FT          455.0000                 : Total Depth Driller
 CSGL.FT            0.0000                 : Casing Bottom Logger
 CSGD.FT            0.0000                 : Casing Bottom Driller
 CSGS.IN          219.0000                 : Casing Size
 CSGW.LBS           0.0000                 : Casing Weight
 BHT .DEGF         52.0000                 : Bottom Hole Temperature
 BS  .IN            6.2500                 : Bit Size
 DFD .           1110.0000                 : Mud Weight (Density)
 DFV .             89.0000                 : Mud Viscosity
 DFL .              4.5000                 : Mud Fluid Loss
 DFPH.              9.0000                 : Mud pH
 RM  .OHMM          4.6200                 : Mud Resistivity
 RMT .DEGF         49.0000                 : Mud Resistivity Temperature
 RMF .OHMM          5.0000                 : Mud Filtrate Resistivity
 RMFT.DEGF         20.0000                 : RMF Temperature
 RMC .OHMM          5.3000                 : Mud Cake Resistivity
 RMCT.DEGF         20.0000                 : RMC Temperature
~Asc DEPTH      CALI       DPHI       GR         RHOB       LLS        SP         NPHI 
# ...
   75.5000     7.2510    19.1700    56.6100     2.3317    36.1601    60.7650    28.3380
   76.0000     7.2210    19.2780    57.1600     2.3293    36.1934    62.4300    29.2440
   76.5000     7.2190    19.4100    55.9400     2.3282    36.2268    65.1150    28.9560
   77.0000     7.1710    19.5600    55.0400     2.3261    34.3107    66.1200    28.8480
   77.5000     7.1140    20.4060    54.1300     2.3172    32.3467    65.0850    28.8360
   78.0000     7.1390    21.0780    54.0300     2.2991    30.1321    64.1550    32.1540
   78.5000     7.1660    20.9880    55.4500     2.3002    27.9145    63.7500    32.5080
   79.0000     7.1990    20.8560    56.2000     2.3022    26.0034    63.4500    32.8320
   79.5000     7.2360    20.6700    56.7500     2.3045    24.5601    63.1650    32.8620
   80.0000     7.2640    20.4840    56.9600     2.3098    23.3900    63.6450    30.8040
   80.5000     7.2930    20.1660    53.9900     2.3162    24.0453    64.0950    30.9240
   81.0000     7.2710    19.6500    51.7300     2.3316    25.7413    64.4700    30.2280
   81.5000     7.2270    18.1440    49.4600     2.3587    29.3110    64.7550    29.0340
   82.0000     7.2010    16.6380    47.4800     2.3829    34.6601    65.6850    27.1500
   82.5000     7.1230    15.1860    45.7000     2.4050    41.5939    67.0650    25.5360
   83.0000     7.0590    13.8300    45.5400     2.4329    43.7149    68.9250    24.3120
   83.5000     7.1280    12.9660    47.4300     2.4230    42.7592    70.5900    24.3960
   84.0000     7.1700    14.5140    49.4600     2.4134    41.8630    71.1000    24.4620
   84.5000     7.1630    14.0400    48.3200     2.4196    40.3859    71.3850    24.5100
   85.0000     7.1500    13.6560    46.8500     2.4222    40.0157    71.7750    24.9720
   85.5000     7.1660    13.8840    47.1800     2.4194    41.2886    72.3600    25.5960
   86.0000     7.1780    12.6360    47.8100     2.4405    42.2114    71.4300    26.5800
   86.5000     6.9590    12.1920    48.2300     2.4275    42.6805    70.1400    26.6820
   87.0000     6.7470    14.1660    47.8600     2.4058    38.2851    69.5850    27.5100
   87.5000     6.6980    15.5280    47.2000     2.3932    36.8663    69.0900    25.9980
   88.0000     6.7290    14.8980    48.5600     2.4046    36.1934    68.6250    25.0080
   88.5000     6.8570    14.1720    49.2200     2.4191    35.9608    68.1000    25.2600
   89.0000     6.9720    12.8940    49.5500     2.4363    40.7596    69.3600    25.0680
   89.5000     7.0490    13.9680    49.7800     2.4262    44.4457    71.1300    24.1620
   90.0000     7.1180    15.3780    49.0700     2.4054    47.5806    73.6800    23.3100
   90.5000     7.1080    16.7880    49.1800     2.3785    50.1453    73.5750    23.4900
   91.0000     7.1020    18.1980    50.0400     2.3472    33.4989    73.4400    24.7500
   91.5000     7.1540    20.1480    52.5500     2.3159    26.2198    72.9000    27.4800
   92.0000     7.1910    22.5960    58.6600     2.2834    20.7315    72.0000    30.2100
   92.5000     7.2030    26.2380    62.8500     2.2447    17.1171    71.1000    33.3240
   93.0000     7.2100    26.0940    63.1500     2.2137    18.3244    70.6500    36.7560
   93.5000     7.2240    25.7160    63.7000     2.2209    18.2066    70.3050    37.4460
   94.0000     7.2450    26.1660    61.6700     2.2253    17.8250    70.0350    37.6320
   94.5000     7.2610    26.9400    60.1900     2.2270    16.7429    69.9000    37.9920
   95.0000     7.2570    27.7140    60.0200     2.1940    15.3968    69.7800    41.1000
   95.5000     7.2310    28.5300    62.2400     2.1753    16.4828    71.1900    42.6060
   96.0000     7.2010    28.1700    62.3600     2.1755    17.4675    72.1800    41.6460
   96.5000     7.1940    27.7860    58.9400     2.1835    18.4940    72.6600    40.6440
   97.0000     7.1660    27.7080    60.1800     2.1897    20.2409    73.1400    41.3340
   97.5000     7.1180    27.6720    61.8400     2.1918    20.0923    73.0800    42.6300
   98.0000     7.1000    28.7940    62.7500     2.1723    19.7620    73.0200    42.1260
   98.5000     7.0830    29.6520    60.8600     2.1598    19.0998    73.2300    43.1340
   99.0000     7.1260    29.4840    58.9700     2.1607    18.6995    73.3800    42.9060
   99.5000     7.1540    29.3280    57.8700     2.1652    18.5622    72.4500    42.1800
  100.0000     7.1230    29.2560    59.6200     2.1628    19.5447    71.2500    41.0820
  100.5000     7.1100    29.7780    55.3000     2.1577    22.1121    69.5700    40.4640
  101.0000     7.1250    29.9940    54.1500     2.1519    21.6287    68.4600    42.0660
  101.5000     7.1820    30.1500    57.2500     2.1494    18.9247    68.4900    40.9740
  102.0000     7.1440    30.5640    59.7800     2.1419    16.7737    68.4600    39.4560
  102.5000     7.0810    31.1400    65.8100     2.1324    13.9518    68.5650    38.6100
  103.0000     7.0430    30.6420    64.7900     2.1411    12.1180    69.5850    41.9100
  103.5000     7.0630    29.5440    63.9000     2.1596    13.0326    70.9950    42.9900
  104.0000     7.0770    28.4460    65.4700     2.1760    14.0939    71.7000    41.0460
  104.5000     7.0920    27.3480    66.4800     2.1863    15.1995    72.4050    38.8260
  105.0000     7.1090    26.5500    66.4000     2.2049    16.3768    72.6000    37.5060
  105.5000     7.1190    25.7880    66.6400     2.2312    18.3244    72.6600    39.1020
  106.0000     7.1210    24.6420    62.2800     2.2409    19.4370    72.0600    40.0080
  106.5000     7.1250    24.9480    64.3500     2.2400    14.8126    71.5500    38.8200
  107.0000     7.1670    25.9980    67.7900     2.2318    12.5959    71.2200    39.2580
  107.5000     7.2100    27.8160    70.4100     2.1875    12.6308    70.9800    40.2360
  108.0000     7.2610    28.4880    74.0600     2.1784    13.4471    69.9000    42.9720
  108.5000     7.2890    28.5420    72.3300     2.1747    14.5154    69.9300    45.5760
  109.0000     7.1680    29.7660    71.2000     2.1628    14.0420    69.9600    44.8800
  109.5000     7.1390    30.3660    69.4400     2.1630    14.7853    69.3900    45.0120
  110.0000     7.0450    30.8340    65.6100     2.1441    14.3559    68.8650    45.3720
  110.5000     7.0070    30.9180    64.6600     2.1344    15.3260    68.1000    46.1520
  111.0000     7.0100    30.0900    64.0100     2.1504    16.6353    67.3200    45.3000
  111.5000     7.0150    29.4420    63.1100     2.1582    18.6823    67.8600    46.8600
  112.0000     6.9580    28.8900    63.5900     2.1651    21.0392    67.6500    46.9260
  112.5000     6.9070    28.0980    65.9800     2.1728    20.9040    67.4550    44.7180
  113.0000     6.9040    27.1320    67.5500     2.1821    19.2411    67.2600    44.7840
  113.5000     6.9410    26.0040    67.5100     2.1962    14.9221    67.7100    44.1720
  114.0000     6.9990    24.8160    67.5400     2.2197    13.0446    68.2050    43.4580
  114.5000     7.0540    23.6100    68.8600     2.2553    12.9488    68.9400    41.8920
  115.0000     7.1020    22.2660    68.8400     2.2872    20.8272    69.9000    40.1580
  115.5000     7.0530    20.9220    68.1000     2.3079    29.8834    70.6350    38.5620
  116.0000     7.0230    19.5780    67.1000     2.3278    22.4610    71.1600    36.8460
  116.5000     7.1570    17.9160    63.5900     2.3528    16.3467    71.6700    40.4940
  117.0000     7.2120    22.1700    63.5900     2.2800    10.7209    73.8150    44.4600
  117.5000     7.2290    27.7740    72.6200     2.1816     6.7457    77.0400    48.0120
  118.0000     7.2410    30.7680    73.1100     2.1370     7.2749    75.4500    49.8120
  118.5000     7.2330    31.3500    74.2700     2.1289     6.9411    73.4550    50.9640
  119.0000     7.2270    31.7100    75.6200     2.1224     6.6471    72.2550    49.9200
  119.5000     7.2210    31.8000    76.8800     2.1199     6.5257    70.9800    51.0240
  120.0000     7.2230    31.0560    77.7900     2.1305     6.3537    71.4300    52.2000
  120.5000     7.2260    30.5220    78.6200     2.1375     6.1183    72.2250    52.2900
