~VERSION INFORMATION
 VERS.                 2.0:   CWLS LOG ASCII STANDARD -VERSION 2.0
 WRAP.                  NO:   ONE LINE PER DEPTH STEP
~WELL INFORMATION BLOCK
#MNEM.UNIT           DATA                    DESCRIPTION OF MNEMONIC
#---------    -------------------            -------------------------------
# Generated from Intellog Unique Number	CC_80_83/WELL/2417
NULL.         -999.25                        : NULL_VALUE
WELL.         ARCO ACI MCMURRAY              : Well_name    - WELL
LOC .         11-29-082-10W4                 : Location     - LOCATION          
UWI .         AA/11-29-082-10W400            : Uwi          - UNIQUE WELL ID    
ENTR.         DW                             : Entered      - ENTERED BY        
SRVC.         DRESSER ATLAS                  : Scn          - SERVICE COMPANY   
DATE.         27 FEB 76                      : Date         - LOG DATE
STRT.M        252.984                        : top_depth    - START DEPTH       
STOP.M        481.591                        : bot_depth    - STOP DEPTH        
STEP.M        0.305                          : increment    - STEP LENGTH       
~CURVE INFORMATION BLOCK
#MNEM UNIT       ERCB CURVE CODE    CURVE DESCRIPTION
#-----------   ------------------   ----------------------------------
DEPT.M        00 001 00 00         : DEPTH        - DEPTH                       
NPHI.V/V      00 330 00 00         : PHIN         - NEUTRON POROSITY (LIMESTONE)
GR  .API      00 310 00 00         : GR           - GAMMA RAY                   
RHOB.KG/M3    00 350 00 00         : DENS         - BULK DENSITY                
ILD .OHMM     00 120 00 00         : RESD         - DEEP RESISTIVITY (DIL)      
~PARAMETER INFORMATION       
#MNEM.UNIT           DATA             DESCRIPTION OF MNEMONIC
#---------         -----------     ------------------------------
GL  .M        710.794              : gl           - GROUND LEVEL ELEVATION      
EREF.M        713.842              : kb           - ELEVATION OF DEPTH REFERENCE
DATM.M        713.842              : datum        - DATUM ELEVATION             
TDD .M        484.022              : tdd          - TOTAL DEPTH DRILLER         
RUN .         ONE                  : Run          - RUN NUMBER                  
ENG .         BILL                 : Engineer     - RECORDING ENGINEER          
WIT .         JIM                  : Witness      - WITNESSED BY                
MUD .         GEL                  : Mud_type     - MUD TYPE                    
MATR.         LIMESTONE            : Logunit      - NEUTRON MATRIX              
TMAX.C        23.3333              : BHT          - MAXIMUM RECORDED TEMPERATURE
BHTD.M        484.022              : BHTDEP       - MAXIMUM RECORDED TEMPERATURE
MATR.         1                    : LOGUNIT      - NEUTRON MATRIX              
RMT .C        25                   : MDTP         - TEMPERATURE OF MUD          
NEUT.         0                    : NEUTRON      - NEUTRON TYPE                
RESI.         0                    : RESIST       - RESISTIVITY TYPE            
RMC .OHMM     0.25                 : RMC          - RESISTIVITY OF MUD CAKE     
RMF .OHMM     0.25                 : RMF          - RESISTIVITY OF MUD FILTRATE 
SUFT.C        15                   : SUFT         - SURFACE TEMPERATURE         
~A  DEPTH     PHIN       GR     DENS     RESD
  252.984    0.410  133.643 2297.660    2.640
  253.289    0.411  131.823 2289.540    2.640
  253.594    0.411  131.211 2271.290    2.690
  253.898    0.409  132.416 2259.120    2.690
  254.203    0.404  131.805 2267.190    2.741
  254.508    0.396  129.985 2261.090    2.793
  254.813    0.394  128.164 2261.070    2.954
  255.118    0.393  127.555 2303.560    3.067
  255.422    0.390  129.361 2311.640    3.010
  255.727    0.384  130.566 2281.240    2.900
  256.032    0.393  132.372 2260.970    2.742
  256.337    0.401  132.363 2246.770    2.642
  256.642    0.411  131.754 2234.600    2.498
  256.946    0.411  131.144 2218.370    2.362
  257.251    0.409  128.719 2240.620    2.318
  257.556    0.404  126.293 2256.790    2.319
  257.861    0.399  125.080 2258.800    2.594
  258.166    0.387  124.468 2285.100    2.743
  258.470    0.377  125.672 2305.320    2.848
  258.775    0.376  126.871 2305.290    2.956
  259.080    0.375  127.470 2309.320    3.186
  259.385    0.376  128.071 2349.800    3.307
  259.690    0.387  129.874 2321.420    3.307
  259.994    0.392  131.080 2317.350    3.307
  260.299    0.394  132.886 2297.070    3.307
  260.604    0.393  132.883 2290.960    3.247
  260.909    0.391  132.271 2299.050    3.247
  261.214    0.388  132.266 2323.320    3.370
  261.519    0.390  132.258 2337.480    3.434
  261.823    0.390  131.649 2351.620    3.565
  262.128    0.387  131.642 2345.530    3.632
  262.433    0.385  132.843 2319.170    3.633
  262.738    0.390  133.444 2300.930    3.633
  263.043    0.401  131.019 2280.650    3.500
  263.347    0.403  126.781 2270.500    3.309
  263.652    0.404  126.775 2288.700    3.310
  263.957    0.403  128.582 2302.850    3.372
  264.262    0.395  130.388 2319.030    3.501
  264.567    0.386  129.172 2327.100    3.772
  264.871    0.378  127.353 2323.030    3.916
  265.176    0.379  125.534 2302.750    3.373
  265.481    0.381  127.947 2282.480    3.373
  265.786    0.378  124.312 2272.330    3.773
  266.091    0.366  115.841 2256.110    5.280
  266.395    0.344  110.999 2227.730    7.119
  266.700    0.335  112.202 2247.950    8.907
  267.005    0.333  113.405 2256.030   10.537
  267.310    0.326  113.398 2260.060   10.538
  267.615    0.327  111.575 2262.060   10.344
  267.920    0.340  110.966 2245.830    9.965
  268.224    0.354  110.962 2221.510    9.600
  268.529    0.358  112.769 2225.540    8.910
  268.834    0.349  117.598 2272.090    8.269
  269.139    0.346  118.196 2310.530    8.270
  269.444    0.346  117.587 2342.910    9.251
  269.748    0.340  112.744 2239.610   10.156
  270.053    0.355  109.108 2101.890   11.793
  270.358    0.378  111.521 1988.470   13.440
  270.663    0.405  116.353 2203.090   14.483
  270.968    0.345  117.553 2170.660   15.607
  271.272    0.337  119.965 2170.640   16.201
  271.577    0.336  122.380 2176.690   16.819
  271.882    0.333  126.605 2178.690   16.820
  272.187    0.333  129.621 2148.290   15.905
  272.492    0.333  129.012 2115.870   14.488
  272.796    0.327  116.912 2225.190   10.950
  273.101    0.316  113.280 2243.390    9.431
  273.406    0.305  108.436 2269.690    9.432
  273.711    0.301  107.825 2283.840   10.355
  274.016    0.304  108.423 2267.620   12.481
  274.321    0.304  107.811 2198.740   14.225
  274.625    0.303  104.784 2192.640   15.045
  274.930    0.303  100.545 2206.790   15.618
  275.235    0.301   99.933 2214.860   16.518
  275.540    0.303  101.742 2212.820   16.831
  275.845    0.310  101.735 2131.800   17.149
  276.149    0.318  100.520 2131.770   17.473
  276.454    0.319   98.094 2168.200   17.151
  276.759    0.321   99.901 2216.770   16.523
  277.064    0.325  105.337 2263.320   15.624
  277.369    0.329  111.378 2283.550   13.711
  277.673    0.329  116.209 2269.340   12.965
  277.978    0.327  119.829 2279.440   11.591
  278.283    0.324  122.242 2289.540   10.758
  278.588    0.321  123.444 2311.800   10.559
  278.893    0.321  123.437 2378.590   10.759
  279.197    0.320  123.430 2435.270   10.760
  279.502    0.309  122.822 2459.540   11.170
  279.807    0.303  120.397 2313.720   11.595
  280.112    0.306  118.576 2230.680   12.731
  280.417    0.311  116.153 2196.230   13.719
  280.722    0.315  111.915 2163.800   15.635
  281.026    0.322  107.676 2133.400   16.848
  281.331    0.331  110.691 2141.480   17.490
  281.636    0.331  113.105 2173.840   17.491
  281.941    0.325  114.306 2179.900   17.168
  282.246    0.319  113.695 2181.900   16.540
  282.550    0.316  114.899 2163.650   15.935
  282.855    0.314  119.124 2153.500   15.352
  283.160    0.314  119.722 2169.670   15.068
  283.465    0.314  119.716 2173.710   15.069
  283.770    0.317  117.293 2173.680   15.644
  284.074    0.318  114.866 2161.510   15.644
  284.379    0.323  114.862 2167.550   15.940
  284.684    0.324  118.482 2203.970   15.941
  284.989    0.328  120.892 2220.150   15.358
  285.294    0.333  120.888 2240.380   15.074
  285.598    0.338  122.695 2252.500   13.990
  285.903    0.338  126.316 2262.600   12.984
  286.208    0.334  129.334 2274.730   12.509
  286.513    0.329  129.933 2276.730   11.395
  286.818    0.328  125.090 2244.300   11.185
  287.123    0.329  124.479 2250.350   10.979
  287.427    0.333  128.704 2260.450   10.979
  287.732    0.335  134.139 2319.160   10.382
  288.037    0.341  137.156 2371.780    8.614
  288.342    0.350  134.126 2414.280    6.042
  288.647    0.359  134.724 2495.260    5.204
  288.951    0.356  140.159 2335.260    4.653
  289.256    0.360  141.967 2365.610    4.083
  289.561    0.374  143.776 2363.550    3.861
  289.866    0.389  143.768 2325.060    3.651
  290.171    0.392  142.552 2270.360    3.326
  290.475    0.394  143.754 2233.890    3.204
  290.780    0.391  144.354 2252.080    3.087
  291.085    0.379  143.139 2256.110    3.145
  291.390    0.364  137.692 2264.180    3.791
  291.695    0.341  128.616 2249.990    5.305
  291.999    0.323  124.982 2177.070    8.304
  292.304    0.326  124.372 2203.360   11.841
  292.609    0.329  124.967 2243.830   12.760
  292.914    0.325  124.963 2260.020   12.761
  293.219    0.325  124.956 2268.090   12.525
  293.524    0.333  123.740 2278.190   12.294
  293.828    0.339  123.737 2259.940   11.845
  294.133    0.346  127.355 2268.010   11.626
  294.438    0.346  129.164 2274.060   11.200
  294.743    0.349  132.181 2276.060   10.395
  295.048    0.348  134.594 2294.270    9.294
  295.352    0.350  138.212 2330.690    7.024
  295.657    0.354  138.814 2334.720    5.828
  295.962    0.337  134.576 2273.940    5.721
  296.267    0.330  124.895 2253.670    6.520
  296.572    0.325  122.471 2247.570    7.859
  296.876    0.325  125.488 2277.920   10.795
  297.181    0.325  124.271 2275.870   13.011
  297.486    0.328  122.450 2162.450   13.761
  297.791    0.330  121.237 2158.370   14.286
  298.096    0.331  121.226 2190.750   13.763
  298.400    0.326  122.430 2221.100   13.259
  298.705    0.322  123.636 2265.620   12.078
  299.010    0.318  127.257 2300.020   11.002
  299.315    0.315  127.252 2271.640    9.837
  299.620    0.316  117.571 2267.570    8.961
  299.925    0.321  113.935 2285.770    8.961
  300.229    0.327  113.326 2287.770    9.839
  300.534    0.331  113.922 2259.400   10.406
  300.839    0.340  115.127 2237.100   11.859
  301.144    0.343  119.351 2233.030   12.311
  301.449    0.344  121.765 2212.750   12.084
  301.753    0.344  122.969 2243.100   11.642
  302.058    0.347  126.586 2269.400   11.216
  302.363    0.346  127.790 2283.550   10.028
  302.668    0.334  128.391 2322.000    8.637
  302.973    0.330  130.801 2338.170    7.722
  303.277    0.346  130.797 2293.600    7.034
  303.582    0.358  131.393 2198.400    6.173
  303.887    0.354  130.785 2196.350    6.059
  304.192    0.340  128.359 2232.770    6.529
  304.497    0.329  122.912 2230.730    8.640
  304.801    0.329  116.256 2149.710   13.525
  305.106    0.330  113.830 2167.910   16.609
  305.411    0.330  116.846 2196.230   16.923
  305.716    0.330  118.052 2202.280   16.611
