~VERSION INFORMATION
 VERS.                 2.0:   CWLS LOG ASCII STANDARD -VERSION 2.0
 WRAP.                  NO:   ONE LINE PER DEPTH STEP
~WELL INFORMATION BLOCK
#MNEM.UNIT           DATA                    DESCRIPTION OF MNEMONIC
#---------    -------------------            -------------------------------
# Generated from Intellog Unique Number	CW_79_81/WELL/2480
WELL.         11-02-081-22W4                 : Well_name    - WELL
LOC .         AA/11-02-081-22W4/0            : Location     - LOCATION
UWI .         AA/11-02-081-22W4/0            : Uwi          - UNIQUE WELL ID
ENTR.         MAX                            : Entered      - ENTERED BY
SRVC.         SCHLUMBERGER                   : Scn          - SERVICE COMPANY
STRT.M        190                            : top_depth    - START DEPTH
STOP.M        430                            : bot_depth    - STOP DEPTH
STEP.M        0.25                           : increment    - STEP LENGTH
 NULL. -999.2500:NULL Value
~CURVE INFORMATION BLOCK
#MNEM UNIT       ERCB CURVE CODE    CURVE DESCRIPTION
#-----------   ------------------   ----------------------------------
DEPT.M        00 001 00 00         : DEPTH        - DEPTH
ILD .OHMM     00 120 00 00         : RESD         - DEEP RESISTIVITY (DIL)
NPHI.V/V      00 330 00 00         : PHIN         - NEUTRON POROSITY (SANDSTONE)
DPHI.V/V      00 890 00 00         : PHID         - DENSITY POROSITY (SANDSTONE)
GR  .API      00 310 00 00         : GR           - GAMMA RAY
CALI.MM       00 280 01 00         : CAL          - CALIPER
~PARAMETER INFORMATION
#MNEM.UNIT           DATA             DESCRIPTION OF MNEMONIC
#---------         -----------     ------------------------------
GL  .M        607                  : gl           - GROUND LEVEL ELEVATION
EREF.M        610.7                : kb           - ELEVATION OF DEPTH REFERENCE
DATM.M        607                  : datum        - DATUM ELEVATION
TDD .M        435                  : tdd          - TOTAL DEPTH DRILLER
RUN .         ONE                  : Run          - RUN NUMBER
ENG .         BILL                 : Engineer     - RECORDING ENGINEER
WIT .         JIM                  : Witness      - WITNESSED BY
MUD .         GEL                  : Mud_type     - MUD TYPE
MATR.         SANDSTONE            : Logunit      - NEUTRON MATRIX
TMAX.C        29                   : BHT          - MAXIMUM RECORDED TEMPERATURE
BHTD.M        435                  : BHTDEP       - MAXIMUM RECORDED TEMPERATURE
MATR.         1                    : LOGUNIT      - NEUTRON MATRIX
RMT .C        20                   : MDTP         - TEMPERATURE OF MUD
NEUT.         1                    : NEUTRON      - NEUTRON TYPE
RESI.         0                    : RESIST       - RESISTIVITY TYPE
RMC .OHMM     1.22                 : RMC          - RESISTIVITY OF MUD CAKE
RMF .OHMM     2.93                 : RMF          - RESISTIVITY OF MUD FILTRATE
SUFT.C        -20                  : SUFT         - SURFACE TEMPERATURE
~A  DEPTH     RESD     PHIN     PHID       GR      CAL
# ...
  372.500   12.028    0.418    0.219   95.367  199.515
  372.750   12.222    0.409    0.226   96.323  199.439
  373.000   12.314    0.403    0.224   95.354  201.033
  373.250   12.313    0.407    0.225   92.803  202.181
  373.500   12.245    0.426    0.227   90.946  202.461
  373.750   12.155    0.439    0.225   89.436  202.258
  374.000   12.067    0.437    0.220   88.562  201.861
  374.250   11.996    0.422    0.215   89.538  201.384
  374.500   12.087    0.412    0.215   90.978  200.970
  374.750   12.086    0.406    0.217   90.741  201.347
  375.000   12.085    0.414    0.219   89.810  201.432
  375.250   12.084    0.420    0.220   90.267  201.422
  375.500   12.083    0.418    0.219   93.036  201.315
  375.750   12.064    0.419    0.220   97.693  201.080
  376.000   11.972    0.438    0.217   96.722  201.871
  376.250   11.798    0.454    0.220   96.254  200.705
  376.500   11.755    0.447    0.218   96.306  199.538
  376.750   11.797    0.429    0.211   97.109  199.142
  377.000   11.861    0.412    0.204   98.201  199.807
  377.250   11.823    0.412    0.202   97.896  201.496
  377.500   11.645    0.426    0.197   95.239  202.286
  377.750   11.227    0.438    0.204   94.308  202.665
  378.000   11.127    0.437    0.209   99.275  205.354
  378.250   10.882    0.427    0.212  105.283  207.078
  378.500   10.458    0.417    0.209  108.573  206.586
  378.750   10.143    0.414    0.191  105.858  204.646
  379.000   10.066    0.411    0.189  102.719  204.637
  379.250   10.065    0.400    0.214  106.645  208.095
  379.500    9.791    0.391    0.223  107.970  208.952
  379.750    9.336    0.391    0.218  106.344  207.977
  380.000    8.893    0.397    0.207  102.059  205.558
  380.250    8.715    0.397    0.207   95.267  201.531
  380.500    8.780    0.394    0.213   91.405  200.717
  380.750    8.908    0.404    0.215   91.399  201.863
  381.000    8.989    0.424    0.214   94.168  201.275
  381.250    9.184    0.434    0.211   95.896  199.530
  381.500    9.654    0.427    0.207   95.080  197.786
  381.750   10.979    0.410    0.200   91.614  198.173
  382.000   13.207    0.390    0.198   87.029  200.173
  382.250   16.543    0.383    0.153   82.628  201.703
  382.500   19.021    0.363    0.100   77.880  202.078
  382.750   22.030    0.306    0.058   72.668  202.068
  383.000   27.110    0.235    0.046   67.112  202.058
  383.250   34.509    0.219    0.080   60.878  202.127
  383.500   39.613    0.249    0.090   57.498  202.517
  383.750   42.566    0.245    0.090   57.029  202.506
  384.000   44.559    0.255    0.090   57.948  202.497
  384.250   45.384    0.271    0.089   59.099  202.488
  384.500   45.216    0.284    0.104   60.308  202.478
  384.750   44.079    0.283    0.182   63.442  202.464
  385.000   41.813    0.311    0.229   68.735  202.454
  385.250   36.610    0.377    0.258   72.662  202.830
  385.500   31.528    0.394    0.264   77.804  202.915
  385.750   26.181    0.390    0.254   81.846  203.097
  386.000   21.633    0.385    0.240   84.442  203.472
  386.250   18.215    0.390    0.236   87.500  204.005
  386.500   16.402    0.394    0.247   88.939  204.799
  386.750   16.164    0.398    0.256   88.469  204.790
  387.000   15.842    0.410    0.259   88.347  205.069
  387.250   15.384    0.423    0.254   87.994  205.251
  387.500   14.919    0.430    0.241   86.833  204.854
  387.750   14.703    0.410    0.214   83.991  203.220
  388.000   14.701    0.369    0.172   82.539  202.806
  388.250   15.242    0.353    0.193   82.533  202.799
  388.500   15.719    0.374    0.222   83.047  202.789
  388.750   16.124    0.393    0.230   83.041  202.778
  389.000   16.177    0.395    0.213   82.341  202.767
  389.250   15.237    0.386    0.190   81.640  202.677
  389.500   14.563    0.378    0.208   81.633  202.263
  389.750   13.835    0.384    0.232   81.396  202.253
  390.000   13.293    0.402    0.247   79.945  202.244
  390.250   12.914    0.416    0.246   77.972  202.427
  390.500   12.635    0.418    0.234   76.636  202.609
  390.750   12.305    0.412    0.232   77.939  202.210
  391.000   12.029    0.409    0.238   79.861  202.200
  391.250   11.854    0.403    0.245   81.011  203.346
  391.500   11.682    0.399    0.252   81.642  203.625
  391.750   11.513    0.399    0.255   81.635  203.423
  392.000   11.325    0.401    0.255   80.993  203.124
  392.250   11.081    0.402    0.249   79.396  203.111
  392.500   11.080    0.406    0.226   77.221  203.100
  392.750   11.570    0.392    0.203   75.363  202.318
  393.000   12.277    0.372    0.190   74.721  202.114
  393.250   13.060    0.363    0.183   74.022  202.105
  393.500   13.891    0.369    0.175   72.107  202.095
  393.750   15.187    0.377    0.149   67.454  201.923
  394.000   16.515    0.348    0.119   65.037  201.108
  394.250   17.873    0.299    0.150   67.808  201.482
  394.500   18.847    0.322    0.176   72.313  201.858
  394.750   18.987    0.351    0.195   76.586  202.427
  395.000   18.016    0.368    0.210   79.529  203.092
  395.250   15.711    0.402    0.221   81.150  203.627
  395.500   14.146    0.415    0.226   82.348  204.417
  395.750   13.440    0.409    0.223   82.111  204.794
  396.000   12.985    0.403    0.219   81.700  204.881
  396.250   12.612    0.399    0.217   81.116  205.064
  396.500   12.296    0.397    0.218   81.573  205.343
  396.750   12.100    0.400    0.224   86.414  205.330
  397.000   12.008    0.417    0.222   90.986  205.318
  397.250   11.748    0.418    0.223   90.517  205.309
  397.500   11.367    0.414    0.223   91.609  205.011
  397.750   11.083    0.417    0.216   91.949  204.615
  398.000   11.021    0.431    0.191   90.671  204.218
  398.250   11.298    0.449    0.131   88.977  203.740
  398.500   11.470    0.426    0.102   92.103  203.329
  398.750   11.221    0.407    0.158   98.574  203.318
  399.000   10.737    0.411    0.198  102.963  203.885
  399.250   10.319    0.413    0.215  104.345  204.839
  399.500   10.042    0.405    0.214  104.802  206.179
  399.750    9.795    0.394    0.208  110.095  208.415
  400.000    9.648    0.397    0.212  113.462  210.011
  400.250    9.439    0.390    0.211  114.844  210.387
  400.500    9.490    0.381    0.211  115.705  207.870
  400.750    9.662    0.377    0.211  116.740  206.703
  401.000    9.822    0.382    0.211  118.064  208.044
  401.250    9.776    0.392    0.209  118.876  210.039
  401.500    9.556    0.386    0.203  117.183  210.430
  401.750    9.418    0.372    0.203  116.252  206.178
  402.000    9.640    0.362    0.207  116.535  204.818
  402.250   10.031    0.358    0.211  115.256  204.809
  402.500   10.621    0.364    0.211  111.318  204.510
  402.750   12.091    0.387    0.203  103.851  201.944
  403.000   13.988    0.388    0.176   96.615  200.729
  403.250   15.795    0.375    0.158   98.228  199.947
  403.500   17.762    0.363    0.176  101.576  199.454
  403.750   19.819    0.372    0.200  103.767  199.252
  404.000   21.953    0.395    0.208  102.606  199.531
  404.250   24.826    0.389    0.178   96.247  200.916
  404.500   27.629    0.356    0.136   94.553  202.108
  404.750   29.478    0.347    0.160  101.718  202.100
  405.000   29.327    0.367    0.198  106.975  202.090
  405.250   28.061    0.383    0.220  110.438  202.080
  405.500   26.064    0.382    0.219  111.934  201.973
  405.750   22.691    0.365    0.215  110.809  201.334
  406.000   20.281    0.361    0.212  109.839  200.120
  406.250   18.432    0.370    0.208  104.283  199.724
  406.500   17.144    0.367    0.211   95.082  199.327
  406.750   16.483    0.364    0.226   82.005  198.931
  407.000   16.648    0.363    0.254   68.526  198.439
  407.250   18.864    0.355    0.293   61.328  197.575
  407.500   23.230    0.355    0.298   58.912  197.164
  407.750   30.303    0.356    0.303   54.280  196.383
  408.000   40.879    0.354    0.310   49.821  197.913
  408.250   53.401    0.351    0.316   46.808  199.445
  408.500   63.650    0.346    0.318   45.357  199.630
  408.750   71.823    0.338    0.315   44.183  197.273
