~VERSION INFORMATION
 VERS.                 2.0:   CWLS LOG ASCII STANDARD -VERSION 2.0
 WRAP.                  NO:   ONE LINE PER DEPTH STEP
~WELL INFORMATION BLOCK
#MNEM.UNIT           DATA                    DESCRIPTION OF MNEMONIC
#---------    -------------------            -------------------------------
# Generated from Intellog Unique Number	CC_84_87/WELL/2340
NULL.         -999.25                        : NULL_VALUE
WELL.         ARCO ACI MCMURRAY              : Well_name    - WELL
LOC .         12-11-085-10W4                 : Location     - LOCATION          
UWI .         AA/12-11-085-10W400            : Uwi          - UNIQUE WELL ID    
ENTR.         DW                             : Entered      - ENTERED BY        
SRVC.         DRESSER ATLAS                  : Scn          - SERVICE COMPANY   
DATE.         31 JAN 76                      : Date         - LOG DATE
STRT.M        91.44                          : top_depth    - START DEPTH       
STOP.M        326.136                        : bot_depth    - STOP DEPTH        
STEP.M        0.3048                         : increment    - STEP LENGTH       
~CURVE INFORMATION BLOCK
#MNEM UNIT       ERCB CURVE CODE    CURVE DESCRIPTION
#-----------   ------------------   ----------------------------------
DEPT.M        00 001 00 00         : DEPTH        - DEPTH                       
RHOB.KG/M3    00 350 00 00         : DENS         - BULK DENSITY                
NPHI.V/V      00 330 00 00         : PHIN         - NEUTRON POROSITY (LIMESTONE)
GR  .API      00 310 00 00         : GR           - GAMMA RAY                   
ILD .OHMM     00 120 00 00         : RESD         - DEEP RESISTIVITY (DIL)      
~PARAMETER INFORMATION       
#MNEM.UNIT           DATA             DESCRIPTION OF MNEMONIC
#---------         -----------     ------------------------------
GL  .M        570.89               : gl           - GROUND LEVEL ELEVATION      
EREF.M        573.634              : kb           - ELEVATION OF DEPTH REFERENCE
DATM.M        573.634              : datum        - DATUM ELEVATION             
TDD .M        324.307              : tdd          - TOTAL DEPTH DRILLER         
RUN .         ONE                  : Run          - RUN NUMBER                  
ENG .         BILL                 : Engineer     - RECORDING ENGINEER          
WIT .         JIM                  : Witness      - WITNESSED BY                
MUD .         GEL                  : Mud_type     - MUD TYPE                    
MATR.         LIMESTONE            : Logunit      - NEUTRON MATRIX              
TMAX.C        15.5556              : BHT          - MAXIMUM RECORDED TEMPERATURE
BHTD.M        324.307              : BHTDEP       - MAXIMUM RECORDED TEMPERATURE
MATR.         1                    : LOGUNIT      - NEUTRON MATRIX              
RMT .C        25                   : MDTP         - TEMPERATURE OF MUD          
NEUT.         1                    : NEUTRON      - NEUTRON TYPE                
RESI.         0                    : RESIST       - RESISTIVITY TYPE            
RMC .OHMM     0.25                 : RMC          - RESISTIVITY OF MUD CAKE     
RMF .OHMM     0.25                 : RMF          - RESISTIVITY OF MUD FILTRATE 
SUFT.C        15                   : SUFT         - SURFACE TEMPERATURE         
~A  DEPTH     DENS     PHIN       GR     RESD
# ...
  144.475 2196.870    0.332   85.442    9.904
  144.780 2206.920    0.348   80.035    9.727
  145.085 2178.740    0.339   75.828    9.557
  145.390 2154.580    0.326   75.219    9.560
  145.694 2172.670    0.307   75.810   10.891
  145.999 2395.990    0.292   74.603   12.878
  146.304 2371.830    0.298   65.599   14.945
  146.609 2088.130    0.349   60.792   17.345
  146.913 2090.130    0.357   60.180   17.352
  147.218 2106.210    0.357   60.173   15.827
  147.523 2110.220    0.352   60.766   13.911
  147.828 2106.190    0.346   63.753   12.685
  148.133 2096.110    0.372   66.146   10.744
  148.437 2082.010    0.383   70.933    9.270
  148.742 2094.070    0.378   75.121    8.772
  149.047 2116.190    0.370   77.511    8.304
  149.352 2148.370    0.356   78.701    8.155
  149.657 2156.400    0.352   78.692    8.313
  149.961 2164.440    0.381   78.679    8.633
  150.266 2210.700    0.369   78.674    8.325
  150.571 2351.520    0.356   80.464    8.026
  150.876 2311.270    0.383   84.054    7.456
  151.181 2172.440    0.363   91.243    6.677
  151.485 2178.460    0.349   96.030    6.204
  151.790 2202.590    0.347   99.019    5.659
  152.095 2204.590    0.415  105.008    5.557
  152.400 2160.310    0.417  109.797    5.460
  152.705 2256.870    0.408  109.786    5.564
  153.009 2299.110    0.410  107.980    5.777
  153.314 2327.260    0.420  102.574    6.582
  153.619 2331.270    0.411  100.766    7.638
  153.924 2134.090    0.402   99.558    8.701
  154.229 2144.140    0.385   98.949    9.551
  154.533 2224.600    0.348   97.741    9.557
  154.838 2186.360    0.358   97.132    8.881
  155.143 2184.330    0.427  100.121    8.722
  155.448 2164.200    0.433  100.713    8.566
  155.753 2123.950    0.427   99.503    7.814
  156.057 2041.450    0.428   97.695    7.674
  156.362 2027.350    0.421   98.285    7.969
  156.667 2144.030    0.390   95.880    9.601
  156.972 2154.070    0.339   91.072   10.153
  157.276 2123.880    0.332   90.462   10.544
  157.581 2184.230    0.343   89.853   10.551
  157.886 2198.300    0.363   89.248   10.754
  158.191 2198.290    0.347   87.436   10.760
  158.496 2188.210    0.351   87.430   10.765
  158.800 2135.890    0.357   89.820   10.774
  159.105 2091.610    0.365   90.409    9.826
  159.410 2007.090    0.366   89.203    9.474
  159.715 2095.610    0.347   81.997   10.402
  160.020 2041.270    0.336   69.395   11.418
  160.324 2053.330    0.339   59.791   12.303
  160.629 2151.900    0.330   56.183   12.542
  160.934 2210.240    0.314   54.376   12.548
  161.239 2210.220    0.318   53.168   12.789
  161.544 2131.740    0.323   50.760   13.530
  161.848 2071.370    0.324   48.951   14.580
  162.153 2079.410    0.324   47.743   14.864
  162.458 2117.620    0.319   49.534   14.335
  162.763 2147.790    0.313   51.325   14.341
  163.068 2141.740    0.310   48.917   14.083
  163.372 2077.340    0.312   45.909   14.091
  163.677 2093.420    0.322   45.901   14.365
  163.982 2133.650    0.319   48.291   14.915
  164.287 2121.560    0.317   51.878   14.926
  164.592 2087.350    0.320   53.069   15.500
  164.896 2083.310    0.311   51.861   15.801
  165.201 2109.450    0.300   47.655   15.518
  165.506 2159.740    0.304   47.647   15.526
  165.811 2171.800    0.306   49.437   14.971
  166.116 2183.850    0.307   51.226   14.979
  166.420 2159.700    0.306   51.815   14.717
  166.725 2093.290    0.315   51.205   14.725
  167.030 2127.480    0.306   50.599   14.731
  167.335 2147.590    0.304   49.989   14.744
  167.639 2147.570    0.310   46.983   14.749
  167.944 2077.140    0.321   42.778   14.761
  168.249 2093.220    0.323   41.568   14.499
  168.554 2099.250    0.320   43.358   14.507
  168.859 2109.290    0.310   43.950   14.247
  169.163 2127.390    0.308   41.538   13.993
  169.468 2115.300    0.318   40.933   14.263
  169.773 2079.070    0.327   40.922   14.276
  170.078 2089.120    0.330   42.712   14.285
  170.383 2095.140    0.335   45.703   14.560
  170.687 2066.960    0.343   48.091   14.568
  170.992 2089.080    0.346   50.481   14.575
  171.297 2139.370    0.322   52.273   14.316
  171.602 2268.120    0.327   55.861   13.551
  171.907 2133.300    0.340   58.852   12.589
  172.211 2121.220    0.357   63.042   10.466
  172.516 2131.260    0.364   70.828    8.700
  172.821 2161.430    0.381   80.416    7.101
  173.126 2195.620    0.409   95.397    6.845
  173.431 2219.750    0.414   97.788    6.851
  173.735 2229.800    0.413   95.380    7.382
  174.040 2266.000    0.378   89.972    8.255
  174.345 2251.900    0.385   89.965    8.109
  174.650 2231.770    0.421   94.153    8.116
  174.955 2199.570    0.439   95.943    8.428
  175.259 2169.370    0.399   97.134    8.750
  175.564 2223.680    0.374   96.524    9.253
  175.869 2271.960    0.324   92.318   10.158
  176.174 2255.850    0.319   85.115   10.745
  176.479 2223.640    0.320   87.501   10.752
  176.783 2245.760    0.312   89.294   10.369
  177.088 2328.240    0.302   91.085    9.634
  177.393 2338.280    0.292   92.871    8.626
  177.698 2281.940    0.295   95.262    7.866
  178.003 2275.880    0.325   97.652    7.043
  178.307 2261.790    0.354  100.643    6.543
  178.612 2259.760    0.379  102.434    5.751
  178.917 2229.570    0.400   99.424    5.246
  179.222 2213.460    0.421   97.619    5.152
  179.526 2187.290    0.402   98.806    5.154
  179.831 2193.320    0.402  101.196    5.158
  180.136 2231.530    0.409  102.989    4.974
  180.441 2235.540    0.436  105.377    4.796
  180.746 2221.440    0.447  105.368    4.623
  181.050 2211.370    0.459  103.559    4.458
  181.355 2269.710    0.470  102.354    4.460
  181.660 2227.440    0.453   99.346    4.546
  181.965 2193.220    0.454   96.938    4.810
  182.270 2205.280    0.471   95.132    4.813
  182.574 2207.280    0.472   93.319    4.906
  182.879 2191.170    0.458   93.311    5.000
  183.184 2229.390    0.446   91.504    5.003
  183.489 2340.030    0.449   88.496    5.493
  183.794 2195.160    0.458   89.689    5.599
  184.098 2148.870    0.454   91.480    5.708
  184.403 2008.020    0.465   90.871    5.926
  184.708 2072.390    0.449   88.462    6.040
  185.013 2199.130    0.403   84.256    6.391
  185.318 2269.530    0.356   80.050    6.513
  185.622 2205.140    0.469   80.639    6.518
  185.927 2142.750    0.469   87.226    6.401
  186.232 2150.790    0.410   86.617    5.949
  186.537 2140.710    0.389   81.814    5.734
  186.842 2120.580    0.385   78.204    5.230
  187.146 2102.460    0.401   77.597    5.331
  187.451 2110.500    0.373   74.588    6.421
  187.756 2386.120    0.323   69.784    8.025
  188.061 2406.230    0.297   61.379    9.143
  188.366 2203.010    0.287   61.371    9.149
  188.670 2160.740    0.351   69.157    8.345
  188.975 2172.800    0.375   74.544    8.044
  189.280 2150.650    0.398   74.537    6.687
  189.585 2184.840    0.409   78.123    5.877
  189.889 2217.020    0.426   80.515    5.363
  190.194 2227.070    0.450   84.704    5.366
  190.499 2162.670    0.453   86.494    5.469
  190.804 2174.730    0.441   84.686    5.678
  191.109 2174.720    0.420   83.478    6.006
  191.413 2154.590    0.409   79.870    6.236
  191.718 2118.360    0.414   78.662    6.597
  192.023 2080.120    0.404   79.852    7.109
  192.328 2061.990    0.384   78.642    7.381
  192.633 2098.200    0.377   76.837    7.956
  192.937 2106.230    0.390   73.831    8.260
  193.242 2146.460    0.377   70.223    8.267
  193.547 2536.760    0.322   65.415    8.118
  193.852 2337.570    0.228   63.609    7.829
  194.157 2236.950    0.321   67.198    7.688
  194.461 2208.780    0.416   79.182    7.011
  194.766 2200.710    0.428   82.172    6.396
  195.071 2108.150    0.497   82.763    6.167
  195.376 2104.110    0.465   82.150    6.056
  195.681 2071.910    0.455   82.142    5.948
  195.985 1999.470    0.429   82.737    5.953
  196.290 2154.370    0.408   82.126    5.531
  196.595 2313.300    0.394   79.719    4.952
  196.900 2299.210    0.400   82.108    4.193
  197.205 2116.110    0.435   85.099    3.685
