~VERSION INFORMATION
 VERS.                 2.0:   CWLS LOG ASCII STANDARD -VERSION 2.0
 WRAP.                  NO:   ONE LINE PER DEPTH STEP
~WELL INFORMATION BLOCK
#MNEM.UNIT           DATA                    DESCRIPTION OF MNEMONIC
#---------    -------------------            -------------------------------
# Generated from Intellog Unique Number	CN_94_101/WELL/5061
WELL.         16-34-099-13W4                 : Well_name    - WELL
LOC .         AA/16-34-099-13W4/0            : Location     - LOCATION
UWI .         AA/16-34-099-13W400            : Uwi          - UNIQUE WELL ID
ENTR.         TIM                            : Entered      - ENTERED BY
SRVC.         SCHLUMBERGER                   : Scn          - SERVICE COMPANY
DATE.         08/13/92                       : Date         - LOG DATE
STRT.M        344.424                        : top_depth    - START DEPTH
STOP.M        557.674                        : bot_depth    - STOP DEPTH
STEP.M        0.25                           : increment    - STEP LENGTH
 NULL. -999.2500:NULL Value
~CURVE INFORMATION BLOCK
#MNEM UNIT       ERCB CURVE CODE    CURVE DESCRIPTION
#-----------   ------------------   ----------------------------------
DEPT.M        00 001 00 00         : DEPTH        - DEPTH
NPHI.V/V      00 330 00 00         : PHIN         - NEUTRON POROSITY (SANDSTONE)
ILD .OHMM     00 120 00 00         : RESD         - DEEP RESISTIVITY (DIL)
GR  .API      00 310 00 00         : GR           - GAMMA RAY
~PARAMETER INFORMATION
#MNEM.UNIT           DATA             DESCRIPTION OF MNEMONIC
#---------         -----------     ------------------------------
GL  .M        802.081              : gl           - GROUND LEVEL ELEVATION
EREF.M        805.099              : kb           - ELEVATION OF DEPTH REFERENCE
DATM.M        805.099              : datum        - DATUM ELEVATION
TDD .M        560.832              : tdd          - TOTAL DEPTH DRILLER
RUN .         ONE                  : Run          - RUN NUMBER
ENG .         BILL                 : Engineer     - RECORDING ENGINEER
WIT .         JIM                  : Witness      - WITNESSED BY
MUD .         GEL                  : Mud_type     - MUD TYPE
MATR.         SANDSTONE            : Logunit      - NEUTRON MATRIX
TMAX.C        21.1111              : BHT          - MAXIMUM RECORDED TEMPERATURE
BHTD.M        560.832              : BHTDEP       - MAXIMUM RECORDED TEMPERATURE
RMT .C        21.1111              : MDTP         - TEMPERATURE OF MUD
MUDD.KG/M     1090                 : MWT          - MUD DENSITY
NEUT.         1                    : NEUTRON      - NEUTRON TYPE
RESI.         0                    : RESIST       - RESISTIVITY TYPE
RM  .OHMM     6                    : RM           - RESISTIVITY OF MUD
RMC .OHMM     6                    : RMC          - RESISTIVITY OF MUD CAKE
RMF .OHMM     6                    : RMF          - RESISTIVITY OF MUD FILTRATE
SUFT.C        4                    : SUFT         - SURFACE TEMPERATURE
~A  DEPTH     PHIN     RESD       GR
# ...
  507.174    0.362   17.287   57.211
  507.424    0.361   20.936   54.801
  507.674    0.358   20.948   52.383
  507.924    0.358   20.174   47.542
  508.174    0.358   18.704   41.486
  508.424    0.343   15.466   36.652
  508.674    0.352   12.310   36.257
  508.924    0.359   10.375   35.866
  509.174    0.349    8.579   37.093
  509.424    0.335    7.657   38.324
  509.674    0.322    7.236   38.742
  509.924    0.310    7.814   38.347
  510.174    0.310   12.596   38.360
  510.424    0.313   20.302   39.999
  510.674    0.320   29.753   42.032
  510.924    0.328   31.529   48.518
  511.174    0.339   28.675   83.328
  511.424    0.351   23.263   86.174
  511.674    0.450    9.868   84.973
  511.924    0.466    5.789   80.941
  512.174    0.460    4.879   74.886
  512.424    0.450    4.191   68.426
  512.674    0.441    3.961   61.562
  512.924    0.418    4.040   58.338
  513.174    0.388    4.364   56.733
  513.424    0.357    4.622   55.536
  513.674    0.349    5.388   55.550
  513.924    0.352    6.524   55.567
  514.174    0.361    7.182   55.981
  514.424    0.368    7.186   56.399
  514.674    0.373    7.328   58.034
  514.924    0.378    7.333   58.853
  515.174    0.381    7.338   58.870
  515.424    0.386    7.067   58.078
  515.674    0.387    6.553   54.851
  515.924    0.386    6.194   49.200
  516.174    0.375    6.080   44.359
  516.424    0.366    6.321   41.945
  516.674    0.357    6.959   39.126
  516.924    0.344    7.514   35.903
  517.174    0.336    8.428   33.897
  517.424    0.308    9.277   33.907
  517.674    0.294   11.027   34.733
  517.924    0.189   11.242   35.963
  518.174    0.147   12.377   36.786
  518.424    0.121   13.366   37.608
  518.674    0.110   14.437   37.622
  518.924    0.130   15.003   37.635
  519.174    0.154   15.898   37.649
  519.424    0.183   16.532   37.659
  519.674    0.337   16.858   37.675
  519.924    0.339   16.550   38.097
  520.174    0.341   16.245   39.728
  520.424    0.343   14.776   41.761
  520.674    0.344   13.187   44.607
  520.924    0.345   11.546   52.307
  521.174    0.345   10.502   60.415
  521.424    0.347    8.853   68.115
  521.674    0.351    7.604   75.411
  521.924    0.355    6.288   82.713
  522.174    0.362    5.200   80.299
  522.424    0.363    4.553   79.905
  522.674    0.367    4.385   79.514
  522.924    0.371    4.306   78.721
  523.174    0.373    4.308   78.330
  523.424    0.373    4.230   77.936
  523.674    0.373    4.313   78.357
  523.924    0.373    4.316   78.775
  524.174    0.371    4.318   79.193
  524.424    0.369    4.490   79.614
  524.674    0.363    4.580   79.624
  524.924    0.360    4.671   79.641
  525.174    0.354    4.855   79.253
  525.424    0.348    5.046   78.855
  525.674    0.343    5.246   78.059
  525.924    0.334    5.775   74.840
  526.174    0.323    6.480   69.998
  526.424    0.310    6.865   59.897
  526.674    0.287    7.702   51.816
  526.924    0.279    8.479   56.687
  527.174    0.281    9.335   59.533
  527.424    0.316    9.889   57.122
  527.674    0.334   10.680   59.559
  527.924    0.344   10.484   65.237
  528.174    0.340    9.720   73.750
  528.424    0.333    8.677   77.003
  528.674    0.327    8.197   68.112
  528.924    0.324    7.457   76.217
  529.174    0.318    6.530   77.852
  529.424    0.316    5.826   67.347
  529.674    0.346    5.300   63.716
  529.924    0.351    4.915   64.134
  530.174    0.347    4.734   71.433
  530.424    0.345    4.737   75.087
  530.674    0.341    4.739   75.512
  530.924    0.337    4.743   74.305
  531.174    0.337    4.745   73.105
  531.424    0.337    4.749   73.522
  531.674    0.339    4.752   73.944
  531.924    0.339    4.754   73.964
  532.174    0.341    4.758   73.566
  532.424    0.341    4.761   72.366
  532.674    0.341    4.855   71.570
  532.924    0.339    4.859   72.797
  533.174    0.338    4.863   75.646
  533.424    0.338    4.865   78.491
  533.674    0.336    4.867   79.317
  533.924    0.333    4.872   78.525
  534.174    0.332    4.874   78.127
  534.424    0.333    4.878   77.736
  534.674    0.334    4.881   76.535
  534.924    0.338    4.612   76.549
  535.174    0.343    4.358   77.378
  535.424    0.345    4.197   78.200
  535.674    0.345    4.121   78.618
  535.924    0.345    4.123   78.227
  536.174    0.345    4.205   77.027
  536.424    0.345    4.372   75.422
  536.674    0.345    4.460   73.409
  536.924    0.346    4.548   69.781
  537.174    0.346    4.638   69.397
  537.424    0.346    4.732   71.025
  537.674    0.347    4.733   73.061
  537.924    0.348    4.736   75.913
  538.174    0.349    4.740   76.729
  538.424    0.351    4.743   76.749
  538.674    0.353    4.746   76.756
  538.924    0.359    4.660   76.368
  539.174    0.363    4.574   75.572
  539.424    0.370    4.406   71.945
  539.674    0.376    4.326   66.699
  539.924    0.369    4.328   61.051
  540.174    0.364    4.414   61.870
  540.424    0.358    4.590   62.288
  540.674    0.353    4.863   60.684
  540.924    0.351    5.054   58.674
  541.174    0.353    5.458   57.069
  541.424    0.355    5.784   54.254
  541.674    0.356    6.247   51.432
  541.924    0.359    6.371   45.377
  542.174    0.361    6.750   55.912
  542.424    0.366    7.018   58.353
  542.674    0.368    7.156   55.939
  542.924    0.371    7.440   50.288
  543.174    0.374    7.588   41.806
  543.424    0.375    7.738   39.392
  543.674    0.381    8.201   39.001
  543.924    0.384    8.689   42.254
  544.174    0.386    9.031   47.931
  544.424    0.386   10.134   52.395
  544.674    0.386   10.736   56.859
  544.924    0.385   11.377   63.345
  545.174    0.386   11.167   67.812
  545.424    0.390    7.486   67.826
  545.674    0.391    5.521   64.606
  545.924    0.391    4.072   62.998
  546.174    0.387    3.241   60.988
  546.424    0.381    3.005   60.600
  546.674    0.378    2.786   62.633
  546.924    0.375    2.583   65.883
  547.174    0.380    2.350   70.350
  547.424    0.387    2.179   72.390
  547.674    0.394    2.020   73.620
  547.924    0.404    1.909   75.245
  548.174    0.414    1.839   84.567
  548.424    0.416    1.839   91.054
  548.674    0.417    1.738   91.472
  548.924    0.417    1.643   87.439
  549.174    0.418    1.494   83.815
  549.424    0.421    1.412   81.805
  549.674    0.422    1.310   80.197
  549.924    0.423    1.261   77.382
  550.174    0.421    1.215   75.774
  550.424    0.414    1.105   72.149
  550.674    0.407    1.085   70.140
  550.924    0.397    1.025   67.729
  551.174    0.389    1.006   66.933
  551.424    0.386    1.007   67.752
  551.674    0.386    1.008   68.980
  551.924    0.385    1.028   73.039
  552.174    0.379    1.028   83.979
  552.424    0.370    1.049   93.702
  552.674    0.440    1.070  100.593
  552.924    0.447    1.070  104.655
  553.174    0.449    1.091  107.103
  553.424    0.452    1.113  108.327
  553.674    0.454    1.136  109.958
  553.924    0.454    1.158  106.327
  554.174    0.447    1.159   91.776
  554.424    0.412    1.159   85.721
  554.674    0.380    1.138   79.261
  554.924    0.353    1.096   72.801
  555.174    0.340    1.097   68.365
  555.424    0.320    1.098   67.164
  555.674    0.307    1.120   66.368
  555.924    0.294    1.142   66.786
  556.174    0.272    1.492   67.204
  556.424    0.220    2.026   68.030
  556.674    0.172    3.878   68.043
  556.924    0.177    5.575   66.442
  557.174    0.182    6.021   64.837
  557.424    0.184    6.140   64.041
  557.674    0.179    6.144   63.647
