~VERSION INFORMATION
 VERS.                 2.0:   CWLS LOG ASCII STANDARD -VERSION 2.0
 WRAP.                  NO:   ONE LINE PER DEPTH STEP
~WELL INFORMATION BLOCK
#MNEM.UNIT           DATA                    DESCRIPTION OF MNEMONIC
#---------    -------------------            -------------------------------
# Generated from Intellog Unique Number	CW_79_81/WELL/2478
WELL.         10-35-081-19W4                 : Well_name    - WELL
LOC .         AA/10-35-081-19W4/0            : Location     - LOCATION
UWI .         AA/10-35-081-19W400            : Uwi          - UNIQUE WELL ID
ENTR.         MAX                            : Entered      - ENTERED BY
SRVC.         SCHLUMBERGER                   : Scn          - SERVICE COMPANY
STRT.M        167.64                         : top_depth    - START DEPTH
STOP.M        365.64                         : bot_depth    - STOP DEPTH
STEP.M        0.25                           : increment    - STEP LENGTH
 NULL. -999.2500:NULL Value
~CURVE INFORMATION BLOCK
#MNEM UNIT       ERCB CURVE CODE    CURVE DESCRIPTION
#-----------   ------------------   ----------------------------------
DEPT.M        00 001 00 00         : DEPTH        - DEPTH
ILD .OHMM     00 120 00 00         : RESD         - DEEP RESISTIVITY (DIL)
NPHI.V/V      00 330 00 00         : PHIN         - NEUTRON POROSITY (SANDSTONE)
DPHI.V/V      00 890 00 00         : PHID         - DENSITY POROSITY (SANDSTONE)
GR  .API      00 310 00 00         : GR           - GAMMA RAY
CALI.MM       00 280 01 00         : CAL          - CALIPER
~PARAMETER INFORMATION
#MNEM.UNIT           DATA             DESCRIPTION OF MNEMONIC
#---------         -----------     ------------------------------
GL  .M        574.548              : gl           - GROUND LEVEL ELEVATION
EREF.M        577.596              : kb           - ELEVATION OF DEPTH REFERENCE
DATM.M        574.548              : datum        - DATUM ELEVATION
TDD .M        365.455              : tdd          - TOTAL DEPTH DRILLER
RUN .         ONE                  : Run          - RUN NUMBER
ENG .         BILL                 : Engineer     - RECORDING ENGINEER
WIT .         JIM                  : Witness      - WITNESSED BY
MUD .         GEL                  : Mud_type     - MUD TYPE
MATR.         SANDSTONE            : Logunit      - NEUTRON MATRIX
TMAX.C        23.8889              : BHT          - MAXIMUM RECORDED TEMPERATURE
BHTD.M        365.455              : BHTDEP       - MAXIMUM RECORDED TEMPERATURE
MATR.         1                    : LOGUNIT      - NEUTRON MATRIX
RMT .C        7.22222              : MDTP         - TEMPERATURE OF MUD
NEUT.         1                    : NEUTRON      - NEUTRON TYPE
RESI.         0                    : RESIST       - RESISTIVITY TYPE
RMC .OHMM     5.71                 : RMC          - RESISTIVITY OF MUD CAKE
RMF .OHMM     6.9                  : RMF          - RESISTIVITY OF MUD FILTRATE
SUFT.C        -20                  : SUFT         - SURFACE TEMPERATURE
~A  DEPTH     RESD     PHIN     PHID       GR      CAL
# ...
  204.140    7.409    0.448    0.220  120.332  166.211
  204.390    6.629    0.442    0.236  118.339  163.942
  204.640    6.161    0.435    0.257  113.171  162.227
  204.890    6.171    0.427    0.280  101.465  159.127
  205.140    6.754    0.430    0.315   91.146  157.225
  205.390    8.050    0.434    0.332   83.055  153.195
  205.640    9.288    0.433    0.332   78.664  150.812
  205.890   10.536    0.436    0.322   75.633  149.856
  206.140   11.718    0.444    0.307   73.381  149.885
  206.390   12.183    0.455    0.295   72.908  150.494
  206.640   11.551    0.462    0.295   72.045  151.802
  206.890   11.049    0.469    0.315   71.226  154.792
  207.140   11.102    0.475    0.325   69.236  160.757
  207.390   11.577    0.475    0.333   65.685  167.927
  207.640   12.472    0.467    0.338   61.935  173.666
  207.890   14.224    0.452    0.337   60.990  174.551
  208.140   16.052    0.439    0.333   60.407  174.928
  208.390   17.725    0.443    0.336   58.546  175.282
  208.640   19.180    0.449    0.334   57.654  175.319
  208.890   20.459    0.456    0.332   57.347  175.246
  209.140   21.809    0.463    0.332   57.434  175.169
  209.390   23.989    0.461    0.334   58.123  174.709
  209.640   25.082    0.451    0.335   59.156  172.799
  209.890   24.703    0.467    0.341   59.106  167.883
  210.140   22.625    0.472    0.348   59.059  163.632
  210.390   19.726    0.464    0.348   59.535  160.484
  210.640   17.083    0.452    0.339   60.399  157.335
  210.890   15.048    0.454    0.326   60.642  150.969
  211.140   13.745    0.462    0.330   59.514  148.151
  211.390   13.536    0.459    0.328   59.733  146.757
  211.640   13.478    0.449    0.328   60.142  145.033
  211.890   13.419    0.442    0.330   60.354  143.607
  212.140   13.335    0.440    0.330   60.371  142.070
  212.390   13.321    0.443    0.328   60.634  139.139
  212.640   13.310    0.447    0.327   60.857  139.974
  212.890   13.203    0.445    0.323   60.807  141.222
  213.140   13.097    0.436    0.319   60.374  142.130
  213.390   12.991    0.426    0.318   60.072  142.484
  213.640   12.909    0.418    0.319   60.219  142.403
  213.890   12.916    0.421    0.319   60.615  142.502
  214.140   13.004    0.429    0.313   58.951  143.345
  214.390   13.276    0.426    0.294   57.345  144.586
  214.640   13.920    0.407    0.246   55.735  145.491
  214.890   14.939    0.362    0.175   54.652  145.849
  215.140   16.204    0.312    0.115   54.093  145.774
  215.390   17.337    0.319    0.153   53.840  145.503
  215.640   17.587    0.342    0.267   55.419  144.491
  215.890   16.944    0.394    0.308   57.184  143.983
  216.140   16.329    0.430    0.328   57.793  143.474
  216.390   15.326    0.442    0.333   57.880  142.742
  216.640   13.992    0.436    0.330   57.377  142.006
  216.890   12.591    0.435    0.324   54.911  141.820
  217.140   12.301    0.436    0.320   51.887  141.274
  217.390   12.201    0.440    0.321   51.322  141.205
  217.640   12.170    0.446    0.328   51.929  141.124
  217.890   12.116    0.452    0.333   53.442  141.047
  218.140   11.997    0.456    0.333   55.277  141.084
  218.390   11.795    0.457    0.330   56.356  141.424
  218.640   11.697    0.458    0.325   55.498  141.351
  218.890   11.771    0.455    0.317   52.855  140.835
  219.140   12.038    0.456    0.314   51.385  140.637
  219.390   12.511    0.462    0.320   49.915  140.560
  219.640   13.128    0.477    0.358   48.119  140.933
  219.890   13.862    0.515    0.482   45.534  143.694
  220.140   14.713    0.582    0.552   40.618  149.095
  220.390   15.023    0.550    0.517   39.790  150.344
  220.640   15.258    0.490    0.474   40.133  150.916
  220.890   15.356    0.432    0.384   40.090  151.498
  221.140   15.315    0.398    0.283   39.268  152.416
  221.390   15.188    0.401    0.282   38.268  153.993
  221.640   15.175    0.403    0.289   37.410  155.751
  221.890   15.162    0.403    0.294   36.851  157.438
  222.140   15.067    0.400    0.296   36.090  159.114
  222.390   14.837    0.394    0.300   35.914  160.790
  222.640   14.560    0.388    0.307   37.040  162.580
  222.890   14.441    0.390    0.313   39.934  165.415
  223.140   14.429    0.391    0.313   39.071  168.995
  223.390   14.418    0.397    0.309   38.248  172.000
  223.640   14.406    0.404    0.308   37.615  176.317
  223.890   14.393    0.410    0.311   37.440  181.295
  224.140   14.379    0.413    0.317   37.917  186.604
  224.390   14.387    0.415    0.324   39.483  193.042
  224.640   14.483    0.420    0.328   41.056  197.071
  224.890   14.575    0.429    0.329   42.558  199.198
  225.140   14.590    0.435    0.329   43.104  201.642
  225.390   14.579    0.434    0.330   41.896  203.762
  225.640   14.568    0.426    0.333   39.903  205.339
  225.890   14.552    0.413    0.335   39.635  207.027
  226.140   14.537    0.404    0.333   38.502  209.227
  226.390   14.526    0.410    0.329   37.938  210.036
  226.640   14.593    0.417    0.328   37.961  211.163
  226.890   14.686    0.423    0.329   38.177  211.964
  227.140   14.754    0.424    0.331   38.130  212.332
  227.390   14.762    0.420    0.333   37.240  212.678
  227.640   14.860    0.414    0.336   36.927  212.598
  227.890   14.848    0.410    0.339   37.400  212.513
  228.140   14.918    0.404    0.337   36.897  212.769
  228.390   14.959    0.409    0.331   35.942  213.794
  228.640   14.973    0.419    0.323   35.831  216.023
  228.890   15.113    0.418    0.322   38.630  219.698
  229.140   15.327    0.413    0.327   38.582  218.695
  229.390   15.316    0.414    0.330   38.277  213.347
  229.640   15.303    0.418    0.332   37.972  210.641
  229.890   15.123    0.416    0.338   37.670  210.124
  230.140   14.868    0.411    0.343   37.691  210.589
  230.390   14.831    0.422    0.338   39.047  210.050
  230.640   14.706    0.442    0.344   40.886  209.978
  230.890   14.589    0.445    0.348   41.627  210.340
  231.140   14.709    0.449    0.341   42.553  211.037
  231.390   14.857    0.457    0.343   43.286  211.180
  231.640   14.815    0.465    0.353   43.502  209.231
  231.890   14.358    0.460    0.353   43.033  201.799
  232.140   14.240    0.452    0.343   43.531  195.771
  232.390   14.434    0.441    0.334   46.857  176.361
  232.640   14.396    0.441    0.338   49.016  165.516
  232.890   14.332    0.445    0.341   48.969  160.384
  233.140   14.320    0.447    0.337   47.365  158.442
  233.390   14.304    0.440    0.337   46.536  157.753
  233.640   14.294    0.434    0.337   46.489  159.045
  233.890   14.282    0.425    0.335   47.735  158.521
  234.140   14.269    0.412    0.327   49.371  155.703
  234.390   14.256    0.390    0.310   50.493  151.889
  234.640   14.296    0.371    0.282   50.581  148.288
  234.890   14.512    0.397    0.232   49.813  145.638
  235.140   14.609    0.446    0.201   51.392  143.711
  235.390   14.596    0.448    0.288   54.199  142.771
  235.640   14.426    0.444    0.321   54.870  141.484
  235.890   14.208    0.439    0.333   53.788  140.305
  236.140   14.043    0.441    0.341   52.115  139.458
  236.390   14.027    0.452    0.344   51.793  138.553
  236.640   14.017    0.450    0.345   51.750  136.651
  236.890   14.006    0.444    0.345   51.968  134.810
  237.140   13.993    0.440    0.345   52.572  131.656
  237.390   13.981    0.445    0.346   52.525  129.167
  237.640   13.970    0.452    0.346   51.699  129.537
  237.890   13.953    0.446    0.343   50.276  136.898
  238.140   13.944    0.439    0.343   47.257  145.502
  238.390   13.830    0.439    0.343   47.211  152.892
  238.640   14.011    0.445    0.346   47.166  155.346
  238.890   14.204    0.450    0.349   46.729  155.932
  239.140   14.302    0.450    0.350   46.032  156.294
  239.390   14.414    0.451    0.350   45.885  156.456
  239.640   14.512    0.452    0.349   46.648  155.452
  239.890   14.500    0.448    0.347   46.602  155.822
  240.140   14.487    0.439    0.346   45.775  156.845
  240.390   14.475    0.433    0.345   45.468  158.301
