~VERSION INFORMATION
 VERS.                 2.0:   CWLS LOG ASCII STANDARD -VERSION 2.0
 WRAP.                  NO:   ONE LINE PER DEPTH STEP
~WELL INFORMATION BLOCK
#MNEM.UNIT           DATA                    DESCRIPTION OF MNEMONIC
#---------    -------------------            -------------------------------
# Generated from Intellog Unique Number	CC_88_90/WELL/2298
WELL.         10-26-090-16W4                 : Well_name    - WELL
LOC .         AA/10-26-090-16W4/0            : Location     - LOCATION
UWI .         AA/10-26-090-16W400            : Uwi          - UNIQUE WELL ID
ENTR.         DW                             : Entered      - ENTERED BY
SRVC.         SCHLUMBERGER                   : Scn          - SERVICE COMPANY
STRT.M        125                            : top_depth    - START DEPTH
STOP.M        214.75                         : bot_depth    - STOP DEPTH
STEP.M        0.25                           : increment    - STEP LENGTH
 NULL. -999.2500:NULL Value
~CURVE INFORMATION BLOCK
#MNEM UNIT       ERCB CURVE CODE    CURVE DESCRIPTION
#-----------   ------------------   ----------------------------------
DEPT.M        00 001 00 00         : DEPTH        - DEPTH
GR  .API      00 310 00 00         : GR           - GAMMA RAY
DPHI.V/V      00 890 00 00         : PHID         - DENSITY POROSITY (SANDSTONE)
NPHI.V/V      00 330 00 00         : PHIN         - NEUTRON POROSITY (SANDSTONE)
ILD .OHMM     00 120 00 00         : RESD         - DEEP RESISTIVITY (DIL)
~PARAMETER INFORMATION
#MNEM.UNIT           DATA             DESCRIPTION OF MNEMONIC
#---------         -----------     ------------------------------
GL  .M        473                  : gl           - GROUND LEVEL ELEVATION
EREF.M        476.57               : kb           - ELEVATION OF DEPTH REFERENCE
DATM.M        476.57               : datum        - DATUM ELEVATION
TDD .M        227                  : tdd          - TOTAL DEPTH DRILLER
RUN .         ONE                  : Run          - RUN NUMBER
ENG .         BILL                 : Engineer     - RECORDING ENGINEER
WIT .         JIM                  : Witness      - WITNESSED BY
MUD .         GEL                  : Mud_type     - MUD TYPE
MATR.         SANDSTONE            : Logunit      - NEUTRON MATRIX
TMAX.C        25                   : BHT          - MAXIMUM RECORDED TEMPERATURE
BHTD.M        227                  : BHTDEP       - MAXIMUM RECORDED TEMPERATURE
MATR.         1                    : LOGUNIT      - NEUTRON MATRIX
RMT .C        25                   : MDTP         - TEMPERATURE OF MUD
NEUT.         1                    : NEUTRON      - NEUTRON TYPE
RESI.         0                    : RESIST       - RESISTIVITY TYPE
RMC .OHMM     0.25                 : RMC          - RESISTIVITY OF MUD CAKE
RMF .OHMM     0.25                 : RMF          - RESISTIVITY OF MUD FILTRATE
SUFT.C        15                   : SUFT         - SURFACE TEMPERATURE
~A  DEPTH       GR     PHID     PHIN     RESD
# ...
  168.500   76.497    0.277    0.346   51.802
  168.750   77.738    0.242    0.363   39.190
  169.000   82.038    0.263    0.380   29.182
  169.250   85.727    0.276    0.371   24.666
  169.500   89.415    0.275    0.363   21.098
  169.750   88.209    0.282    0.370   17.240
  170.000   85.783    0.253    0.389   18.620
  170.250   83.353    0.242    0.405   22.197
  170.500   82.758    0.230    0.410   25.636
  170.750   85.223    0.217    0.410   29.949
  171.000   87.687    0.245    0.414   34.386
  171.250   90.764    0.297    0.423   33.881
  171.500   95.064    0.305    0.434   26.135
  171.750   98.752    0.290    0.443   18.025
  172.000  106.112    0.253    0.438    9.038
  172.250  115.311    0.207    0.451    5.050
  172.500  122.058    0.169    0.471    5.054
  172.750  122.692    0.173    0.491    4.226
  173.000  119.650    0.234    0.507    3.447
  173.250  121.507    0.266    0.452    2.968
  173.500  122.127    0.284    0.429    2.762
  173.750  120.313    0.289    0.441    2.783
  174.000  119.107    0.280    0.445    3.033
  174.250  117.900    0.267    0.440    3.474
  174.500  115.466    0.250    0.444    4.154
  174.750  106.306    0.219    0.459    5.171
  175.000  101.428    0.184    0.505    5.595
  175.250   97.163    0.151    0.512    6.627
  175.500   91.066    0.180    0.478    8.170
  175.750   89.248    0.267    0.469    9.747
  176.000   88.653    0.307    0.504   11.747
  176.250   88.670    0.292    0.553   12.895
  176.500   89.911    0.248    0.529   14.594
  176.750   89.325    0.247    0.491   16.031
  177.000   88.722    0.279    0.483   16.802
  177.250   88.127    0.282    0.479   18.745
  177.500   87.533    0.256    0.486   24.053
  177.750   86.331    0.226    0.537   32.236
  178.000   84.512    0.196    0.554   41.400
  178.250   82.082    0.244    0.551   68.375
  178.500   79.648    0.302    0.552   89.550
  178.750   79.674    0.290    0.558   80.968
  179.000   81.522    0.285    0.570   56.482
  179.250   87.046    0.310    0.569   16.919
  179.500   90.123    0.321    0.537    6.868
  179.750   89.528    0.295    0.480    8.922
  180.000   87.098    0.263    0.487    8.646
  180.250   82.832    0.254    0.519   11.580
  180.500   79.790    0.268    0.445   14.121
  180.750   84.095    0.294    0.403   17.924
  181.000   82.276    0.288    0.400   18.409
  181.250   79.230    0.269    0.428   16.776
  181.500   74.353    0.271    0.461   18.428
  181.750   70.087    0.288    0.474   22.983
  182.000   70.113    0.298    0.484   32.366
  182.250   70.126    0.305    0.502   62.943
  182.500   70.143    0.312    0.452   98.363
  182.750   71.384    0.305    0.404  126.584
  183.000   72.625    0.304    0.381  145.575
  183.250   75.702    0.320    0.372  153.186
  183.500   78.778    0.328    0.400  141.796
  183.750   83.690    0.332    0.408  104.963
  184.000   92.277    0.343    0.402   57.999
  184.250  100.253    0.322    0.400   44.666
  184.500   99.654    0.285    0.400   55.725
  184.750   97.224    0.260    0.396   59.669
  185.000   97.241    0.244    0.393   58.173
  185.250  105.212    0.289    0.396   49.258
  185.500  109.517    0.317    0.408   40.654
  185.750  107.082    0.314    0.443   36.128
  186.000  102.205    0.288    0.453   34.254
  186.250   97.327    0.239    0.417   33.525
  186.500   94.285    0.191    0.385   35.484
  186.750   89.412    0.183    0.354   42.657
  187.000   85.147    0.207    0.355   54.121
  187.250   82.721    0.240    0.372   80.785
  187.500   83.346    0.263    0.381  105.562
  187.750   87.038    0.277    0.375  110.381
  188.000   89.499    0.297    0.364  104.264
  188.250   93.799    0.300    0.373   85.796
  188.500   98.099    0.280    0.381   66.189
  188.750  102.403    0.260    0.384   54.032
  189.000  104.864    0.248    0.385   47.282
  189.250  108.556    0.247    0.386   41.868
  189.500  110.409    0.255    0.384   38.188
  189.750  112.878    0.246    0.366   35.262
  190.000  114.119    0.272    0.360   32.500
  190.250  114.748    0.273    0.367   27.989
  190.500  112.930    0.248    0.376   22.771
  190.750  110.495    0.235    0.384   19.659
  191.000  106.230    0.217    0.391   19.288
  191.250  102.576    0.205    0.401   21.683
  191.500  100.762    0.198    0.409   30.703
  191.750  105.670    0.169    0.398   47.262
  192.000  115.481    0.172    0.391   60.159
  192.250  122.840    0.231    0.407   56.653
  192.500  128.364    0.269    0.419   39.599
  192.750  128.993    0.269    0.412   25.680
  193.000  125.343    0.245    0.409   22.565
  193.250  122.909    0.217    0.408   22.623
  193.500  122.931    0.222    0.403   22.688
  193.750  127.838    0.236    0.392   23.805
  194.000  138.265    0.218    0.379   23.677
  194.250  138.287    0.225    0.365   23.341
  194.500  137.072    0.195    0.370   22.480
  194.750  136.477    0.170    0.407   20.947
  195.000  136.495    0.204    0.432   18.469
  195.250  136.512    0.249    0.417   16.769
  195.500  135.917    0.242    0.404   18.477
  195.750  134.715    0.234    0.397   21.415
  196.000  132.897    0.242    0.420   22.936
  196.250  130.467    0.262    0.447   21.619
  196.500  128.032    0.268    0.435   19.799
  196.750  121.931    0.244    0.398   18.964
  197.000  113.995    0.210    0.382   17.776
  197.250  104.222    0.199    0.384   17.700
  197.500   95.062    0.208    0.396   18.320
  197.750   92.632    0.243    0.408   21.579
  198.000   93.265    0.270    0.395   28.672
  198.250   96.954    0.262    0.384   38.470
  198.500  104.313    0.252    0.405   47.441
  198.750  111.061    0.252    0.369   50.859
  199.000  120.867    0.218    0.380   51.579
  199.250  130.062    0.225    0.414   45.164
  199.500  138.038    0.268    0.410   32.679
  199.750  142.342    0.265    0.380   22.563
  200.000  142.359    0.226    0.360   18.764
  200.250  141.149    0.213    0.348   17.033
  200.500  138.719    0.204    0.351   15.577
  200.750  135.065    0.195    0.371   13.929
  201.000  130.799    0.185    0.397   12.742
  201.250  124.698    0.180    0.400   12.259
  201.500  116.149    0.196    0.388   12.346
  201.750  114.331    0.214    0.426   14.422
  202.000  116.796    0.253    0.440   17.407
  202.250  121.096    0.294    0.423   27.123
  202.500  125.400    0.311    0.412   38.866
  202.750  129.093    0.309    0.421   41.919
  203.000  129.110    0.312    0.427   36.966
  203.250  129.128    0.304    0.415   32.297
  203.500  128.529    0.283    0.405   25.681
  203.750  124.875    0.257    0.383   22.062
  204.000  117.550    0.234    0.364   21.377
  204.250  112.061    0.228    0.381   21.720
  204.500  109.631    0.249    0.418   24.785
  204.750  109.036    0.277    0.416   25.617
  205.000  105.994    0.288    0.398   26.808
  205.250  103.568    0.256    0.386   27.261
  205.500  106.033    0.218    0.391   27.570
  205.750  109.109    0.228    0.398   29.107
  206.000  113.410    0.263    0.383   30.477
  206.250  118.322    0.238    0.369   31.585
  206.500  122.626    0.183    0.370   30.941
  206.750  122.643    0.201    0.380   27.462
  207.000  121.437    0.224    0.377   22.029
  207.250  119.007    0.188    0.358   17.705
  207.500  115.960    0.181    0.350   16.616
  207.750  109.248    0.189    0.356   17.306
  208.000   95.804    0.201    0.365   22.551
  208.250   93.986    0.219    0.381   33.300
  208.500   96.451    0.272    0.400   56.753
  208.750   97.696    0.327    0.414   91.039
  209.000   97.713    0.316    0.423  123.102
  209.250   96.507    0.314    0.423  139.173
  209.500   92.241    0.318    0.417   73.817
  209.750   85.528    0.315    0.400   26.536
  210.000   77.591    0.312    0.384   27.265
  210.250   65.372    0.288    0.343   24.096
  210.500   48.865    0.214    0.237   30.814
  210.750   43.988    0.127    0.138   87.362
  211.000   41.566    0.027    0.107  191.438
  211.250   40.972   -0.009    0.098  289.006
  211.500   40.989    0.002    0.088  431.184
  211.750   41.622   -0.000    0.091  625.018
