~VERSION INFORMATION
 VERS.                 2.0:   CWLS LOG ASCII STANDARD -VERSION 2.0
 WRAP.                  NO:   ONE LINE PER DEPTH STEP
~WELL INFORMATION BLOCK
#MNEM.UNIT           DATA                    DESCRIPTION OF MNEMONIC
#---------    -------------------            -------------------------------
# Generated from Intellog Unique Number	CC_88_90/WELL/3149
WELL.         HUSKY OIL OPERATIONS           : Well_name    - WELL
LOC .         AA/10-27-089-09W4/0            : Location     - LOCATION
UWI .         AA/10-27-089-09W400            : Uwi          - UNIQUE WELL ID
ENTR.         JOETTE                         : Entered      - ENTERED BY
SRVC.         SCHLUMBERGER                   : Scn          - SERVICE COMPANY
DATE.         03/06/92                       : Date         - LOG DATE
STRT.M        15.240                         : top_depth    - START DEPTH
STOP.M        116.240                        : bot_depth    - STOP DEPTH
STEP.M        0.25                           : increment    - STEP LENGTH
 NULL. -999.2500:NULL Value
~CURVE INFORMATION BLOCK
#MNEM UNIT       ERCB CURVE CODE    CURVE DESCRIPTION
#-----------   ------------------   ----------------------------------
DEPT.M        00 001 00 00         : DEPTH        - DEPTH
GR  .API      00 310 00 00         : GR           - GAMMA RAY
CALI.MM       00 280 01 00         : CAL          - CALIPER
DPHI.V/V      00 890 00 00         : PHID         - DENSITY POROSITY (SANDSTONE)
ILD .OHMM     00 120 00 00         : RESD         - DEEP RESISTIVITY (DIL)
~PARAMETER INFORMATION
#MNEM.UNIT           DATA             DESCRIPTION OF MNEMONIC
#---------         -----------     ------------------------------
GL  .M        356.586              : gl           - GROUND LEVEL ELEVATION
EREF.M        357.53               : kb           - ELEVATION OF DEPTH REFERENCE
DATM.M        357.53               : datum        - DATUM ELEVATION
TDD .M        123.139              : tdd          - TOTAL DEPTH DRILLER
RUN .         ONE                  : Run          - RUN NUMBER
ENG .         BILL                 : Engineer     - RECORDING ENGINEER
WIT .         JIM                  : Witness      - WITNESSED BY
MUD .         GEL                  : Mud_type     - MUD TYPE
MATR.         SANDSTONE            : Logunit      - NEUTRON MATRIX
TMAX.C        60                   : BHT          - MAXIMUM RECORDED TEMPERATURE
BHTD.M        123.139              : BHTDEP       - MAXIMUM RECORDED TEMPERATURE
RMT .C        7.22222              : MDTP         - TEMPERATURE OF MUD
MUDD.KG/M     11300                : MWT          - MUD DENSITY
NEUT.         1                    : NEUTRON      - NEUTRON TYPE
RESI.         0                    : RESIST       - RESISTIVITY TYPE
RM  .OHMM     6.85                 : RM           - RESISTIVITY OF MUD
RMC .OHMM     6.85                 : RMC          - RESISTIVITY OF MUD CAKE
RMF .OHMM     6.85                 : RMF          - RESISTIVITY OF MUD FILTRATE
SUFT.C        4                    : SUFT         - SURFACE TEMPERATURE
~A  DEPTH       GR      CAL     PHID     RESD
# ...
   58.740  102.567  150.911    0.292    5.932
   58.990  110.560  151.019    0.284    5.793
   59.240  116.708  151.163    0.278    5.658
   59.490  103.806  152.308    0.294    6.497
   59.740   81.685  152.488    0.291    7.647
   59.990   82.302  152.632    0.274    6.678
   60.240  101.972  152.776    0.263    5.759
   60.490  102.590  152.920    0.256    4.967
   60.740   88.457  153.064    0.257    4.502
   60.990   79.857  153.244    0.268    5.713
   61.240   83.548  154.424    0.282    5.580
   61.490   81.093  154.496    0.318    5.725
   61.740   77.408  154.676    0.340    5.000
   61.990   94.619  155.820    0.399    4.944
   62.240  107.528  156.000    0.510    8.042
   62.490  105.073  157.181    0.529    6.048
   62.740   96.472  157.253    0.465    4.901
   62.990  105.079  157.433    0.422    5.990
   63.240  108.770  156.576    0.246    6.072
   63.490   95.867  155.720    0.216    5.785
   63.740   91.568  153.899    0.207    5.650
   63.990   87.884  153.006    0.203    5.729
   64.240   89.116  151.185    0.219    5.735
   64.490   77.443  150.256    0.214    5.742
   64.740   80.519  149.508    0.208    5.610
   64.990  111.865  150.688    0.204    5.617
   65.240  114.941  150.796    0.204    5.625
   65.490  114.329  151.869    0.207    5.634
   65.740  111.260  152.049    0.214    5.568
   65.990   84.836  152.193    0.200    5.110
   66.240   81.767  153.301    0.189    5.652
   66.490   84.843  154.518    0.193    5.453
   66.740   89.148  154.626    0.203    5.460
   66.990  103.900  155.842    0.203    5.966
   67.240  130.330  155.950    0.216    5.898
   67.490  124.188  156.058    0.214    5.760
   67.740  111.899  156.238    0.210    5.696
   67.990  104.529  157.346    0.212    5.703
   68.240  105.146  157.526    0.209    5.931
   68.490   91.013  157.670    0.204    5.936
   68.740   85.486  157.886    0.216    5.944
   68.990   83.031  157.958    0.212    5.878
   69.240   82.420  158.174    0.209    5.464
   69.490   84.881  158.282    0.210    5.013
   69.740   82.425  158.390    0.216    5.275
   69.990   80.585  157.606    0.232    8.064
   70.240   91.650  157.714    0.271    8.808
   70.490  115.622  155.856    0.274    8.932
   70.740  122.385  153.999    0.282   20.581
   70.990  116.857  150.213    0.312   17.100
   71.240  121.162  150.321    0.306   17.336
   71.490  121.780  153.467    0.302   23.401
   71.740  121.783  158.613    0.321   22.854
   71.990  108.880  159.794    0.321   24.663
   72.240   92.905  160.010    0.321   16.790
   72.490   83.075  158.117    0.319   22.954
   72.740  100.286  157.224    0.311   25.073
   72.990  124.257  155.331    0.304   12.350
   73.240  124.875  154.546    0.299   13.323
   73.490  116.889  154.654    0.303   29.218
   73.740  111.361  154.762    0.322   48.122
   73.990   97.229  154.942    0.328   58.062
   74.240   84.940  156.159    0.331   47.057
   74.490   64.663  158.268    0.335   63.520
   74.740   41.313  159.412    0.336   22.364
   74.990   43.774  160.521    0.330   12.952
   75.240   40.705  161.701    0.314   23.563
   75.490   33.333  161.845    0.304   15.847
   75.740   35.179  161.953    0.311   20.096
   75.990   59.151  162.169    0.311   23.366
   76.240   99.101  162.277    0.312   30.377
   76.490  105.250  161.420    0.323   45.294
   76.740  108.326  158.635    0.325   25.587
   76.990   84.361  156.742    0.316   22.344
   77.240   68.385  155.885    0.329   22.935
   77.490   48.722  155.993    0.336   34.625
   77.740   46.267  156.137    0.323   45.605
   77.990   60.406  156.281    0.328   33.441
   78.240   65.940  157.534    0.330   17.753
   78.490   57.953  157.606    0.336   13.188
   78.740   45.050  159.751    0.333   14.768
   78.990   45.668  160.895    0.334   18.502
   79.240   51.203  160.146    0.344   16.771
   79.490   58.581  160.218    0.353   13.420
   79.740   58.584  159.326    0.362    9.605
   79.990   54.900  158.469    0.362   10.234
   80.240   57.975  157.685    0.352   13.987
   80.490   63.510  155.792    0.345   16.057
   80.740   61.669  154.935    0.314   17.987
   80.990   61.673  154.079    0.268   10.417
   81.240   55.530  153.222    0.204    9.924
   81.490   62.908  153.366    0.237   18.509
   81.740   75.817  153.510    0.308   31.643
   81.990   83.809  153.690    0.298    8.688
   82.240   83.198  154.834    0.290   10.749
   82.490   78.284  155.979    0.270    9.504
   82.740   67.840  157.195    0.277    8.506
   82.990   57.396  156.303    0.292   12.687
   83.240   47.566  153.445    0.306   13.185
   83.490   35.892  152.553    0.301   10.952
   83.740   32.823  150.768    0.290    9.214
   83.990   35.284  150.839    0.281    8.248
   84.240   38.360  152.020    0.291   15.384
   84.490   37.134  153.128    0.303   15.994
   84.740   40.210  155.345    0.306   12.329
   84.990   46.359  156.490    0.296    8.396
   85.240   38.987  156.598    0.311    9.405
   85.490   43.907  156.742    0.334   10.398
   85.740   48.826  156.922    0.367   12.707
   85.990   48.830  155.065    0.381   15.143
   86.240   46.989  154.172    0.374   16.753
   86.490   46.377  152.351    0.371   20.213
   86.740   46.381  152.531    0.359   32.880
   86.990   42.697  152.675    0.352   62.887
   87.240   48.231  152.783    0.337   28.392
   87.490   48.849  153.927    0.323   18.865
   87.740   36.560  154.107    0.311   16.059
   87.990   29.189  155.252    0.297    7.163
   88.240   25.505  155.396    0.276   10.681
   88.490   21.820  156.540    0.258   16.947
   88.740   31.042  156.720    0.259   12.586
   88.990   48.867  155.864    0.268    6.201
   89.240   44.568  155.972    0.255    7.769
   89.490   42.728  155.151    0.322   15.419
   89.740   45.190  154.258    0.398   39.256
   89.990   47.651  151.473    0.411   35.583
   90.240   71.622  150.580    0.400   28.131
   90.490   87.604  150.760    0.377   33.532
   90.740   92.523  150.832    0.351   19.414
   90.990   94.370  154.050    0.332   11.674
   91.240   77.780  155.158    0.326   15.951
   91.490   71.638  157.339    0.339   21.532
   91.740   86.391  159.556    0.356   38.210
   91.990   96.841  161.665    0.343   39.233
   92.240   96.230  161.809    0.330   19.324
   92.490   95.618  162.918    0.325   15.666
   92.740   82.716  163.134    0.331   16.896
   92.990   72.272  162.241    0.340   20.906
   93.240   64.285  162.349    0.345   19.187
   93.490   64.903  160.528    0.350   15.168
   93.740   82.728  159.635    0.345   10.455
   93.990   82.117  157.814    0.321    9.244
   94.240   75.360  155.957    0.315   13.445
   94.490   75.363  155.065    0.322   16.430
   94.740   77.210  153.280    0.328   10.639
   94.990   71.068  152.387    0.323    8.730
   95.240   69.227  151.602    0.335   14.559
   95.490   66.772  151.710    0.341   13.870
   95.740   63.702  152.891    0.320   13.213
   95.990   46.498  152.963    0.314    8.455
   96.240   45.886  151.106    0.312    8.679
   96.490   55.722  150.249    0.298    9.136
   96.740   73.548  147.392    0.286    8.490
   96.990   83.999  145.571    0.286    7.504
   97.240   79.700  146.751    0.302    6.718
   97.490   66.797  147.860    0.385    6.321
   97.740   48.978  149.004    0.409    8.967
   97.990   71.105  151.221    0.389   15.523
   98.240   95.691  151.293    0.349   19.690
   98.490  123.964  152.473    0.306   24.969
   98.740  115.978  153.582    0.294   13.589
   98.990  115.981  152.761    0.298    7.214
   99.240  124.588  151.905    0.281   12.487
   99.490  120.904  152.085    0.270   15.451
   99.740   92.637  152.229    0.274    6.890
   99.990   76.047  152.409    0.281    7.814
  100.240   47.780  152.481    0.276    6.099
  100.490   63.762  152.625    0.280    5.326
  100.740  106.785  152.769    0.282    6.116
  100.990  104.330  152.984    0.285    7.291
  101.240  106.176  152.164    0.302    6.773
  101.490   93.888  150.235    0.297    5.841
  101.740   61.934  148.414    0.287    8.929
  101.990   44.115  148.522    0.292   10.777
