~VERSION INFORMATION
 VERS.                 2.0:   CWLS LOG ASCII STANDARD -VERSION 2.0
 WRAP.                  NO:   ONE LINE PER DEPTH STEP
~WELL INFORMATION BLOCK
#MNEM.UNIT           DATA                    DESCRIPTION OF MNEMONIC
#---------    -------------------            -------------------------------
# Generated from Intellog Unique Number	CC_84_87/WELL/2324
NULL.         -999.25                        : NULL_VALUE
WELL.         PEX PCEJ HANGST OV             : Well_name    - WELL
LOC .         11-07-084-08W4                 : Location     - LOCATION          
UWI .         AA/11-07-084-08W4/0            : Uwi          - UNIQUE WELL ID    
ENTR.         RJA                            : Entered      - ENTERED BY        
SRVC.         DRESSER ATLAS                  : Scn          - SERVICE COMPANY   
DATE.         30 JAN 80                      : Date         - LOG DATE
STRT.M        250                            : top_depth    - START DEPTH       
STOP.M        537.089                        : bot_depth    - STOP DEPTH        
STEP.M        0.3                            : increment    - STEP LENGTH       
~CURVE INFORMATION BLOCK
#MNEM UNIT       ERCB CURVE CODE    CURVE DESCRIPTION
#-----------   ------------------   ----------------------------------
DEPT.M        00 001 00 00         : DEPTH        - DEPTH                       
DPHI.V/V      00 890 00 00         : PHID         - DENSITY POROSITY (LIMESTONE)
NPHI.V/V      00 330 00 00         : PHIN         - NEUTRON POROSITY (LIMESTONE)
GR  .API      00 310 00 00         : GR           - GAMMA RAY                   
ILD .OHMM     00 120 00 00         : RESD         - DEEP RESISTIVITY (DIL)      
~PARAMETER INFORMATION       
#MNEM.UNIT           DATA             DESCRIPTION OF MNEMONIC
#---------         -----------     ------------------------------
GL  .M        272.32               : gl           - GROUND LEVEL ELEVATION      
EREF.M        730.92               : kb           - ELEVATION OF DEPTH REFERENCE
DATM.M        730.92               : datum        - DATUM ELEVATION             
TDD .M        541                  : tdd          - TOTAL DEPTH DRILLER         
RUN .         ONE                  : Run          - RUN NUMBER                  
ENG .         BILL                 : Engineer     - RECORDING ENGINEER          
WIT .         JIM                  : Witness      - WITNESSED BY                
MUD .         GEL                  : Mud_type     - MUD TYPE                    
MATR.         LIMESTONE            : Logunit      - NEUTRON MATRIX              
TMAX.C        20                   : BHT          - MAXIMUM RECORDED TEMPERATURE
BHTD.M        541                  : BHTDEP       - MAXIMUM RECORDED TEMPERATURE
MATR.         1                    : LOGUNIT      - NEUTRON MATRIX              
RMT .C        25                   : MDTP         - TEMPERATURE OF MUD          
NEUT.         1                    : NEUTRON      - NEUTRON TYPE                
RESI.         0                    : RESIST       - RESISTIVITY TYPE            
RMC .OHMM     0.25                 : RMC          - RESISTIVITY OF MUD CAKE     
RMF .OHMM     0.25                 : RMF          - RESISTIVITY OF MUD FILTRATE 
SUFT.C        15                   : SUFT         - SURFACE TEMPERATURE         
~A  DEPTH     PHID     PHIN       GR     RESD
# ...
  354.396    0.282    0.412   95.338   10.460
  354.696    0.282    0.433   98.042   10.132
  354.996    0.275    0.461  101.547    9.242
  355.296    0.269    0.461  101.536    8.495
  355.596    0.284    0.478   99.178    7.823
  355.896    0.345    0.527   92.813    6.878
  356.196    0.367    0.558   96.749    5.990
  356.496    0.366    0.574  110.375    5.217
  356.796    0.315    0.517  116.533    5.194
  357.096    0.331    0.506  114.547    5.822
  357.396    0.298    0.506  106.639    7.071
  357.696    0.274    0.440  100.457    9.336
  357.996    0.250    0.434   90.944   11.296
  358.296    0.243    0.384  100.680   10.936
  358.596    0.251    0.388   99.682    8.302
  358.896    0.258    0.440  112.875    6.256
  359.196    0.263    0.462  113.296    4.802
  359.496    0.307    0.561  124.081    4.000
  359.796    0.353    0.612  112.594    3.569
  360.096    0.354    0.670  107.830    3.587
  360.396    0.367    0.641  108.929    4.021
  360.696    0.359    0.642  123.480    3.835
  360.996    0.349    0.610  127.170    3.551
  361.296    0.358    0.631  118.213    3.320
  361.596    0.365    0.649  123.754    3.034
  361.896    0.367    0.629  105.787    2.884
  362.196    0.373    0.591  113.612    2.887
  362.496    0.368    0.594  114.897    2.971
  362.796    0.376    0.575  106.185    3.128
  363.096    0.406    0.511  111.110    3.647
  363.396    0.426    0.455   94.008    4.814
  363.696    0.191    0.307  102.697    8.943
  363.996    0.196    0.300   95.713   22.409
  364.296    0.245    0.313   91.815   43.207
  364.596    0.180    0.278  104.696   35.790
  364.896    0.145    0.231   99.256   34.076
  365.196    0.215    0.220   70.741   34.240
  365.496    0.265    0.250   78.134   32.906
  365.796    0.304    0.293   87.007   29.582
  366.096    0.307    0.303   83.971   24.869
  366.396    0.318    0.322   81.368   21.946
  366.696    0.294    0.420   74.447   19.507
  366.996    0.290    0.414   74.498   17.960
  367.296    0.294    0.416   80.532   17.008
  367.596    0.290    0.382   79.719   16.376
  367.896    0.289    0.363   74.464   16.672
  368.195    0.286    0.365   70.750   19.577
  368.495    0.285    0.379   69.072   22.155
  368.795    0.270    0.340   65.730   24.295
  369.095    0.127    0.295   72.135   25.906
  369.395    0.206    0.270   65.275   25.552
  369.695    0.269    0.326   61.623   24.462
  369.995    0.296    0.379   60.315   23.121
  370.295    0.295    0.393   70.361   21.730
  370.595    0.291    0.387   70.040   20.611
  370.895    0.292    0.393   73.115   20.259
  371.195    0.289    0.398   71.868   19.831
  371.495    0.284    0.403   71.303   19.673
  371.795    0.285    0.424   78.016   19.438
  372.095    0.288    0.404   75.168   19.246
  372.395    0.293    0.393   72.194   18.948
  372.695    0.296    0.382   70.703   18.585
  372.995    0.295    0.412   71.555   18.366
  373.295    0.296    0.410   68.951   18.247
  373.595    0.294    0.392   65.733   18.266
  373.895    0.292    0.390   72.199   18.359
  374.195    0.291    0.406   75.149   18.412
  374.495    0.293    0.411   80.938   18.396
  374.795    0.292    0.401   66.611   18.519
  375.095    0.293    0.393   73.386   18.714
  375.395    0.293    0.395   66.836   18.770
  375.695    0.279    0.399   69.848   18.967
  375.995    0.263    0.402   63.666   19.088
  376.295    0.276    0.397   63.407   19.041
  376.595    0.292    0.412   65.925   19.099
  376.895    0.292    0.398   77.514   19.228
  377.195    0.286    0.380   71.147   19.394
  377.495    0.279    0.389   71.568   19.741
  377.795    0.277    0.411   75.259   19.799
  378.095    0.277    0.405   72.039   19.781
  378.395    0.280    0.365   71.410   19.873
  378.695    0.280    0.380   76.335   20.012
  378.995    0.271    0.392   72.745   20.224
  379.295    0.273    0.386   75.448   20.435
  379.595    0.276    0.396   82.100   20.419
  379.895    0.276    0.380   75.733   20.589
  380.195    0.283    0.392   80.781   20.766
  380.495    0.288    0.390   81.511   20.827
  380.795    0.284    0.400   72.984   20.892
  381.095    0.281    0.416   79.575   20.839
  381.395    0.280    0.392   76.665   20.748
  381.695    0.279    0.395   73.998   20.388
  381.995    0.272    0.416   72.199   19.959
  382.295    0.276    0.426   77.308   19.468
  382.595    0.281    0.413   77.359   19.275
  382.895    0.285    0.396   82.465   19.047
  383.195    0.277    0.403   80.913   18.855
  383.495    0.270    0.416   78.435   18.844
  383.795    0.268    0.404   80.027   18.969
  384.095    0.268    0.384   86.249   19.168
  384.395    0.272    0.380   76.549   19.435
  384.695    0.273    0.377   79.930   19.568
  384.995    0.270    0.398   75.601   19.592
  385.295    0.270    0.393   78.859   19.576
  385.595    0.266    0.421   73.605   19.381
  385.895    0.264    0.427   81.676   19.008
  386.195    0.272    0.417   79.258   18.439
  386.495    0.275    0.431   82.825   17.981
  386.795    0.273    0.441   85.219   17.502
  387.095    0.268    0.424   87.181   17.401
  387.395    0.264    0.413   84.457   17.712
  387.695    0.263    0.414   90.922   18.365
  387.995    0.256    0.408   83.014   18.520
  388.295    0.253    0.400   83.125   18.302
  388.595    0.259    0.404   76.945   18.195
  388.895    0.271    0.389   88.903   17.909
  389.195    0.270    0.409   92.780   17.668
  389.495    0.265    0.410   93.630   17.426
  389.795    0.266    0.428   93.557   16.496
  390.095    0.262    0.412   82.070   15.245
  390.395    0.257    0.387   87.181   13.601
  390.695    0.258    0.392   88.094   12.930
  390.995    0.258    0.401  109.863   11.843
  391.295    0.254    0.405  100.967    9.975
  391.595    0.255    0.435   98.117    8.900
  391.895    0.270    0.476  102.917    8.195
  392.195    0.275    0.505  114.013    8.160
  392.495    0.277    0.471  100.736    8.431
  392.794    0.286    0.452   98.934    8.856
  393.094    0.287    0.453   95.407    8.817
  393.394    0.349    0.474   92.434    7.837
  393.694    0.377    0.563  103.034    6.421
  393.994    0.370    0.590  103.887    5.708
  394.294    0.370    0.610  112.946    5.567
  394.594    0.380    0.593  112.996    5.645
  394.894    0.402    0.532  101.756    6.933
  395.194    0.249    0.444  112.912    8.658
  395.494    0.233    0.423  102.782   10.019
  395.794    0.224    0.439  105.175   12.348
  396.094    0.228    0.441  107.818   12.000
  396.394    0.255    0.457  109.411   10.569
  396.694    0.298    0.457  103.846    9.933
  396.994    0.373    0.478   92.544    9.850
  397.294    0.446    0.516   95.556    9.732
  397.594    0.260    0.550  102.517    8.980
  397.894    0.351    0.506   98.680    8.210
  398.194    0.328    0.561  112.736    7.558
  398.494    0.301    0.556  109.577    7.104
  398.794    0.298    0.523  117.587    6.703
  399.094    0.306    0.530  110.418    6.172
  399.394    0.311    0.512  117.995    5.497
  399.694    0.314    0.521  127.609    4.770
  399.994    0.316    0.540  120.318    4.123
  400.294    0.335    0.533  118.331    3.679
  400.594    0.355    0.568  121.466    3.253
  400.894    0.368    0.613  116.828    2.886
  401.194    0.379    0.635  129.712    2.993
  401.494    0.374    0.637  125.996    3.601
  401.794    0.358    0.660  131.170    4.284
  402.094    0.306    0.558  125.171    5.068
  402.394    0.300    0.533  115.659    6.019
  402.694    0.302    0.516  107.688    7.004
  402.994    0.334    0.544  108.604    7.796
  403.294    0.369    0.544  100.572    8.756
  403.594    0.390    0.568  107.964    9.815
  403.894    0.354    0.516  100.672   11.186
  404.194    0.360    0.496   96.897   11.436
  404.494    0.366    0.519  117.245   11.620
  404.794    0.310    0.464  126.489   11.827
  405.094    0.262    0.451  126.293   12.895
  405.394    0.264    0.418  119.186   13.958
  405.694    0.228    0.399  125.406   14.802
  405.994    0.182    0.364  118.113   15.154
  406.294    0.171    0.368  119.399   14.083
