~VERSION INFORMATION
 VERS.                 2.0:   CWLS LOG ASCII STANDARD -VERSION 2.0
 WRAP.                  NO:   ONE LINE PER DEPTH STEP
~WELL INFORMATION BLOCK
#MNEM.UNIT           DATA                    DESCRIPTION OF MNEMONIC
#---------    -------------------            -------------------------------
# Generated from Intellog Unique Number	CW_79_81/WELL/2480
WELL.         11-02-081-22W4                 : Well_name    - WELL
LOC .         AA/11-02-081-22W4/0            : Location     - LOCATION
UWI .         AA/11-02-081-22W4/0            : Uwi          - UNIQUE WELL ID
ENTR.         MAX                            : Entered      - ENTERED BY
SRVC.         SCHLUMBERGER                   : Scn          - SERVICE COMPANY
STRT.M        190                            : top_depth    - START DEPTH
STOP.M        430                            : bot_depth    - STOP DEPTH
STEP.M        0.25                           : increment    - STEP LENGTH
 NULL. -999.2500:NULL Value
~CURVE INFORMATION BLOCK
#MNEM UNIT       ERCB CURVE CODE    CURVE DESCRIPTION
#-----------   ------------------   ----------------------------------
DEPT.M        00 001 00 00         : DEPTH        - DEPTH
ILD .OHMM     00 120 00 00         : RESD         - DEEP RESISTIVITY (DIL)
NPHI.V/V      00 330 00 00         : PHIN         - NEUTRON POROSITY (SANDSTONE)
DPHI.V/V      00 890 00 00         : PHID         - DENSITY POROSITY (SANDSTONE)
GR  .API      00 310 00 00         : GR           - GAMMA RAY
CALI.MM       00 280 01 00         : CAL          - CALIPER
~PARAMETER INFORMATION
#MNEM.UNIT           DATA             DESCRIPTION OF MNEMONIC
#---------         -----------     ------------------------------
GL  .M        607                  : gl           - GROUND LEVEL ELEVATION
EREF.M        610.7                : kb           - ELEVATION OF DEPTH REFERENCE
DATM.M        607                  : datum        - DATUM ELEVATION
TDD .M        435                  : tdd          - TOTAL DEPTH DRILLER
RUN .         ONE                  : Run          - RUN NUMBER
ENG .         BILL                 : Engineer     - RECORDING ENGINEER
WIT .         JIM                  : Witness      - WITNESSED BY
MUD .         GEL                  : Mud_type     - MUD TYPE
MATR.         SANDSTONE            : Logunit      - NEUTRON MATRIX
TMAX.C        29                   : BHT          - MAXIMUM RECORDED TEMPERATURE
BHTD.M        435                  : BHTDEP       - MAXIMUM RECORDED TEMPERATURE
MATR.         1                    : LOGUNIT      - NEUTRON MATRIX
RMT .C        20                   : MDTP         - TEMPERATURE OF MUD
NEUT.         1                    : NEUTRON      - NEUTRON TYPE
RESI.         0                    : RESIST       - RESISTIVITY TYPE
RMC .OHMM     1.22                 : RMC          - RESISTIVITY OF MUD CAKE
RMF .OHMM     2.93                 : RMF          - RESISTIVITY OF MUD FILTRATE
SUFT.C        -20                  : SUFT         - SURFACE TEMPERATURE
~A  DEPTH     RESD     PHIN     PHID       GR      CAL
# ...
  409.000   72.915    0.334    0.311   42.971  193.244
  409.250   65.776    0.336    0.313   43.428  192.848
  409.500   58.019    0.357    0.310   45.793  194.478
  409.750   52.316    0.367    0.306   48.447  196.974
  410.000   48.123    0.363    0.304   50.696  198.892
  410.250   43.078    0.368    0.304   53.251  198.494
  410.500   39.662    0.368    0.302   55.655  198.483
  410.750   36.585    0.364    0.294   58.425  200.015
  411.000   32.997    0.377    0.284   59.460  200.678
  411.250   29.819    0.382    0.285   60.032  200.668
  411.500   27.359    0.378    0.299   61.125  200.371
  411.750   25.321    0.390    0.321   64.009  200.438
  412.000   23.841    0.400    0.328   66.894  200.830
  412.250   22.817    0.398    0.306   67.812  201.204
  412.500   21.961    0.392    0.280   70.987  201.290
  412.750   20.779    0.378    0.240   74.914  201.665
  413.000   19.059    0.350    0.188   78.725  202.522
  413.250   16.248    0.306    0.149   83.922  203.908
  413.500   13.694    0.331    0.203   92.590  205.102
  413.750   10.062    0.379    0.202  104.611  205.864
  414.000    8.087    0.393    0.201  110.215  207.203
  414.250    6.783    0.396    0.205  113.216  207.000
  414.500    5.921    0.397    0.213  116.737  205.255
  414.750    5.454    0.395    0.222  124.509  204.004
  415.000    5.372    0.403    0.230  131.008  203.594
  415.250    5.569    0.430    0.226  118.512  203.196
  415.500    6.148    0.423    0.218   96.820  202.801
  415.750    7.803    0.400    0.197   82.240  202.599
  416.000   11.434    0.359    0.161   79.112  202.781
  416.250   14.631    0.283    0.126   83.026  203.618
  416.500   17.326    0.294    0.171   99.164  204.011
  416.750   14.832    0.374    0.188  111.648  204.000
  417.000   10.782    0.411    0.203  117.888  203.411
  417.250    8.643    0.415    0.213  121.236  203.017
  417.500    7.729    0.403    0.221  124.295  202.911
  417.750    7.187    0.405    0.232  127.949  202.353
  418.000    6.921    0.434    0.235  123.125  201.539
  418.250    7.227    0.441    0.238   96.983  200.757
  418.500    7.953    0.414    0.247   81.939  199.976
  418.750    9.511    0.387    0.259   76.034  199.773
  419.000   12.716    0.374    0.272   76.433  200.052
  419.250   20.514    0.370    0.280   80.203  200.041
  419.500   29.852    0.359    0.281   84.052  200.030
  419.750   33.002    0.362    0.265   86.359  199.635
  420.000   31.166    0.373    0.252   89.013  199.528
  420.250   26.506    0.384    0.245   89.816  199.517
  420.500   22.680    0.387    0.247   87.093  199.506
  420.750   21.748    0.372    0.251   79.442  199.494
  421.000   21.912    0.365    0.249   78.231  199.484
  421.250   23.046    0.375    0.241   79.613  199.472
  421.500   24.501    0.367    0.232   80.127  199.461
  421.750   25.883    0.352    0.224   81.392  199.451
  422.000   25.833    0.337    0.217   85.434  199.346
  422.250   22.023    0.333    0.203   96.704  198.949
  422.500   19.113    0.384    0.172  106.818  198.938
  422.750   14.485    0.407    0.154   99.642  199.312
  423.000   10.155    0.385    0.183   94.026  199.688
  423.250    7.902    0.357    0.214   94.250  199.871
  423.500    6.706    0.349    0.230  100.259  199.957
  423.750    5.686    0.385    0.239  108.907  200.332
  424.000    5.120    0.433    0.240  115.166  200.321
  424.250    4.828    0.470    0.236  116.084  201.082
  424.500    4.709    0.478    0.228  114.400  201.843
  424.750    4.776    0.460    0.220  112.544  202.604
  425.000    5.015    0.431    0.213  111.613  203.267
  425.250    5.472    0.411    0.209  110.892  203.641
  425.500    6.137    0.405    0.212  108.477  203.630
  425.750    6.881    0.419    0.220  107.546  203.620
  426.000    6.903    0.461    0.238  109.390  203.610
  426.250    6.178    0.508    0.292  112.391  203.793
  426.500    5.287    0.552    0.356  114.698  204.072
  426.750    4.763    0.592    0.350  113.745  204.059
  427.000    5.023    0.578    0.331  111.330  204.046
  427.250    5.359    0.529    0.334  109.936  204.038
  427.500    5.841    0.504    0.326  110.277  204.029
  427.750    6.462    0.497    0.320  111.542  204.019
  428.000    7.164    0.505    0.317  113.040  204.009
  428.250    7.789    0.513    0.298  113.756  204.077
  428.500    7.907    0.483    0.267  111.582  204.467
  428.750    8.080    0.463    0.280  108.800  204.455
  429.000    8.571    0.453    0.305  107.579  204.445
  429.250    9.560    0.449    0.316  108.036  204.436
  429.500   11.186    0.450    0.306  109.649  204.329
  429.750   13.569    0.459    0.292  111.453  203.852
  430.000   15.337    0.459    0.274  112.410  203.441
