~VERSION INFORMATION
 VERS.                 2.0:   CWLS LOG ASCII STANDARD -VERSION 2.0
 WRAP.                  NO:   ONE LINE PER DEPTH STEP
~WELL INFORMATION BLOCK
#MNEM.UNIT           DATA                    DESCRIPTION OF MNEMONIC
#---------    -------------------            -------------------------------
# Generated from Intellog Unique Number	CC_88_90/WELL/2305
WELL.         11-24-090-09W4                 : Well_name    - WELL
LOC .         AA/11-24-090-09W4/0            : Location     - LOCATION
UWI .         AA/11-24-090-09W400            : Uwi          - UNIQUE WELL ID
ENTR.         DW                             : Entered      - ENTERED BY
SRVC.         SCHLUMBERGER                   : Scn          - SERVICE COMPANY
STRT.M        9.144                          : top_depth    - START DEPTH
STOP.M        166.894                        : bot_depth    - STOP DEPTH
STEP.M        0.25                           : increment    - STEP LENGTH
 NULL. -999.2500:NULL Value
~CURVE INFORMATION BLOCK
#MNEM UNIT       ERCB CURVE CODE    CURVE DESCRIPTION
#-----------   ------------------   ----------------------------------
DEPT.M        00 001 00 00         : DEPTH        - DEPTH
GR  .API      00 310 00 00         : GR           - GAMMA RAY
DPHI.V/V      00 890 00 00         : PHID         - DENSITY POROSITY (SANDSTONE)
SNP.V/V       00 330 00 00          : SNP          - SIDEWALL NEUTRON POROSITY (SANDSTONE)
ILD .OHMM     00 120 00 00         : RESD         - DEEP RESISTIVITY (DIL)
~PARAMETER INFORMATION
#MNEM.UNIT           DATA             DESCRIPTION OF MNEMONIC
#---------         -----------     ------------------------------
GL  .M        403.311              : gl           - GROUND LEVEL ELEVATION
EREF.M        404.531              : kb           - ELEVATION OF DEPTH REFERENCE
DATM.M        404.531              : datum        - DATUM ELEVATION
TDD .M        170.078              : tdd          - TOTAL DEPTH DRILLER
RUN .         ONE                  : Run          - RUN NUMBER
ENG .         BILL                 : Engineer     - RECORDING ENGINEER
WIT .         JIM                  : Witness      - WITNESSED BY
MUD .         GEL                  : Mud_type     - MUD TYPE
MATR.         SANDSTONE            : Logunit      - NEUTRON MATRIX
TMAX.C        25                   : BHT          - MAXIMUM RECORDED TEMPERATURE
BHTD.M        170.078              : BHTDEP       - MAXIMUM RECORDED TEMPERATURE
MATR.         1                    : LOGUNIT      - NEUTRON MATRIX
RMT .C        25                   : MDTP         - TEMPERATURE OF MUD
NEUT.         0                    : NEUTRON      - NEUTRON TYPE
RESI.         0                    : RESIST       - RESISTIVITY TYPE
RMC .OHMM     0.25                 : RMC          - RESISTIVITY OF MUD CAKE
RMF .OHMM     0.25                 : RMF          - RESISTIVITY OF MUD FILTRATE
SUFT.C        15                   : SUFT         - SURFACE TEMPERATURE
~A  DEPTH       GR     PHID     SNP     RESD
    9.144   33.377    0.546    0.154  582.038
    9.394   33.621    0.550    0.145  345.711
    9.644   34.567    0.549    0.123  207.575
    9.894   36.692    0.540    0.107  299.011
   10.144   35.050    0.536    0.113  677.519
   10.394   30.337    0.546    0.130  868.195
   10.644   32.926    0.560    0.128  361.743
   10.894   36.626    0.556    0.132  208.085
   11.144   37.930    0.539    0.148  357.827
   11.394   36.217    0.530    0.158  390.067
   11.644   35.102    0.538    0.168  389.991
   11.894   37.391    0.542    0.189  584.676
   12.144   38.160    0.535    0.196  795.186
   12.394   37.388    0.530    0.193 1536.060
   12.644   33.096    0.545    0.182 2077.120
   12.894   31.194    0.545    0.171 2152.490
   13.144   32.722    0.526    0.169 2133.890
   13.394   30.410    0.543    0.172 2066.480
   13.644   34.971    0.559    0.179 2025.640
   13.894   37.752    0.571    0.199 2036.780
   14.144   35.149    0.560    0.195 2093.020
   14.394   30.995    0.534    0.159 2150.680
   14.644   28.796    0.524    0.130 2179.950
   14.894   28.951    0.518    0.114 2213.560
   15.144   26.714    0.527    0.106 2166.050
   15.394   24.566    0.542    0.112 1563.720
   15.644   25.648    0.555    0.124  790.005
   15.894   28.999    0.555    0.131  393.263
   16.144   31.907    0.532    0.137  207.169
   16.394   33.355    0.510    0.157  174.842
   16.644   31.440    0.481    0.194  236.590
   16.894   28.851    0.448    0.256  303.828
   17.144   28.558    0.407    0.313  337.106
   17.394   30.597    0.368    0.335  356.735
   17.644   33.612    0.362    0.352  369.579
   17.894   35.635    0.350    0.377  338.459
   18.144   35.937    0.350    0.366  272.812
   18.394   32.021    0.367    0.353  213.653
   18.644   28.262    0.365    0.367  172.640
   18.894   34.204    0.335    0.363  129.951
   19.144   46.996    0.306    0.340   96.340
   19.394   58.221    0.238    0.353   95.329
   19.644   64.436    0.202    0.340  136.800
   19.894   64.684    0.207    0.297  181.860
   20.144   64.016    0.198    0.283  195.551
   20.394   70.291    0.187    0.287  198.541
   20.644   73.333    0.145    0.291  193.728
   20.894   74.612    0.140    0.286  184.614
   21.144   73.245    0.172    0.270  169.157
   21.394   67.192    0.189    0.262  147.496
   21.644   61.614    0.186    0.273  133.854
   21.894   63.622    0.204    0.283  132.285
   22.144   66.473    0.222    0.292   80.076
   22.394   63.337    0.210    0.301   40.540
   22.644   58.375    0.196    0.324   34.517
   22.894   62.685    0.209    0.347   25.942
   23.144   74.835    0.224    0.334   22.457
   23.394   72.094    0.232    0.321   20.055
   23.644   70.387    0.241    0.350   19.083
   23.894   74.389    0.240    0.363   19.296
   24.144   72.209    0.239    0.337   19.595
   24.394   62.943    0.245    0.327   19.892
   24.644   62.319    0.220    0.344   19.963
   24.894   64.511    0.198    0.375   18.985
   25.144   64.307    0.188    0.362   17.695
   25.394   65.463    0.195    0.335   16.832
   25.644   70.406    0.220    0.329   16.430
   25.894   72.523    0.247    0.321   16.184
   26.144   67.648    0.258    0.346   15.669
   26.394   67.913    0.242    0.365   15.509
   26.644   70.115    0.219    0.366   15.609
   26.894   67.679    0.221    0.357   16.054
   27.144   66.105    0.247    0.343   16.779
   27.394   71.963    0.257    0.329   16.977
   27.644   74.510    0.264    0.317   18.132
   27.894   75.315    0.275    0.322   19.630
   28.144   69.868    0.285    0.344   20.329
   28.394   61.594    0.292    0.354   20.683
   28.644   63.779    0.286    0.332   23.266
   28.894   65.868    0.258    0.324   29.371
   29.144   65.013    0.289    0.354   30.637
   29.394   63.791    0.302    0.383   29.186
   29.644   64.994    0.273    0.373   28.493
   29.894   67.133    0.269    0.350   27.563
   30.144   66.338    0.285    0.359   26.334
   30.394   67.484    0.279    0.351   24.695
   30.644   73.087    0.260    0.353   23.783
   30.894   69.745    0.259    0.371   22.791
   31.144   61.903    0.265    0.374   22.154
   31.394   68.232    0.253    0.353   23.779
   31.644   72.855    0.255    0.324   25.771
   31.894   71.987    0.255    0.309   26.570
   32.144   70.462    0.239    0.290   24.671
   32.394   70.990    0.217    0.270   23.257
   32.644   72.402    0.207    0.273   18.268
   32.894   71.824    0.215    0.279   41.087
   33.144   64.851    0.216    0.265  181.127
   33.394   57.151    0.208    0.251  133.875
   33.644   49.776    0.170    0.235   34.406
   33.894   47.538    0.113    0.222   44.144
   34.144   55.539    0.106    0.225   36.941
   34.394   61.586    0.167    0.241   37.352
   34.644   59.388    0.214    0.288   46.592
   34.894   61.238    0.138    0.326   72.516
   35.144   59.279    0.099    0.330   93.268
   35.394   48.087    0.205    0.324   94.732
   35.644   44.668    0.264    0.325   98.079
   35.894   38.731    0.281    0.326   87.059
   36.144   33.109    0.291    0.321   74.180
   36.394   30.737    0.316    0.340   66.793
   36.644   30.215    0.339    0.365   62.734
   36.894   28.975    0.343    0.361   59.995
   37.144   25.370    0.342    0.375   57.261
   37.394   22.202    0.336    0.397   55.871
   37.644   26.011    0.333    0.400   60.686
   37.894   28.162    0.329    0.383   66.113
   38.144   24.854    0.318    0.382   65.549
   38.394   26.577    0.313    0.406   61.433
   38.644   28.043    0.312    0.379   53.562
   38.894   34.636    0.313    0.362   42.934
   39.144   43.184    0.297    0.351   47.706
   39.394   44.917    0.280    0.347   59.838
   39.644   37.508    0.294    0.365   55.951
   39.894   28.576    0.321    0.361   45.516
   40.144   26.737    0.314    0.355   41.784
   40.394   26.895    0.319    0.340   39.827
   40.644   25.542    0.330    0.337   45.593
   40.894   25.178    0.323    0.356   57.152
   41.144   28.131    0.316    0.365   58.778
   41.394   33.048    0.313    0.352   60.732
   41.644   38.051    0.330    0.362   78.585
   41.894   45.963    0.280    0.390   96.214
   42.144   55.705    0.172    0.352   82.208
   42.394   63.003    0.107    0.253   40.145
   42.644   68.811    0.099    0.233   13.269
   42.894   77.880    0.115    0.241    5.379
   43.144   91.182    0.181    0.308    7.447
   43.394   94.056    0.242    0.391    9.829
   43.644   86.242    0.264    0.430    8.505
   43.894   86.098    0.291    0.435    6.104
   44.144   91.484    0.309    0.420    6.571
   44.394   86.998    0.295    0.443    9.785
   44.644   79.895    0.283    0.467   10.430
   44.894   85.860    0.284    0.464    7.946
   45.144   99.155    0.286    0.451    6.080
   45.394   99.516    0.294    0.434    5.777
   45.644   98.178    0.281    0.429    5.839
   45.894  102.030    0.263    0.443    6.861
   46.144   97.899    0.262    0.442    9.760
   46.394   84.376    0.266    0.422   16.796
   46.644   76.572    0.252    0.415   23.409
   46.894   76.391    0.234    0.403   16.879
   47.144   82.674    0.240    0.391    9.787
   47.394   90.554    0.265    0.377    8.283
   47.644   95.182    0.272    0.370    9.003
   47.894   96.636    0.248    0.383    8.104
   48.144   98.321    0.228    0.410    6.280
   48.394   98.913    0.236    0.435    5.769
   48.644   95.528    0.283    0.437    5.558
   48.894   92.690    0.294    0.442    4.476
   49.144   93.673    0.270    0.462    3.919
   49.394   90.924    0.270    0.472    9.027
   49.644   76.644    0.268    0.459   22.350
   49.894   67.963    0.250    0.430   28.874
   50.144   62.097    0.225    0.373   16.518
   50.394   70.408    0.191    0.298    4.435
   50.644   88.962    0.163    0.287    5.361
   50.894   89.660    0.183    0.371    4.969
   51.144   84.020    0.250    0.404    4.514
   51.394   85.511    0.272    0.420    4.066
   51.644   89.714    0.262    0.436    4.004
   51.894   89.002    0.267    0.433    3.354
   52.144   84.178    0.282    0.422    7.955
   52.394   79.295    0.277    0.432   24.927
