~VERSION INFORMATION
 VERS.                 2.0:   CWLS LOG ASCII STANDARD -VERSION 2.0
 WRAP.                  NO:   ONE LINE PER DEPTH STEP
~WELL INFORMATION BLOCK
#MNEM.UNIT           DATA                    DESCRIPTION OF MNEMONIC
#---------    -------------------            -------------------------------
# Generated from Intellog Unique Number	CN_94_101/WELL/3257
WELL.         10-02-095-06W4                 : Well_name    - WELL
LOC .         AA/10-02-095-06W4/0            : Location     - LOCATION
UWI .         AA/10-02-095-06W400            : Uwi          - UNIQUE WELL ID
ENTR.         TIM                            : Entered      - ENTERED BY
SRVC.         SCHLUMBERGER                   : Scn          - SERVICE COMPANY
DATE.         06/18/92                       : Date         - LOG DATE
STRT.M        100                            : top_depth    - START DEPTH
STOP.M        340                            : bot_depth    - STOP DEPTH
STEP.M        0.25                           : increment    - STEP LENGTH
 NULL. -999.2500:NULL Value
~CURVE INFORMATION BLOCK
#MNEM UNIT       ERCB CURVE CODE    CURVE DESCRIPTION
#-----------   ------------------   ----------------------------------
DEPT.M        00 001 00 00         : DEPTH        - DEPTH
GR  .API      00 310 00 00         : GR           - GAMMA RAY
NPHI.V/V      00 330 00 00         : PHIN         - NEUTRON POROSITY (SANDSTONE)
DPHI.V/V      00 890 00 00         : PHID         - DENSITY POROSITY (SANDSTONE)
ILD .OHMM     00 120 00 00         : RESD         - DEEP RESISTIVITY (DIL)
~PARAMETER INFORMATION
#MNEM.UNIT           DATA             DESCRIPTION OF MNEMONIC
#---------         -----------     ------------------------------
GL  .M        595.5                : gl           - GROUND LEVEL ELEVATION
EREF.M        598.5                : kb           - ELEVATION OF DEPTH REFERENCE
DATM.M        598.5                : datum        - DATUM ELEVATION
TDD .M        344                  : tdd          - TOTAL DEPTH DRILLER
RUN .         ONE                  : Run          - RUN NUMBER
ENG .         BILL                 : Engineer     - RECORDING ENGINEER
WIT .         JIM                  : Witness      - WITNESSED BY
MUD .         GEL                  : Mud_type     - MUD TYPE
MATR.         SANDSTONE            : Logunit      - NEUTRON MATRIX
TMAX.C        14                   : BHT          - MAXIMUM RECORDED TEMPERATURE
BHTD.M        344                  : BHTDEP       - MAXIMUM RECORDED TEMPERATURE
RMT .C        14                   : MDTP         - TEMPERATURE OF MUD
MUDD.KG/M     1050                 : MWT          - MUD DENSITY
NEUT.         1                    : NEUTRON      - NEUTRON TYPE
RESI.         0                    : RESIST       - RESISTIVITY TYPE
RM  .OHMM     3.15                 : RM           - RESISTIVITY OF MUD
RMC .OHMM     3.15                 : RMC          - RESISTIVITY OF MUD CAKE
RMF .OHMM     3.15                 : RMF          - RESISTIVITY OF MUD FILTRATE
SUFT.C        4                    : SUFT         - SURFACE TEMPERATURE
~A  DEPTH       GR     PHIN     PHID     RESD
# ...
  274.000   83.756    0.410    0.148   20.946
  274.250   83.207    0.390    0.149   21.375
  274.500   83.262    0.384    0.153   23.105
  274.750   84.542    0.380    0.153   24.503
  275.000   85.203    0.379    0.150   25.986
  275.250   84.653    0.380    0.148   28.100
  275.500   84.117    0.383    0.141   30.373
  275.750   83.540    0.383    0.139   31.604
  276.000   84.200    0.383    0.136   33.517
  276.250   85.480    0.376    0.134   34.217
  276.500   87.971    0.366    0.141   36.303
  276.750   91.053    0.356    0.149   37.774
  277.000   95.332    0.357    0.176   40.076
  277.250   99.019    0.364    0.182   41.666
  277.500  102.721    0.371    0.188   45.074
  277.750  105.184    0.379    0.194   46.881
  278.000  105.239    0.384    0.209   49.698
  278.250   80.477    0.388    0.216   55.827
  278.500   74.465    0.386    0.226   59.181
  278.750   69.678    0.381    0.234   66.451
  279.000   70.339    0.386    0.237   73.238
  279.250   66.171    0.390    0.239   79.131
  279.500   63.200    0.395    0.241   88.889
  279.750   62.636    0.400    0.243   99.810
  280.000   62.705    0.402    0.244  112.072
  280.250   63.380    0.397    0.244  123.467
  280.500   64.013    0.391    0.242  146.785
  280.750   65.898    0.387    0.241  161.710
  281.000   68.375    0.388    0.238  192.328
  281.250   69.655    0.393    0.237  211.884
  281.500   67.262    0.398    0.237  229.121
  281.750   61.883    0.400    0.242  242.987
  282.000   58.898    0.404    0.244  262.754
  282.250   57.152    0.406    0.246  268.025
  282.500   56.588    0.407    0.246  284.246
  282.750   55.433    0.408    0.244  338.204
  283.000   55.488    0.408    0.242  365.567
  283.250   57.965    0.402    0.241  380.224
  283.500   60.442    0.397    0.241  388.170
  283.750   60.497    0.401    0.242  404.231
  284.000   56.316    0.405    0.247  412.509
  284.250   51.529    0.414    0.253  421.131
  284.500   52.795    0.411    0.256  421.998
  284.750   58.312    0.408    0.255  430.640
  285.000   63.210    0.405    0.249  439.459
  285.250   68.122    0.401    0.243  457.643
  285.500   71.204    0.394    0.235  466.823
  285.750   72.456    0.391    0.231  495.075
  286.000   71.301    0.389    0.230  556.355
  286.250   67.120    0.390    0.233  567.749
  286.500   62.346    0.396    0.236  558.189
  286.750   60.572    0.404    0.243  518.111
  287.000   59.417    0.404    0.247  490.155
  287.250   58.276    0.405    0.251  454.775
  287.500   58.331    0.407    0.255  430.236
  287.750   58.978    0.410    0.256  414.844
  288.000   60.244    0.413    0.259  407.691
  288.250   62.116    0.411    0.258  378.264
  288.500   64.001    0.405    0.257  313.204
  288.750   66.492    0.395    0.248  274.578
  289.000   67.730    0.386    0.241  275.030
  289.250   68.391    0.380    0.241  286.174
  289.500   61.182    0.384    0.246  303.494
  289.750   57.001    0.395    0.252  328.183
  290.000   55.268    0.404    0.255  368.502
  290.250   54.099    0.415    0.255  398.315
  290.500   52.339    0.420    0.254  422.422
  290.750   50.578    0.421    0.252  431.427
  291.000   49.437    0.418    0.253  400.616
  291.250   48.873    0.417    0.256  393.384
  291.500   48.309    0.414    0.261  372.158
  291.750   47.168    0.412    0.264  358.992
  292.000   47.210    0.412    0.267  352.802
  292.250   47.279    0.410    0.269  353.383
  292.500   47.335    0.410    0.271  360.916
  292.750   46.771    0.410    0.272  368.156
  293.000   46.827    0.410    0.272  390.598
  293.250   46.896    0.411    0.270  414.067
  293.500   46.346    0.411    0.268  430.845
  293.750   45.796    0.411    0.263  448.488
  294.000   45.838    0.412    0.261  449.412
  294.250   45.302    0.412    0.258  441.299
  294.500   44.752    0.413    0.254  425.512
  294.750   44.808    0.414    0.252  426.388
  295.000   44.258    0.415    0.249  435.299
  295.250   44.300    0.415    0.250  452.938
  295.500   43.764    0.415    0.251  453.684
  295.750   43.805    0.412    0.252  463.356
  296.000   42.664    0.409    0.252  464.119
  296.250   41.509    0.407    0.254  464.883
  296.500   39.762    0.407    0.253  439.980
  296.750   38.579    0.412    0.255  432.038
  297.000   37.452    0.417    0.254  416.582
  297.250   38.085    0.421    0.257  409.399
  297.500   41.195    0.428    0.257  402.506
  297.750   43.038    0.429    0.257  403.003
  298.000   44.319    0.430    0.256  403.999
  298.250   43.177    0.428    0.256  404.331
  298.500   43.824    0.428    0.256  404.997
  298.750   45.090    0.428    0.257  405.664
  299.000   47.581    0.429    0.257  406.332
  299.250   50.072    0.430    0.255  407.001
  299.500   51.310    0.433    0.250  363.665
  299.750   54.998    0.431    0.241  306.904
  300.000   59.290    0.424    0.236  183.780
  300.250   65.413    0.394    0.223   98.212
  300.500   72.141    0.341    0.202   78.249
  300.750   75.814    0.331    0.179   66.063
  301.000   78.305    0.352    0.169   61.320
  301.250   77.741    0.366    0.162   56.917
  301.500   73.573    0.375    0.159   53.846
  301.750   68.167    0.395    0.160   52.940
  302.000   61.564    0.423    0.164   52.983
  302.250   56.791    0.468    0.162   53.070
  302.500   55.608    0.438    0.157   54.179
  302.750   53.242    0.372    0.147   58.587
  303.000   48.455    0.366    0.143   67.022
  303.250   45.484    0.365    0.151  104.058
  303.500   41.908    0.355    0.162  195.442
  303.750   38.937    0.329    0.175  250.737
  304.000   37.176    0.319    0.186  271.134
  304.250   36.640    0.305    0.199  266.459
  304.500   37.301    0.311    0.215  261.973
  304.750   39.792    0.342    0.225  252.393
  305.000   41.030    0.352    0.235  229.853
  305.250   43.507    0.369    0.241  201.506
  305.500   44.773    0.373    0.248  180.124
  305.750   43.013    0.380    0.252  180.495
  306.000   41.252    0.387    0.254  187.732
  306.250   40.111    0.398    0.256  218.887
  306.500   39.561    0.401    0.257  291.953
  306.750   38.997    0.391    0.259  333.985
  307.000   39.053    0.392    0.258  367.944
  307.250   39.741    0.396    0.258  421.089
  307.500   39.769    0.405    0.257  472.822
  307.750   41.063    0.416    0.256  530.911
  308.000   42.329    0.413    0.253  492.791
  308.250   42.976    0.405    0.248  312.566
  308.500   43.651    0.388    0.243  148.943
  308.750   44.312    0.376    0.238   69.635
  309.000   44.986    0.369    0.237   26.405
  309.250   45.633    0.398    0.238   25.950
  309.500   45.689    0.401    0.239   28.049
  309.750   44.534    0.421    0.240   30.901
  310.000   42.168    0.413    0.240   39.660
  310.250   41.013    0.403    0.239   63.940
  310.500   39.858    0.388    0.237  233.928
  310.750   38.688    0.382    0.235  377.139
  311.000   36.928    0.378    0.233  553.042
  311.250   35.168    0.375    0.229  657.485
  311.500   34.618    0.371    0.227  738.564
  311.750   34.068    0.368    0.224  754.000
  312.000   35.348    0.368    0.225  713.315
  312.250   36.600    0.375    0.228  687.513
  312.500   37.866    0.402    0.229  614.309
  312.750   36.725    0.406    0.229  528.391
  313.000   34.978    0.403    0.225  454.491
  313.250   34.415    0.395    0.221  455.239
  313.500   34.470    0.386    0.217  473.686
  313.750   34.540    0.378    0.209  563.143
  314.000   35.173    0.370    0.195  644.747
  314.250   36.453    0.360    0.185  587.169
  314.500   37.719    0.353    0.185  534.513
  314.750   38.366    0.362    0.190  468.786
  315.000   40.251    0.367    0.195  426.746
  315.250   41.504    0.369    0.192  381.307
  315.500   43.994    0.371    0.189  309.770
  315.750   46.485    0.375    0.184  211.940
  316.000   50.778    0.377    0.182   95.425
  316.250   53.846    0.383    0.177   83.657
  316.500   57.533    0.388    0.174   79.110
  316.750   60.615    0.394    0.172   74.873
  317.000   55.237    0.398    0.190   73.551
  317.250   48.015    0.404    0.223   73.703
