~VERSION INFORMATION
 VERS.                 2.0:   CWLS LOG ASCII STANDARD -VERSION 2.0
 WRAP.                  NO:   ONE LINE PER DEPTH STEP
~WELL INFORMATION BLOCK
#MNEM.UNIT           DATA                    DESCRIPTION OF MNEMONIC
#---------    -------------------            -------------------------------
# Generated from Intellog Unique Number	CC_80_83/WELL/2336
NULL.         -999.25                        : NULL_VALUE
WELL.         ARCO ACI MCMURRAY OV           : Well_name    - WELL
LOC .         10-08-081-10W4                 : Location     - LOCATION          
UWI .         AA/10-08-081-10W400            : Uwi          - UNIQUE WELL ID    
ENTR.         JHS                            : Entered      - ENTERED BY        
SRVC.         DRESSER ATLAS                  : Scn          - SERVICE COMPANY   
DATE.         10 FEB 76                      : Date         - LOG DATE
STRT.M        243.84                         : top_depth    - START DEPTH       
STOP.M        502.928                        : bot_depth    - STOP DEPTH        
STEP.M        0.305                          : increment    - STEP LENGTH       
~CURVE INFORMATION BLOCK
#MNEM UNIT       ERCB CURVE CODE    CURVE DESCRIPTION
#-----------   ------------------   ----------------------------------
DEPT.M        00 001 00 00         : DEPTH        - DEPTH                       
NPHI.V/V      00 330 00 00         : PHIN         - NEUTRON POROSITY (LIMESTONE)
GR  .API      00 310 00 00         : GR           - GAMMA RAY                   
ILD .OHMM     00 120 00 00         : RESD         - DEEP RESISTIVITY (DIL)      
~PARAMETER INFORMATION       
#MNEM.UNIT           DATA             DESCRIPTION OF MNEMONIC
#---------         -----------     ------------------------------
GL  .M        705.307              : gl           - GROUND LEVEL ELEVATION      
EREF.M        708.355              : kb           - ELEVATION OF DEPTH REFERENCE
DATM.M        708.355              : datum        - DATUM ELEVATION             
TDD .M        502.92               : tdd          - TOTAL DEPTH DRILLER         
RUN .         ONE                  : Run          - RUN NUMBER                  
ENG .         BILL                 : Engineer     - RECORDING ENGINEER          
WIT .         JIM                  : Witness      - WITNESSED BY                
MUD .         GEL                  : Mud_type     - MUD TYPE                    
MATR.         LIMESTONE            : Logunit      - NEUTRON MATRIX              
TMAX.C        23.3333              : BHT          - MAXIMUM RECORDED TEMPERATURE
BHTD.M        502.92               : BHTDEP       - MAXIMUM RECORDED TEMPERATURE
MATR.         1                    : LOGUNIT      - NEUTRON MATRIX              
RMT .C        25                   : MDTP         - TEMPERATURE OF MUD          
NEUT.         1                    : NEUTRON      - NEUTRON TYPE                
RESI.         0                    : RESIST       - RESISTIVITY TYPE            
RMC .OHMM     0.25                 : RMC          - RESISTIVITY OF MUD CAKE     
RMF .OHMM     0.25                 : RMF          - RESISTIVITY OF MUD FILTRATE 
SUFT.C        15                   : SUFT         - SURFACE TEMPERATURE         
~A  DEPTH     PHIN       GR     RESD
# ...
  309.983    0.348   80.849   13.790
  310.288    0.346   80.211   14.048
  310.593    0.347   80.174   14.311
  310.897    0.348   81.915   14.313
  311.202    0.348   80.680   14.053
  311.507    0.341   81.829   13.546
  311.812    0.334   85.959   13.058
  312.117    0.335   88.889   12.358
  312.422    0.340   91.831   11.272
  312.726    0.353   90.588   10.473
  313.031    0.381   89.958    9.910
  313.336    0.405   91.109    9.208
  313.641    0.412   95.232    9.041
  313.946    0.404   96.979    9.210
  314.250    0.388   96.932    9.915
  314.555    0.385   93.319   11.922
  314.860    0.380   87.927   14.873
  315.165    0.373   83.715   15.434
  315.470    0.371   87.841   14.877
  315.774    0.369   87.205   13.570
  316.079    0.367   85.969   11.930
  316.384    0.362   91.882   10.488
  316.689    0.360   97.793    9.925
  316.994    0.375   98.346   10.111
  317.298    0.402   94.136   10.885
  317.603    0.406   85.760   12.385
  317.908    0.405   85.129   12.851
  318.213    0.399   84.488   12.388
  318.518    0.400   87.426   11.510
  318.823    0.400   93.930   10.892
  319.127    0.397   93.293    9.935
  319.432    0.393   90.279    9.062
  319.737    0.391   91.421    8.576
  320.042    0.393   93.169    8.577
  320.347    0.398   99.678    8.737
  320.651    0.398   94.872    9.581
  320.956    0.395   89.476   11.521
  321.261    0.397   87.051   12.869
  321.566    0.407   81.649   14.112
  321.871    0.411   73.876   16.056
  322.175    0.413   63.120   18.608
  322.480    0.413   62.478   20.405
  322.785    0.420   58.862   21.567
  323.090    0.425   58.228   21.971
  323.395    0.416   58.788   21.573
  323.699    0.404   59.933   21.182
  324.004    0.407   59.889   20.797
  324.309    0.418   62.822   20.800
  324.614    0.422   63.371   20.423
  324.919    0.423   63.931   20.426
  325.224    0.421   63.296   20.428
  325.528    0.411   60.873   20.430
  325.833    0.409   60.834   20.813
  326.138    0.409   60.788   20.816
  326.443    0.405   60.155   20.438
  326.748    0.405   59.515   20.820
  327.052    0.404   61.261   21.210
  327.357    0.390   60.027   21.607
  327.662    0.389   59.989   21.611
  327.967    0.389   59.947   21.218
  328.272    0.392   58.712   21.221
  328.576    0.390   62.244   20.456
  328.881    0.385   61.014   20.084
  329.186    0.381   57.995   20.088
  329.491    0.383   57.352   19.723
  329.796    0.390   56.126   19.725
  330.100    0.397   56.077   19.727
  330.405    0.406   56.640   19.730
  330.710    0.408   56.002   20.100
  331.015    0.402   54.766   20.102
  331.320    0.402   52.937   20.478
  331.625    0.405   52.302   20.481
  331.929    0.404   51.657   20.483
  332.234    0.399   52.813   20.867
  332.539    0.392   54.560   20.489
  332.844    0.398   55.100   20.491
  333.149    0.406   55.071   20.119
  333.453    0.410   55.026   19.754
  333.758    0.404   56.180   19.396
  334.063    0.405   56.135   19.398
  334.368    0.407   55.503   19.401
  334.673    0.403   56.647   19.404
  334.977    0.396   56.606   19.767
  335.282    0.391   55.971   19.769
  335.587    0.390   55.331   20.139
  335.892    0.392   55.286   20.142
  336.197    0.390   55.843   20.144
  336.501    0.401   55.206   20.147
  336.806    0.414   55.171   19.781
  337.111    0.417   54.528   19.783
  337.416    0.413   55.085   19.425
  337.721    0.404   53.256   19.427
  338.026    0.393   50.244   19.075
  338.330    0.387   51.980   19.078
  338.635    0.384   54.915   19.434
  338.940    0.374   55.466   20.541
  339.245    0.349   54.240   21.314
  339.550    0.298   53.009   20.546
  339.854    0.265   52.956   19.805
  340.159    0.369   53.522   18.743
  340.464    0.404   57.046   17.738
  340.769    0.408   61.169   18.070
  341.074    0.408   63.510   18.071
  341.378    0.403   64.064   19.456
  341.683    0.388   61.644   20.188
  341.988    0.363   59.814   22.139
  342.293    0.342   57.993   22.553
  342.598    0.297   53.183   21.740
  342.902    0.301   54.339   20.199
  343.207    0.384   54.891   19.470
  343.512    0.385   50.675   19.118
  343.817    0.383   46.475   19.119
  344.122    0.382   42.270   19.121
  344.427    0.377   42.223   19.480
  344.731    0.382   38.614   20.214
  345.036    0.384   40.348   20.216
  345.341    0.388   41.501   20.594
  345.646    0.401   42.054   20.596
  345.951    0.403   42.015   20.599
  346.255    0.392   43.157   20.602
  346.560    0.375   45.497   20.229
  346.865    0.377   46.052   20.231
  347.170    0.387   46.604   20.233
  347.475    0.397   47.763   20.236
  347.779    0.401   52.480   20.238
  348.084    0.400   51.251   19.871
  348.389    0.395   49.417   19.873
  348.694    0.390   48.189   20.246
  348.999    0.393   49.331   20.248
  349.303    0.396   49.886   19.881
  349.608    0.394   49.247   19.883
  349.913    0.399   49.213   19.886
  350.218    0.406   50.959   19.525
  350.523    0.409   52.698   19.528
  350.828    0.406   51.468   19.893
  351.132    0.398   49.637   20.265
  351.437    0.389   49.596   20.644
  351.742    0.390   49.550   21.031
  352.047    0.398   49.514   20.650
  352.352    0.403   50.073   19.542
  352.656    0.404   53.598   17.180
  352.961    0.406   56.534   14.827
  353.266    0.414   58.280   11.249
  353.571    0.424   60.623    6.594
  353.876    0.441   66.531    6.241
  354.180    0.441   74.227    6.016
  354.485    0.444   78.354    6.358
  354.790    0.447   75.332    7.102
  355.095    0.434   71.717    8.540
  355.400    0.408   67.513   10.268
  355.704    0.400   62.702   12.810
  356.009    0.396   62.666   14.575
  356.314    0.395   66.785   15.123
  356.619    0.401   65.560   15.693
  356.924    0.406   62.543   15.695
  357.229    0.410   60.114   15.129
  357.533    0.412   60.071   14.855
  357.838    0.412   61.821   15.133
  358.143    0.405   61.781   15.135
  358.448    0.398   61.144   14.589
  358.753    0.394   59.317   13.806
  359.057    0.397   60.462   13.066
  359.362    0.404   62.802   12.595
  359.667    0.407   62.760   12.596
  359.972    0.410   62.716   11.703
  360.277    0.410   65.060   10.101
  360.581    0.405   68.587    8.880
  360.886    0.402   69.738    6.990
  361.191    0.402   73.862    6.145
  361.496    0.412   80.372    5.709
  361.801    0.431   85.682    5.710
  362.105    0.437   85.647    5.925
  362.410    0.424   83.224    6.866
  362.715    0.415   80.206    7.392
  363.020    0.413   77.781    7.393
  363.325    0.414   78.927    7.672
  363.630    0.419   77.105    8.259
  363.934    0.419   78.849    9.057
  364.239    0.415   78.804    9.751
  364.544    0.415   72.220    9.752
  364.849    0.417   70.386    9.575
  365.154    0.411   67.372    9.062
  365.458    0.409   70.308    8.419
  365.763    0.410   71.448    7.539
  366.068    0.416   73.787    6.877
  366.373    0.424   77.323    6.158
  366.678    0.434   82.640    5.721
  366.982    0.445   87.361    5.123
  367.287    0.455   89.092    4.504
  367.592    0.448   89.657    3.611
  367.897    0.455   90.210    3.004
  368.202    0.478   91.950    2.453
  368.507    0.497   94.297    2.279
  368.811    0.508   99.014    2.322
  369.116    0.514  103.141    2.454
  369.421    0.522  104.883    2.897
  369.726    0.522  100.081    3.177
  370.031    0.517   98.850    3.177
  370.335    0.507  100.591    2.952
  370.640    0.496   96.978    3.007
  370.945    0.512   99.317    3.179
  371.250    0.515   99.872    3.486
  371.555    0.513   95.067    3.966
  371.859    0.511   95.030    4.768
  372.164    0.505   92.607    5.425
  372.469    0.497   88.399    6.060
  372.774    0.485   85.379    6.405
  373.079    0.473   85.936    6.525
  373.383    0.451   87.676    6.290
  373.688    0.439   86.441    5.737
  373.993    0.441   87.594    5.738
  374.298    0.456   89.340    5.954
  374.603    0.470   86.918    6.065
  374.908    0.461   85.676    5.635
  375.212    0.428   86.823    5.333
  375.517    0.436   90.959    4.776
  375.822    0.478   96.871    4.603
