~VERSION INFORMATION
 VERS.                 2.0:   CWLS LOG ASCII STANDARD -VERSION 2.0
 WRAP.                  NO:   ONE LINE PER DEPTH STEP
~WELL INFORMATION BLOCK
#MNEM.UNIT           DATA                    DESCRIPTION OF MNEMONIC
#---------    -------------------            -------------------------------
# Generated from Intellog Unique Number	CC_84_87/WELL/2325
NULL.         -999.25                        : NULL_VALUE
WELL.         ARCO ACI MCMURAY               : Well_name    - WELL
LOC .         11-11-085-09W4                 : Location     - LOCATION          
UWI .         AA/11-11-085-09W400            : Uwi          - UNIQUE WELL ID    
ENTR.         DW                             : Entered      - ENTERED BY        
SRVC.         SCHLUMBERGER                   : Scn          - SERVICE COMPANY   
DATE.         01 JAN 76                      : Date         - LOG DATE
STRT.M        259.08                         : top_depth    - START DEPTH       
STOP.M        499.88                         : bot_depth    - STOP DEPTH        
STEP.M        0.305                          : increment    - STEP LENGTH       
~CURVE INFORMATION BLOCK
#MNEM UNIT       ERCB CURVE CODE    CURVE DESCRIPTION
#-----------   ------------------   ----------------------------------
DEPT.M        00 001 00 00         : DEPTH        - DEPTH                       
ILD .OHMM     00 120 00 00         : RESD         - DEEP RESISTIVITY (DIL)      
DPHI.V/V      00 890 00 00         : PHID         - DENSITY POROSITY (LIMESTONE)
NPHI.V/V      00 330 00 00         : PHIN         - NEUTRON POROSITY (LIMESTONE)
GR  .API      00 310 00 00         : GR           - GAMMA RAY                   
~PARAMETER INFORMATION       
#MNEM.UNIT           DATA             DESCRIPTION OF MNEMONIC
#---------         -----------     ------------------------------
GL  .M        735.482              : gl           - GROUND LEVEL ELEVATION      
EREF.M        738.226              : kb           - ELEVATION OF DEPTH REFERENCE
DATM.M        738.226              : datum        - DATUM ELEVATION             
TDD .M        502.615              : tdd          - TOTAL DEPTH DRILLER         
RUN .         ONE                  : Run          - RUN NUMBER                  
ENG .         BILL                 : Engineer     - RECORDING ENGINEER          
WIT .         JIM                  : Witness      - WITNESSED BY                
MUD .         GEL                  : Mud_type     - MUD TYPE                    
MATR.         LIMESTONE            : Logunit      - NEUTRON MATRIX              
TMAX.C        24.4444              : BHT          - MAXIMUM RECORDED TEMPERATURE
BHTD.M        502.31               : BHTDEP       - MAXIMUM RECORDED TEMPERATURE
MATR.         1                    : LOGUNIT      - NEUTRON MATRIX              
RMT .C        25                   : MDTP         - TEMPERATURE OF MUD          
NEUT.         1                    : NEUTRON      - NEUTRON TYPE                
RESI.         0                    : RESIST       - RESISTIVITY TYPE            
RMC .OHMM     0.25                 : RMC          - RESISTIVITY OF MUD CAKE     
RMF .OHMM     0.25                 : RMF          - RESISTIVITY OF MUD FILTRATE 
SUFT.C        15                   : SUFT         - SURFACE TEMPERATURE         
~A  DEPTH     RESD     PHID     PHIN       GR
# ...
  365.154   11.026    0.238    0.465  109.776
  365.459   10.826    0.236    0.519  106.122
  365.763   10.242    0.255    0.522  102.474
  366.068    9.510    0.236    0.499  106.096
  366.373    8.998    0.224    0.485  106.691
  366.678    8.834    0.246    0.480  103.042
  366.983    8.836    0.255    0.504   97.572
  367.287    9.003    0.264    0.481   93.925
  367.592    9.005    0.247    0.463   90.883
  367.897    8.678    0.247    0.468   98.140
  368.202    8.364    0.253    0.498   96.309
  368.507    7.767    0.269    0.516   96.296
  368.811    7.213    0.271    0.507  102.342
  369.116    6.697    0.264    0.510  105.966
  369.421    6.219    0.259    0.503  102.922
  369.726    5.775    0.246    0.500  105.938
  370.031    4.887    0.254    0.492  112.594
  370.335    4.293    0.242    0.470  122.882
  370.640    4.539    0.235    0.471  117.415
  370.945    5.570    0.233    0.515  111.340
  371.250    6.962    0.254    0.537  114.963
  371.555    8.542    0.254    0.526  117.981
  371.860   11.289    0.245    0.533  115.543
  372.164   11.719    0.247    0.553  111.289
  372.469   11.294    0.263    0.569  105.819
  372.774   10.294    0.275    0.553  102.172
  373.079    9.739    0.280    0.533   92.462
  373.384    8.714    0.289    0.521   86.387
  373.688    7.512    0.302    0.508   84.558
  373.993    6.721    0.308    0.470   88.785
  374.298    5.481    0.297    0.467   97.862
  374.603    4.073    0.188    0.477  110.575
  374.908    3.321    0.206    0.496  119.651
  375.212    3.260    0.245    0.520  118.427
  375.517    3.448    0.278    0.511  111.142
  375.822    3.646    0.279    0.512  119.614
  376.127    3.324    0.256    0.524  133.537
  376.432    3.324    0.244    0.586  122.616
  376.736    3.516    0.254    0.596  128.056
  377.041    3.718    0.251    0.591  129.256
  377.346    4.395    0.277    0.586  121.970
  377.651    5.393    0.254    0.562  118.924
  377.956    6.030    0.250    0.549  124.363
  378.261    6.619    0.256    0.580  127.384
  378.565    6.379    0.260    0.582  124.947
  378.870    6.035    0.261    0.594  117.055
  379.175    5.925    0.260    0.581  111.584
  379.480    6.383    0.258    0.555  110.361
  379.785    6.877    0.267    0.559  112.772
  380.089    6.879    0.249    0.531  115.791
  380.394    7.009    0.272    0.510  115.777
  380.699    7.412    0.282    0.499  111.522
  381.004    8.602    0.258    0.497  105.449
  381.309   11.368    0.253    0.522   98.769
  381.613   19.127    0.270    0.538   89.060
  381.918   21.386    0.276    0.506   90.863
  382.223   17.765    0.281    0.489   95.092
  382.528   12.720    0.276    0.507   86.597
  382.833   11.812    0.192    0.497   73.250
  383.137   11.814    0.019    0.451   73.237
  383.442   14.496    0.069    0.297   81.710
  383.747   18.458    0.105    0.358   95.028
  384.052   25.792    0.214    0.399  113.196
  384.357   27.277    0.303    0.469  109.545
  384.662   23.515    0.314    0.480  102.258
  384.966   17.801    0.309    0.478   95.581
  385.271   13.986    0.058    0.454   68.297
  385.576   13.231    0.009    0.401   56.163
  385.881   15.935    0.093    0.195   58.573
  386.186   19.552    0.213    0.227   71.894
  386.490   19.922    0.309    0.371  113.090
  386.795   17.176    0.314    0.459  137.317
  387.100   15.368    0.302    0.490  133.668
  387.405   13.498    0.255    0.510   97.294
  387.710   12.769    0.152    0.437   76.070
  388.014   12.080    0.269    0.341   65.754
  388.319   11.860    0.331    0.345   77.253
  388.624   12.086    0.328    0.473   83.301
  388.929   12.314    0.325    0.498   80.861
  389.234   12.547    0.324    0.490   78.427
  389.538   12.319    0.323    0.486   76.595
  389.843   13.028    0.320    0.494   80.217
  390.148   14.841    0.318    0.489   84.445
  390.453   17.874    0.317    0.484   80.798
  390.758   21.527    0.315    0.475   75.932
  391.063   22.347    0.313    0.483   75.919
  391.367   21.536    0.307    0.471   77.724
  391.672   20.376    0.294    0.481   78.320
  391.977   19.274    0.266    0.505   74.060
  392.282   16.310    0.164    0.497   72.232
  392.587   11.897    0.203    0.448   79.492
  392.891   11.466    0.288    0.373   81.297
  393.196   11.469    0.338    0.475   79.466
  393.501   11.906    0.340    0.498   78.240
  393.806   12.132    0.315    0.490   79.436
  394.111   12.134    0.295    0.469   81.243
  394.415   11.913    0.294    0.471   83.050
  394.720   11.696    0.304    0.480   80.611
  395.025   11.065    0.310    0.485   74.538
  395.330   10.086    0.312    0.475   75.129
  395.635    8.535    0.315    0.475   79.358
  395.939    7.358    0.317    0.458   79.952
  396.244    7.225    0.322    0.462   82.971
  396.549    8.078    0.326    0.472   79.928
  396.854    9.912    0.322    0.478   87.788
  397.159   11.082    0.291    0.480   92.019
  397.464   11.294    0.274    0.481   94.432
  397.768   10.683    0.242    0.466   92.599
  398.073    9.210    0.031    0.450   81.679
  398.378    7.940    0.000    0.463   61.062
  398.683    7.512    0.057    0.236   63.472
  398.988    7.514    0.189    0.278   79.215
  399.292    7.377    0.255    0.348   97.383
  399.597    6.600    0.249    0.460  100.397
  399.902    5.283    0.230    0.478  108.264
  400.207    5.092    0.272    0.514  107.645
  400.512    5.188    0.274    0.499  105.205
  400.816    5.590    0.250    0.454  104.588
  401.121    6.022    0.234    0.464  112.450
  401.426    6.609    0.245    0.490  116.075
  401.731    7.121    0.256    0.532  110.609
  402.036    7.816    0.271    0.552   99.688
  402.340    8.113    0.275    0.524   98.462
  402.645    8.580    0.277    0.501  100.873
  402.950    8.743    0.256    0.510  101.466
  403.255    8.583    0.234    0.531  100.845
  403.560    7.971    0.194    0.518   96.591
  403.865    7.265    0.189    0.484   94.756
  404.169    6.501    0.209    0.446  107.472
  404.474    6.383    0.225    0.452  113.520
  404.779    5.711    0.230    0.509  114.112
  405.084    5.016    0.231    0.523  114.096
  405.389    4.488    0.227    0.514  117.115
  405.693    4.091    0.224    0.494  117.101
  405.998    3.870    0.230    0.483  116.484
  406.303    3.462    0.235    0.490  120.711
  406.608    3.041    0.244    0.497  123.124
  406.913    2.931    0.243    0.504  117.047
  407.217    2.986    0.241    0.535  120.067
  407.522    3.278    0.243    0.561  123.687
  407.827    3.598    0.261    0.575  128.523
  408.132    4.414    0.259    0.599  132.750
  408.437    5.122    0.249    0.615  131.524
  408.741    5.519    0.266    0.614  129.090
  409.046    5.623    0.259    0.599  125.440
  409.351    5.730    0.196    0.571  119.969
  409.656    6.173    0.214    0.519  120.564
  409.961    6.651    0.239    0.478  123.582
  410.266    7.300    0.231    0.489  123.569
  410.570    7.302    0.220    0.496  120.525
  410.875    7.441    0.222    0.507  118.089
  411.180    7.869    0.234    0.511  112.015
  411.485    8.637    0.239    0.475  121.094
  411.790    9.133    0.236    0.484  128.350
  412.094   10.404    0.218    0.479  128.335
  412.399   11.002    0.221    0.476  126.505
  412.704   11.421    0.234    0.501  124.673
  413.009   11.007    0.233    0.468  119.208
  413.314   10.609    0.222    0.442  113.136
  413.618   10.415    0.182    0.442  112.516
  413.923    9.148    0.161    0.423  120.380
  414.228    9.321    0.202    0.396  124.608
  414.533    7.742    0.230    0.442  122.779
  414.838    6.313    0.228    0.432  120.942
  415.142    6.084    0.226    0.432  119.716
  415.447    6.435    0.217    0.439  119.103
  415.752    6.932    0.201    0.444  119.088
  416.057    8.045    0.217    0.459  122.713
  416.362    8.995    0.215    0.481  128.759
  416.667    9.873    0.223    0.518  129.957
  416.971   10.061    0.233    0.501  123.884
  417.276    9.878    0.242    0.480  117.810
  417.581    9.520    0.249    0.442  111.737
  417.886    9.346    0.267    0.458  111.116
