~Version : LASO    vs 4.00
VERS.                2.00:   CWLS Log ASCII Standard -VERSION 2.0
WRAP.                  NO:
~Well Information Block
#MNEM.UNIT       Data                        Description of Mnemonic
#----.----      -------------------------- : -----------------------------
STRT.M            15.0000:
STOP.M           203.4000:
STEP.M             0.1000:
NULL.           -999.2500:
COMP.  MOBIL OIL CANADA LTD.     :COMPANY
WELL.  MOBIL CLARKE OV 12-34     :WELL
FLD.   CLARKE                    :FIELD
LOC.   12-34-089-08W4            :LOCATION
CTRY.  CANADA                    :COUNTRY
PROV.  ALBERTA                   :PROVINCE
SRVC.  SCHLUMBERGER              :SERVICE COMPANY
DATE.  20-FEB-81                 :LOG DATE
UWI.   AA/12-34-089-08W400       :UNIQUE WELL ID
~Parameter Information Block
#MNEM.UNIT       Data                        Description of Mnemonic
#----.----      -------------------------- : -----------------------------
RUN .                   1                 : Run Number
GL  .M           415.1000                 : Ground Level Elevation
DREF.                  KB                 : Depth Reference
EREF.M           418.1000                 : Elevation of Depth Reference
TDL .M           203.0000                 : Total Depth Logger
TDD .M           200.0000                 : Total Depth Driller
CSGL.M            18.0000                 : Casing Bottom Logger
CSGD.M            15.0000                 : Casing Bottom Driller
CSGS.MM          219.0000                 : Casing Size
CSGW.KG/M          0.0000                 : Casing Weight
BHT .DEGC         12.0000                 : Bottom Hole Temperature
BS  .MM          159.0000                 : Bit Size
DFD .           1110.0000                 : Mud Weight (Density)
DFV .             90.0000                 : Mud Viscosity
DFPH.             10.0000                 : Mud pH
RM  .OHMM          1.9600                 : Mud Resistivity
RMT .DEGC         20.0000                 : Mud Resistivity Temperature
~Curve Information Block
#MNEM.UNIT        API CODE    Curve Description
#---------    ------------    -------------------------------------------
DEPT.M                    :   DEPTH
CALI.MM       42 280  1  1:   3 DENSITY CALIPER
DPHI.V/V                  :   DPHI
DT  .US/M     60 520  0  1:   2 SONIC INTERVAL TRANSIT TIME (COMPENSATED)
GR  .GAPI     42 310  1  1:   4 GAMMA RAY
ILD .OHMM      7 120 46  1:   7 DEEP INDUCTION
ILM .OHMM      7 120 44  1:   8 MEDIUM INDUCTION
NPHI.V/V      42 890  3  1:   5 NEUTRON POROSITY (SANDSTONE)
RHOB.K/M3     42 350  1  1:   6 BULK DENSITY
SFLU.OHMM      7 220  1  1:   9 FOCUSSED RESISTIVITY
SP  .MV        7  10  1  1:   10 SPONTANEOUS POTENTIAL
~A  Depth           CALI        DPHI          DT          GR         ILD         ILM        NPHI        RHOB        SFLU          SP
# ...
51.6000         185.9250      0.3034    529.6400     63.2400     35.8286     35.7956      0.3878   2258.5000     39.1769    -54.5200
51.7000         185.9250      0.3075    521.4000     64.7700     35.8286     35.7956      0.3878   2258.5000     39.1769    -54.5200
51.8000         186.5500      0.2993    519.7600     63.7200     32.8572     32.7363      0.4247   2209.3999     30.6923    -51.8200
51.9000         186.5500      0.2875    540.2800     62.2200     32.8572     32.7363      0.4247   2209.3999     30.6923    -51.8200
52.0000         184.4750      0.2787    532.9200     60.1650     30.9478     30.4951      0.4194   2198.2000     27.9402    -50.3400
52.1000         184.4750      0.2831    528.0000     60.4200     30.9478     30.4951      0.4194   2198.2000     27.9402    -50.3400
52.2000         181.9250      0.2837    531.2400     60.7050     29.0690     28.6438      0.4016   2194.5000     30.2155    -48.5600
52.3000         181.9250      0.2817    526.6400     60.9600     29.0690     28.6438      0.4016   2194.5000     30.2155    -48.5600
52.4000         177.3500      0.2829    529.0400     62.0400     26.0273     24.9247      0.3872   2274.5000     23.6499    -46.2400
52.5000         177.3500      0.2845    527.3200     63.6600     26.0273     24.9247      0.3872   2274.5000     23.6499    -46.2400
52.6000         178.3500      0.2881    525.1200     65.5800     24.8102     23.8029      0.3933   2283.8000     19.6530    -45.5800
52.7000         178.3500      0.2929    523.3600     67.6200     24.8102     23.8029      0.3933   2283.8000     19.6530    -45.5800
52.8000         188.1250      0.2985    534.1200     67.9650     23.9348     22.8997      0.3983   2273.5000     21.0974    -45.5700
52.9000         188.1250      0.2808    538.7600     68.1750     23.9348     22.8997      0.3983   2273.5000     21.0974    -45.5700
53.0000         204.5250      0.2716    533.0800     67.0800     23.4763     22.0308      0.4004   2284.3000     19.6169    -45.4500
53.1000         204.5250      0.2650    526.8000     66.3000     23.4763     22.0308      0.4004   2284.3000     19.6169    -45.4500
53.2000         194.0750      0.2577    528.9200     65.5200     22.9842     21.7085      0.3955   2277.8000     19.5628    -45.4400
53.3000         194.0750      0.2537    531.5600     64.7250     22.9842     21.7085      0.3955   2277.8000     19.5628    -45.4400
53.4000         182.3500      0.2496    533.9600     63.6900     22.9631     21.5889      0.3890   2262.8000     20.5982    -45.4900
53.5000         182.3500      0.2472    527.9600     64.4850     22.9631     21.5889      0.3890   2262.8000     20.5982    -45.4900
53.6000         178.6500      0.2451    526.8400     65.7300     23.0903     21.7686      0.3830   2254.3000     19.5988    -44.7000
53.7000         178.6500      0.2420    526.8000     65.3700     23.0903     21.7686      0.3830   2254.3000     19.5988    -44.7000
53.8000         181.2250      0.2381    523.4800     64.9650     23.1329     21.8288      0.3829   2266.8999     20.9619    -44.3400
53.9000         181.2250      0.2353    518.2800     64.3350     23.1329     21.8288      0.3829   2266.8999     20.9619    -44.3400
54.0000         187.5500      0.2332    511.9200     63.6450     23.2183     21.9296      0.3805   2269.2000     22.2551    -44.0000
54.1000         187.5500      0.2294    506.1200     62.6850     23.2183     21.9296      0.3805   2269.2000     22.2551    -44.0000
54.2000         195.9750      0.2288    519.4800     62.7900     23.3040     22.0714      0.3767   2265.3999     22.5439    -43.7200
54.3000         195.9750      0.2371    524.8000     62.9700     23.3040     22.0714      0.3767   2265.3999     22.5439    -43.7200
54.4000         205.3000      0.2449    526.6801     63.1650     23.3685     22.1733      0.3832   2271.0000     21.1558    -43.8200
54.5000         205.3000      0.2499    527.7600     65.0100     23.3685     22.1733      0.3832   2271.0000     21.1558    -43.8200
54.6000         207.3000      0.2553    529.1200     66.8550     23.3685     22.1325      0.3883   2285.6001     20.6552    -44.3300
54.7000         207.3000      0.2591    531.5600     68.5350     23.3685     22.1325      0.3883   2285.6001     20.6552    -44.3300
54.8000         200.3750      0.2629    533.5200     68.4900     23.3040     21.9902      0.3920   2283.3999     20.1479    -44.5500
54.9000         200.3750      0.2667    535.8800     68.4300     23.3040     21.9902      0.3920   2283.3999     20.1479    -44.5500
55.0000         198.8250      0.2434    533.4400     68.0550     23.2183     21.6885      0.3983   2198.6001     18.9771    -44.2800
55.1000         198.8250      0.2330    521.2800     67.6050     23.2183     21.6885      0.3983   2198.6001     18.9771    -44.2800
55.2000         201.2250      0.2262    520.8000     67.3500     23.0691     21.6885      0.4007   2232.8999     19.5447    -43.7900
55.3000         201.2250      0.2259    516.7200     67.4700     23.0691     21.6885      0.4007   2232.8999     19.5447    -43.7900
55.4000         203.0250      0.2297    517.3200     67.5600     23.0266     21.9700      0.3938   2267.2000     20.5036    -42.9400
55.5000         203.0250      0.2305    523.4000     67.6500     23.0266     21.9700      0.3938   2267.2000     20.5036    -42.9400
55.6000         193.4500      0.2271    526.5600     67.9350     22.5855     22.1325      0.3874   2280.1001     22.0917    -42.8100
55.7000         193.4500      0.2239    526.7200     68.2200     22.5855     22.1325      0.3874   2280.1001     22.0917    -42.8100
55.8000         201.2250      0.2233    499.9200     68.4150     22.3167     22.1121      0.3814   2281.3000     21.6686    -43.6400
55.9000         201.2250      0.2271    437.2000     68.3550     22.3167     22.1121      0.3814   2281.3000     21.6686    -43.6400
56.0000         208.2000      0.2320    383.4400     68.3100     21.9700     22.0308      0.3820   2280.5000     20.5414    -44.3100
56.1000         208.2000      0.2359    501.0400     67.6050     21.9700     22.0308      0.3820   2280.5000     20.5414    -44.3100
56.2000         221.1250      0.2375    506.0000     66.6150     21.4304     21.7285      0.3868   2272.5000     20.4470    -44.3400
56.3000         221.1250      0.2328    514.2800     65.5350     21.4304     21.7285      0.3868   2272.5000     20.4470    -44.3400
56.4000         226.1750      0.2298    509.8000     63.5400     21.3713     21.4897      0.3880   2283.1001     19.8715    -43.9400
56.5000         226.1750      0.2268    507.6800     61.5450     21.3713     21.4897      0.3880   2283.1001     19.8715    -43.9400
56.6000         222.2250      0.2265    506.9200     60.0600     21.5095     21.2927      0.3860   2283.1001     19.7256    -43.5300
56.7000         222.2250      0.2272    507.5600     59.1450     21.5095     21.2927      0.3860   2283.1001     19.7256    -43.5300
56.8000         213.6500      0.2275    510.6800     60.6000     21.3123     20.8463      0.3580   2295.3000     18.8725    -43.2800
56.9000         213.6500      0.2275    513.2000     62.0550     21.3123     20.8463      0.3580   2295.3000     18.8725    -43.2800
57.0000         212.2000      0.2275    514.5600     63.0150     20.9426     20.4659      0.3448   2288.5000     18.5110    -43.5800
57.1000         212.2000      0.2336    515.3200     63.8550     20.9426     20.4659      0.3448   2288.5000     18.5110    -43.5800
57.2000         209.7250      0.2438    514.7600     64.2300     20.7697     20.2782      0.3404   2277.7000     18.4940    -43.0000
57.3000         209.7250      0.2538    513.6400     64.5300     20.7697     20.2782      0.3404   2277.7000     18.4940    -43.0000
57.4000         207.0500      0.2633    510.6800     63.3900     20.6362     20.0738      0.3380   2267.6001     18.6136    -42.7700
57.5000         207.0500      0.2683    508.5600     62.4450     20.6362     20.0738      0.3380   2267.6001     18.6136    -42.7700
57.6000         213.3000      0.2580    506.8800     61.9650     20.0369     19.7256      0.3481   2245.3999     17.9238    -43.2100
