~VERSION INFORMATION
 VERS.                 2.0:   CWLS LOG ASCII STANDARD -VERSION 2.0
 WRAP.                  NO:   ONE LINE PER DEPTH STEP
~WELL INFORMATION BLOCK
#MNEM.UNIT           DATA                    DESCRIPTION OF MNEMONIC
#---------    -------------------            -------------------------------
# Generated from Intellog Unique Number	CN_94_101/WELL/5024
WELL.         TEXACO                         : Well_name    - WELL
LOC .         AA/11-29-100-12W4/0            : Location     - LOCATION
UWI .         AA/11-29-100-12W400            : Uwi          - UNIQUE WELL ID
ENTR.         TIM                            : Entered      - ENTERED BY
SRVC.         SCHLUMBERGER                   : Scn          - SERVICE COMPANY
DATE.         08/13/92                       : Date         - LOG DATE
STRT.M        325                            : top_depth    - START DEPTH
STOP.M        575                            : bot_depth    - STOP DEPTH
STEP.M        0.25                           : increment    - STEP LENGTH
 NULL. -999.2500:NULL Value
~CURVE INFORMATION BLOCK
#MNEM UNIT       ERCB CURVE CODE    CURVE DESCRIPTION
#-----------   ------------------   ----------------------------------
DEPT.M        00 001 00 00         : DEPTH        - DEPTH
GR  .API      00 310 00 00         : GR           - GAMMA RAY
ILD .OHMM     00 120 00 00         : RESD         - DEEP RESISTIVITY (DIL)
NPHI.V/V      00 330 00 00         : PHIN         - NEUTRON POROSITY (SANDSTONE)
DPHI.V/V      00 890 00 00         : PHID         - DENSITY POROSITY (SANDSTONE)
~PARAMETER INFORMATION
#MNEM.UNIT           DATA             DESCRIPTION OF MNEMONIC
#---------         -----------     ------------------------------
GL  .M        776.4                : gl           - GROUND LEVEL ELEVATION
EREF.M        779.8                : kb           - ELEVATION OF DEPTH REFERENCE
DATM.M        779.8                : datum        - DATUM ELEVATION
TDD .M        634                  : tdd          - TOTAL DEPTH DRILLER
RUN .         ONE                  : Run          - RUN NUMBER
ENG .         BILL                 : Engineer     - RECORDING ENGINEER
WIT .         JIM                  : Witness      - WITNESSED BY
MUD .         GEL                  : Mud_type     - MUD TYPE
MATR.         SANDSTONE            : Logunit      - NEUTRON MATRIX
TMAX.C        28                   : BHT          - MAXIMUM RECORDED TEMPERATURE
BHTD.M        57634                : BHTDEP       - MAXIMUM RECORDED TEMPERATURE
RMT .C        25                   : MDTP         - TEMPERATURE OF MUD
MUDD.KG/M     1090                 : MWT          - MUD DENSITY
NEUT.         1                    : NEUTRON      - NEUTRON TYPE
RESI.         0                    : RESIST       - RESISTIVITY TYPE
RM  .OHMM     4.6                  : RM           - RESISTIVITY OF MUD
RMC .OHMM     4.6                  : RMC          - RESISTIVITY OF MUD CAKE
RMF .OHMM     4.6                  : RMF          - RESISTIVITY OF MUD FILTRATE
SUFT.C        4                    : SUFT         - SURFACE TEMPERATURE
~A  DEPTH       GR     RESD     PHIN     PHID
# ...
  368.500  115.441    5.484    0.464    0.285
  368.750  116.666    5.372    0.463    0.270
  369.000  117.891    5.262    0.463    0.276
  369.250  119.116    5.147    0.463    0.284
  369.500  120.328    5.143    0.468    0.288
  369.750  120.915    5.133    0.475    0.292
  370.000  118.938    5.126    0.479    0.295
  370.250  118.275    4.923    0.483    0.301
  370.500  116.935    4.725    0.482    0.304
  370.750  116.885    4.626    0.481    0.306
  371.000  116.821    4.526    0.478    0.308
  371.250  116.796    4.435    0.476    0.308
  371.500  116.732    4.426    0.475    0.305
  371.750  116.681    4.421    0.475    0.300
  372.000  117.268    4.412    0.474    0.297
  372.250  117.843    4.406    0.474    0.294
  372.500  117.167    4.480    0.472    0.291
  372.750  117.103    4.562    0.471    0.285
  373.000  117.677    4.648    0.471    0.283
  373.250  118.928    4.821    0.470    0.280
  373.500  122.679    4.912    0.474    0.291
  373.750  123.916    4.805    0.477    0.293
  374.000  125.154    4.707    0.499    0.294
  374.250  125.741    4.431    0.503    0.287
  374.500  127.579    4.256    0.510    0.271
  374.750  128.829    4.005    0.518    0.262
  375.000  130.692    3.849    0.520    0.255
  375.250  133.180    3.694    0.522    0.265
  375.500  134.405    3.687    0.527    0.275
  375.750  135.617    3.682    0.529    0.280
  376.000  136.867    3.678    0.531    0.271
  376.250  136.816    3.742    0.535    0.273
  376.500  134.201    3.738    0.537    0.280
  376.750  132.250    3.803    0.537    0.305
  377.000  127.058    3.723    0.536    0.314
  377.250  126.382    3.643    0.526    0.324
  377.500  125.706    3.640    0.521    0.324
  377.750  123.728    3.633    0.515    0.322
  378.000  120.488    3.771    0.510    0.317
  378.250  115.985    4.233    0.502    0.312
  378.500  106.991    5.338    0.494    0.306
  378.750   99.285    7.001    0.410    0.302
  379.000   88.390    9.179    0.387    0.305
  379.250   78.758   10.101    0.378    0.309
  379.500   71.053   10.080    0.378    0.315
  379.750   66.524   10.063    0.391    0.321
  380.000   66.473   10.047    0.407    0.324
  380.250   66.435   10.030    0.413    0.326
  380.500   67.022   10.018    0.417    0.326
  380.750   67.609    9.994    0.413    0.325
  381.000   70.097    9.981    0.411    0.329
  381.250   73.886    9.773    0.406    0.335
  381.500   78.301    9.757    0.404    0.339
  381.750   82.077    9.553    0.404    0.335
  382.000   85.854    9.350    0.404    0.326
  382.250   91.531    9.155    0.403    0.318
  382.500   95.320    8.787    0.403    0.297
  382.750  102.286    8.441    0.405    0.275
  383.000  103.511    8.268    0.408    0.268
  383.250  104.736    8.092    0.409    0.270
  383.500  106.586    7.923    0.412    0.270
  383.750  106.536    7.605    0.413    0.269
  384.000  106.498    7.447    0.417    0.262
  384.250  106.434    7.294    0.417    0.259
  384.500  106.370    7.004    0.417    0.257
  384.750  106.345    6.855    0.416    0.263
  385.000  105.644    6.844    0.416    0.268
  385.250  104.317    6.835    0.420    0.275
  385.500  102.340    6.955    0.425    0.278
  385.750   99.737    6.944    0.429    0.274
  386.000   97.135    6.933    0.430    0.261
  386.250   96.446    6.924    0.426    0.250
  386.500   96.395    7.049    0.424    0.255
  386.750   96.983    7.311    0.423    0.263
  387.000   95.656    7.591    0.423    0.273
  387.250   94.342    7.873    0.425    0.284
  387.500   92.377    8.018    0.426    0.295
  387.750   91.051    8.008    0.423    0.303
  388.000   94.827    7.992    0.416    0.297
  388.250  100.505    7.982    0.415    0.289
  388.500   99.816    7.963    0.417    0.289
  388.750   97.852    7.803    0.421    0.291
  389.000   93.973    7.634    0.424    0.291
  389.250   90.733    7.627    0.427    0.290
  389.500   88.756    7.758    0.427    0.289
  389.750   88.080    7.752    0.423    0.294
  390.000   86.753    7.736    0.414    0.295
  390.250   88.603    7.723    0.410    0.295
  390.500   91.755    7.711    0.412    0.294
  390.750   95.531    7.698    0.417    0.290
  391.000   98.019    7.534    0.422    0.290
  391.250   99.869    7.377    0.424    0.290
  391.500  101.120    7.226    0.431    0.289
  391.750  102.332    7.214    0.436    0.289
  392.000  103.557    7.060    0.443    0.284
  392.250  106.058    6.916    0.448    0.281
  392.500  106.632    6.766    0.447    0.277
  392.750  105.969    6.627    0.446    0.280
  393.000  104.004    6.492    0.447    0.286
  393.250  103.303    6.351    0.447    0.291
  393.500  103.252    6.346    0.446    0.296
  393.750  103.188    6.454    0.439    0.300
  394.000  101.874    6.447    0.435    0.306
  394.250  100.548    6.560    0.433    0.306
  394.500   99.221    6.552    0.437    0.295
  394.750  100.446    6.415    0.440    0.289
  395.000  104.223    6.157    0.447    0.284
  395.250  108.637    6.150    0.448    0.281
  395.500  113.677    6.019    0.448    0.282
  395.750  112.988    6.012    0.445    0.283
  396.000  111.674    5.999    0.442    0.282
  396.250  107.770    6.107    0.440    0.286
  396.500  105.819    6.097    0.435    0.290
  396.750  101.953    6.085    0.431    0.297
  397.000   96.149    6.199    0.426    0.304
  397.250   91.632    6.308    0.420    0.309
  397.500   89.030    6.422    0.420    0.304
  397.750   92.169    6.532    0.420    0.298
  398.000   97.846    6.652    0.424    0.289
  398.250  101.623    6.774    0.428    0.289
  398.500  101.585    6.893    0.431    0.300
  398.750   97.069    6.885    0.431    0.312
  399.000   90.001    6.874    0.431    0.308
  399.250   92.502    6.473    0.432    0.298
  399.500  105.209    6.093    0.441    0.287
  399.750  115.364    5.517    0.458    0.283
  400.000  122.330    5.300    0.467    0.280
  400.250  128.033    4.991    0.473    0.279
  400.500  132.434    4.608    0.482    0.282
  400.750  133.659    4.514    0.493    0.285
  401.000  134.259    4.334    0.505    0.288
  401.250  135.484    4.080    0.505    0.289
  401.500  131.580    3.996    0.505    0.288
  401.750  128.991    3.987    0.505    0.283
  402.000  128.289    3.983    0.510    0.279
  402.250  130.777    3.898    0.516    0.276
  402.500  132.666    3.892    0.524    0.269
  402.750  136.442    3.884    0.532    0.260
  403.000  140.856    3.803    0.538    0.265
  403.250  141.444    3.797    0.541    0.277
  403.500  142.018    3.791    0.543    0.283
  403.750  141.980    3.711    0.544    0.288
  404.000  141.929    3.704    0.540    0.294
  404.250  142.516    3.628    0.535    0.296
  404.500  142.465    3.624    0.524    0.299
  404.750  141.138    3.546    0.524    0.302
  405.000  138.523    3.472    0.543    0.310
  405.250  135.908    3.401    0.548    0.313
  405.500  133.969    3.265    0.555    0.308
  405.750  130.716    3.195    0.560    0.300
  406.000  131.291    3.069    0.558    0.293
  406.250  130.602    2.946    0.552    0.278
  406.500  127.362    2.943    0.541    0.251
  406.750  122.833    2.937    0.520    0.224
  407.000  119.618    2.932    0.494    0.199
  407.250  116.365    2.983    0.489    0.158
  407.500  116.952    2.980    0.478    0.148
  407.750  129.034    3.034    0.480    0.171
  408.000  135.349    3.089    0.527    0.202
  408.250  134.010    3.145    0.534    0.233
  408.500  132.696    3.139    0.532    0.267
  408.750  132.007    3.134    0.508    0.291
  409.000  130.681    3.189    0.505    0.293
  409.250  129.354    3.248    0.502    0.293
  409.500  128.027    3.372    0.503    0.290
  409.750  124.774    3.567    0.500    0.284
  410.000  121.509    3.849    0.494    0.278
  410.250  120.220    4.156    0.490    0.273
  410.500  115.704    4.573    0.483    0.267
  410.750  109.900    5.030    0.458    0.257
  411.000  104.733    5.642    0.442    0.234
  411.250  107.234    5.974    0.426    0.227
  411.500  116.126    6.203    0.425    0.250
  411.750  121.829    6.436    0.428    0.285
