~VERSION INFORMATION
 VERS.                 2.0:   CWLS LOG ASCII STANDARD -VERSION 2.0
 WRAP.                  NO:   ONE LINE PER DEPTH STEP
~WELL INFORMATION BLOCK
#MNEM.UNIT           DATA                    DESCRIPTION OF MNEMONIC
#---------    -------------------            -------------------------------
# Generated from Intellog Unique Number	CS_73_76/WELL/3242
WELL.         10-26-076-06W4                 : Well_name    - WELL
LOC .         AA/10-26-076-06W4/0            : Location     - LOCATION
UWI .         AA/10-26-076-06W4/0            : Uwi          - UNIQUE WELL ID
ENTR.         SP                             : Entered      - ENTERED BY
SRVC.         SCHLUMBERGER                   : Scn          - SERVICE COMPANY
STRT.M        145                            : top_depth    - START DEPTH
STOP.M        385                            : bot_depth    - STOP DEPTH
STEP.M        0.25                           : increment    - STEP LENGTH
 NULL. -999.2500:NULL Value
~CURVE INFORMATION BLOCK
#MNEM UNIT       ERCB CURVE CODE    CURVE DESCRIPTION
#-----------   ------------------   ----------------------------------
DEPT.M        00 001 00 00         : DEPTH        - DEPTH
ILD .OHMM     00 120 00 00         : RESD         - DEEP RESISTIVITY (DIL)
DPHI.V/V      00 890 00 00         : PHID         - DENSITY POROSITY (LIMESTONE)
NPHI.V/V      00 330 00 00         : PHIN         - NEUTRON POROSITY (LIMESTONE)
GR  .API      00 310 00 00         : GR           - GAMMA RAY
~PARAMETER INFORMATION
#MNEM.UNIT           DATA             DESCRIPTION OF MNEMONIC
#---------         -----------     ------------------------------
GL  .M        557                  : gl           - GROUND LEVEL ELEVATION
EREF.M        560.67               : kb           - ELEVATION OF DEPTH REFERENCE
DATM.M        557                  : datum        - DATUM ELEVATION
TDD .M        385                  : tdd          - TOTAL DEPTH DRILLER
RUN .         ONE                  : Run          - RUN NUMBER
ENG .         BILL                 : Engineer     - RECORDING ENGINEER
WIT .         JIM                  : Witness      - WITNESSED BY
MUD .         GEL                  : Mud_type     - MUD TYPE
MATR.         LIMESTONE            : Logunit      - NEUTRON MATRIX
TMAX.C        21                   : BHT          - MAXIMUM RECORDED TEMPERATURE
BHTD.M        385                  : BHTDEP       - MAXIMUM RECORDED TEMPERATURE
MATR.         1                    : LOGUNIT      - NEUTRON MATRIX
RMT .C        25                   : MDTP         - TEMPERATURE OF MUD
NEUT.         1                    : NEUTRON      - NEUTRON TYPE
RESI.         0                    : RESIST       - RESISTIVITY TYPE
RMC .OHMM     0.25                 : RMC          - RESISTIVITY OF MUD CAKE
RMF .OHMM     0.25                 : RMF          - RESISTIVITY OF MUD FILTRATE
SUFT.C        15                   : SUFT         - SURFACE TEMPERATURE
~A  DEPTH     RESD     PHID     PHIN       GR
# ...
  319.000   10.554    0.289    0.416   51.419
  319.250   10.360    0.288    0.410   50.817
  319.500    9.439    0.285    0.413   49.001
  319.750    9.094    0.287    0.413   48.399
  320.000    8.130    0.286    0.421   52.048
  320.250    6.872    0.293    0.430   56.912
  320.500    6.144    0.288    0.436   61.168
  320.750    5.920    0.288    0.452   64.817
  321.000    5.598    0.299    0.464   69.074
  321.250    5.496    0.301    0.469   72.723
  321.500    5.816    0.292    0.484   78.193
  321.750    6.153    0.280    0.503   84.878
  322.000    6.888    0.275    0.502   78.810
  322.250    7.152    0.272    0.443   59.990
  322.500    6.638    0.286    0.331   49.671
  322.750    6.517    0.303    0.316   51.499
  323.000    7.160    0.319    0.342   66.081
  323.250    7.575    0.284    0.372   69.728
  323.500    8.168    0.303    0.416   77.022
  323.750    8.324    0.300    0.435   80.063
  324.000    8.172    0.296    0.439   69.137
  324.250    7.306    0.292    0.462   59.427
  324.500    7.173    0.287    0.462   56.395
  324.750    7.733    0.273    0.432   53.970
  325.000    8.818    0.265    0.419   63.694
  325.250   10.637    0.199    0.411   70.379
  325.500   14.090    0.150    0.443   73.419
  325.750   18.664    0.191    0.481   73.425
  326.000   26.151    0.271    0.456   58.248
  326.250   36.642    0.298    0.306   43.072
  326.500   42.574    0.324    0.257   38.827
  326.750   45.900    0.319    0.250   37.617
  327.000   46.781    0.320    0.248   36.408
  327.250   48.582    0.310    0.238   37.020
  327.500   52.376    0.309    0.252   37.026
  327.750   62.011    0.325    0.273   36.424
  328.000   69.397    0.325    0.285   34.607
  328.250   80.635    0.319    0.299   32.183
  328.500   74.841    0.319    0.312   27.938
  328.750   34.105    0.322    0.322   25.514
  329.000   15.836    0.316    0.316   30.377
  329.250    8.866    0.309    0.310   50.423
  329.500    7.927    0.298    0.291   74.113
  329.750    7.638    0.284    0.343   91.122
  330.000    8.235    0.266    0.371   99.022
  330.250   10.121    0.246    0.398   95.385
  330.500   14.180    0.249    0.462   83.243
  330.750   24.873    0.256    0.400   64.424
  331.000   30.003    0.261    0.336   50.461
  331.250   25.838    0.271    0.288   38.320
  331.500   21.037    0.284    0.216   38.934
  331.750   20.271    0.288    0.178   45.621
  332.000   21.052    0.278    0.197   48.661
  332.250   23.125    0.262    0.256   49.272
  332.500   24.929    0.263    0.341   44.421
  332.750   28.966    0.277    0.350   45.033
  333.000   33.031    0.274    0.351   45.038
  333.250   30.660    0.254    0.364   45.651
  333.500   28.992    0.247    0.380   49.300
  333.750   30.114    0.243    0.375   53.555
  334.000   30.689    0.243    0.357   59.634
  334.250   33.084    0.238    0.361   57.211
  334.500   37.030    0.249    0.362   52.964
  334.750   39.920    0.240    0.347   50.542
  335.000   42.239    0.230    0.351   46.903
  335.250   41.473    0.257    0.363   42.049
  335.500   40.719    0.278    0.343   46.306
  335.750   40.726    0.274    0.336   56.637
  336.000   41.509    0.274    0.338   56.641
  336.250   44.755    0.282    0.360   49.965
  336.500   48.250    0.293    0.363   43.898
  336.750   50.109    0.304    0.385   42.082
  337.000   52.038    0.301    0.382   42.694
  337.250   53.032    0.292    0.374   45.130
  337.500   52.068    0.285    0.371   49.386
  337.750   50.168    0.275    0.348   56.071
  338.000   45.698    0.269    0.352   59.112
  338.250   40.856    0.286    0.355   61.547
  338.500   35.189    0.291    0.336   67.624
  338.750   31.460    0.271    0.336   64.594
  339.000   29.197    0.271    0.352   57.919
  339.250   27.615    0.256    0.344   65.819
  339.500   27.620    0.228    0.360   70.683
  339.750   30.914    0.231    0.385   63.400
  340.000   38.716    0.250    0.397   51.261
  340.250   42.523    0.293    0.365   45.193
  340.500   46.713    0.308    0.345   39.125
  340.750   49.425    0.295    0.328   52.491
  341.000   49.446    0.273    0.364   59.177
  341.250   49.461    0.281    0.388   58.576
  341.500   46.774    0.290    0.377   54.940
  341.750   43.412    0.288    0.372   53.728
  342.000   38.093    0.293    0.376   51.912
  342.250   34.059    0.288    0.372   50.701
  342.500   32.816    0.282    0.363   54.350
  342.750   31.623    0.269    0.356   60.429
  343.000   31.044    0.258    0.390   62.862
  343.250   31.642    0.258    0.397   53.154
  343.500   34.116    0.272    0.373   49.513
  343.750   35.423    0.261    0.369   48.911
  344.000   38.911    0.252    0.374   49.525
  344.250   43.556    0.252    0.373   46.493
  344.500   47.846    0.261    0.369   43.461
  344.750   50.621    0.270    0.369   41.038
  345.000   53.560    0.278    0.363   40.436
  345.250   55.619    0.280    0.372   45.908
  345.500   54.606    0.291    0.379   45.912
  345.750   52.620    0.292    0.366   55.634
  346.000   53.627    0.261    0.334   61.713
  346.250   60.021    0.248    0.362   51.394
  346.500   79.506    0.252    0.378   41.076
  346.750   94.126    0.273    0.368   36.223
  347.000   97.745    0.295    0.354   37.442
  347.250   97.783    0.283    0.364   36.841
  347.500  103.456    0.281    0.363   35.631
  347.750  115.800    0.296    0.364   36.851
  348.000  129.613    0.302    0.358   41.107
  348.250  147.794    0.298    0.346   45.972
  348.500  171.724    0.296    0.347   47.798
  348.750  219.102    0.290    0.367   42.946
  349.000  254.584    0.273    0.368   38.700
  349.250  812.864    0.285    0.348   34.454
  349.500 1117.880    0.295    0.347   28.994
  349.750  999.432    0.286    0.338   31.429
  350.000  741.004    0.284    0.329   33.257
  350.250   98.795    0.289    0.334   33.261
  350.500   70.451    0.293    0.340   34.481
  350.750   57.314    0.296    0.337   38.132
  351.000   48.423    0.286    0.332   39.958
  351.250   45.790    0.266    0.340   43.000
  351.500   49.406    0.266    0.361   45.433
  351.750   55.344    0.280    0.358   47.260
  352.000   68.122    0.273    0.348   42.408
  352.250   80.749    0.277    0.354   39.983
  352.500   82.336    0.286    0.367   36.346
  352.750   63.308    0.296    0.369   35.743
  353.000   55.536    0.295    0.367   36.963
  353.250   56.626    0.298    0.363   40.005
  353.500   64.641    0.289    0.357   48.514
  353.750   94.248    0.278    0.387   53.983
  354.000  162.785    0.283    0.425   55.810
  354.250  352.392    0.300    0.408   41.242
  354.500  643.983    0.315    0.381   35.781
  354.750  956.825    0.320    0.375   30.321
  355.000 1200.020    0.314    0.374   27.897
  355.250 1533.730    0.307    0.385   29.118
  355.500 1818.240    0.305    0.375   30.337
  355.750 1924.960    0.299    0.342   29.734
  356.000 2077.820    0.291    0.331   27.311
  356.250 2078.550    0.299    0.348   28.532
  356.500 1928.960    0.310    0.360   29.147
  356.750 1724.400    0.309    0.374   28.542
  357.000 1484.210    0.300    0.368   28.546
  357.250 1207.350    0.274    0.330   29.160
  357.500  963.919    0.278    0.338   29.165
  357.750  784.151    0.293    0.365   28.564
  358.000  559.205    0.293    0.382   27.356
  358.250  349.551    0.291    0.369   27.359
  358.500  263.766    0.293    0.347   27.364
  358.750  218.673    0.291    0.339   27.979
  359.000  202.928    0.283    0.339   29.198
  359.250  178.032    0.268    0.342   31.026
  359.500  159.110    0.258    0.334   34.069
  359.750  142.232    0.258    0.320   34.679
  360.000  131.993    0.267    0.305   37.114
  360.250  115.767    0.280    0.304   39.548
  360.500   94.186    0.279    0.299   37.124
  360.750   73.795    0.259    0.279   34.092
  361.000   67.210    0.239    0.269   37.742
  361.250   68.531    0.223    0.292   43.213
  361.500   72.566    0.248    0.342   46.862
  361.750   75.397    0.284    0.377   49.296
  362.000   75.447    0.311    0.405   49.302
  362.250   63.733    0.307    0.413   46.271
