~VERSION INFORMATION
 VERS.                 2.0:   CWLS LOG ASCII STANDARD -VERSION 2.0
 WRAP.                  NO:   ONE LINE PER DEPTH STEP
~WELL INFORMATION BLOCK
#MNEM.UNIT           DATA                    DESCRIPTION OF MNEMONIC
#---------    -------------------            -------------------------------
# Generated from Intellog Unique Number	CW_82_90/WELL/1029
WELL.         11-20-082-20W4                 : Well_name    - WELL
LOC .         AA/11-20-082-20W4/0            : Location     - LOCATION
UWI .         AA/11-20-082-20W4/0            : Uwi          - UNIQUE WELL ID
ENTR.         JAYE                           : Entered      - ENTERED BY
SRVC.         SCHLUMBERGER                   : Scn          - SERVICE COMPANY
DATE.         2 FEB 76                       : Date         - LOG DATE
STRT.M        182.88                         : top_depth    - START DEPTH
STOP.M        387.13                         : bot_depth    - STOP DEPTH
STEP.M        0.25                           : increment    - STEP LENGTH
 NULL. -999.2500:NULL Value
~CURVE INFORMATION BLOCK
#MNEM UNIT       ERCB CURVE CODE    CURVE DESCRIPTION
#-----------   ------------------   ----------------------------------
DEPT.M        00 001 00 00         : DEPTH        - DEPTH
CALI.MM       00 280 01 00         : CAL          - CALIPER
GR  .API      00 310 00 00         : GR           - GAMMA RAY
NPHI.V/V      00 330 00 00         : PHIN         - NEUTRON POROSITY (SANDSTONE)
DPHI.V/V      00 890 00 00         : PHID         - DENSITY POROSITY (SANDSTONE)
ILD .OHMM     00 120 00 00         : RESD         - DEEP RESISTIVITY (DLL)
~PARAMETER INFORMATION
#MNEM.UNIT           DATA             DESCRIPTION OF MNEMONIC
#---------         -----------     ------------------------------
GL  .M        603.504              : gl           - GROUND LEVEL ELEVATION
EREF.M        606.857              : kb           - ELEVATION OF DEPTH REFERENCE
DATM.M        603.504              : datum        - DATUM ELEVATION
TDD .M        396.24               : tdd          - TOTAL DEPTH DRILLER
BASE.         EDMONTON             : Branch       - HOME BASE OF LOGGING UNIT
MATR.         SANDSTONE            : Logunit      - NEUTRON MATRIX
TMAX.C        20                   : BHT          - MAXIMUM RECORDED TEMPERATURE
BHTD.M        396.24               : BHTDEP       - MAXIMUM RECORDED TEMPERATURE
RMT .C        14.4444              : MDTP         - TEMPERATURE OF MUD
MUDD.KG/M     0                    : MWT          - MUD DENSITY
NEUT.         0                    : NEUTRON      - NEUTRON TYPE
RESI.         1                    : RESIST       - RESISTIVITY TYPE
RM  .OHMM     2.78                 : RM           - RESISTIVITY OF MUD
RMC .OHMM     3.2                  : RMC          - RESISTIVITY OF MUD CAKE
RMF .OHMM     2.13                 : RMF          - RESISTIVITY OF MUD FILTRATE
SUFT.C        4                    : SUFT         - SURFACE TEMPERATURE
~A  DEPTH      CAL       GR     PHIN     PHID     RESD
# ...
  292.380  142.410   69.735    0.479    0.297   10.320
  292.630  142.454   72.108    0.485    0.288    9.329
  292.880  142.494   76.963    0.487    0.287    9.079
  293.130  142.319   84.946    0.492    0.274    9.083
  293.380  142.032   86.797    0.486    0.259    9.160
  293.630  141.959   86.040    0.463    0.257    9.406
  293.880  142.225   84.302    0.462    0.249    9.561
  294.130  142.701   84.321    0.460    0.245    9.876
  294.380  142.957   86.434    0.452    0.254   10.080
  294.630  142.672   88.805    0.458    0.252   10.107
  294.880  142.380   88.111    0.465    0.252   10.092
  295.130  141.651   84.480    0.455    0.247   10.017
  295.380  140.814   81.954    0.453    0.234    9.882
  295.630  142.065   81.720    0.469    0.240   10.031
  295.880  145.184   81.808    0.474    0.237   10.031
  296.130  142.482   84.765    0.471    0.233   10.529
  296.380  142.194   87.270    0.488    0.241    9.632
  296.630  143.117   87.229    0.494    0.232    9.224
  296.880  143.809   88.683    0.496    0.224    9.358
  297.130  144.620   90.149    0.494    0.236    9.570
  297.380  145.878   86.839    0.491    0.232    9.925
  297.630  141.514   79.028    0.475    0.219   10.191
  297.880  138.256   73.893    0.481    0.250   10.319
  298.130  139.294   71.699    0.473    0.257   10.511
  298.380  141.196   75.311    0.478    0.250   10.686
  298.630  142.669   77.034    0.470    0.232   10.799
  298.880  141.943   71.768    0.452    0.253   10.739
  299.130  140.992   70.615    0.438    0.266   10.639
  299.380  140.484   71.753    0.437    0.232   10.560
  299.630  140.304   70.139    0.434    0.240   10.337
  299.880  140.465   72.772    0.426    0.257   10.058
  300.130  140.833   74.947    0.428    0.237    9.827
  300.380  141.312   76.538    0.432    0.242    9.773
  300.630  141.899   77.016    0.442    0.206    9.856
  300.880  142.165   76.844    0.484    0.219    9.881
  301.130  142.754   73.870    0.461    0.241    9.730
  301.380  143.347   75.065    0.445    0.217    9.227
  301.630  143.831   77.960    0.440    0.196    8.889
  301.880  144.201   79.029    0.451    0.261    8.683
  302.130  144.353   76.697    0.488    0.259    8.283
  302.380  144.279   71.433    0.486    0.246    7.761
  302.630  142.998   70.543    0.477    0.232    6.988
  302.880  140.511   76.832    0.467    0.258    5.799
  303.130  138.133   83.578    0.513    0.259    5.169
  303.380  139.273   88.693    0.545    0.284    5.657
  303.630  142.063   88.845    0.538    0.285    6.154
  303.880  142.656   85.995    0.502    0.294    6.666
  304.130  142.585   81.848    0.494    0.285    7.310
  304.380  142.741   80.562    0.498    0.294    7.809
  304.630  142.557   78.561    0.491    0.283    8.131
  304.880  143.381   76.821    0.497    0.264    8.383
  305.130  143.961   77.297    0.488    0.249    8.522
  305.380  145.104   77.063    0.498    0.244    8.783
  305.630  146.026   76.560    0.512    0.248    9.019
  305.880  146.614   74.298    0.514    0.262    9.188
  306.130  146.550   71.777    0.507    0.273    9.248
  306.380  145.705   69.710    0.482    0.283    9.307
  306.630  145.202   71.302    0.473    0.277    9.220
  306.880  144.691   75.763    0.487    0.266    9.079
  307.130  144.737   80.222    0.490    0.270    8.887
  307.380  144.673   82.597    0.483    0.262    8.344
  307.630  144.488   80.726    0.500    0.268    7.881
  307.880  144.639   77.942    0.521    0.282    7.775
  308.130  144.675   75.614    0.500    0.290    7.873
  308.380  144.938   78.704    0.482    0.261    8.036
  308.630  145.422   82.122    0.483    0.243    8.171
  308.880  145.572   84.366    0.484    0.241    8.222
  309.130  146.056   84.256    0.486    0.229    8.244
  309.380  147.525   84.149    0.502    0.229    8.233
  309.630  148.440   82.736    0.490    0.235    8.235
  309.880  148.153   79.364    0.477    0.217    8.240
  310.130  148.417   78.603    0.487    0.202    8.260
  310.380  148.680   86.067    0.481    0.248    8.232
  310.630  149.488   88.831    0.465    0.240    8.075
  310.880  150.408   89.640    0.465    0.233    8.047
  311.130  150.891   90.578    0.476    0.242    8.035
  311.380  150.051   92.231    0.486    0.241    8.088
  311.630  148.669   95.910    0.495    0.254    8.156
  311.880  147.381   94.167    0.500    0.251    8.276
  312.130  147.100   90.277    0.482    0.245    8.276
  312.380  148.129   87.946    0.484    0.238    8.901
  312.630  147.179   85.429    0.482    0.246    9.083
  312.880  146.343   84.796    0.484    0.246   10.103
  313.130  146.157   83.775    0.476    0.229   10.246
  313.380  143.338   84.059    0.471    0.230   10.860
  313.630  142.721   86.431    0.478    0.240   11.534
  313.880  142.108   81.883    0.480    0.222   12.105
  314.130  141.599   75.512    0.487    0.214   12.380
  314.380  141.529   76.578    0.490    0.209   13.278
  314.630  141.349   77.189    0.472    0.159   16.935
  314.880  140.728   66.049    0.410    0.095   20.389
  315.130  140.333   52.365    0.330    0.044   21.959
  315.380  140.375   56.044    0.245    0.044   22.058
  315.630  140.964   65.138    0.312    0.091   20.381
  315.880  141.446   77.696    0.468    0.178   13.890
  316.130  142.144   84.961    0.460    0.210   13.437
  316.380  142.733   84.072    0.444    0.213   13.934
  316.630  143.216   78.611    0.434    0.207   14.858
  316.880  143.585   73.935    0.432    0.217   15.841
  317.130  143.958   74.218    0.437    0.223   18.002
  317.380  144.335   74.380    0.432    0.219   21.545
  317.630  144.487   72.566    0.396    0.192   25.225
  317.880  144.420   68.026    0.369    0.166   27.440
  318.130  144.126   66.543    0.326    0.144   28.454
  318.380  143.835   62.127    0.291    0.122   27.358
  318.630  143.878   67.241    0.272    0.103   21.774
  318.880  144.588   74.443    0.269    0.108   16.722
  319.130  145.170   81.058    0.419    0.178   14.211
  319.380  146.749   86.955    0.450    0.205   12.569
  319.630  146.683   88.614    0.475    0.223   11.919
  319.880  146.067   83.674    0.470    0.248   11.782
  320.130  145.447   80.627    0.463    0.253   11.980
  320.380  145.486   79.089    0.456    0.250   12.251
  320.630  145.526   79.106    0.451    0.235   13.140
  320.880  145.462   79.265    0.448    0.238   13.956
  321.130  145.170   77.719    0.457    0.241   14.245
  321.380  144.888   77.413    0.470    0.252   14.280
  321.630  144.919   78.026    0.476    0.267   14.036
  321.880  144.629   81.507    0.466    0.260   13.710
  322.130  144.452   86.359    0.452    0.268   12.223
  322.380  144.281   89.320    0.447    0.269   11.384
  322.630  144.212   89.344    0.449    0.261   11.033
  322.880  144.244   87.927    0.462    0.254   10.889
  323.130  144.954   88.217    0.473    0.251   10.829
  323.380  145.758   89.213    0.485    0.241   10.791
  323.630  147.014   89.433    0.481    0.222   10.795
  323.880  147.276   90.768    0.465    0.212   10.823
  324.130  147.205   91.175    0.456    0.227   10.895
  324.380  147.581   93.353    0.458    0.236   10.966
  324.630  147.736   94.885    0.468    0.222   11.061
  324.880  147.438   95.228    0.467    0.210   11.133
  325.130  146.821   95.640    0.461    0.208   11.094
  325.380  146.530   93.578    0.461    0.221   11.077
  325.630  146.574   91.771    0.466    0.225   11.016
  325.880  147.167   88.920    0.475    0.241   10.870
  326.130  147.536   86.334    0.480    0.230   10.640
  326.380  147.681   84.734    0.484    0.219   10.332
  326.630  148.274   84.553    0.484    0.214    9.936
  326.880  147.983   84.247    0.475    0.213    9.745
  327.130  147.366   86.229    0.468    0.216    9.595
  327.380  146.202   89.254    0.472    0.226    9.678
  327.630  145.248   90.127    0.481    0.222    9.800
  327.880  144.191   86.364    0.482    0.207   10.002
  328.130  143.901   84.757    0.481    0.230    9.927
  328.380  143.177   85.696    0.469    0.227    9.526
  328.630  143.656   86.632    0.460    0.221    8.961
