~VERSION INFORMATION
 VERS.                 2.0:   CWLS LOG ASCII STANDARD -VERSION 2.0
 WRAP.                  NO:   ONE LINE PER DEPTH STEP
~WELL INFORMATION BLOCK
#MNEM.UNIT           DATA                    DESCRIPTION OF MNEMONIC
#---------    -------------------            -------------------------------
# Generated from Intellog Unique Number	CN_91_93/WELL/3934
WELL.         16-21-092-08W4                 : Well_name    - WELL
LOC .         AA/16-21-092-08W4/0            : Location     - LOCATION
UWI .         AA/16-21-092-08W400            : Uwi          - UNIQUE WELL ID
ENTR.         JOETTE                         : Entered      - ENTERED BY
SRVC.         SCHLUMBERGER                   : Scn          - SERVICE COMPANY
DATE.         03/16/92                       : Date         - LOG DATE
STRT.F        30                             : top_depth    - START DEPTH
STOP.F        550.013                        : bot_depth    - STOP DEPTH
STEP.F        0.8202                         : increment    - STEP LENGTH
 NULL. -999.2500:NULL Value
~CURVE INFORMATION BLOCK
#MNEM UNIT       ERCB CURVE CODE    CURVE DESCRIPTION
#-----------   ------------------   ----------------------------------
DEPT.F        00 001 00 00         : DEPTH        - DEPTH
GR  .API      00 310 00 00         : GR           - GAMMA RAY
CALI.IN       00 280 01 00         : CAL          - CALIPER
NPHI.V/V      00 330 00 00         : PHIN         - NEUTRON POROSITY (SANDSTONE)
ILD .OHMM     00 120 00 00         : RESD         - DEEP RESISTIVITY (DIL)
~PARAMETER INFORMATION
#MNEM.UNIT           DATA             DESCRIPTION OF MNEMONIC
#---------         -----------     ------------------------------
GL  .M        433.73               : gl           - GROUND LEVEL ELEVATION
EREF.M        434.95               : kb           - ELEVATION OF DEPTH REFERENCE
DATM.M        434.95               : datum        - DATUM ELEVATION
TDD .M        168.859              : tdd          - TOTAL DEPTH DRILLER
RUN .         ONE                  : Run          - RUN NUMBER
ENG .         BILL                 : Engineer     - RECORDING ENGINEER
WIT .         JIM                  : Witness      - WITNESSED BY
MUD .         GEL                  : Mud_type     - MUD TYPE
MATR.         SANDSTONE            : Logunit      - NEUTRON MATRIX
TMAX.F        50                   : BHT          - MAXIMUM RECORDED TEMPERATURE
BHTD.F        554                  : BHTDEP       - MAXIMUM RECORDED TEMPERATURE
RMT .F        50                   : MDTP         - TEMPERATURE OF MUD
MUDD.LB/G     9.9                  : MWT          - MUD DENSITY
NEUT.         1                    : NEUTRON      - NEUTRON TYPE
RESI.         0                    : RESIST       - RESISTIVITY TYPE
RM  .OHMM     2.5                  : RM           - RESISTIVITY OF MUD
RMC .OHMM     1.8                  : RMC          - RESISTIVITY OF MUD CAKE
RMF .OHMM     1.8                  : RMF          - RESISTIVITY OF MUD FILTRATE
SUFT.F        39.2                 : SUFT         - SURFACE TEMPERATURE
~A  DEPTH       GR      CAL     PHIN     RESD
# ...
  172.717   72.231    7.798    0.441   10.645
  173.537   72.845    7.799    0.425   13.860
  174.357   71.728    7.802    0.427   15.827
  175.177   71.751    7.804    0.429   14.969
  175.997   68.290    7.807    0.434   13.134
  176.818   59.007    7.809    0.418   12.900
  177.638   56.710    7.811    0.405   11.975
  178.458   57.914    7.813    0.406   10.510
  179.278   59.110    7.815    0.402    9.577
  180.098   58.559    7.817    0.397    8.561
  180.919   59.173    7.820    0.413    7.234
  181.739   63.870    7.822    0.435    6.230
  182.559   67.984    7.825    0.457    5.070
  183.379   70.344    7.827    0.474    4.534
  184.199   72.130    7.829    0.495    4.624
  185.020   73.908    7.830    0.496    5.379
  185.840   75.686    7.834    0.453    6.026
  186.660   75.135    7.835    0.439    7.557
  187.480   74.002    7.838    0.443    8.956
  188.301   73.460    7.840    0.447    9.663
  189.121   72.901    7.842    0.439   10.043
  189.941   72.359    7.844    0.425   10.242
  190.761   71.226    7.847    0.427   10.645
  191.581   69.519    7.849    0.431   11.483
  192.402   68.960    7.851    0.418   13.874
  193.222   66.097    7.854    0.393   14.969
  194.042   64.956    7.817    0.362   14.978
  194.862   66.152    7.781    0.363   14.437
  195.682   68.512    7.743    0.367   13.407
  196.503   69.724    7.746    0.369   11.328
  197.323   70.345    7.709    0.374    9.754
  198.143   70.943    7.711    0.381    9.227
  198.963   66.900    7.714    0.389    9.588
  199.783   66.357    7.717    0.396    9.967
  200.604   70.464    7.718    0.402   10.163
  201.424   73.996    7.721    0.395   10.765
  202.244   73.453    7.724    0.402   10.973
  203.064   70.574    7.725    0.401   11.191
  203.885   68.269    7.688    0.396   10.791
  204.705   67.727    7.692    0.387   10.596
  205.525   68.340    7.693    0.379   10.607
  206.345   68.380    7.695    0.375   10.615
  207.165   65.508    7.698    0.370   11.670
  207.986   63.196    7.700    0.355   14.912
  208.806   59.734    7.702    0.350   30.487
  209.626   52.788    7.704    0.355   23.016
  210.446   49.327    7.706    0.390   19.454
  211.266   47.612    7.708    0.407   18.060
  212.087   47.644    7.711    0.405   17.408
  212.907   49.437    7.674    0.413   16.782
  213.727   50.633    7.677    0.422   14.722
  214.547   51.829    7.679    0.414   11.326
  215.367   53.025    7.682    0.410   12.220
  216.188   54.803    7.683    0.411   12.939
  217.008   57.171    7.685    0.403   12.471
  217.828   58.366    7.688    0.396   13.458
  218.648   58.988    7.690    0.391   17.855
  219.469   59.602    7.693    0.387   21.568
  220.289   59.625    7.694    0.380   16.592
  221.109   56.754    7.697    0.375   13.504
  221.929   55.621    7.700    0.380   11.412
  222.749   56.243    7.701    0.386    9.646
  223.570   56.849    7.704    0.391    9.472
  224.390   58.627    7.705    0.399   10.416
  225.210   62.159    7.708    0.402   12.579
  226.030   62.781    7.711    0.407   19.764
  226.850   63.394    7.712    0.410   37.480
  227.671   61.679    7.715    0.348   22.163
  228.491   57.062    7.716    0.323   16.118
  229.311   53.593    7.720    0.297   17.066
  230.131   48.967    7.722    0.276   17.731
  230.951   50.163    7.724    0.342   17.094
  231.772   55.441    7.726    0.375   14.445
  232.592   56.063    7.728    0.422   12.207
  233.412   55.512    7.730    0.399   10.713
  234.232   57.290    7.732    0.404    9.944
  235.052   60.233    7.735    0.396    8.725
  235.873   64.921    7.777    0.403    7.950
  236.693   66.707    7.779    0.415    7.663
  237.513   67.321    7.819    0.410    7.388
  238.333   67.934    7.822    0.406    7.677
  239.154   70.892    7.862    0.402    8.928
  239.974   72.080    7.903    0.419   10.195
  240.794   70.948    7.905    0.420   10.203
  241.614   65.748    7.908    0.411   10.405
  242.434   63.443    7.910    0.416   10.815
  243.255   62.318    7.873    0.421   11.238
  244.075   60.619    7.838    0.423   11.897
  244.895   60.635    7.840    0.432   11.906
  245.715   61.248    7.841    0.429   11.055
  246.535   64.206    7.844    0.419   11.928
  247.356   64.820    7.846    0.415   10.869
  248.176   64.269    7.887    0.400    8.359
  248.996   64.883    7.890    0.383    5.854
  249.816   68.990    7.892    0.356    4.947
  250.636   73.096    7.894    0.416    4.423
  251.457   75.464    7.858    0.468    3.955
  252.277   75.504    7.859    0.492    3.604
  253.097   75.535    7.862    0.483    3.409
  253.917   74.985    7.864    0.452    3.411
  254.738   75.024    7.866    0.495    3.479
  255.558   75.056    7.907    0.544    4.124
  256.378   74.497    7.988    0.524    5.270
  257.198   74.537    8.028    0.496    6.733
  258.018   74.584    8.108    0.456    8.288
  258.839   74.600    8.226    0.424    8.942
  259.659   74.057    8.308    0.412    9.468
  260.479   73.506    8.349    0.408    9.478
  261.299   69.479    8.350    0.401    8.798
  262.119   71.241    8.236    0.397    7.868
  262.940   73.601    8.006    0.402    8.487
  263.760   73.648    7.968    0.404   11.053
  264.580   73.090    7.893    0.406   11.271
  265.400   71.965    7.857    0.387   10.864
  266.220   69.668    7.859    0.369   10.472
  267.041   67.953    7.861    0.350   11.956
  267.861   65.082    7.825    0.330   20.252
  268.681   62.195    7.788    0.326   79.928
  269.501   56.987    7.791    0.309   37.019
  270.322   52.361    7.753    0.231   25.924
  271.142   48.318    7.755    0.171    7.791
  271.962   53.597    7.758    0.161    8.571
  272.782   62.943    7.761    0.228    9.246
  273.602   65.893    7.762    0.294   10.167
  274.423   64.178    7.803    0.393   10.562
  275.243   64.209    7.845    0.417   10.978
  276.063   64.823    7.847    0.410   10.987
  276.883   63.116    7.888    0.397   10.592
  277.703   63.155    7.890    0.386   10.209
  278.524   64.933    7.931    0.388   10.025
  279.344   67.293    7.972    0.394    9.665
  280.164   69.071    7.974    0.401    9.491
  280.984   70.267    8.016    0.407    9.502
  281.804   70.889    8.018    0.414    9.510
  282.625   71.510    8.020    0.408    9.338
  283.445   72.116    8.022    0.392    9.176
  284.265   72.738    8.024    0.376    9.179
  285.085   73.934    8.027    0.380    9.016
  285.906   75.712    8.029    0.391    9.198
  286.726   76.915    8.031    0.403    9.556
  287.546   76.947    7.995    0.411   12.210
  288.366   76.978    7.997    0.401   11.550
  289.186   77.592    7.999    0.391    7.939
  290.007   79.370    7.962    0.344    7.370
  290.827   81.730    7.965    0.362    6.843
  291.647   81.187    7.968    0.399    6.352
  292.467   79.472    7.970    0.411    5.679
  293.287   78.348    7.972    0.419    5.078
  294.108   78.379    8.013    0.426    5.377
  294.928   77.829    8.093    0.416    7.134
  295.748   76.122    8.134    0.395    8.143
  296.568   74.981    8.214    0.397    7.148
  297.388   74.430    8.254    0.401    6.511
  298.209   73.314    8.295    0.408    7.294
  299.029   69.844    8.336    0.412    9.146
  299.849   64.637    8.223    0.392    9.506
  300.669   67.579    8.147    0.389    7.593
  301.490   72.291    8.111    0.409    6.538
  302.310   72.307    8.112    0.423    4.936
  303.130   70.592    8.154    0.436    5.742
  303.950   68.885    8.195    0.448    6.808
  304.770   67.752    8.236    0.427    7.076
  305.591   67.784    8.238    0.404    7.213
  306.411   70.734    8.163    0.412    7.218
  307.231   78.333    8.088    0.414    7.938
  308.051   83.604    8.089    0.404    8.892
  308.871   81.889    8.053    0.371   10.343
  309.692   73.189    8.016    0.344   16.254
  310.512   57.510    8.019    0.340   20.006
  311.332   55.796    8.021    0.321   17.551
  312.152   58.163    8.062    0.298    9.272
  312.972   62.844    8.064    0.307    8.938
  313.793   70.451    8.066    0.339    9.288
  314.613   73.984    8.068    0.371    7.998
