~VERSION INFORMATION
 VERS.                 2.0:   CWLS LOG ASCII STANDARD -VERSION 2.0
 WRAP.                  NO:   ONE LINE PER DEPTH STEP
~WELL INFORMATION BLOCK
#MNEM.UNIT           DATA                    DESCRIPTION OF MNEMONIC
#---------    -------------------            -------------------------------
# Generated from Intellog Unique Number	CN_91_93/WELL/3233
WELL.         PETRO-CANADA                   : Well_name    - WELL
LOC .         AA/10-26-092-17W4/0            : Location     - LOCATION
UWI .         AA/10-26-092-17W400            : Uwi          - UNIQUE WELL ID
ENTR.         JOETTE                         : Entered      - ENTERED BY
SRVC.         SCHLUMBERGER                   : Scn          - SERVICE COMPANY
DATE.         04/14/92                       : Date         - LOG DATE
STRT.F        290                            : top_depth    - START DEPTH
STOP.F        869.888                        : bot_depth    - STOP DEPTH
STEP.F        0.82                           : increment    - STEP LENGTH
 NULL. -999.2500:NULL Value
~CURVE INFORMATION BLOCK
#MNEM UNIT       ERCB CURVE CODE    CURVE DESCRIPTION
#-----------   ------------------   ----------------------------------
DEPT.F        00 001 00 00         : DEPTH        - DEPTH
CALI.IN       00 280 01 00         : CAL          - CALIPER
GR  .API      00 310 00 00         : GR           - GAMMA RAY
NPHI.V/V      00 330 00 00         : PHIN         - NEUTRON POROSITY (SANDSTONE)
DPHI.V/V      00 890 00 00         : PHID         - DENSITY POROSITY (SANDSTONE)
ILD .OHMM     00 120 00 00         : RESD         - DEEP RESISTIVITY (DIL)
~PARAMETER INFORMATION
#MNEM.UNIT           DATA             DESCRIPTION OF MNEMONIC
#---------         -----------     ------------------------------
GL  .F        1607.53              : gl           - GROUND LEVEL ELEVATION
EREF.F        1708.93              : kb           - ELEVATION OF DEPTH REFERENCE
DATM.F        1708.93              : datum        - DATUM ELEVATION
TDD .F        920                  : tdd          - TOTAL DEPTH DRILLER
RUN .         ONE                  : Run          - RUN NUMBER
ENG .         BILL                 : Engineer     - RECORDING ENGINEER
WIT .         JIM                  : Witness      - WITNESSED BY
MUD .         GEL                  : Mud_type     - MUD TYPE
MATR.         SANDSTONE            : Logunit      - NEUTRON MATRIX
TMAX.F        76                   : BHT          - MAXIMUM RECORDED TEMPERATURE
BHTD.F        920                  : BHTDEP       - MAXIMUM RECORDED TEMPERATURE
RMT .F        70                   : MDTP         - TEMPERATURE OF MUD
MUDD.LB/G     9                    : MWT          - MUD DENSITY
NEUT.         1                    : NEUTRON      - NEUTRON TYPE
RESI.         0                    : RESIST       - RESISTIVITY TYPE
RM  .OHMM     0.601                : RM           - RESISTIVITY OF MUD
RMC .OHMM     0.601                : RMC          - RESISTIVITY OF MUD CAKE
RMF .OHMM     0.601                : RMF          - RESISTIVITY OF MUD FILTRATE
SUFT.F        39.2                 : SUFT         - SURFACE TEMPERATURE
~A  DEPTH      CAL       GR     PHIN     PHID     RESD
# ...
  769.003    6.475   40.404    0.425    0.310  108.012
  769.823    6.393   39.782    0.415    0.306   88.174
  770.643    6.352   40.986    0.393    0.309   68.108
  771.463    6.352   41.590    0.396    0.310   63.256
  772.283    6.351   42.188    0.399    0.301   58.749
  773.104    6.350   42.785    0.399    0.289   50.686
  773.924    6.350   43.384    0.393    0.293   40.621
  774.744    6.349   42.768    0.391    0.293   33.160
  775.564    6.389   41.540    0.389    0.291   35.688
  776.385    6.388   41.525    0.393    0.284   38.415
  777.205    6.428   42.735    0.397    0.262   45.337
  778.025    6.468   44.552    0.404    0.265   71.860
  778.845    6.508   41.500    0.407    0.269   83.261
  779.665    6.548   36.616    0.400    0.289  111.793
  780.486    6.588   32.952    0.390    0.298  115.964
  781.306    6.587   34.769    0.390    0.298  118.099
  782.126    6.546   36.586    0.392    0.294  120.274
  782.946    6.586   37.185    0.397    0.295  120.252
  783.766    6.667   37.786    0.402    0.292  107.642
  784.587    6.747   38.992    0.403    0.307   91.177
  785.407    6.787   39.593    0.407    0.299   69.141
  786.227    6.786   41.410    0.408    0.278   54.400
  787.047    6.704   43.834    0.411    0.279   46.933
  787.867    6.704   46.260    0.412    0.297   44.396
  788.688    6.621   48.683    0.416    0.263   46.059
  789.508    6.621   50.500    0.415    0.297   46.907
  790.328    6.620   52.926    0.409    0.299   42.770
  791.148    6.660   56.567    0.404    0.299   33.036
  791.969    6.741   57.780    0.411    0.283   24.144
  792.789    6.862   60.815    0.431    0.273   16.392
  793.609    6.983   63.850    0.450    0.282   14.946
  794.429    7.064   66.885    0.463    0.270   12.895
  795.249    7.104   70.529    0.470    0.242   11.125
  796.070    6.778   74.170    0.478    0.230    9.423
  796.890    6.696   78.426    0.492    0.229    8.591
  797.710    7.142   82.678    0.504    0.272   10.329
  798.530    7.588   85.711    0.446    0.272   15.207
  799.350    7.263   83.267    0.349    0.229   24.104
  800.171    6.937   82.649    0.332    0.200   32.364
  800.991    6.733   85.075    0.342    0.218   35.483
  801.811    6.652   87.501    0.341    0.298   39.625
  802.631    6.570   89.926    0.336    0.260   35.470
  803.451    6.569   92.350    0.347    0.233   31.171
  804.272    6.609   94.164    0.369    0.218   32.335
  805.092    6.649   92.939    0.368    0.253   36.782
  805.912    6.608   88.060    0.359    0.267   40.325
  806.732    6.445   86.829    0.362    0.244   40.317
  807.552    6.322   86.817    0.363    0.244   38.138
  808.373    6.281   86.812    0.364    0.256   34.140
  809.193    6.280   85.579    0.367    0.246   30.559
  810.013    6.320   84.963    0.368    0.219   34.128
  810.833    6.320   80.690    0.367    0.254   41.027
  811.654    6.359   72.763    0.372    0.265   58.218
  812.474    6.359   72.753    0.375    0.250   59.290
  813.294    6.399   75.788    0.375    0.218   45.799
  814.114    6.439   80.041    0.376    0.207   34.730
  814.934    6.478   83.685    0.377    0.204   24.465
  815.755    6.478   87.329    0.378    0.202   19.607
  816.575    6.558   94.018    0.376    0.177   20.718
  817.395    6.598  101.924    0.370    0.166   24.451
  818.215    6.638  104.350    0.361    0.172   27.305
  819.035    6.638   98.251    0.362    0.185   32.824
  819.856    6.637   92.151    0.369    0.182   31.054
  820.676    6.555   95.795    0.371    0.190   23.548
  821.496    6.554  101.265    0.374    0.202   17.210
  822.316    6.635  104.300    0.375    0.284   19.941
  823.136    6.431   94.547    0.384    0.305   28.298
  823.957    6.187   85.402    0.391    0.278   31.599
  824.777    6.105   79.303    0.387    0.273   32.779
  825.597    6.185   82.335    0.386    0.246   31.012
  826.417    6.226   85.982    0.384    0.243   26.266
  827.238    6.468   88.407    0.379    0.252   23.513
  828.058    6.468   94.485    0.370    0.255   19.915
  828.878    6.426  100.564    0.373    0.219   15.669
  829.698    6.426  104.817    0.380    0.181   14.824
  830.518    6.425  107.850    0.401    0.210   19.541
  831.339    6.425  107.840    0.396    0.250   20.271
  832.159    6.424   97.480    0.390    0.199   17.169
  832.979    6.464   95.034    0.383    0.179   14.813
  833.799    6.463   99.896    0.378    0.250   19.169
  834.619    6.503  101.104    0.384    0.245   24.354
  835.440    6.502   94.395    0.390    0.214   28.217
  836.260    6.502   89.513    0.396    0.216   27.696
  837.080    6.420   83.411    0.393    0.260   26.202
  837.900    6.257   83.399    0.390    0.261   24.788
  838.720    6.256   85.221    0.390    0.251   23.450
  839.541    6.296   88.253    0.392    0.244   23.444
  840.361    6.295   89.461    0.392    0.242   23.012
  841.181    6.294   90.672    0.392    0.223   22.587
  842.001    6.294   92.489    0.390    0.216   22.172
  842.822    6.293   87.605    0.387    0.221   20.592
  843.642    6.252   83.941    0.379    0.217   19.843
  844.462    6.292   86.369    0.374    0.200   19.121
  845.282    6.291   86.354    0.382    0.188   19.475
  846.102    6.331   83.911    0.393    0.202   19.471
  846.923    6.330   81.465    0.417    0.250   18.083
  847.743    6.330   78.410    0.439    0.286   16.794
  848.563    6.329   75.964    0.437    0.320   16.484
  849.383    6.328   75.346    0.429    0.301   16.180
  850.203    6.328   78.378    0.420    0.284   15.028
  851.024    6.327   82.631    0.407    0.259   15.304
  851.844    6.367   87.493    0.397    0.230   15.877
  852.664    6.367   92.357    0.391    0.198   15.019
  853.484    6.365   97.825    0.397    0.187   13.444
  854.304    6.365  100.254    0.407    0.192   12.487
  855.125    6.364   96.590    0.412    0.195   13.194
  855.945    6.363   90.490    0.398    0.183   14.465
  856.765    6.363   84.999    0.373    0.176   15.006
  857.585    6.362   81.942    0.356    0.185   15.003
  858.406    6.402   84.980    0.355    0.188   13.185
  859.226    6.483   91.668    0.369    0.181   11.167
  860.046    6.563   99.575    0.380    0.182   10.961
  860.866    6.685  106.873    0.454    0.186   11.371
  861.686    6.806  114.779    0.506    0.181   10.756
  862.507    6.845  120.248    0.534    0.187    9.807
  863.327    6.723  116.586    0.567    0.197    8.942
  864.147    6.479  106.833    0.575    0.159    7.715
  864.967    6.397   89.160    0.572    0.041    8.304
  865.787    6.356   84.888    0.567    0.120    8.303
  866.608    6.314   88.531    0.566    0.158    8.301
  867.428    6.273   93.393    0.566    0.151    9.270
  868.248    6.272   92.165    0.568    0.094    9.616
  869.068    6.312   87.893    0.570    0.092    9.266
  869.888    6.434   82.402    0.571    0.112    9.096
