~VERSION INFORMATION
 VERS.                 2.0:   CWLS LOG ASCII STANDARD -VERSION 2.0
 WRAP.                  NO:   ONE LINE PER DEPTH STEP
~WELL INFORMATION BLOCK
#MNEM.UNIT           DATA                    DESCRIPTION OF MNEMONIC
#---------    -------------------            -------------------------------
# Generated from Intellog Unique Number	CN_94_101/WELL/1073
WELL.         11-14-096-14W4                 : Well_name    - WELL
LOC .         AA/11-14-096-14W4/0            : Location     - LOCATION
UWI .         AA/11-14-096-14W400            : Uwi          - UNIQUE WELL ID
ENTR.         JOETTE                         : Entered      - ENTERED BY
SRVC.         SCHLUMBERGER                   : Scn          - SERVICE COMPANY
DATE.         05/03/92                       : Date         - LOG DATE
STRT.M        60.5                           : top_depth    - START DEPTH
STOP.M        295                            : bot_depth    - STOP DEPTH
STEP.M        0.25                           : increment    - STEP LENGTH
 NULL. -999.2500:NULL Value
~CURVE INFORMATION BLOCK
#MNEM UNIT       ERCB CURVE CODE    CURVE DESCRIPTION
#-----------   ------------------   ----------------------------------
DEPT.M        00 001 00 00         : DEPTH        - DEPTH
ILD .OHMM     00 120 00 00         : RESD         - DEEP RESISTIVITY (DIL)
DPHI.V/V      00 890 00 00         : PHID         - DENSITY POROSITY (SANDSTONE)
NPHI.V/V      00 330 00 00         : PHIN         - NEUTRON POROSITY (SANDSTONE)
GR  .API      00 310 00 00         : GR           - GAMMA RAY
CALI.MM       00 280 01 00         : CAL          - CALIPER
~PARAMETER INFORMATION
#MNEM.UNIT           DATA             DESCRIPTION OF MNEMONIC
#---------         -----------     ------------------------------
GL  .M        530.78               : gl           - GROUND LEVEL ELEVATION
EREF.M        533.78               : kb           - ELEVATION OF DEPTH REFERENCE
DATM.M        533.78               : datum        - DATUM ELEVATION
TDD .M        296                  : tdd          - TOTAL DEPTH DRILLER
RUN .         ONE                  : Run          - RUN NUMBER
ENG .         BILL                 : Engineer     - RECORDING ENGINEER
WIT .         JIM                  : Witness      - WITNESSED BY
MUD .         GEL                  : Mud_type     - MUD TYPE
MATR.         SANDSTONE            : Logunit      - NEUTRON MATRIX
TMAX.C        25                   : BHT          - MAXIMUM RECORDED TEMPERATURE
BHTD.M        296                  : BHTDEP       - MAXIMUM RECORDED TEMPERATURE
RMT .C        10                   : MDTP         - TEMPERATURE OF MUD
MUDD.KG/M     1115                 : MWT          - MUD DENSITY
NEUT.         1                    : NEUTRON      - NEUTRON TYPE
RESI.         0                    : RESIST       - RESISTIVITY TYPE
RM  .OHMM     0.62                 : RM           - RESISTIVITY OF MUD
RMC .OHMM     0.62                 : RMC          - RESISTIVITY OF MUD CAKE
RMF .OHMM     0.62                 : RMF          - RESISTIVITY OF MUD FILTRATE
SUFT.C        4                    : SUFT         - SURFACE TEMPERATURE
~A  DEPTH     RESD     PHID     PHIN       GR      CAL
# ...
  206.500    6.759    0.283    0.447   82.523  196.946
  206.750    6.398    0.269    0.440   83.154  192.035
  207.000    5.320    0.273    0.453   85.573  192.121
  207.250    4.590    0.287    0.496   89.789  193.144
  207.500    4.266    0.303    0.531   91.604  195.188
  207.750    4.113    0.296    0.546   89.253  197.247
  208.000    4.433    0.277    0.534   86.316  197.305
  208.250    4.689    0.260    0.505   84.561  197.348
  208.500    4.607    0.265    0.480   84.596  196.426
  208.750    4.360    0.270    0.477   84.622  195.461
  209.000    3.693    0.278    0.485   85.252  195.518
  209.250    3.128    0.288    0.509   87.671  196.569
  209.500    2.699    0.305    0.533   91.274  200.615
  209.750    2.508    0.321    0.567   88.924  202.674
  210.000    2.654    0.315    0.574   87.775  203.697
  210.250    2.913    0.317    0.580   89.598  203.768
  210.500    3.443    0.303    0.581   90.825  203.811
  210.750    4.071    0.296    0.561   89.667  201.910
  211.000    4.468    0.292    0.525   86.712  200.945
  211.250    5.382    0.284    0.488   83.169  201.003
  211.500    5.908    0.289    0.471   83.221  203.062
  211.750    6.136    0.293    0.462   83.843  206.100
  212.000    6.138    0.296    0.487   86.262  211.140
  212.250    5.811    0.306    0.522   89.865  213.156
  212.500    5.399    0.285    0.540   92.292  225.136
  212.750    5.506    0.275    0.486   89.933  226.187
  213.000    5.715    0.250    0.460   89.380  204.385
  213.250    6.160    0.247    0.411   89.415  201.462
  213.500    6.515    0.251    0.425   90.641  205.508
  213.750    7.021    0.264    0.442   90.676  211.513
  214.000    7.566    0.271    0.443   90.097  208.589
  214.250    8.153    0.252    0.438   89.535  202.699
  214.500    8.952    0.255    0.438   90.771  198.768
  214.750    9.297    0.253    0.441   91.997  207.753
  215.000    9.304    0.252    0.451   92.032  211.800
  215.250    9.307    0.239    0.463   90.882  209.855
  215.500    8.976    0.239    0.453   90.303  202.958
  215.750    8.980    0.278    0.425   90.338  191.092
  216.000    8.990    0.259    0.424   90.977  187.174
  216.250    8.993    0.255    0.416   90.415  187.261
  216.500    9.167    0.237    0.411   91.037  188.326
  216.750    9.173    0.243    0.421   93.457  188.355
  217.000    9.179    0.240    0.445   92.895  189.406
  217.250    9.357    0.216    0.451   89.948  192.444
  217.500    9.363    0.211    0.440   88.203  193.480
  217.750    9.546    0.266    0.428   90.622  199.500
  218.000    9.553    0.244    0.422   92.436  195.568
  218.250    9.385    0.246    0.432   93.067  190.657
  218.500    9.389    0.232    0.438   91.313  194.689
  218.750    9.396    0.250    0.442   87.762  200.723
  219.000    9.400    0.237    0.436   89.585  196.791
  219.250    9.235    0.227    0.438   90.215  193.868
  219.500    9.073    0.257    0.454   89.653  197.914
  219.750    9.073    0.252    0.471   91.485  196.963
  220.000    8.755    0.228    0.488   93.904  194.040
  220.250    9.090    0.255    0.457   94.543  183.168
  220.500    8.929    0.242    0.443   93.964  180.244
  220.750    8.935    0.220    0.440   92.227  179.308
  221.000    8.941    0.218    0.428   91.648  178.372
  221.250    8.949    0.225    0.429   90.499  175.448
  221.500    8.953    0.258    0.432   91.726  174.512
  221.750    8.958    0.250    0.433   93.549  173.561
  222.000    8.801    0.265    0.439   94.171  174.641
  222.250    8.805    0.285    0.433   94.802  174.684
  222.500    8.812    0.284    0.431   93.056  174.756
  222.750    8.655    0.264    0.423   90.110  174.784
  223.000    8.505    0.275    0.417   87.751  174.856
  223.250    8.353    0.293    0.420   85.400  174.899
  223.500    8.360    0.296    0.425   81.858  174.971
  223.750    8.363    0.286    0.431   80.104  175.014
  224.000    8.526    0.271    0.427   78.946  175.100
  224.250    8.690    0.268    0.429   77.183  175.129
  224.500    9.366    0.282    0.444   73.044  175.186
  224.750   10.472    0.269    0.421   67.713  175.258
  225.000   12.847    0.233    0.346   61.778  175.330
  225.250   14.635    0.052    0.267   54.062  175.373
  225.500   15.482    0.018    0.227   49.932  177.417
  225.750   13.863    0.068    0.241   55.323  181.463
  226.000    8.414    0.123    0.279   62.511  182.486
  226.250    6.868    0.203    0.310   69.700  186.518
  226.500    6.037    0.232    0.429   75.696  190.549
  226.750    5.307    0.248    0.454   82.297  197.562
  227.000    5.212    0.253    0.477   87.109  207.556
  227.250    5.120    0.245    0.493   91.904  218.557
  227.500    5.124    0.239    0.504   90.755  218.615
  227.750    5.128    0.252    0.509   90.193  219.665
  228.000    5.226    0.263    0.512   90.807  223.712
  228.250    5.427    0.272    0.507   90.850  224.748
  228.500    5.636    0.262    0.492   90.876  228.780
  228.750    5.963    0.253    0.475   92.111  230.810
  229.000    6.191    0.251    0.473   91.549  234.842
  229.250    6.310    0.246    0.480   91.584  238.874
  229.500    6.432    0.215    0.469   93.398  240.919
  229.750    6.436    0.193    0.453   94.029  248.925
  230.000    6.209    0.159    0.433   91.687  249.976
  230.250    5.875    0.163    0.439   94.106  236.123
  230.500    5.262    0.200    0.464   96.525  250.105
  230.750    4.888    0.242    0.494   97.752  252.150
  231.000    4.459    0.255    0.511   95.989  254.194
  231.250    4.144    0.273    0.532   92.447  255.217
  231.500    3.923    0.286    0.545   89.500  259.249
  231.750    3.853    0.309    0.541   89.535  262.301
  232.000    3.785    0.307    0.546   90.165  262.358
  232.250    3.788    0.311    0.556   91.988  262.402
  232.500    3.933    0.313    0.571   93.811  261.480
  232.750    4.085    0.296    0.534   95.634  257.563
  233.000    4.401    0.284    0.517   96.265  254.639
  233.250    4.921    0.272    0.502   93.310  254.682
  233.500    5.504    0.277    0.500   90.959  261.695
  233.750    5.932    0.283    0.494   87.417  258.771
  234.000    5.936    0.270    0.483   86.855  249.901
  234.250    5.831    0.296    0.468   89.274  241.995
  234.500    6.056    0.301    0.453   93.482  235.082
  234.750    6.287    0.286    0.459   96.497  252.046
  235.000    6.650    0.268    0.465   97.724  242.152
  235.250    7.577    0.237    0.472   96.566  217.369
  235.500    8.015    0.222    0.486   94.216  221.401
  235.750    7.873    0.185    0.498   91.269  231.395
  236.000    7.453    0.123    0.511   89.515  230.459
  236.250    7.054    0.080    0.479   88.954  215.612
  236.500    6.557    0.149    0.436   93.161  202.752
  236.750    6.205    0.226    0.446   96.176  214.733
  237.000    6.095    0.217    0.455   95.018  213.797
  237.250    5.878    0.239    0.450   95.053  214.862
  237.500    5.881    0.257    0.451   96.280  216.921
  237.750    5.886    0.257    0.463   97.506  218.937
  238.000    5.889    0.228    0.474   96.945  222.969
  238.250    6.005    0.241    0.473   96.383  228.023
  238.500    6.120    0.244    0.459   97.610  228.052
  238.750    6.123    0.253    0.451  100.616  228.123
  239.000    6.360    0.245    0.450  103.632  228.166
  239.250    6.483    0.262    0.456  100.098  228.209
  239.500    6.487    0.270    0.465   98.344  227.273
  239.750    6.612    0.255    0.472   97.782  225.358
  240.000    6.261    0.247    0.472   97.220  225.401
  240.250    6.036    0.222    0.472   96.650  224.464
  240.500    5.712    0.192    0.473   94.317  226.538
  240.750    5.021    0.164    0.474   93.142  227.560
  241.000    4.413    0.181    0.462   91.388  231.606
  241.250    3.953    0.261    0.511   94.999  234.630
  241.500    3.741    0.273    0.524   96.226  237.668
  241.750    3.815    0.280    0.528   98.645  232.758
  242.000    3.888    0.283    0.493   99.880  225.874
  242.250    4.037    0.271    0.480   97.530  221.957
  242.500    4.271    0.257    0.480   95.171  221.021
  242.750    4.435    0.227    0.508   93.417  221.064
