~VERSION INFORMATION
 VERS.                 2.0:   CWLS LOG ASCII STANDARD -VERSION 2.0
 WRAP.                  NO:   ONE LINE PER DEPTH STEP
~WELL INFORMATION BLOCK
#MNEM.UNIT           DATA                    DESCRIPTION OF MNEMONIC
#---------    -------------------            -------------------------------
# Generated from Intellog Unique Number	CN_91_93/WELL/3686
WELL.         10-14-093-08W4                 : Well_name    - WELL
LOC .         AA/10-14-093-08W4/0            : Location     - LOCATION
UWI .         AA/10-14-093-08W400            : Uwi          - UNIQUE WELL ID
ENTR.         JOETTE                         : Entered      - ENTERED BY
SRVC.         SCHLUMBERGER                   : Scn          - SERVICE COMPANY
DATE.         03/22/92                       : Date         - LOG DATE
STRT.M        50                             : top_depth    - START DEPTH
STOP.M        219                            : bot_depth    - STOP DEPTH
STEP.M        0.25                           : increment    - STEP LENGTH
 NULL. -999.2500:NULL Value
~CURVE INFORMATION BLOCK
#MNEM UNIT       ERCB CURVE CODE    CURVE DESCRIPTION
#-----------   ------------------   ----------------------------------
DEPT.M        00 001 00 00         : DEPTH        - DEPTH
CALI.MM       00 280 01 00         : CAL          - CALIPER
GR  .API      00 310 00 00         : GR           - GAMMA RAY
NPHI.V/V      00 330 00 00         : PHIN         - NEUTRON POROSITY (SANDSTONE)
DPHI.V/V      00 890 00 00         : PHID         - DENSITY POROSITY (SANDSTONE)
ILD .OHMM     00 120 00 00         : RESD         - DEEP RESISTIVITY (DIL)
~PARAMETER INFORMATION
#MNEM.UNIT           DATA             DESCRIPTION OF MNEMONIC
#---------         -----------     ------------------------------
GL  .M        466.5                : gl           - GROUND LEVEL ELEVATION
EREF.M        466.5                : kb           - ELEVATION OF DEPTH REFERENCE
DATM.M        466.5                : datum        - DATUM ELEVATION
TDD .M        219.4                : tdd          - TOTAL DEPTH DRILLER
RUN .         ONE                  : Run          - RUN NUMBER
ENG .         BILL                 : Engineer     - RECORDING ENGINEER
WIT .         JIM                  : Witness      - WITNESSED BY
MUD .         GEL                  : Mud_type     - MUD TYPE
MATR.         SANDSTONE            : Logunit      - NEUTRON MATRIX
TMAX.C        16                   : BHT          - MAXIMUM RECORDED TEMPERATURE
BHTD.M        219.4                : BHTDEP       - MAXIMUM RECORDED TEMPERATURE
RMT .C        14                   : MDTP         - TEMPERATURE OF MUD
MUDD.KG/M     9666.66              : MWT          - MUD DENSITY
NEUT.         1                    : NEUTRON      - NEUTRON TYPE
RESI.         0                    : RESIST       - RESISTIVITY TYPE
RM  .OHMM     4.5                  : RM           - RESISTIVITY OF MUD
RMC .OHMM     4.5                  : RMC          - RESISTIVITY OF MUD CAKE
RMF .OHMM     4.5                  : RMF          - RESISTIVITY OF MUD FILTRATE
SUFT.C        4                    : SUFT         - SURFACE TEMPERATURE
~A  DEPTH      CAL       GR     PHIN     PHID     RESD
   50.000  186.143   68.630    0.549    0.031   24.309
   50.250  186.239   69.836    0.546    0.040   21.371
   50.500  185.312   72.850    0.555    0.014   21.078
   50.750  185.370   75.249    0.563    0.003   25.060
   51.000  185.486   79.434    0.564    0.004   32.015
   51.250  185.544   83.050    0.564    0.010   29.386
   51.500  184.617   83.699    0.565    0.005   24.043
   51.750  184.617   83.722    0.570   -0.000   20.538
   52.000  189.737   82.587    0.576    0.004   17.047
   52.250  180.908   80.860    0.578    0.013   18.066
   52.500  180.001   78.541    0.573    0.039   11.247
   52.750  180.078   74.450    0.573    0.040   19.157
   53.000  179.189   72.120    0.575    0.006   24.473
   53.250  179.267   68.620    0.578   -0.007   23.119
   53.500  179.344   63.346    0.551   -0.006   21.527
   53.750  179.402   59.254    0.533   -0.011   20.046
   54.000  179.518   60.483    0.518    0.000   19.489
   54.250  178.591   59.359    0.516    0.006   29.584
   54.500  178.669   58.211    0.514   -0.001   31.352
   54.750  178.746   64.169    0.519    0.027   27.962
   55.000  178.823   66.592    0.533    0.040   29.634
   55.250  178.901   74.335    0.547    0.011   33.750
   55.500  178.997   69.640    0.560   -0.000   34.754
   55.750  179.075   67.334    0.556    0.006   35.792
   56.000  179.133   67.369    0.551    0.008   32.849
   56.250  178.225   66.824    0.547    0.007   29.725
   56.500  178.302   69.826    0.541    0.016   31.497
   56.750  178.380   69.873    0.536    0.012   30.622
   57.000  178.477   78.195    0.542    0.009   28.514
   57.250  178.554   74.695    0.548    0.002   27.326
   57.500  178.651   70.603    0.558    0.009   28.139
   57.750  177.704   68.296    0.566    0.013   32.977
   58.000  177.782   65.967    0.569    0.021   38.102
   58.250  177.898   63.069    0.532    0.014   34.968
   58.500  177.936   63.707    0.531    0.005   29.871
   58.750  178.014   65.526    0.539    0.005   28.218
   59.000  179.076   67.335    0.547    0.010   27.437
   59.250  180.139   61.481    0.549    0.001   25.188
   59.500  181.202   60.346    0.531   -0.009   24.481
   59.750  182.264   62.154    0.525   -0.007   26.320
   60.000  185.355   67.520    0.556   -0.000   27.499
   60.250  186.379   76.446    0.561    0.001   28.317
   60.500  187.423   78.266    0.548   -0.002   30.439
   60.750  188.504   67.671    0.538   -0.007   31.349
   61.000  188.601   65.944    0.544   -0.011   30.473
   61.250  188.659   65.423    0.549   -0.012   31.838
   61.500  188.737   65.446    0.519   -0.007   30.953
   61.750  187.848   67.278    0.534    0.001   30.529
   62.000  187.906   74.997    0.548    0.010   28.022
   62.250  187.018   75.044    0.561    0.015   37.922
   62.500  186.129   72.134    0.557    0.007   36.337
   62.750  185.202   69.816    0.546   -0.000   35.839
   63.000  185.260   69.272    0.549    0.005   36.378
   63.250  185.376   73.456    0.557    0.005   31.986
   63.500  184.449   78.243    0.562   -0.007   32.937
   63.750  184.507   79.472    0.569   -0.013   32.956
   64.000  184.584   77.733    0.577   -0.006   32.039
   64.250  184.662   70.686    0.543    0.005   30.700
   64.500  183.754   67.197    0.527    0.021   31.613
   64.750  183.851   69.017    0.531    0.036   33.034
   65.000  183.947   71.416    0.537    0.040   33.522
   65.250  184.005   73.236    0.544    0.016   33.540
   65.500  184.063   69.748    0.549    0.006   33.090
   65.750  185.165   69.782    0.555    0.002   33.099
   66.000  185.242   71.625    0.564    0.065   32.649
   66.250  185.300   69.296    0.556    0.034   32.663
   66.500  185.358   67.569    0.558    0.005   32.686
   66.750  183.504   71.162    0.548   -0.005   34.145
   67.000  183.562   70.629    0.521    0.002   37.242
   67.250  181.707   67.708    0.530    0.014   43.645
   67.500  181.766   71.301    0.540    0.022   41.827
   67.750  180.858   76.088    0.551    0.015   37.844
   68.000  180.916   72.576    0.560    0.019   38.975
   68.250  181.012   71.441    0.531    0.046   35.770
   68.500  181.109   79.763    0.539    0.087   33.308
   68.750  181.167   81.583    0.551    0.057   31.920
   69.000  181.264   80.447    0.561   -0.006   31.938
   69.250  181.322  111.256    0.578   -0.009   31.960
   69.500  181.380  120.170    0.594   -0.001   31.517
   69.750  181.477  117.260    0.588    0.011   32.455
   70.000  181.574  116.124    0.578   -0.000   33.424
   70.250  181.612  116.762    0.584   -0.002   31.119
   70.500  181.690  122.129    0.590    0.011   33.946
   70.750  180.801  121.584    0.600    0.003   35.467
   71.000  180.859  121.630    0.601   -0.011   34.971
   71.250  180.956  122.859    0.599   -0.013   33.998
   71.500  180.067  118.768    0.595   -0.011   37.087
   71.750  180.106  119.405    0.595   -0.006   38.195
   72.000  180.183  120.043    0.600    0.003   38.206
   72.250  180.261  124.818    0.601    0.013   37.149
   72.500  181.343  118.362    0.596    0.001   35.093
   72.750  181.401  113.679    0.600   -0.009   32.211
   73.000  183.507  110.770    0.604   -0.011   29.994
   73.250  184.531  113.181    0.606   -0.009   28.334
   73.500  184.647  115.604    0.608   -0.010   28.350
   73.750  184.705  119.800    0.609   -0.018   32.279
   74.000  184.763  117.458    0.602   -0.021   33.244
   74.250  183.894  112.185    0.594   -0.017   33.262
   74.500  183.952  119.928    0.596   -0.008   37.337
   74.750  184.048  118.803    0.601    0.051   39.004
   75.000  185.072  128.296    0.602    0.253   34.786
   75.250  188.106  133.072    0.604    0.311   41.358
   75.500  192.124  133.721    0.590    0.337   40.791
   75.750  202.054  137.894    0.564    0.313   37.983
   76.000  201.165  142.102    0.548    0.298   38.560
   76.250  199.272  140.977    0.539    0.292   40.865
   76.500  199.349  141.001    0.557    0.284   40.888
   76.750  203.368  136.909    0.554    0.273   39.746
   77.000  200.489  130.453    0.541    0.332   45.260
   77.250  198.596  134.626    0.521    0.333   42.151
   77.500  199.678  136.457    0.511    0.320   43.405
   77.750  195.815  133.548    0.511    0.330   44.064
   78.000  193.922  129.445    0.500    0.316   42.827
   78.250  202.847  124.762    0.506    0.305   39.880
   78.500  200.954  121.262    0.513    0.314   36.605
   78.750  196.105  126.037    0.507    0.327   33.599
   79.000  208.005  121.354    0.489    0.344   38.814
   79.250  199.215  113.716    0.477    0.377   39.398
   79.500  191.430  109.045    0.474    0.277   38.309
   79.750  187.567  107.318    0.466    0.225   35.667
   80.000  186.678  106.182    0.471    0.251   32.747
   80.250  186.717  103.261    0.471    0.285   31.374
   80.500  187.799  100.352    0.471    0.210   30.502
   80.750  188.842  112.221    0.424    0.170   36.795
   81.000  192.880  127.058    0.459    0.202   39.559
   81.250  194.947  135.971    0.504    0.316   35.286
   81.500  195.990  145.488    0.493    0.292   33.811
   81.750  197.092  140.793    0.506    0.256   40.781
   82.000  197.150  133.758    0.520    0.275   44.485
   82.250  197.208  130.246    0.501    0.296   45.148
   82.500  197.285  128.519    0.470    0.308   43.267
   82.750  196.358  135.068    0.476    0.333   47.190
   83.000  195.450  139.264    0.487    0.308   46.543
   83.250  193.576  136.946    0.493    0.292   42.123
   83.500  192.649  133.434    0.493    0.330   43.364
   83.750  191.741  128.171    0.503    0.367   44.653
   84.000  192.804  138.267    0.512    0.419   45.331
   84.250  203.738  127.661    0.515    0.304   42.823
   84.500  215.638  120.626    0.529    0.262   41.627
   84.750  205.863  121.263    0.498    0.274   44.753
   85.000  194.118  124.845    0.441    0.281   50.249
   85.250  194.195  131.406    0.472    0.289   49.560
   85.500  199.199  133.225    0.500    0.316   46.817
   85.750  209.129  129.134    0.516    0.343   44.860
   86.000  220.063  120.893    0.537    0.161   41.772
   86.250  210.269  116.210    0.506    0.187   42.401
