~VERSION INFORMATION
 VERS.                 2.0:   CWLS LOG ASCII STANDARD -VERSION 2.0
 WRAP.                  NO:   ONE LINE PER DEPTH STEP
~WELL INFORMATION BLOCK
#MNEM.UNIT           DATA                    DESCRIPTION OF MNEMONIC
#---------    -------------------            -------------------------------
# Generated from Intellog Unique Number	CN_91_93/WELL/2842
WELL.         11-09-092-10W4                 : Well_name    - WELL
LOC .         AA/11-09-092-10W4/0            : Location     - LOCATION
UWI .         AA/11-09-092-10W400            : Uwi          - UNIQUE WELL ID
ENTR.         JOETTE                         : Entered      - ENTERED BY
SRVC.         COMPUTALOG                     : Scn          - SERVICE COMPANY
DATE.         03/27/92                       : Date         - LOG DATE
STRT.M        5                              : top_depth    - START DEPTH
STOP.M        83                             : bot_depth    - STOP DEPTH
STEP.M        0.25                           : increment    - STEP LENGTH
 NULL. -999.2500:NULL Value
~CURVE INFORMATION BLOCK
#MNEM UNIT       ERCB CURVE CODE    CURVE DESCRIPTION
#-----------   ------------------   ----------------------------------
DEPT.M        00 001 00 00         : DEPTH        - DEPTH
CALI.MM       00 280 01 00         : CAL          - CALIPER
GR  .API      00 310 00 00         : GR           - GAMMA RAY
NPHI.V/V      00 330 00 00         : PHIN         - NEUTRON POROSITY (SANDSTONE)
DPHI.V/V      00 890 00 00         : PHID         - DENSITY POROSITY (SANDSTONE)
ILD .OHMM     00 120 00 00         : RESD         - DEEP RESISTIVITY (DIL)
~PARAMETER INFORMATION
#MNEM.UNIT           DATA             DESCRIPTION OF MNEMONIC
#---------         -----------     ------------------------------
GL  .M        327                  : gl           - GROUND LEVEL ELEVATION
EREF.M        327                  : kb           - ELEVATION OF DEPTH REFERENCE
DATM.M        327                  : datum        - DATUM ELEVATION
TDD .M        84                   : tdd          - TOTAL DEPTH DRILLER
RUN .         ONE                  : Run          - RUN NUMBER
ENG .         BILL                 : Engineer     - RECORDING ENGINEER
WIT .         JIM                  : Witness      - WITNESSED BY
MUD .         GEL                  : Mud_type     - MUD TYPE
MATR.         SANDSTONE            : Logunit      - NEUTRON MATRIX
TMAX.C        15                   : BHT          - MAXIMUM RECORDED TEMPERATURE
BHTD.M        84                   : BHTDEP       - MAXIMUM RECORDED TEMPERATURE
RMT .C        14                   : MDTP         - TEMPERATURE OF MUD
MUDD.KG/M     1020                 : MWT          - MUD DENSITY
NEUT.         1                    : NEUTRON      - NEUTRON TYPE
RESI.         0                    : RESIST       - RESISTIVITY TYPE
RM  .OHMM     13.6                 : RM           - RESISTIVITY OF MUD
RMC .OHMM     13.6                 : RMC          - RESISTIVITY OF MUD CAKE
RMF .OHMM     13.6                 : RMF          - RESISTIVITY OF MUD FILTRATE
SUFT.C        -15                  : SUFT         - SURFACE TEMPERATURE
~A  DEPTH      CAL       GR     PHIN     PHID     RESD
# ...
   41.500  133.828   79.247    0.400    0.320   49.290
   41.750  134.735   68.498    0.388    0.296   34.138
   42.000  135.639  105.560    0.391    0.264   27.643
   42.250  135.348  128.577    0.407    0.251   19.502
   42.500  134.461  109.163    0.406    0.247   20.238
   42.750  135.664  128.594    0.409    0.256   22.193
   43.000  135.673  107.985    0.449    0.243   21.598
   43.250  134.785  128.013    0.484    0.235   21.604
   43.500  135.091  105.313    0.487    0.221   24.353
   43.750  135.700   96.657    0.471    0.193   23.919
   44.000  135.409  118.777    0.455    0.216   22.029
   44.250  134.819  125.361    0.450    0.248   21.437
   44.500  134.529  123.276    0.447    0.243   21.641
   44.750  134.240  134.042    0.470    0.231   22.254
   45.000  134.247  107.755    0.503    0.241   23.093
   45.250  134.256   98.202    0.482    0.250   23.101
   45.500  134.862  107.772    0.484    0.247   21.472
   45.750  135.170  103.896    0.494    0.245   22.281
   46.000  135.178   86.574    0.380    0.231   31.029
   46.250  134.589  100.627    0.376    0.163   25.357
   46.500  134.001  117.070    0.408    0.180   20.159
   46.750  133.711  121.560    0.474    0.218   18.910
   47.000  134.913  111.708    0.492    0.225   18.232
   47.250  134.624  127.853    0.471    0.214   19.097
   47.500  134.333  108.438    0.447    0.213   20.942
   47.750  134.341  100.379    0.432    0.218   19.824
   48.000  134.351  101.882    0.422    0.230   18.940
   48.250  134.658  112.349    0.442    0.228   19.122
   48.500  134.368  113.552    0.454    0.230   19.663
   48.750  134.078  111.769    0.477    0.231   19.312
   49.000  132.891  106.697    0.481    0.234   19.858
   49.250  132.601  118.360    0.472    0.234   19.865
   49.500  133.506  106.416    0.476    0.237   20.617
   49.750  134.412  117.182    0.469    0.243   20.811
   50.000  134.720  127.051    0.490    0.237   20.819
   50.250  134.728  121.084    0.519    0.237   21.605
   50.500  134.437  105.255    0.469    0.230   23.261
   50.750  134.446  101.080    0.409    0.207   23.056
   51.000  134.453  114.237    0.394    0.204   23.276
   51.250  134.165  113.050    0.440    0.233   23.715
   51.500  134.172  116.047    0.419    0.237   22.659
   51.750  134.181  129.203    0.425    0.247   22.049
   52.000  134.191  101.123    0.424    0.240   22.884
   52.250  133.600  111.291    0.407    0.263   21.663
   52.500  132.413  102.336    0.421    0.287   23.109
   52.750  133.319   94.874    0.415    0.293   26.778
   53.000  132.132  103.548    0.436    0.274   28.832
   53.250  134.534   96.386    0.428    0.264   27.546
   53.500  135.436  102.071    0.405    0.260   26.319
   53.750  135.147  109.850    0.394    0.264   25.146
   54.000  134.858  106.272    0.398    0.272   24.694
   54.250  133.669   91.937    0.392    0.271   29.146
   54.500  133.678  104.199    0.381    0.255   26.595
   54.750  133.985  101.517    0.392    0.243   24.491
   55.000  133.995  110.191    0.400    0.255   22.762
   55.250  134.301  136.495    0.394    0.255   23.841
   55.500  133.712   97.361    0.408    0.249   20.777
   55.750  133.721  101.850    0.372    0.259   21.762
   56.000  133.729  111.123    0.384    0.261   21.972
   56.250  132.543   99.178    0.405    0.250   21.979
   56.500  132.253  100.680    0.416    0.239   25.703
   56.750  132.859  103.977    0.367    0.244   28.187
   57.000  133.466   89.343    0.356    0.252   25.020
   57.250  134.072  103.694    0.403    0.258   20.827
   57.500  134.081   95.336    0.403    0.261   23.262
   57.750  134.091  103.114    0.384    0.270   29.550
   58.000  133.801  109.098    0.386    0.268   25.753
   58.250  133.508   96.557    0.388    0.246   21.634
   58.500  133.518  112.702    0.429    0.250   21.642
   58.750  134.124  119.583    0.414    0.249   24.173
   59.000  135.029  124.074    0.414    0.244   24.180
   59.250  135.037  116.315    0.399    0.246   22.891
   59.500  133.850  110.047    0.415    0.242   22.482
   59.750  132.962  121.709    0.398    0.237   20.514
   60.000  132.673  108.570    0.392    0.241   21.096
   60.250  132.681  107.085    0.404    0.248   20.909
   60.500  132.690  101.715    0.439    0.247   20.535
   60.750  133.595  105.309    0.446    0.245   21.707
   61.000  135.096  115.477    0.424    0.245   21.713
   61.250  133.612  112.199    0.459    0.246   20.936
   61.500  132.424  108.024    0.453    0.250   20.943
   61.750  133.927  128.055    0.446    0.241   19.465
   62.000  133.935  105.949    0.467    0.246   20.200
   62.250  132.751  101.775    0.483    0.258   20.581
   62.500  133.656   99.692    0.492    0.256   20.970
   62.750  134.261  114.940    0.421    0.253   22.372
   63.000  134.568   97.318    0.396    0.260   22.379
   63.250  133.979  114.360    0.428    0.268   21.185
   63.500  132.795  106.002    0.461    0.266   19.689
   63.750  132.803   94.656    0.482    0.265   19.878
   64.000  133.410   84.504    0.492    0.267   38.186
   64.250  134.014   70.767    0.506    0.280   60.479
   64.500  134.619   73.166    0.439    0.319   42.275
   64.750  135.226   86.622    0.420    0.283   29.281
   65.000  135.235   99.479    0.416    0.268   25.285
   65.250  134.646  102.177    0.451    0.279   27.223
   65.500  134.355   89.934    0.491    0.287   27.232
   65.750  134.363   83.369    0.503    0.292   47.282
   66.000  134.671   69.335    0.498    0.305   56.843
   66.250  135.277   70.836    0.479    0.326   62.335
   66.500  135.287   67.259    0.471    0.339   71.571
   66.750  134.697   66.969    0.454    0.343   68.379
   67.000  134.706   75.942    0.430    0.333   65.936
   67.250  134.715   67.285    0.434    0.330   71.644
   67.500  134.723   68.489    0.430    0.331   71.009
   67.750  135.030   67.303    0.435    0.332   71.691
   68.000  135.040   49.980    0.452    0.337   70.406
   68.250  135.348   59.849    0.480    0.344   91.938
   68.500  136.551   63.742    0.454    0.348   97.182
   68.750  137.755   61.063    0.488    0.342  168.739
   69.000  137.166   47.922    0.498    0.364  372.050
   69.250  136.577   48.528    0.450    0.375  290.390
   69.500  135.988   54.514    0.434    0.354   92.092
   69.750  135.698   79.921    0.424    0.335   29.746
   70.000  135.110   81.723    0.452    0.323   44.996
   70.250  134.819   71.273    0.486    0.330   81.802
   70.500  134.528   62.018    0.506    0.346  106.819
   70.750  134.536   56.349    0.493    0.355  140.776
   71.000  134.546   51.577    0.491    0.358   90.592
   71.250  134.852   53.677    0.494    0.347  353.142
   71.500  136.356   43.228    0.456    0.365  157.343
   71.750  137.859   55.487    0.437    0.350   61.644
   72.000  138.764   69.241    0.442    0.339  127.448
   72.250  136.084   61.182    0.445    0.340  131.054
   72.500  135.494   52.525    0.457    0.335   72.138
   72.750  135.202   71.657    0.483    0.331   68.924
   73.000  134.614   65.690    0.504    0.332   83.619
   73.250  134.923   56.136    0.448    0.338  121.929
   73.500  135.230   48.676    0.435    0.348  200.342
   73.750  135.537   49.879    0.446    0.358  130.115
   74.000  135.544   48.990    0.432    0.368  317.407
   74.250  134.656   49.597    0.429    0.375  371.216
   74.500  134.068   44.824    0.414    0.385   48.273
   74.750  133.777   60.969    0.458    0.397   43.247
   75.000  134.084   68.747    0.469    0.357   54.937
   75.250  134.094   55.608    0.448    0.342   84.647
   75.500  132.308   43.664    0.443    0.340   55.480
   75.750  132.318   64.589    0.433    0.333   70.478
   76.000  133.522   63.105    0.470    0.337   85.512
   76.250  134.428   62.815    0.469    0.348   88.740
   76.500  134.139   65.811    0.446    0.357   39.905
   76.750  133.847   73.290    0.406    0.351   20.787
   77.000  132.361   66.724    0.365    0.314   17.623
   77.250  131.175   83.764    0.356    0.266   16.531
   77.500  131.780   87.061    0.392    0.233   20.618
   77.750  132.687   80.197    0.409    0.242   19.162
