~VERSION INFORMATION
 VERS.                 2.0:   CWLS LOG ASCII STANDARD -VERSION 2.0
 WRAP.                  NO:   ONE LINE PER DEPTH STEP
~WELL INFORMATION BLOCK
#MNEM.UNIT           DATA                    DESCRIPTION OF MNEMONIC
#---------    -------------------            -------------------------------
# Generated from Intellog Unique Number	CX_WELLS/WELL/3871
WELL.         HUDSON BAY HORSE               : Well_name    - WELL
LOC .         AA/10-16-087-11W4/0            : Location     - LOCATION
UWI .         AA/10-16-087-11W400            : Uwi          - UNIQUE WELL ID
ENTR.         TIM                            : Entered      - ENTERED BY
SRVC.         SCHLUMBERGER                   : Scn          - SERVICE COMPANY
STRT.F        150                            : top_depth    - START DEPTH
STOP.F        569.948                        : bot_depth    - STOP DEPTH
STEP.F        0.82                           : increment    - STEP LENGTH
 NULL. -999.2500:NULL Value
~CURVE INFORMATION BLOCK
#MNEM UNIT       ERCB CURVE CODE    CURVE DESCRIPTION
#-----------   ------------------   ----------------------------------
DEPT.F        00 001 00 00         : DEPTH        - DEPTH
GR  .API      00 310 00 00         : GR           - GAMMA RAY
NPHI.V/V      00 330 00 00         : PHIN         - NEUTRON POROSITY (SANDSTONE)
ILD .OHMM     00 120 00 00         : RESD         - DEEP RESISTIVITY (DIL)
~PARAMETER INFORMATION
#MNEM.UNIT           DATA             DESCRIPTION OF MNEMONIC
#---------         -----------     ------------------------------
GL  .F        1450                 : gl           - GROUND LEVEL ELEVATION
EREF.F        1450                 : kb           - ELEVATION OF DEPTH REFERENCE
DATM.F        1450                 : datum        - DATUM ELEVATION
TDD .F        598                  : tdd          - TOTAL DEPTH DRILLER
RUN .         ONE                  : Run          - RUN NUMBER
ENG .         BILL                 : Engineer     - RECORDING ENGINEER
WIT .         JIM                  : Witness      - WITNESSED BY
MUD .         GEL                  : Mud_type     - MUD TYPE
MATR.         SANDSTONE            : Logunit      - NEUTRON MATRIX
TMAX.F        44                   : BHT          - MAXIMUM RECORDED TEMPERATURE
BHTD.F        598                  : BHTDEP       - MAXIMUM RECORDED TEMPERATURE
MATR.         1                    : LOGUNIT      - NEUTRON MATRIX
RMT .F        44                   : MDTP         - TEMPERATURE OF MUD
NEUT.         1                    : NEUTRON      - NEUTRON TYPE
RESI.         4                    : RESIST       - RESISTIVITY TYPE
RMC .OHMM     3.2                  : RMC          - RESISTIVITY OF MUD CAKE
RMF .OHMM     5                    : RMF          - RESISTIVITY OF MUD FILTRATE
SUFT.F        35.6                 : SUFT         - SURFACE TEMPERATURE
~A  DEPTH       GR     PHIN     RESD
# ...
  327.986   58.097    0.420   23.017
  328.806   54.523    0.422   22.319
  329.626   51.814    0.414   22.968
  330.446   52.669    0.407   23.621
  331.266   55.264    0.407   24.274
  332.087   55.686    0.396   24.086
  332.907   57.395    0.374   24.240
  333.727   58.693    0.367   26.744
  334.547   60.866    0.369   26.046
  335.367   63.482    0.398   24.854
  336.188   64.326    0.404   23.146
  337.008   62.503    0.411   21.949
  337.828   60.247    0.410   20.410
  338.648   58.445    0.395   20.222
  339.469   54.840    0.384   22.226
  340.289   53.037    0.375   26.245
  341.109   51.214    0.352   24.038
  341.929   53.387    0.348   20.985
  342.749   56.446    0.355   19.451
  343.570   59.515    0.382   18.416
  344.390   63.902    0.407   18.397
  345.210   66.940    0.414   17.704
  346.030   67.794    0.429   16.160
  346.850   69.514    0.429   15.472
  347.671   71.697    0.433   14.443
  348.491   73.438    0.437   13.582
  349.311   76.053    0.447   12.716
  350.131   75.116    0.456   12.191
  350.951   72.850    0.467   11.657
  351.772   72.829    0.477   11.816
  352.592   76.331    0.488   12.296
  353.412   78.936    0.481   12.786
  354.232   79.781    0.457   13.607
  355.052   81.057    0.438   14.251
  355.873   81.922    0.433   14.231
  356.693   83.653    0.437   14.211
  357.513   85.382    0.437   14.360
  358.333   87.555    0.437   14.513
  359.154   87.071    0.436   15.157
  359.974   82.138    0.435   15.484
  360.794   75.443    0.437   15.795
  361.614   74.969    0.437   16.612
  362.434   75.371    0.436   17.102
  363.255   83.754    0.432   18.097
  364.075   86.813    0.428   19.255
  364.895   90.314    0.426   19.908
  365.715   93.373    0.419   20.225
  366.535   95.092    0.411   21.047
  367.356   95.947    0.403   22.037
  368.176   95.906    0.393   22.185
  368.996   85.215    0.385   21.824
  369.816   82.084    0.364   21.463
  370.636   78.500    0.350   21.275
  371.457   77.109    0.353   21.082
  372.277   80.178    0.374   20.731
  373.097   83.237    0.378   20.533
  373.917   86.728    0.373   20.518
  374.738   88.901    0.369   20.662
  375.558   90.188    0.372   20.983
  376.378   89.704    0.377   21.300
  377.198   88.777    0.379   21.617
  378.018   88.282    0.376   22.102
  378.839   88.261    0.371   22.592
  379.659   85.563    0.366   23.750
  380.479   81.082    0.349   24.908
  381.299   76.612    0.328   25.725
  382.119   73.471    0.319   26.378
  382.940   68.991    0.300   27.200
  383.760   65.407    0.280   31.565
  384.580   58.722    0.262   34.069
  385.400   56.456    0.295   38.087
  386.220   55.972    0.317   41.438
  387.041   54.159    0.324   46.471
  387.861   50.132    0.325   50.321
  388.681   45.209    0.290   53.671
  389.501   47.372    0.258   58.868
  390.322   49.555    0.209   57.165
  391.142   52.171    0.162   57.141
  391.962   55.672    0.126   55.775
  392.782   59.174    0.126   44.472
  393.602   61.800    0.142   36.371
  394.423   66.630    0.241   34.327
  395.243   70.574    0.307   32.625
  396.063   71.418    0.354   28.899
  396.883   71.356    0.389   26.014
  397.703   71.325    0.411   24.138
  398.524   71.727    0.415   23.614
  399.344   72.128    0.405   23.084
  400.164   72.973    0.396   22.728
  400.984   73.807    0.400   22.204
  401.804   74.208    0.399   21.679
  402.625   73.281    0.398   21.323
  403.445   71.468    0.393   20.625
  404.265   69.202    0.393   19.769
  405.085   70.932    0.394   18.235
  405.906   73.105    0.398   16.192
  406.726   73.507    0.408   14.148
  407.546   73.465    0.418   14.464
  408.366   74.752    0.433   15.454
  409.186   76.050    0.452   16.439
  410.007   78.666    0.468   17.098
  410.827   81.724    0.463   17.414
  411.647   83.897    0.452   18.063
  412.467   85.627    0.444   19.058
  413.287   84.257    0.436   19.879
  414.108   81.991    0.427   20.196
  414.928   78.840    0.414   20.676
  415.748   76.594    0.406   21.329
  416.568   72.124    0.403   21.646
  417.388   69.426    0.398   21.790
  418.209   68.035    0.386   21.948
  419.029   67.561    0.374   21.928
  419.849   67.056    0.360   22.582
  420.669   66.582    0.342   23.403
  421.490   66.109    0.324   23.215
  422.310   65.614    0.355   21.677
  423.130   66.458    0.368   19.806
  423.950   68.188    0.383   17.258
  424.770   68.590    0.387   14.882
  425.591   65.891    0.392   13.511
  426.411   62.297    0.403   13.992
  427.231   60.051    0.416   14.645
  428.051   56.910    0.436   15.303
  428.871   53.748    0.481   17.639
  429.692   51.935    0.485   18.797
  430.512   53.675    0.477   21.979
  431.332   57.177    0.468   23.133
  432.152   56.693    0.454   22.098
  432.972   53.984    0.441   21.574
  433.793   52.181    0.430   22.064
  434.613   48.587    0.428   22.717
  435.433   46.321    0.429   21.856
  436.253   48.947    0.429   20.827
  437.073   55.991    0.434   19.456
  437.894   60.821    0.440   18.085
  438.714   65.651    0.447   16.720
  439.534   67.824    0.446   12.657
  440.354   69.554    0.446   11.628
  441.175   71.738    0.448   10.089
  441.995   75.682    0.457    9.569
  442.815   79.183    0.474    9.871
  443.635   79.575    0.486    9.856
  444.455   79.543    0.497    9.837
  445.276   80.367    0.490    9.817
  446.096   80.779    0.480    9.961
  446.916   80.727    0.469   10.109
  447.736   80.686    0.461   10.268
  448.556   81.983    0.457   10.406
  449.377   84.156    0.460   10.555
  450.197   87.205    0.459   10.867
  451.017   88.502    0.459   11.193
  451.837   85.340    0.460   12.005
  452.657   84.434    0.466   12.332
  453.478   84.382    0.471   12.817
  454.298   86.112    0.484   13.465
  455.118   84.299    0.487   13.955
  455.938   75.390    0.487   14.945
  456.759   66.049    0.479   16.440
  457.579   63.793    0.452   19.117
  458.399   60.652    0.425   20.612
  459.219   57.057    0.394   21.265
  460.039   57.016    0.358   26.125
  460.860   57.860    0.346   26.610
  461.680   57.819    0.350   27.600
  462.500   55.553    0.353   29.262
  463.320   53.750    0.357   32.781
  464.140   48.384    0.357   36.973
  464.961   39.475    0.351   49.414
  465.781   30.134    0.339   72.451
  466.601   25.221    0.221   73.109
  467.421   17.641    0.184   73.431
  468.241   15.818    0.155   73.243
  469.062   16.219    0.099   67.329
  469.882   17.506    0.096   50.974
  470.702   18.794    0.177   39.502
  471.522   20.081    0.214   38.468
  472.343   22.707    0.272   38.617
  473.163   24.870    0.286   38.592
  473.983   24.818    0.305   38.577
  474.803   25.219    0.310   38.385
  475.623   25.631    0.306   38.033
  476.444   27.804    0.297   37.845
  477.264   29.967    0.288   37.647
  478.084   32.139    0.293   37.633
  478.904   34.323    0.302   37.608
  479.724   37.371    0.317   37.252
  480.545   39.111    0.325   36.559
  481.365   41.274    0.328   35.866
  482.185   42.551    0.344   35.337
  483.005   42.973    0.342   36.163
  483.825   43.817    0.340   39.341
  484.646   42.005    0.342   40.167
  485.466   39.749    0.350   41.493
  486.286   37.040    0.357   42.315
  487.106   36.999    0.352   40.771
  487.927   39.614    0.247   39.574
  488.747   43.126    0.197   38.718
  489.567   47.946    0.262   37.347
  490.387   52.786    0.297   36.654
  491.207   55.392    0.313   38.990
  492.028   52.703    0.326   44.018
  492.848   42.909    0.338   48.041
  493.668   27.347    0.365   49.373
  494.488   24.659    0.294   52.214
  495.308   18.397    0.244   52.867
  496.129   17.027    0.168   48.799
  496.949   17.871    0.104   45.409
  497.769   18.726    0.212   41.688
  498.589   21.331    0.232   39.313
  499.409   23.061    0.242   36.259
  500.230   24.359    0.249   34.389
  501.050   27.860    0.283   32.677
  501.870   37.551    0.334   31.642
  502.690   40.631    0.356   31.296
  503.510   46.346    0.360   30.435
  504.331   54.276    0.363   28.891
  505.151   60.878    0.367   27.694
