~VERSION INFORMATION
 VERS.                 2.0:   CWLS LOG ASCII STANDARD -VERSION 2.0
 WRAP.                  NO:   ONE LINE PER DEPTH STEP
~WELL INFORMATION BLOCK
#MNEM.UNIT           DATA                    DESCRIPTION OF MNEMONIC
#---------    -------------------            -------------------------------
# Generated from Intellog Unique Number	CN_94_101/WELL/3257
WELL.         10-02-095-06W4                 : Well_name    - WELL
LOC .         AA/10-02-095-06W4/0            : Location     - LOCATION
UWI .         AA/10-02-095-06W400            : Uwi          - UNIQUE WELL ID
ENTR.         TIM                            : Entered      - ENTERED BY
SRVC.         SCHLUMBERGER                   : Scn          - SERVICE COMPANY
DATE.         06/18/92                       : Date         - LOG DATE
STRT.M        100                            : top_depth    - START DEPTH
STOP.M        340                            : bot_depth    - STOP DEPTH
STEP.M        0.25                           : increment    - STEP LENGTH
 NULL. -999.2500:NULL Value
~CURVE INFORMATION BLOCK
#MNEM UNIT       ERCB CURVE CODE    CURVE DESCRIPTION
#-----------   ------------------   ----------------------------------
DEPT.M        00 001 00 00         : DEPTH        - DEPTH
GR  .API      00 310 00 00         : GR           - GAMMA RAY
NPHI.V/V      00 330 00 00         : PHIN         - NEUTRON POROSITY (SANDSTONE)
DPHI.V/V      00 890 00 00         : PHID         - DENSITY POROSITY (SANDSTONE)
ILD .OHMM     00 120 00 00         : RESD         - DEEP RESISTIVITY (DIL)
~PARAMETER INFORMATION
#MNEM.UNIT           DATA             DESCRIPTION OF MNEMONIC
#---------         -----------     ------------------------------
GL  .M        595.5                : gl           - GROUND LEVEL ELEVATION
EREF.M        598.5                : kb           - ELEVATION OF DEPTH REFERENCE
DATM.M        598.5                : datum        - DATUM ELEVATION
TDD .M        344                  : tdd          - TOTAL DEPTH DRILLER
RUN .         ONE                  : Run          - RUN NUMBER
ENG .         BILL                 : Engineer     - RECORDING ENGINEER
WIT .         JIM                  : Witness      - WITNESSED BY
MUD .         GEL                  : Mud_type     - MUD TYPE
MATR.         SANDSTONE            : Logunit      - NEUTRON MATRIX
TMAX.C        14                   : BHT          - MAXIMUM RECORDED TEMPERATURE
BHTD.M        344                  : BHTDEP       - MAXIMUM RECORDED TEMPERATURE
RMT .C        14                   : MDTP         - TEMPERATURE OF MUD
MUDD.KG/M     1050                 : MWT          - MUD DENSITY
NEUT.         1                    : NEUTRON      - NEUTRON TYPE
RESI.         0                    : RESIST       - RESISTIVITY TYPE
RM  .OHMM     3.15                 : RM           - RESISTIVITY OF MUD
RMC .OHMM     3.15                 : RMC          - RESISTIVITY OF MUD CAKE
RMF .OHMM     3.15                 : RMF          - RESISTIVITY OF MUD FILTRATE
SUFT.C        4                    : SUFT         - SURFACE TEMPERATURE
~A  DEPTH       GR     PHIN     PHID     RESD
# ...
  317.500   43.833    0.410    0.236   79.698
  317.750   39.665    0.412    0.250   87.802
  318.000   39.115    0.412    0.260  100.443
  318.250   40.381    0.409    0.259  321.491
  318.500   42.872    0.407    0.256  436.871
  318.750   44.110    0.404    0.249  454.573
  319.000   45.996    0.403    0.243  414.149
  319.250   46.643    0.403    0.238  377.164
  319.500   47.303    0.404    0.237  330.513
  319.750   47.978    0.408    0.240  253.496
  320.000   48.020    0.410    0.243  146.187
  320.250   48.708    0.410    0.246  123.319
  320.500   48.750    0.407    0.250  110.234
  320.750   49.411    0.401    0.250  114.701
  321.000   50.677    0.397    0.250  136.418
  321.250   51.943    0.400    0.247  162.115
  321.500   52.026    0.403    0.246  207.981
  321.750   50.238    0.404    0.246  233.532
  322.000   47.253    0.405    0.245  262.439
  322.250   45.493    0.405    0.247  230.073
  322.500   49.194    0.405    0.247  209.526
  322.750   53.501    0.405    0.248  190.658
  323.000   55.977    0.405    0.246  170.357
  323.250   53.006    0.405    0.245  149.409
  323.500   51.232    0.405    0.245  136.010
  323.750   51.288    0.405    0.243  110.494
  324.000   51.357    0.403    0.245   95.040
  324.250   51.412    0.403    0.244   80.239
  324.500   49.638    0.400    0.244   85.095
  324.750   44.865    0.400    0.243   91.980
  325.000   43.710    0.397    0.242   99.421
  325.250   43.160    0.394    0.239  105.438
  325.500   42.596    0.394    0.236  109.666
  325.750   40.244    0.391    0.234  116.303
  326.000   37.273    0.390    0.231  130.591
  326.250   35.499    0.385    0.229  164.447
  326.500   33.738    0.382    0.226  210.973
  326.750   31.978    0.372    0.221  246.085
  327.000   32.020    0.361    0.219  298.183
  327.250   31.497    0.356    0.211  361.457
  327.500   32.145    0.359    0.206  429.896
  327.750   32.200    0.357    0.199  482.711
  328.000   33.480    0.352    0.194  521.765
  328.250   34.141    0.345    0.186  532.669
  328.500   35.407    0.342    0.184  513.824
  328.750   36.054    0.335    0.181  504.757
  329.000   36.715    0.328    0.186  515.306
  329.250   36.770    0.325    0.195  536.407
  329.500   37.431    0.331    0.201  547.168
  329.750   38.106    0.335    0.206  569.574
  330.000   38.781    0.351    0.210  581.716
  330.250   39.413    0.357    0.206  561.136
  330.500   40.074    0.357    0.192  551.007
  330.750   38.342    0.357    0.181  511.445
  331.000   37.159    0.363    0.175  474.529
  331.250   35.398    0.369    0.181  234.993
  331.500   33.638    0.375    0.192  194.655
  331.750   31.877    0.380    0.205  173.858
  332.000   30.722    0.385    0.208  161.308
  332.250   30.172    0.386    0.209  155.601
  332.500   30.228    0.386    0.209  155.794
  332.750   30.283    0.384    0.206  159.115
  333.000   30.944    0.383    0.197  159.312
  333.250   31.605    0.379    0.186  159.640
  333.500   34.082    0.378    0.164  153.928
  333.750   43.231    0.372    0.155  137.482
  334.000   49.340    0.358    0.163  111.689
  334.250   57.870    0.354    0.174   79.414
  334.500   65.203    0.374    0.192   54.334
  334.750   61.021    0.387    0.215   32.550
  335.000   56.220    0.401    0.214   20.248
  335.250   47.801    0.410    0.205   15.835
  335.500   44.830    0.402    0.189   12.383
  335.750   43.689    0.392    0.149   10.455
  336.000   43.731    0.365    0.029    9.700
  336.250   43.800    0.342    0.020    9.353
  336.500   44.461    0.315    0.021    9.549
  336.750   46.332    0.331    0.022   10.135
  337.000   48.204    0.364    0.021   10.739
  337.250   50.075    0.387    0.020   13.778
  337.500   51.341    0.381    0.016   16.701
  337.750   53.213    0.335    0.013   18.753
  338.000   54.493    0.259    0.012   20.660
  338.250   55.773    0.274    0.012   21.910
  338.500   57.025    0.288    0.012   23.236
  338.750   58.305    0.297    0.012   23.722
  339.000   58.938    0.298    0.014   24.694
  339.250   60.204    0.298    0.015   24.734
  339.500   61.471    0.298    0.016   24.765
  339.750   62.751    0.298    0.016   24.805
  340.000   64.622    0.299    0.015   24.846
