~Version : LASO    vs 4.00
VERS.                2.00:   CWLS Log ASCII Standard -VERSION 2.0
WRAP.                  NO:
~Well Information Block
#MNEM.UNIT       Data                        Description of Mnemonic
#----.----      -------------------------- : -----------------------------
STRT.M             3.0000:
STOP.M           202.0000:
STEP.M             0.1250:
NULL.           -999.2500:
COMP.  MOBILOIL CANADA             :COMPANY
WELL.  MOBIL CLARKE OV 10-26       :WELL
FLD.   CLARKE                      :FIELD
LOC.   10-26-090-07W4              :LOCATION
CTRY.  CANADA                      :COUNTRY
PROV.  ALBERTA                     :PROVINCE
SRVC.  DRESSER ATLAS               :SERVICE COMPANY
DATE.  31-JAN-81                   :LOG DATE
UWI.   AA/10-26-090-07W400         :UNIQUE WELL ID
~Parameter Information Block
#MNEM.UNIT       Data                        Description of Mnemonic
#----.----      -------------------------- : -----------------------------
RUN .                   1                 : Run Number
GL  .M           456.0000                 : Ground Level Elevation
DREF.                  KB                 : Depth Reference
EREF.M           456.0000                 : Elevation of Depth Reference
TDL .M           201.0000                 : Total Depth Logger
TDD .M           203.0000                 : Total Depth Driller
CSGL.M            13.0000                 : Casing Bottom Logger
CSGD.M            12.0000                 : Casing Bottom Driller
CSGS.MM          219.0000                 : Casing Size
CSGW.KG/M          0.0000                 : Casing Weight
BHT .DEGC         18.0000                 : Bottom Hole Temperature
BS  .MM          171.4000                 : Bit Size
DFD .              9.7000                 : Mud Weight (Density)
DFV .             85.0000                 : Mud Viscosity
RM  .OHMM          4.0000                 : Mud Resistivity
RMT .DEGC         18.0000                 : Mud Resistivity Temperature
RMF .OHMM          6.2000                 : Mud Filtrate Resistivity
RMFT.DEGC         12.0000                 : RMF Temperature
RMC .OHMM         11.6000                 : Mud Cake Resistivity
RMCT.DEGC         12.0000                 : RMC Temperature
~Curve Information Block
#MNEM.UNIT        API CODE    Curve Description
#---------    ------------    -------------------------------------------
DEPT.M                    :   DEPTH
CALI.MM       42 280  1  1:   3 DENSITY CALIPER
DPHI.V/V                  :   DPHI
DT  .US/M     60 520 42  1:   2 SONIC INTERVAL TRANSIT TIME (COMPENSATED)
GR  .GAPI     42 310  1  1:   4 GAMMA RAY
LLD .Ohmm                 :   LLD
NPHI.V/V      42 890  3  1:   5 NEUTRON POROSITY (SANDSTONE)
RHOB.K/M3     42 350  1  1:   6 BULK DENSITY
~A  Depth           CALI        DPHI          DT          GR         LLD        NPHI        RHOB
# ...
23.7500         281.4250      0.4106    551.2400     50.1300    368.9164      0.3545   2062.8999
23.8750         271.0000      0.4204    590.9600     51.0600    368.2026      0.3533   2192.6001
24.0000         274.3750      0.3921    599.2800     52.1550    396.6622      0.3563   2313.2000
24.1250         281.7250      0.3304    598.5600     53.4450    425.1217      0.3578   2344.3999
24.2500         296.1250      0.2295    542.4400     54.7350    453.5812      0.3668   2334.6001
24.3750         294.6000      0.2024    569.1200     55.1100    468.5088      0.3676   2323.0000
24.5000         289.3750      0.1959    544.1200     54.0000    483.4363      0.3642   2315.0000
24.6250         292.7500      0.1948    555.1600     52.7100    498.3638      0.3608   2316.2000
24.7500         295.5250      0.1980    611.2800     52.3500    520.1646      0.3522   2315.6001
24.8750         299.8000      0.2037    621.6000     48.6600    547.9391      0.3421   2315.6001
25.0000         303.4750      0.2028    544.4000     46.4550    559.8306      0.3338   2313.8000
25.1250         310.5250      0.2027    518.4000     44.9700    568.7121      0.3313   2311.3000
25.2500         316.0500      0.2058    503.1600     40.7400    577.3466      0.3368   2305.8000
25.3750         318.1750      0.2091    500.7200     38.8950    584.2068      0.3417   2297.8999
25.5000         317.2750      0.2135    500.9600     37.2300    589.8142      0.3455   2288.1001
25.6250         320.0250      0.2206    503.1600     35.9400    588.4355      0.3477   2275.8000
25.7500         329.8250      0.2266    515.7200     35.0250    584.5916      0.3398   2269.1001
25.8750         331.3500      0.2276    516.4400     37.4250    584.0364      0.3313   2274.0000
26.0000         313.2750      0.2246    516.6801     38.7150    584.0455      0.3248   2287.5000
26.1250         285.1000      0.2226    519.4000     38.3400    583.2515      0.3226   2302.8000
26.2500         299.2000      0.2206    524.0400     37.2300    585.3869      0.3238   2299.7000
26.3750         297.6500      0.2205    531.4000     34.2900    582.7597      0.3313   2291.7000
26.5000         291.5250      0.2248    525.2800     32.4450    579.8730      0.3331   2279.5000
26.6250         291.5250      0.2398    502.2000     34.1100    576.1152      0.3323   2261.8000
26.7500         290.9250      0.2515    507.8800     37.0500    572.2188      0.3268   2247.1001
26.8750         282.0250      0.2627    510.8000     40.3650    567.4945      0.3283   2237.3000
27.0000         274.0750      0.2704    505.1600     41.8350    566.6406      0.3323   2233.6001
27.1250         275.6000      0.2772    505.4000     42.9450    564.1059      0.3380   2223.8000
27.2500         277.1250      0.2898    513.5200     45.3450    559.5380      0.3488   2204.8000
27.3750         277.7500      0.3019    517.4400     46.2600    560.5731      0.3541   2179.1001
27.5000         266.1000      0.3177    529.2000     46.8150    564.8320      0.3593   2137.5000
27.6250         256.0000      0.3331    541.4400     46.9950    563.2191      0.3672   2075.7000
27.7500         243.4250      0.3444    535.0800     45.5250    562.1635      0.3837   2028.0000
27.8750         215.8500      0.3554    537.0400     45.3450    563.7039      0.3867   2003.5000
28.0000         214.0250      0.3704    528.9200     46.2600    564.0653      0.3889   2015.7000
28.1250         212.5000      0.3787    523.8000     46.6350    565.0531      0.3878   2035.3000
28.2500         208.2000      0.3840    525.7600     45.7050    564.4613      0.3923   2045.7000
28.3750         203.3000      0.3886    512.5200     44.7900    567.0052      0.4039   2042.7000
28.5000         204.5250      0.3931    566.4400     43.8750    569.2330      0.4084   2039.0000
28.6250         210.9500      0.3987    572.0800     44.7900    569.6521      0.4151   2031.6000
28.7500         222.9000      0.4043    244.6400     45.3450    567.2086      0.4193   2012.1000
28.8750         229.6500      0.4108    619.1200     45.9000    565.1964      0.4148   1987.6001
29.0000         225.9750      0.4167    567.4400     44.4150    566.6923      0.4106   1975.3000
29.1250         224.1250      0.4176    568.4000     43.1250    568.7580      0.4141   1964.9000
29.2500         225.0500      0.4162    573.3200     41.8350    569.1276      0.4073   1965.6001
29.3750         218.0000      0.4149    572.0800     40.0050    570.1511      0.4091   1983.9000
29.5000         218.0000      0.4142    579.2000     38.5200    572.1695      0.4118   2020.6000
29.6250         217.7000      0.4164    581.4000     37.2300    573.4013      0.4151   2061.6001
29.7500         218.0000      0.4176    592.4400     34.4700    571.8137      0.4148   2081.2000
29.8750         221.9750      0.4187    597.5600     31.8900    569.9193      0.4148   2076.8999
30.0000         235.7750      0.4178    599.5200     32.0700    570.6862      0.4121   2054.8999
30.1250         242.5000      0.4162    601.9600     34.8450    570.8573      0.4088   2035.9000
30.2500         248.6500      0.4132    604.6800     38.1600    568.0112      0.4133   2021.2000
30.3750         254.1500      0.4136    600.5200     41.6550    564.4479      0.4189   2020.6000
30.5000         255.3750      0.4165    595.8400     43.1250    561.4347      0.4230   2029.8000
30.6250         241.6000      0.4171    601.9600     42.7650    558.3147      0.4256   2036.5000
30.7500         243.1250      0.4189    597.3200     43.8750    550.5141      0.4290   2040.8000
30.8750         255.3750      0.4228    590.2000     45.7050    532.2577      0.4305   2039.6000
31.0000         267.9500      0.4263    593.8800     47.7450    517.9018      0.4316   2032.3000
31.1250         280.8000      0.4292    598.5600     49.3950     76.9190      0.4316   2023.7000
31.2500         292.4500      0.4292    590.4400     51.2400     11.4252      0.4268   2010.2000
31.3750         304.4000      0.4303    591.6800     53.0850     77.7074      0.4271   1993.8000
31.5000         320.0250      0.4314    584.0800     57.3150    385.6561      0.4230   1982.7000
31.6250         324.6250      0.4293    559.8400     58.8000    408.3677      0.4211   1980.2000
31.7500         304.4000      0.4269    511.5200     58.4250    400.7036      0.4028   1987.6001
31.8750         262.1250      0.4233    503.6400     56.4000    388.2760      0.3964   2000.4000
32.0000         229.0250      0.4196    501.2000     52.7100    379.3312      0.3972   2002.9000
32.1250         205.1250      0.4169    510.8000     49.0350    368.8685      0.4031   1980.2000
32.2500         202.6750      0.4134    561.5200     47.3700    361.5705      0.4148   1934.3000
32.3750         216.4750      0.4194    575.5200     48.6600    356.3091      0.4226   1889.1001
32.5000         232.4000      0.4318    573.5600     50.6850    352.1665      0.4290   1845.6001
32.6250         238.5250      0.4479    560.0800     51.2400    349.8478      0.4234   1813.2000
32.7500         226.8750      0.4820    542.6801     53.8200    345.3960      0.3976   1830.9000
32.8750         198.4000      0.4984    521.3600     57.5100    341.3711      0.3886   1911.7000
33.0000         191.6500      0.4939    494.4000     59.5350    336.6391      0.3878   2035.9000
33.1250         193.5000      0.4804    480.6400     61.0050    331.5381      0.3886   2136.3000
33.2500         194.7250      0.4619    492.6800     59.7150    327.5708      0.3788   2147.8999
33.3750         195.0250      0.4408    513.5200     57.3150    323.6436      0.3781   2108.8000
33.5000         194.4000      0.4163    536.8000     55.2900    304.3102      0.3792   2051.2000
33.6250         198.1000      0.3914    558.6000     55.4850    294.0838      0.3811   1995.0000
33.7500         207.2750      0.3347    568.4000     56.5800    289.9025      0.3694   1958.8000
33.8750         227.5000      0.3578    556.8800     57.6900    292.6330      0.3590   1955.8000
34.0000         234.5500      0.3753    532.6000     60.2700    300.2627      0.3537   2003.5000
