~VERSION INFORMATION
 VERS.                 2.0:   CWLS LOG ASCII STANDARD -VERSION 2.0
 WRAP.                  NO:   ONE LINE PER DEPTH STEP
~WELL INFORMATION BLOCK
#MNEM.UNIT           DATA                    DESCRIPTION OF MNEMONIC
#---------    -------------------            -------------------------------
# Generated from Intellog Unique Number	CN_94_101/WELL/1070
WELL.         CHEVRON CANADA RESOURCES       : Well_name    - WELL
LOC .         AA/10-29-094-07W4/0            : Location     - LOCATION
UWI .         AA/10-29-094-07W400            : Uwi          - UNIQUE WELL ID
ENTR.         JOETTE                         : Entered      - ENTERED BY
SRVC.         SCHLUMBERGER                   : Scn          - SERVICE COMPANY
DATE.         04/12/92                       : Date         - LOG DATE
STRT.M        100                            : top_depth    - START DEPTH
STOP.M        250                            : bot_depth    - STOP DEPTH
STEP.M        0.25                           : increment    - STEP LENGTH
 NULL. -999.2500:NULL Value
~CURVE INFORMATION BLOCK
#MNEM UNIT       ERCB CURVE CODE    CURVE DESCRIPTION
#-----------   ------------------   ----------------------------------
DEPT.M        00 001 00 00         : DEPTH        - DEPTH
GR  .API      00 310 00 00         : GR           - GAMMA RAY
ILD .OHMM     00 120 00 00         : RESD         - DEEP RESISTIVITY (DIL)
DPHI.V/V      00 890 00 00         : PHID         - DENSITY POROSITY (SANDSTONE)
NPHI.V/V      00 330 00 00         : PHIN         - NEUTRON POROSITY (SANDSTONE)
CALI.MM       00 280 01 00         : CAL          - CALIPER
~PARAMETER INFORMATION
#MNEM.UNIT           DATA             DESCRIPTION OF MNEMONIC
#---------         -----------     ------------------------------
GL  .M        496.1                : gl           - GROUND LEVEL ELEVATION
EREF.M        496.1                : kb           - ELEVATION OF DEPTH REFERENCE
DATM.M        496.1                : datum        - DATUM ELEVATION
TDD .M        253.4                : tdd          - TOTAL DEPTH DRILLER
RUN .         ONE                  : Run          - RUN NUMBER
ENG .         BILL                 : Engineer     - RECORDING ENGINEER
WIT .         JIM                  : Witness      - WITNESSED BY
MUD .         GEL                  : Mud_type     - MUD TYPE
MATR.         SANDSTONE            : Logunit      - NEUTRON MATRIX
TMAX.C        10                   : BHT          - MAXIMUM RECORDED TEMPERATURE
BHTD.M        253.4                : BHTDEP       - MAXIMUM RECORDED TEMPERATURE
RMT .C        17.3                 : MDTP         - TEMPERATURE OF MUD
MUDD.KG/M     1130                 : MWT          - MUD DENSITY
NEUT.         1                    : NEUTRON      - NEUTRON TYPE
RESI.         0                    : RESIST       - RESISTIVITY TYPE
RM  .OHMM     8.25                 : RM           - RESISTIVITY OF MUD
RMC .OHMM     7.89                 : RMC          - RESISTIVITY OF MUD CAKE
RMF .OHMM     6.89                 : RMF          - RESISTIVITY OF MUD FILTRATE
SUFT.C        4                    : SUFT         - SURFACE TEMPERATURE
~A  DEPTH       GR     RESD     PHID     PHIN      CAL
# ...
  209.500   26.922 2323.480    0.376    0.462  139.125
  209.750   24.443 2866.880    0.340    0.399  137.577
  210.000   22.585 3675.330    0.347    0.403  135.245
  210.250   20.727 3969.180    0.350    0.413  133.697
  210.500   25.085  304.012    0.344    0.388  132.536
  210.750   32.553  119.721    0.337    0.395  132.575
  211.000   48.728   77.350    0.320    0.423  133.804
  211.250   56.195   95.422    0.311    0.439  134.240
  211.500   84.180  101.108    0.308    0.432  134.279
  211.750   79.836   95.589    0.304    0.443  134.318
  212.000   73.626   95.664    0.300    0.446  133.980
  212.250   79.231   92.162    0.296    0.439  133.603
  212.500   79.862   87.097    0.293    0.440  132.848
  212.750   76.759   82.327    0.285    0.467  132.500
  213.000   69.927   88.910    0.285    0.470  132.549
  213.250   66.826   84.040    0.290    0.469  132.578
  213.500   71.807   92.522    0.297    0.467  133.024
  213.750   79.275   85.789    0.299    0.461  132.269
  214.000   79.283   96.261    0.304    0.442  131.911
  214.250   77.425   98.188    0.307    0.439  130.760
  214.500   80.541   82.793    0.310    0.434  129.996
  214.750   83.657   72.536    0.312    0.429  129.648
  215.000   81.799   84.516    0.314    0.449  129.300
  215.250   73.724  116.898    0.331    0.456  129.320
  215.500   66.892  164.795    0.352    0.449  129.358
  215.750   61.926  149.951    0.347    0.432  129.397
  216.000   58.203   98.724    0.316    0.434  129.456
  216.250   64.428   88.138    0.311    0.413  129.475
  216.500   71.896   93.408    0.312    0.395  129.921
  216.750   78.745   93.463    0.311    0.423  130.357
  217.000   75.020   95.352    0.309    0.439  130.396
  217.250   70.675  111.100    0.305    0.457  130.038
  217.500   73.791   85.177    0.302    0.441  129.670
  217.750   81.883   76.058    0.303    0.424  128.926
  218.000   86.246   83.701    0.313    0.448  132.138
  218.250   83.141   82.203    0.318    0.455  133.377
  218.500   81.284   79.178    0.308    0.434  131.829
  218.750   83.160   82.331    0.296    0.419  130.668
  219.000   82.542   79.317    0.289    0.426  130.311
  219.250   85.037   72.159    0.288    0.421  130.756
  219.500   90.640   62.015    0.290    0.405  131.202
  219.750   93.134   70.936    0.298    0.421  131.618
  220.000   83.194   75.163    0.310    0.453  132.470
  220.250   72.010   72.412    0.312    0.446  132.489
  220.500   61.447   64.635    0.307    0.393  132.538
  220.750   53.994   65.928    0.302    0.357  132.964
  221.000   49.027   62.329    0.298    0.361  134.222
  221.250   42.196   64.786    0.308    0.390  133.448
  221.500   35.364   57.839    0.324    0.403  131.117
  221.750   28.532   64.887    0.329    0.400  129.559
  222.000   22.322   86.395    0.330    0.402  129.201
  222.250   17.977  144.552    0.329    0.375  129.240
  222.500   22.959  178.393    0.325    0.348  128.892
  222.750   34.161  389.623    0.320    0.348  128.922
  223.000   36.032   59.226    0.316    0.352  129.754
  223.250   47.851   47.169    0.318    0.368  131.796
  223.500   55.319   61.620    0.564    0.465  133.006
  223.750   34.811   71.811    0.615    0.768  135.435
  224.000   27.356   83.704    0.674    0.791  138.648
  224.250   21.148   93.941    0.704    0.839  141.077
  224.500   24.884   95.783    0.719    0.804  141.909
  224.750   29.243   99.577    0.716    0.782  142.335
  225.000   26.146   99.655    0.717    0.742  141.590
  225.250   21.179   96.007    0.719    0.740  140.043
  225.500   16.834   94.270    0.742    0.769  139.685
  225.750   16.218   87.461    0.760    0.830  140.527
  226.000   22.443   84.227    0.751    0.890  140.546
  226.250   35.507   71.022    0.719    0.939  140.585
  226.500   48.571   64.637    0.688    1.021  140.237
  226.750   64.744   64.675    0.664    0.953  139.483
  227.000   77.186   64.725    0.614    0.446  138.729
  227.250  107.037   52.539    0.492    0.393  139.958
  227.500  123.832   46.914    0.151    0.331  141.584
  227.750  135.654   51.629    0.149    0.285  142.019
  228.000  130.688   47.890    0.148    0.318  140.471
  228.250  120.747   44.414    0.151    0.314  138.536
  228.500  109.563   46.173    0.169    0.315  138.575
  228.750  100.245   45.338    0.186    0.332  138.208
  229.000   93.413   45.364    0.205    0.350  137.463
  229.250   89.072   46.272    0.232    0.338  136.302
  229.500   90.943   48.114    0.243    0.324  133.177
  229.750  103.383   44.622    0.271    0.320  134.793
  230.000  105.256   41.375    0.259    0.348  136.032
  230.250  109.615   39.868    0.230    0.357  136.071
  230.500  111.490   43.891    0.211    0.349  135.704
  230.750  109.630   48.302    0.199    0.337  133.362
  231.000   78.550   53.166    0.200    0.332  131.814
  231.250   63.638   57.417    0.213    0.334  135.821
  231.500   69.861   51.260    0.229    0.343  141.027
  231.750   82.925   28.982    0.252    0.368  145.033
  232.000  102.828   22.646    0.247    0.381  147.462
  232.250  110.297   18.036    0.242    0.424  147.511
  232.500  132.687   15.208    0.369    0.544  147.134
  232.750  124.612   13.319    0.384    0.609  146.776
  233.000  117.782   13.080    0.391    0.640  149.215
  233.250  115.924   14.126    0.405    0.638  147.657
  233.500  112.823   15.549    0.423    0.633  148.886
  233.750  107.233   17.443    0.392    0.650  151.712
  234.000   93.562   19.569    0.374    0.618  149.758
  234.250   97.299   21.954    0.329    0.578  143.846
  234.500  117.205   21.971    0.344    0.550  146.265
  234.750  128.403   16.215    0.359    0.561  149.875
  235.000  117.221   12.916    0.355    0.584  151.114
  235.250  120.336   12.927    0.349    0.618  153.126
  235.500  123.454   13.697    0.344    0.633  156.746
  235.750  110.403   12.947    0.351    0.631  156.785
  236.000  106.060   13.460    0.365    0.664  158.411
  236.250  109.796   15.100    0.358    0.680  161.227
  236.500  117.264   16.304    0.343    0.579  161.662
  236.750  100.484   17.945    0.312    0.452  157.337
  237.000   68.783   23.448    0.319    0.423  147.052
  237.250   51.382   35.671    0.340    0.433  135.982
  237.500   42.685   41.570    0.347    0.440  130.467
  237.750   42.072   52.278    0.343    0.428  129.713
  238.000   45.187   62.095    0.338    0.414  130.952
  238.250   53.898   58.717    0.332    0.403  131.387
  238.500   56.393   63.399    0.327    0.388  131.417
  238.750   60.756   62.264    0.310    0.384  131.862
  239.000   62.627   56.656    0.299    0.411  131.901
  239.250   55.172   56.700    0.307    0.423  131.930
  239.500   41.501   68.628    0.315    0.414  131.979
  239.750   32.806   74.129    0.322    0.399  132.018
  240.000   28.461   88.032    0.324    0.388  132.860
  240.250   25.981  419.679    0.324    0.379  133.276
  240.500   28.474  453.233    0.300    0.358  133.345
  240.750   32.212  397.004    0.301    0.361  133.364
  241.000   30.976  454.028    0.304    0.375  133.403
  241.250   26.009  354.708    0.309    0.380  135.426
  241.500   27.882  405.579    0.315    0.359  136.258
  241.750   44.678  305.081    0.322    0.374  135.513
  242.000   55.255  362.370    0.327    0.381  133.965
  242.250   86.972  317.413    0.330    0.371  133.608
  242.500   48.431   95.758    0.326    0.363  134.440
  242.750   43.464   39.918    0.308    0.348  134.082
  243.000   66.476   13.499    0.287    0.436  133.725
  243.250   83.271   15.735    0.302    0.473  140.111
  243.500  129.909   16.669    0.303    0.488  146.101
  243.750  143.595   16.066    0.297    0.467  150.901
  244.000  137.387   15.472    0.292    0.457  158.884
  244.250  136.772   15.192    0.260    0.449  162.494
  244.500  136.156   16.097    0.211    0.539  164.942
  244.750  135.544   16.419    0.200    0.533  164.962
  245.000  130.577   15.818    0.208    0.527  165.001
  245.250  111.309   16.761    0.236    0.551  163.453
  245.500   95.151   16.457    0.262    0.556  161.905
  245.750   88.319   18.115    0.267    0.447  158.373
