~VERSION INFORMATION
 VERS.                 2.0:   CWLS LOG ASCII STANDARD -VERSION 2.0
 WRAP.                  NO:   ONE LINE PER DEPTH STEP
~WELL INFORMATION BLOCK
#MNEM.UNIT           DATA                    DESCRIPTION OF MNEMONIC
#---------    -------------------            -------------------------------
# Generated from Intellog Unique Number	CC_88_90/WELL/1173
WELL.         10-11-089-16W4                 : Well_name    - WELL
LOC .         AA/10-11-089-16W4/0            : Location     - LOCATION
UWI .         AA/10-11-089-16W400            : Uwi          - UNIQUE WELL ID
ENTR.         DW                             : Entered      - ENTERED BY
SRVC.         SCHLUMBERGER                   : Scn          - SERVICE COMPANY
STRT.M        65                             : top_depth    - START DEPTH
STOP.M        249.75                         : bot_depth    - STOP DEPTH
STEP.M        0.25                           : increment    - STEP LENGTH
 NULL. -999.2500:NULL Value
~CURVE INFORMATION BLOCK
#MNEM UNIT       ERCB CURVE CODE    CURVE DESCRIPTION
#-----------   ------------------   ----------------------------------
DEPT.M        00 001 00 00         : DEPTH        - DEPTH
GR  .API      00 310 00 00         : GR           - GAMMA RAY
DPHI.V/V      00 890 00 00         : PHID         - DENSITY POROSITY (SANDSTONE)
NPHI.V/V      00 330 00 00         : PHIN         - NEUTRON POROSITY (SANDSTONE)
ILD .OHMM     00 120 00 00         : RESD         - DEEP RESISTIVITY (DIL)
~PARAMETER INFORMATION
#MNEM.UNIT           DATA             DESCRIPTION OF MNEMONIC
#---------         -----------     ------------------------------
GL  .M        509.6                : gl           - GROUND LEVEL ELEVATION
EREF.M        512.8                : kb           - ELEVATION OF DEPTH REFERENCE
DATM.M        512.8                : datum        - DATUM ELEVATION
TDD .M        258                  : tdd          - TOTAL DEPTH DRILLER
RUN .         ONE                  : Run          - RUN NUMBER
ENG .         BILL                 : Engineer     - RECORDING ENGINEER
WIT .         JIM                  : Witness      - WITNESSED BY
MUD .         GEL                  : Mud_type     - MUD TYPE
MATR.         SANDSTONE            : Logunit      - NEUTRON MATRIX
TMAX.C        25                   : BHT          - MAXIMUM RECORDED TEMPERATURE
BHTD.M        258                  : BHTDEP       - MAXIMUM RECORDED TEMPERATURE
MATR.         1                    : LOGUNIT      - NEUTRON MATRIX
RMT .C        25                   : MDTP         - TEMPERATURE OF MUD
NEUT.         1                    : NEUTRON      - NEUTRON TYPE
RESI.         0                    : RESIST       - RESISTIVITY TYPE
RMC .OHMM     0.25                 : RMC          - RESISTIVITY OF MUD CAKE
RMF .OHMM     0.25                 : RMF          - RESISTIVITY OF MUD FILTRATE
SUFT.C        15                   : SUFT         - SURFACE TEMPERATURE
~A  DEPTH       GR     PHID     PHIN     RESD
# ...
  152.000   71.555    0.245    0.460   11.624
  152.250   73.350    0.269    0.455   11.047
  152.500   73.873    0.264    0.452   10.690
  152.750   76.373    0.252    0.457   10.464
  153.000   76.026    0.258    0.471   10.280
  153.250   73.300    0.267    0.475   10.196
  153.500   76.405    0.264    0.464   10.559
  153.750   80.522    0.252    0.462   10.940
  154.000   83.766    0.248    0.476   10.841
  154.250   81.486    0.253    0.498   10.718
  154.500   75.019    0.253    0.502   10.775
  154.750   71.179    0.239    0.499   10.720
  155.000   73.870    0.244    0.506   10.546
  155.250   81.477    0.300    0.459   10.330
  155.500   87.844    0.291    0.442    8.910
  155.750   87.471    0.260    0.470    7.586
  156.000   86.579    0.245    0.506    6.401
  156.250   89.756    0.246    0.528    4.903
  156.500   92.861    0.276    0.550    4.036
  156.750   98.793    0.294    0.593    3.496
  157.000   99.761    0.289    0.615    3.090
  157.250   95.488    0.271    0.628    2.919
  157.500   91.873    0.259    0.640    3.093
  157.750   90.737    0.245    0.661    3.478
  158.000   88.519    0.218    0.658    4.335
  158.250   84.903    0.215    0.534    6.592
  158.500   81.947    0.185    0.487    8.623
  158.750   80.175    0.157    0.464    9.878
  159.000   80.107    0.170    0.439   10.446
  159.250   82.265    0.196    0.451   10.175
  159.500   85.962    0.190    0.454    9.206
  159.750   90.067    0.191    0.449    8.453
  160.000   93.666    0.229    0.469    8.305
  160.250   94.945    0.227    0.477    8.515
  160.500   94.053    0.197    0.470    8.809
  160.750   92.288    0.182    0.456    9.337
  161.000   90.221    0.170    0.423   10.476
  161.250   88.996    0.212    0.421   12.102
  161.500   89.433    0.239    0.437   13.346
  161.750   89.060    0.250    0.443   13.835
  162.000   86.474    0.249    0.436   13.912
  162.250   83.577    0.228    0.424   14.274
  162.500   81.550    0.209    0.414   14.962
  162.750   77.528    0.199    0.412   15.300
  163.000   73.634    0.187    0.408   17.633
  163.250   72.948    0.187    0.419   22.989
  163.500   71.944    0.118    0.350   29.011
  163.750   65.700    0.030    0.219   33.854
  164.000   56.909    0.081    0.200   37.563
  164.250   52.442    0.114    0.194   38.356
  164.500   50.515    0.135    0.182   38.185
  164.750   49.853    0.065    0.194   41.725
  165.000   50.442   -0.008    0.201   45.205
  165.250   51.439    0.001    0.183   45.372
  165.500   52.501   -0.000    0.177   45.292
  165.750   55.847    0.020    0.186   41.448
  166.000   60.918    0.047    0.231   36.271
  166.250   66.063    0.067    0.271   28.290
  166.500   80.303    0.094    0.299   22.540
  166.750   90.462    0.117    0.360   22.027
  167.000   77.060    0.108    0.417   20.908
  167.250   79.831    0.106    0.349   20.162
  167.500   83.778    0.142    0.353   20.300
  167.750   80.476    0.193    0.407   20.780
  168.000   75.018    0.200    0.416   20.806
  168.250   73.505    0.171    0.390   21.060
  168.500   76.331    0.172    0.384   22.496
  168.750   76.222    0.201    0.409   23.244
  169.000   72.824    0.204    0.438   23.804
  169.250   70.057    0.128    0.385   23.218
  169.500   69.607    0.083    0.310   21.085
  169.750   73.251    0.134    0.319   17.930
  170.000   81.165    0.177    0.385   14.858
  170.250   85.073    0.190    0.429   14.069
  170.500   85.867    0.128    0.404   13.798
  170.750   78.924    0.085    0.362   13.980
  171.000   72.597    0.134    0.349   14.411
  171.250   76.161    0.203    0.382   14.601
  171.500   82.331    0.207    0.445   14.556
  171.750   84.309    0.212    0.466   13.485
  172.000   82.836    0.210    0.477   12.538
  172.250   82.445    0.186    0.488   11.993
  172.500   83.017    0.179    0.493   12.370
  172.750   83.912    0.199    0.481   13.372
  173.000   85.356    0.209    0.454   13.733
  173.250   82.164    0.232    0.445   14.172
  173.500   81.955    0.238    0.434   14.469
  173.750   84.290    0.226    0.421   14.517
  174.000   87.204    0.219    0.419   13.856
  174.250   89.993    0.221    0.428   12.816
  174.500   90.209    0.213    0.444   12.252
  174.750   87.676    0.205    0.460   11.158
  175.000   85.600    0.215    0.453   10.328
  175.250   85.340    0.213    0.461    9.968
  175.500   87.834    0.201    0.485   10.036
  175.750   89.221    0.191    0.508   10.394
  176.000   85.228    0.166    0.524   10.720
  176.250   83.565    0.143    0.494   10.965
  176.500   82.998    0.158    0.489   10.390
  176.750   89.902    0.197    0.502    9.988
  177.000   92.813    0.228    0.499    9.829
  177.250   86.042    0.231    0.495   10.129
  177.500   83.927    0.205    0.510   11.754
  177.750   80.582    0.195    0.503   12.972
  178.000   81.234    0.201    0.474   13.775
  178.250   85.029    0.212    0.462   13.834
  178.500   89.262    0.207    0.467   12.981
  178.750   94.137    0.198    0.461   12.095
  179.000   98.591    0.208    0.456   11.966
  179.250   97.328    0.179    0.468   11.770
  179.500   89.543    0.192    0.464   11.863
  179.750   85.876    0.202    0.447   13.035
  180.000   87.653    0.202    0.432   14.219
  180.250   89.814    0.213    0.422   14.441
  180.500   92.372    0.207    0.418   14.423
  180.750   93.918    0.213    0.421   14.196
  181.000   95.504    0.219    0.435   14.066
  181.250   96.462    0.222    0.431   14.427
  181.500   96.734    0.216    0.417   14.711
  181.750   95.487    0.210    0.415   14.713
  182.000   91.106    0.194    0.418   15.234
  182.250   86.675    0.097    0.417   15.996
  182.500   85.787    0.040    0.393   16.281
  182.750   86.916    0.051    0.371   15.546
  183.000   92.058    0.094    0.369   14.704
  183.250   99.457    0.152    0.387   14.268
  183.500  101.463    0.197    0.417   13.341
  183.750  101.042    0.178    0.431   12.270
  184.000   99.923    0.185    0.437   12.027
  184.250   99.311    0.182    0.439   12.341
  184.500   96.947    0.179    0.456   12.777
  184.750   94.713    0.180    0.465   13.505
  185.000   97.692    0.143    0.438   13.576
  185.250  101.244    0.181    0.446   10.639
  185.500  110.028    0.218    0.466    8.675
  185.750  111.533    0.217    0.480    7.841
  186.000  106.217    0.199    0.492    7.583
  186.250   99.392    0.168    0.517    8.149
  186.500   88.449    0.132    0.540    9.121
  186.750   86.704    0.167    0.495   10.259
  187.000   95.065    0.193    0.433   10.519
  187.250  102.334    0.205    0.429   10.169
  187.500  103.883    0.202    0.453    9.539
  187.750  101.831    0.180    0.458    8.833
  188.000   98.801    0.165    0.471    8.453
  188.250   98.745    0.149    0.491    8.175
  188.500   93.142    0.126    0.462    8.086
  188.750   92.441    0.134    0.429    8.289
  189.000   95.914    0.187    0.449    8.488
  189.250   96.448    0.237    0.499    8.408
  189.500   98.714    0.241    0.520    8.281
  189.750  102.731    0.235    0.528    8.502
  190.000  106.827    0.209    0.494    9.106
  190.250  108.543    0.187    0.463   10.001
  190.500  108.448    0.183    0.469   10.900
  190.750  107.580    0.184    0.470   11.811
  191.000  103.603    0.165    0.430   12.984
  191.250   95.256    0.101    0.393   13.909
  191.500   90.659    0.061    0.353   13.944
  191.750   94.906    0.102    0.338   13.299
  192.000  104.133    0.170    0.360   12.318
  192.250  108.353    0.195    0.390   11.473
  192.500  103.527    0.196    0.403   11.157
  192.750   99.993    0.204    0.411   10.806
  193.000  100.475    0.211    0.425   10.577
  193.250  101.259    0.202    0.448   10.516
  193.500  100.734    0.197    0.467   10.577
  193.750  100.383    0.226    0.475   11.115
  194.000  100.367    0.263    0.461   12.235
  194.250   99.212    0.219    0.410   13.287
  194.500   98.895    0.147    0.395   15.997
  194.750   91.648    0.066    0.361   16.890
  195.000   83.421    0.046    0.311   15.833
  195.250   85.508    0.104    0.316   14.751
