~VERSION INFORMATION
 VERS.                 2.0:   CWLS LOG ASCII STANDARD -VERSION 2.0
 WRAP.                  NO:   ONE LINE PER DEPTH STEP
~WELL INFORMATION BLOCK
#MNEM.UNIT           DATA                    DESCRIPTION OF MNEMONIC
#---------    -------------------            -------------------------------
# Generated from Intellog Unique Number	CN_91_93/WELL/3023
WELL.         PETRO-CANADA                   : Well_name    - WELL
LOC .         AA/10-26-092-16W4/0            : Location     - LOCATION
UWI .         AA/10-26-092-16W400            : Uwi          - UNIQUE WELL ID
ENTR.         JOETTE                         : Entered      - ENTERED BY
SRVC.         SCHLUMBERGER                   : Scn          - SERVICE COMPANY
DATE.         04/09/92                       : Date         - LOG DATE
STRT.F        250                            : top_depth    - START DEPTH
STOP.F        710.138                        : bot_depth    - STOP DEPTH
STEP.F        0.82                           : increment    - STEP LENGTH
 NULL. -999.2500:NULL Value
~CURVE INFORMATION BLOCK
#MNEM UNIT       ERCB CURVE CODE    CURVE DESCRIPTION
#-----------   ------------------   ----------------------------------
DEPT.F        00 001 00 00         : DEPTH        - DEPTH
CALI.IN       00 280 01 00         : CAL          - CALIPER
GR  .API      00 310 00 00         : GR           - GAMMA RAY
NPHI.V/V      00 330 00 00         : PHIN         - NEUTRON POROSITY (SANDSTONE)
DPHI.V/V      00 890 00 00         : PHID         - DENSITY POROSITY (SANDSTONE)
ILD .OHMM     00 120 00 00         : RESD         - DEEP RESISTIVITY (DIL)
~PARAMETER INFORMATION
#MNEM.UNIT           DATA             DESCRIPTION OF MNEMONIC
#---------         -----------     ------------------------------
GL  .F        1562                 : gl           - GROUND LEVEL ELEVATION
EREF.F        1570                 : kb           - ELEVATION OF DEPTH REFERENCE
DATM.F        1570                 : datum        - DATUM ELEVATION
TDD .F        741                  : tdd          - TOTAL DEPTH DRILLER
RUN .         ONE                  : Run          - RUN NUMBER
ENG .         BILL                 : Engineer     - RECORDING ENGINEER
WIT .         JIM                  : Witness      - WITNESSED BY
MUD .         GEL                  : Mud_type     - MUD TYPE
MATR.         SANDSTONE            : Logunit      - NEUTRON MATRIX
TMAX.F        62                   : BHT          - MAXIMUM RECORDED TEMPERATURE
BHTD.F        741                  : BHTDEP       - MAXIMUM RECORDED TEMPERATURE
RMT .F        58                   : MDTP         - TEMPERATURE OF MUD
MUDD.LB/G     8.6                  : MWT          - MUD DENSITY
NEUT.         1                    : NEUTRON      - NEUTRON TYPE
RESI.         0                    : RESIST       - RESISTIVITY TYPE
RM  .OHMM     0.61                 : RM           - RESISTIVITY OF MUD
RMC .OHMM     0.61                 : RMC          - RESISTIVITY OF MUD CAKE
RMF .OHMM     0.61                 : RMF          - RESISTIVITY OF MUD FILTRATE
SUFT.F        39.2                 : SUFT         - SURFACE TEMPERATURE
~A  DEPTH      CAL       GR     PHIN     PHID     RESD
# ...
  489.501    7.015  109.286    0.452    0.214    8.897
  490.322    7.062  107.307    0.447    0.212    8.752
  491.142    7.069  105.290    0.450    0.199    8.840
  491.962    7.014  102.401    0.453    0.173    8.932
  492.782    6.942  101.605    0.451    0.111    8.946
  493.602    6.869  104.397    0.440    0.126    8.174
  494.423    6.836  109.893    0.431    0.185    7.268
  495.243    6.802  111.216    0.454    0.198    6.828
  496.063    6.789  109.523    0.459    0.183    7.422
  496.883    6.796  108.403    0.452    0.175    7.923
  497.703    6.823   99.235    0.447    0.143    8.380
  498.524    6.850   97.230    0.427    0.151    8.706
  499.344    6.856  106.314    0.424    0.177    8.637
  500.164    6.862  111.238    0.440    0.212    8.414
  500.984    6.869  112.210    0.448    0.222    8.349
  501.804    6.878  112.935    0.427    0.211    8.910
  502.625    6.883  110.332    0.416    0.197    9.868
  503.445    6.890  108.639    0.418    0.188    9.970
  504.265    6.918  109.937    0.420    0.197    9.802
  505.085    6.924  112.729    0.414    0.206   10.091
  505.906    6.911  111.348    0.419    0.190   10.383
  506.726    6.918  112.034    0.420    0.185   11.081
  507.546    6.924  113.631    0.403    0.183   11.304
  508.366    6.891  116.747    0.392    0.159   11.213
  509.186    6.740  121.620    0.404    0.157   10.436
  510.007    6.805  124.736    0.416    0.193    9.629
  510.827    6.912  122.433    0.429    0.213    9.379
  511.647    6.919  119.856    0.434    0.213    9.305
  512.467    6.906  118.436    0.439    0.207    9.150
  513.287    6.892  117.666    0.442    0.188    8.753
  514.108    6.879  117.156    0.443    0.173    8.220
  514.928    6.887  114.853    0.444    0.138    7.310
  515.748    6.873  115.851    0.449    0.196    6.560
  516.568    6.861  118.369    0.451    0.201    6.050
  517.388    6.866  114.259    0.459    0.191    6.004
  518.209    6.874  106.274    0.456    0.139    6.526
  519.029    6.861  100.084    0.443    0.093    7.844
  519.849    6.827  104.683    0.420    0.069    8.146
  520.669    6.774  117.069    0.412    0.155    7.445
  521.490    6.701  123.462    0.431    0.208    6.742
  522.310    6.649  125.955    0.420    0.226    6.690
  523.130    6.614  123.390    0.427    0.212    6.822
  523.950    6.601  121.996    0.430    0.213    6.646
  524.770    6.608  121.786    0.425    0.203    6.075
  525.591    6.616  123.083    0.440    0.200    5.758
  526.411    6.603  123.172    0.446    0.193    5.662
  527.231    6.611  123.585    0.443    0.188    5.881
  528.051    6.618  120.384    0.428    0.206    6.393
  528.871    6.623  118.704    0.411    0.181    7.408
  529.692    6.629  124.187    0.413    0.169    7.624
  530.512    6.616  127.577    0.413    0.202    6.417
  531.332    6.623  126.495    0.423    0.196    6.027
  532.152    6.630  122.996    0.421    0.193    7.655
  532.972    6.617  118.001    0.396    0.150    9.808
  533.793    6.624  110.016    0.373    0.100   10.282
  534.613    6.632  107.738    0.348    0.119    9.395
  535.433    6.637  115.639    0.376    0.192    7.837
  536.253    6.623  118.730    0.406    0.206    7.498
  537.073    6.610  118.532    0.418    0.196    7.438
  537.894    6.610  116.839    0.417    0.194    7.517
  538.714    6.627  111.845    0.411    0.200    7.666
  539.534    6.632  110.750    0.424    0.215    7.745
  540.354    6.639  111.735    0.425    0.186    7.826
  541.175    6.646  108.261    0.424    0.208    7.421
  541.995    6.652  109.571    0.411    0.236    6.718
  542.815    6.659  111.453    0.413    0.207    5.604
  543.635    6.665  110.969    0.425    0.191    4.984
  544.455    6.593  113.462    0.429    0.221    4.473
  545.276    6.500  111.159    0.446    0.236    4.279
  546.096    6.547  109.453    0.452    0.220    4.019
  546.916    6.613  108.059    0.452    0.212    4.173
  547.736    6.640  101.570    0.449    0.237    4.496
  548.556    6.608   95.105    0.435    0.212    4.887
  549.377    6.574   95.207    0.425    0.200    5.313
  550.197    6.540   89.601    0.410    0.226    6.935
  551.017    6.527   71.438    0.398    0.234    8.491
  551.837    6.514   61.945    0.393    0.237   11.282
  552.657    6.501   56.963    0.380    0.203   17.041
  553.478    6.450   52.865    0.326    0.059   52.007
  554.298    6.450   48.781    0.175    0.006   57.055
  555.118    6.444   49.206    0.203    0.030   43.439
  555.938    6.429   51.076    0.222    0.109   29.635
  556.759    6.435   55.986    0.245    0.193   18.626
  557.579    6.582   60.885    0.301    0.232   17.333
  558.399    6.710   63.079    0.348    0.273   15.697
  559.219    6.677   67.964    0.415    0.257   11.949
  560.039    6.583   74.955    0.419    0.244    7.861
  560.860    6.510   78.670    0.432    0.253    5.563
  561.680    6.516   78.459    0.436    0.237    4.857
  562.500    6.524   84.254    0.424    0.216    5.577
  563.320    6.530   85.564    0.423    0.250    6.176
  564.140    6.537   83.273    0.417    0.239    5.643
  564.961    6.544   83.362    0.425    0.237    4.882
  565.781    6.532   92.159    0.438    0.247    4.464
  566.601    6.518   97.344    0.443    0.208    4.469
  567.421    6.504  100.460    0.453    0.212    4.474
  568.241    6.490   93.945    0.434    0.238    4.864
  569.062    6.459   76.392    0.407    0.281    7.083
  569.882    6.425   64.807    0.363    0.317   12.609
  570.702    6.391   61.033    0.266    0.345   19.936
  571.522    6.358   60.823    0.292    0.362   20.145
  572.343    6.325   60.912    0.327    0.341   19.992
  573.163    6.333   59.817    0.354    0.286   18.605
  573.983    6.380   57.825    0.374    0.279   23.842
  574.803    6.406   56.456    0.386    0.227   31.976
  575.623    6.433   55.934    0.402    0.246   39.514
  576.444    6.460   56.347    0.403    0.263   41.422
  577.264    6.446   57.333    0.405    0.290   39.618
  578.084    6.433   56.549    0.411    0.280   37.549
  578.904    6.420   56.339    0.421    0.267   37.263
  579.724    6.407   58.857    0.428    0.272   37.648
  580.545    6.393   60.753    0.424    0.278   34.723
  581.365    6.400   58.163    0.415    0.254   23.906
  582.185    6.429   56.756    0.401    0.243   19.760
  583.005    6.454   56.571    0.397    0.224   23.973
  583.825    6.461   54.566    0.395    0.198   29.346
  584.646    6.468   51.665    0.420    0.210   49.010
  585.466    6.476   49.972    0.427    0.253   74.028
  586.286    6.482   46.784    0.425    0.277   96.601
  587.106    6.468   41.802    0.407    0.276  119.374
  587.927    6.455   40.395    0.418    0.279   93.411
  588.747    6.442   41.718    0.422    0.305   74.442
  589.567    6.409   40.337    0.422    0.282   65.573
  590.387    6.376   38.606    0.406    0.278   58.309
  591.207    6.322   36.029    0.388    0.276   76.799
  592.028    6.269   34.609    0.379    0.293   91.486
  592.848    6.156   36.517    0.379    0.282   99.453
  593.668    6.144   38.126    0.380    0.278   90.877
  594.488    6.230   38.215    0.378    0.292   67.927
  595.308    6.317   39.213    0.376    0.280   41.154
  596.129    6.404   40.523    0.376    0.277   21.154
  596.949    6.410   43.029    0.378    0.287   16.251
  597.769    6.397   47.316    0.388    0.269   10.988
  598.589    6.384   54.008    0.405    0.258    9.952
  599.409    6.351   61.298    0.404    0.253   10.525
  600.230    6.337   69.186    0.409    0.253   11.443
  601.050    6.364   77.087    0.416    0.247   12.213
  601.870    6.492   82.284    0.422    0.239   12.456
  602.690    6.459   90.159    0.424    0.235   12.136
  603.510    6.406   98.970    0.423    0.231    9.758
  604.331    6.373   98.473    0.422    0.226    8.920
  605.151    6.340  100.069    0.431    0.238    8.225
  605.971    6.326  101.964    0.434    0.231    8.546
  606.791    6.332   99.063    0.426    0.227   10.459
  607.612    6.319   94.666    0.409    0.229   11.268
  608.432    6.306   90.880    0.384    0.204   11.699
