~VERSION INFORMATION
 VERS.                 2.0:   CWLS LOG ASCII STANDARD -VERSION 2.0
 WRAP.                  NO:   ONE LINE PER DEPTH STEP
~WELL INFORMATION BLOCK
#MNEM.UNIT           DATA                    DESCRIPTION OF MNEMONIC
#---------    -------------------            -------------------------------
# Generated from Intellog Unique Number	CX_WELLS/WELL/3472
WELL.         AMOCO GREGGIRE                 : Well_name    - WELL
LOC .         AA/16-05-085-07W4/0            : Location     - LOCATION
UWI .         AA/16-05-085-07W400            : Uwi          - UNIQUE WELL ID
ENTR.         T                              : Entered      - ENTERED BY
SRVC.         SCHLUMBERGER                   : Scn          - SERVICE COMPANY
STRT.F        150                            : top_depth    - START DEPTH
STOP.F        911.975                        : bot_depth    - STOP DEPTH
STEP.F        0.82                           : increment    - STEP LENGTH
 NULL. -999.2500:NULL Value
~CURVE INFORMATION BLOCK
#MNEM UNIT       ERCB CURVE CODE    CURVE DESCRIPTION
#-----------   ------------------   ----------------------------------
DEPT.F        00 001 00 00         : DEPTH        - DEPTH
GR  .API      00 310 00 00         : GR           - GAMMA RAY
DPHI.V/V      00 890 00 00         : PHID         - DENSITY POROSITY (SANDSTONE)
ILD .OHMM     00 120 00 00         : RESD         - DEEP RESISTIVITY (OTHER)
~PARAMETER INFORMATION
#MNEM.UNIT           DATA             DESCRIPTION OF MNEMONIC
#---------         -----------     ------------------------------
GL  .F        1647                 : gl           - GROUND LEVEL ELEVATION
EREF.F        1657                 : kb           - ELEVATION OF DEPTH REFERENCE
DATM.F        1657                 : datum        - DATUM ELEVATION
TDD .F        934                  : tdd          - TOTAL DEPTH DRILLER
RUN .         ONE                  : Run          - RUN NUMBER
ENG .         BILL                 : Engineer     - RECORDING ENGINEER
WIT .         JIM                  : Witness      - WITNESSED BY
MUD .         GEL                  : Mud_type     - MUD TYPE
MATR.         SANDSTONE            : Logunit      - NEUTRON MATRIX
TMAX.F        64.4                 : BHT          - MAXIMUM RECORDED TEMPERATURE
BHTD.F        934                  : BHTDEP       - MAXIMUM RECORDED TEMPERATURE
MATR.         1                    : LOGUNIT      - NEUTRON MATRIX
RMT .F        50                   : MDTP         - TEMPERATURE OF MUD
NEUT.         1                    : NEUTRON      - NEUTRON TYPE
RESI.         9.8                  : RESIST       - RESISTIVITY TYPE
RMC .OHMM     9.7                  : RMC          - RESISTIVITY OF MUD CAKE
RMF .OHMM     8.7                  : RMF          - RESISTIVITY OF MUD FILTRATE
SUFT.F        39.2                 : SUFT         - SURFACE TEMPERATURE
~A  DEPTH       GR     PHID     RESD
  150.000  130.596    0.184    7.097
  150.820  126.564    0.148    9.072
  151.640  121.384    0.121   11.444
  152.461  119.671    0.121   13.225
  153.281  124.883    0.147   15.005
  154.101  135.878    0.186   13.043
  154.921  143.413    0.184   11.274
  155.741  144.003    0.184   10.099
  156.562  144.024    0.182    9.122
  157.382  142.888    0.182    8.537
  158.202  141.167    0.202    8.350
  159.022  133.672    0.242    7.959
  159.843  120.976    0.259    7.376
  160.663  111.174    0.261    7.580
  161.483  107.141    0.260    8.375
  162.303  103.113    0.256    9.169
  163.123  104.866    0.253    9.964
  163.944  109.505    0.247   10.959
  164.764  117.610    0.242   11.163
  165.584  122.831    0.235   10.777
  166.404  125.158    0.230   10.386
  167.224  122.867    0.230   10.002
  168.045  119.417    0.233   10.795
  168.865  118.281    0.238   11.393
  169.685  115.990    0.243   11.600
  170.505  114.843    0.246   11.606
  171.325  114.281    0.251   11.808
  172.146  113.724    0.257   12.012
  172.966  110.851    0.262   12.613
  173.786  107.978    0.254   12.815
  174.606  109.150    0.241   12.823
  175.427  115.530    0.231   12.437
  176.247  117.284    0.225   12.441
  177.067  117.296    0.220   12.250
  177.887  116.738    0.221   12.258
  178.707  116.168    0.226   11.873
  179.528  116.193    0.235   11.483
  180.348  119.672    0.245   10.703
  181.168  116.799    0.256    9.923
  181.988  111.037    0.275    9.927
  182.808  100.075    0.297   14.270
  183.629   92.580    0.315   17.429
  184.449   80.466    0.323   18.421
  185.269   77.601    0.317   18.431
  186.089   77.031    0.308   17.651
  186.909   74.736    0.300   16.671
  187.730   72.450    0.290   16.874
  188.550   71.884    0.279   18.260
  189.370   72.486    0.278   19.451
  190.190   73.654    0.279   19.852
  191.010   74.821    0.282   20.449
  191.831   80.046    0.284   21.638
  192.651   81.214    0.288   22.433
  193.471   86.434    0.290   21.651
  194.291   89.917    0.293   18.899
  195.112   93.400    0.294   15.952
  195.932   98.043    0.288   17.139
  196.752  101.522    0.277   18.331
  197.572  114.258    0.263   16.563
  198.392  117.737    0.248   12.234
  199.213  123.531    0.216    8.301
  200.033  130.485    0.207    7.715
  200.853  135.702    0.217    7.722
  201.673  143.229    0.221    8.323
  202.493  150.187    0.210    8.525
  203.314  150.777    0.211    9.123
  204.134  151.375    0.212    9.523
  204.954  150.236    0.212    9.531
  205.774  145.630    0.226    8.949
  206.594  127.734    0.249    8.559
  207.415  120.816    0.271    8.765
  208.235  117.370    0.274    9.558
  209.055  117.390    0.263   11.537
  209.875  117.406    0.237   11.937
  210.696  116.271    0.222   11.944
  211.516  115.701    0.217   11.559
  212.336  113.406    0.209   11.172
  213.156  111.111    0.214   10.980
  213.976  107.660    0.223   10.791
  214.797  102.480    0.234   10.601
  215.617   97.296    0.259   10.409
  216.437   91.534    0.276    9.827
  217.257   85.195    0.302    9.635
  218.077   74.233    0.317    9.642
  218.898   63.848    0.328   11.029
  219.718   56.935    0.344   12.415
  220.538   57.533    0.355   12.620
  221.358   61.020    0.356   12.824
  222.178   61.606    0.355   13.619
  222.999   62.204    0.351   14.020
  223.819   63.376    0.349   13.831
  224.639   66.281    0.345   13.445
  225.459   69.764    0.339   13.448
  226.280   77.873    0.330   13.258
  227.100   83.668    0.319   12.087
  227.920   89.462    0.314   11.696
  228.740   99.305    0.312   10.918
  229.560  109.722    0.308   10.726
  230.381  118.983    0.303   10.338
  231.201  120.163    0.300   10.345
  232.021  120.753    0.293   10.943
  232.841  122.502    0.292   11.148
  233.661  127.719    0.288   10.959
  234.482  135.254    0.286   10.765
  235.302  138.733    0.281   10.379
  236.122  143.372    0.276    9.992
  236.942  145.708    0.262    9.407
  237.762  142.257    0.247    8.626
  238.583  137.651    0.230    8.437
  239.403  133.040    0.222    9.035
  240.223  130.745    0.233    9.437
  241.043  126.721    0.244    9.639
  241.864  122.115    0.257   10.041
  242.684  116.353    0.264   11.624
  243.504  118.680    0.228   12.616
  244.324  128.523    0.199   12.031
  245.144  135.473    0.175   11.054
  245.965  133.756    0.149   10.273
  246.785  129.149    0.154   10.476
  247.605  119.921    0.165   11.472
  248.425  106.074    0.233   12.263
  249.245   97.423    0.265   20.350
  250.066   89.350    0.294   48.735
  250.886   80.699    0.309   47.756
  251.706   75.519    0.310   47.764
  252.526   74.375    0.310   48.559
  253.346   75.559    0.307   48.564
  254.167   75.567    0.305   45.615
  254.987   75.596    0.302   38.331
  255.807   75.604    0.304   32.426
  256.627   75.620    0.300   37.359
  257.448   77.947    0.297   40.720
  258.268   80.279    0.299   40.526
  259.088   80.291    0.298   44.672
  259.908   79.160    0.298   42.511
  260.728   79.176    0.300   42.321
  261.549   82.077    0.300   41.342
  262.369   88.449    0.298   29.329
  263.189   94.829    0.291   25.592
  264.009   94.841    0.286   24.221
  264.829   90.813    0.279   35.459
  265.650   86.207    0.272   29.950
  266.470   83.912    0.270   27.984
  267.290   86.821    0.262   23.460
  268.110   92.037    0.257   22.679
  268.930   94.947    0.249   21.702
  269.751   96.700    0.249   21.311
  270.571   96.721    0.252   20.727
  271.391   96.729    0.255   20.341
  272.211   96.167    0.259   20.351
  273.031   96.191    0.262   20.552
  273.852   97.941    0.265   20.558
  274.672   99.109    0.263   20.567
  275.492  100.858    0.252   19.786
  276.312  103.194    0.237   18.805
  277.133  105.521    0.204   16.842
  277.953  107.267    0.201   14.682
  278.773  109.594    0.199   14.096
  279.593  111.926    0.198   13.907
  280.413  114.835    0.195   13.521
  281.234  116.585    0.190   13.331
  282.054  118.334    0.186   12.942
  282.874  118.928    0.185   12.361
  283.694  121.260    0.184   12.168
  284.514  123.587    0.184   12.377
  285.335  124.763    0.184   12.380
  286.155  125.357    0.184   12.779
  286.975  125.369    0.185   12.986
  287.795  124.234    0.183   12.991
  288.615  122.516    0.178   12.999
  289.436  121.955    0.176   13.006
  290.256  118.512    0.176   13.013
  291.076  117.365    0.178   13.019
  291.896  113.336    0.180   13.225
  292.717  111.045    0.184   13.822
  293.537  115.688    0.174   14.615
  294.357  116.278    0.169   15.413
  295.177  114.561    0.167   15.221
  295.997  111.114    0.167   15.032
  296.818  107.663    0.167   14.647
  297.638  106.524    0.171   14.650
  298.458  110.585    0.174   14.658
  299.278  112.912    0.177   15.060
  300.098  111.199    0.179   15.264
  300.919  110.068    0.182   15.466
  301.739  109.502    0.188   16.067
  302.559  108.941    0.195   16.072
  303.379  108.961    0.199   16.277
  304.199  111.292    0.201   16.483
  305.020  112.460    0.201   16.486
  305.840  113.050    0.201   16.691
  306.660  113.070    0.201   16.107
  307.480  113.090    0.199   14.932
  308.301  112.525    0.201   14.548
  309.121  113.123    0.201   14.552
  309.941  114.299    0.202   14.363
  310.761  114.893    0.202   14.368
  311.581  114.331    0.202   14.376
  312.402  113.196    0.202   14.384
  313.222  112.630    0.203   14.392
  314.042  110.339    0.207   14.397
  314.862  109.200    0.210   14.402
  315.682  108.056    0.214   14.411
  316.503  105.765    0.208   14.811
  317.323  102.896    0.199   16.000
  318.143  103.494    0.192   17.585
  318.963  103.507    0.192   16.409
  319.783  101.793    0.193   15.429
  320.604  100.068    0.200   14.452
  321.424   95.470    0.210   14.458
  322.244   92.593    0.220   14.859
  323.064   89.724    0.231   16.048
  323.885   94.359    0.234   19.997
  324.705  101.890    0.213   20.005
  325.525   99.600    0.208   18.631
  326.345   96.723    0.214   16.864
  327.165   85.191    0.221   16.476
