~VERSION INFORMATION
 VERS.                 2.0:   CWLS LOG ASCII STANDARD -VERSION 2.0
 WRAP.                  NO:   ONE LINE PER DEPTH STEP
~WELL INFORMATION BLOCK
#MNEM.UNIT           DATA                    DESCRIPTION OF MNEMONIC
#---------    -------------------            -------------------------------
# Generated from Intellog Unique Number	CN_94_101/WELL/3226
WELL.         11-05-096-08W4                 : Well_name    - WELL
LOC .         AA/11-05-096-08W4/0            : Location     - LOCATION
UWI .         AA/11-05-096-08W400            : Uwi          - UNIQUE WELL ID
ENTR.         JOETTE                         : Entered      - ENTERED BY
SRVC.         SCHLUMBERGER                   : Scn          - SERVICE COMPANY
DATE.         07/20/92                       : Date         - LOG DATE
STRT.F        10                             : top_depth    - START DEPTH
STOP.F        470.138                        : bot_depth    - STOP DEPTH
STEP.F        0.8202                         : increment    - STEP LENGTH
 NULL. -999.2500:NULL Value
~CURVE INFORMATION BLOCK
#MNEM UNIT       ERCB CURVE CODE    CURVE DESCRIPTION
#-----------   ------------------   ----------------------------------
DEPT.F        00 001 00 00         : DEPTH        - DEPTH
GR  .API      00 310 00 00         : GR           - GAMMA RAY
ILD .OHMM     00 120 00 00         : RESD         - DEEP RESISTIVITY (DIL)
NPHI.V/V      00 330 00 00         : PHIN         - NEUTRON POROSITY (SANDSTONE)
~PARAMETER INFORMATION
#MNEM.UNIT           DATA             DESCRIPTION OF MNEMONIC
#---------         -----------     ------------------------------
GL  .M        331.909              : gl           - GROUND LEVEL ELEVATION
EREF.M        333.433              : kb           - ELEVATION OF DEPTH REFERENCE
DATM.M        333.433              : datum        - DATUM ELEVATION
TDD .M        146.609              : tdd          - TOTAL DEPTH DRILLER
RUN .         ONE                  : Run          - RUN NUMBER
ENG .         BILL                 : Engineer     - RECORDING ENGINEER
WIT .         JIM                  : Witness      - WITNESSED BY
MUD .         GEL                  : Mud_type     - MUD TYPE
MATR.         SANDSTONE            : Logunit      - NEUTRON MATRIX
TMAX.F        40                   : BHT          - MAXIMUM RECORDED TEMPERATURE
BHTD.F        481                  : BHTDEP       - MAXIMUM RECORDED TEMPERATURE
RMT .F        40                   : MDTP         - TEMPERATURE OF MUD
MUDD.LB/G     1.02                 : MWT          - MUD DENSITY
NEUT.         1                    : NEUTRON      - NEUTRON TYPE
RESI.         0                    : RESIST       - RESISTIVITY TYPE
RM  .OHMM     9.5                  : RM           - RESISTIVITY OF MUD
RMC .OHMM     9.5                  : RMC          - RESISTIVITY OF MUD CAKE
RMF .OHMM     9.5                  : RMF          - RESISTIVITY OF MUD FILTRATE
SUFT.F        5                    : SUFT         - SURFACE TEMPERATURE
~A  DEPTH       GR     RESD     PHIN
# ...
  365.971   71.753   28.512    0.249
  366.791   74.074   28.548    0.258
  367.612   77.942   29.648    0.265
  368.432   77.226   29.686    0.270
  369.252   76.130   27.141    0.275
  370.072   69.306   23.938    0.285
  370.892   65.173   24.407    0.282
  371.713   69.041   27.261    0.284
  372.533   66.028   28.820    0.282
  373.353   55.395   31.016    0.265
  374.173   52.012   37.235    0.254
  374.993   46.724   35.955    0.250
  375.814   40.675   30.035    0.253
  376.634   41.102   19.825    0.262
  377.454   43.434   19.144    0.272
  378.274   56.066   21.767    0.284
  379.094   67.554   23.861    0.285
  379.915   75.625   23.462    0.272
  380.735   73.004   18.902    0.275
  381.555   74.182   14.954    0.287
  382.375   83.765   12.048    0.308
  383.196   88.395    9.706    0.345
  384.016   92.252    9.896    0.380
  384.836   96.120   17.380    0.427
  385.656   96.928   26.406    0.470
  386.476   93.165   39.386    0.492
  387.297   84.055   43.964    0.534
  388.117   78.386   49.075    0.340
  388.937   55.930   49.168    0.309
  389.757   31.950   44.160    0.299
  390.577   50.689   41.863    0.306
  391.398   65.225   45.067    0.280
  392.218   77.106   48.515    0.266
  393.038   71.426   54.189    0.254
  393.858   68.805   51.371    0.260
  394.678   78.769   39.197    0.319
  395.499   87.221   20.443    0.365
  396.319   92.602   15.879    0.407
  397.139   98.363   10.672    0.424
  397.959   96.885   11.283    0.439
  398.780   92.371   13.063    0.431
  399.600   93.168   14.063    0.417
  400.420   95.131   15.416    0.398
  401.240   89.451   16.909    0.383
  402.060   89.890   17.240    0.343
  402.881   94.127   18.559    0.351
  403.701   94.936   21.481    0.349
  404.521   93.100   22.710    0.327
  405.341   92.766   22.330    0.321
  406.161   95.849   21.964    0.326
  406.982   98.562   24.069    0.321
  407.802   90.226   28.377    0.316
  408.622   81.498   32.265    0.302
  409.442   76.972   34.733    0.292
  410.262   72.447   33.551    0.308
  411.083   68.706   32.398    0.313
  411.903   70.634   34.888    0.307
  412.723   73.740   35.548    0.289
  413.543   71.501   36.906    0.280
  414.364   70.023   36.324    0.282
  415.184   69.689   35.706    0.290
  416.004   72.033   35.109    0.295
  416.824   69.400   37.117    0.290
  417.644   63.732   40.675    0.288
  418.465   59.206   40.008    0.297
  419.285   53.145   38.633    0.308
  420.105   44.809   40.109    0.340
  420.925   40.664   36.024    0.344
  421.745   41.854   36.069    0.348
  422.566   52.603   41.761    0.361
  423.386   54.912   42.578    0.320
  424.206   62.590   41.867    0.308
  425.026   58.065   45.084    0.307
  425.846   43.621   46.807    0.318
  426.667   36.798   47.723    0.318
  427.487   36.094   43.646    0.313
  428.307   44.153   39.941    0.317
  429.127   48.772   38.557    0.303
  429.948   51.866   37.232    0.314
  430.768   53.067   35.964    0.309
  431.588   54.649   36.009    0.318
  432.408   51.636   36.714    0.319
  433.228   44.050   40.259    0.317
  434.049   39.144   43.339    0.319
  434.869   32.332   41.837    0.308
  435.689   32.390   40.399    0.301
  436.509   33.187   39.011    0.308
  437.329   33.614   38.383    0.319
  438.150   35.589   38.420    0.320
  438.970   37.529   38.468    0.321
  439.790   36.825   39.938    0.329
  440.610   36.478   41.465    0.338
  441.430   35.775   40.785    0.341
  442.251   33.142   40.103    0.330
  443.071   33.593   38.737    0.312
  443.891   33.639   37.406    0.301
  444.711   31.388   37.442    0.299
  445.531   31.446   38.174    0.303
  446.352   31.873   36.212    0.313
  447.172   31.146   34.968    0.326
  447.992   28.918   34.383    0.331
  448.812   31.251   34.427    0.339
  449.633   37.774   35.743    0.334
  450.453   54.989   37.108    0.320
  451.273   61.132   37.179    0.306
  452.093   63.095   36.546    0.268
  452.913   65.046   21.638    0.244
  453.734   69.676   15.632    0.238
  454.554   73.533   17.779    0.249
  455.374   75.507   20.202    0.258
  456.194   75.935   23.810    0.264
  457.014   75.208   27.081    0.266
  457.835   72.968   25.212    0.252
  458.655   70.740   24.798    0.241
  459.475   69.251   27.192    0.234
  460.295   68.535   28.747    0.239
  461.115   61.723   29.301    0.232
  461.936   57.948   30.420    0.223
  462.756   53.815   31.026    0.229
  463.576   54.231   31.065    0.229
  464.396   62.671   31.114    0.247
  465.217   74.921   26.458    0.262
  466.037   85.266   13.065    0.213
  466.857   80.741    9.442    0.163
  467.677   76.215    9.457    0.138
  468.497   72.844    9.818    0.120
  469.318   70.985   10.379    0.082
  470.138   69.508   12.916    0.075
