~VERSION INFORMATION
 VERS.                 2.0:   CWLS LOG ASCII STANDARD -VERSION 2.0
 WRAP.                  NO:   ONE LINE PER DEPTH STEP
~WELL INFORMATION BLOCK
#MNEM.UNIT           DATA                    DESCRIPTION OF MNEMONIC
#---------    -------------------            -------------------------------
# Generated from Intellog Unique Number	CW_82_90/WELL/927
WELL.         10-26-082-22W4                 : Well_name    - WELL
LOC .         AA/10-26-082-22W4/0            : Location     - LOCATION
UWI .         AA/10-26-082-22W4/0            : Uwi          - UNIQUE WELL ID
ENTR.         JAYE                           : Entered      - ENTERED BY
SRVC.         SCHLUMBERGER                   : Scn          - SERVICE COMPANY
DATE.         18 JAN 82                      : Date         - LOG DATE
STRT.M        225                            : top_depth    - START DEPTH
STOP.M        430                            : bot_depth    - STOP DEPTH
STEP.M        0.25                           : increment    - STEP LENGTH
 NULL. -999.2500:NULL Value
~CURVE INFORMATION BLOCK
#MNEM UNIT       ERCB CURVE CODE    CURVE DESCRIPTION
#-----------   ------------------   ----------------------------------
DEPT.M        00 001 00 00         : DEPTH        - DEPTH
CALI.MM       00 280 01 00         : CAL          - CALIPER
GR  .API      00 310 00 00         : GR           - GAMMA RAY
DPHI.V/V      00 890 00 00         : PHID         - DENSITY POROSITY (SANDSTONE)
NPHI.V/V      00 330 00 00         : PHIN         - NEUTRON POROSITY (SANDSTONE)
ILD .OHMM     00 120 00 00         : RESD         - DEEP RESISTIVITY (DIL)
~PARAMETER INFORMATION
#MNEM.UNIT           DATA             DESCRIPTION OF MNEMONIC
#---------         -----------     ------------------------------
GL  .M        626.3                : gl           - GROUND LEVEL ELEVATION
EREF.M        630.7                : kb           - ELEVATION OF DEPTH REFERENCE
DATM.M        626.3                : datum        - DATUM ELEVATION
TDD .M        436                  : tdd          - TOTAL DEPTH DRILLER
RUN .         ONE                  : Run          - RUN NUMBER
ENG .         GARTH                : Engineer     - RECORDING ENGINEER
WIT .         WALKER               : Witness      - WITNESSED BY
BASE.         EDMONTON             : Branch       - HOME BASE OF LOGGING UNIT
MUD .         GEL CHEM             : Mud_type     - MUD TYPE
MATR.         SANDSTONE            : Logunit      - NEUTRON MATRIX
TMAX.C        23.8                 : BHT          - MAXIMUM RECORDED TEMPERATURE
BHTD.M        436                  : BHTDEP       - MAXIMUM RECORDED TEMPERATURE
RMT .C        23.8                 : MDTP         - TEMPERATURE OF MUD
MUDD.KG/M     0                    : MWT          - MUD DENSITY
NEUT.         1                    : NEUTRON      - NEUTRON TYPE
RESI.         0                    : RESIST       - RESISTIVITY TYPE
RM  .OHMM     3.14                 : RM           - RESISTIVITY OF MUD
RMC .OHMM     0.25                 : RMC          - RESISTIVITY OF MUD CAKE
RMF .OHMM     1.628                : RMF          - RESISTIVITY OF MUD FILTRATE
SUFT.C        4                    : SUFT         - SURFACE TEMPERATURE
~A  DEPTH      CAL       GR     PHID     PHIN     RESD
# ...
  298.000  237.377   60.023    0.343    0.486   16.618
  298.250  238.082   57.337    0.350    0.489   15.375
  298.500  238.381   55.523    0.352    0.476   14.465
  298.750  238.983   56.758    0.351    0.472   13.866
  299.000  239.178   55.256    0.348    0.470   14.299
  299.250  239.263   54.809    0.344    0.468   14.634
  299.500  239.247   55.298    0.347    0.470   14.481
  299.750  239.439   55.663    0.348    0.467   14.169
  300.000  239.737   54.595    0.346    0.483   13.458
  300.250  240.031   54.770    0.342    0.484   12.876
  300.500  239.600   57.312    0.343    0.492   13.732
  300.750  239.376   60.290    0.351    0.494   14.725
  301.000  239.254   61.152    0.351    0.480   15.070
  301.250  239.242   58.093    0.348    0.466   15.109
  301.500  238.912   58.457    0.347    0.490   14.190
  301.750  238.795   59.940    0.340    0.493   12.435
  302.000  238.777   62.046    0.332    0.495   13.285
  302.250  239.177   62.285    0.335    0.504   15.267
  302.500  239.160   59.165    0.339    0.490   16.127
  302.750  239.353   55.795    0.336    0.463   16.171
  303.000  239.334   55.599    0.341    0.458   16.121
  303.250  239.319   56.336    0.351    0.487   16.013
  303.500  239.305   54.834    0.356    0.479   16.544
  303.750  239.081   56.691    0.350    0.484   16.899
  304.000  238.649   55.810    0.351    0.489   16.504
  304.250  238.528   54.245    0.359    0.479   16.333
  304.500  238.409   57.035    0.367    0.488   17.352
  304.750  238.080   55.779    0.364    0.541   19.681
  305.000  237.652   53.904    0.350    0.515   22.034
  305.250  235.873   52.402    0.321    0.466   26.780
  305.500  238.554   53.762    0.293    0.403   30.546
  305.750  246.730   52.072    0.100    0.268   32.150
  306.000  257.393   51.065    0.046    0.202   30.358
  306.250  271.686   53.422    0.046    0.172   27.312
  306.500  262.441   54.031    0.094    0.185   24.343
  306.750  250.709   53.215    0.150    0.329   20.938
  307.000  238.250   52.584    0.266    0.429   21.073
  307.250  238.650   53.382    0.250    0.398   19.603
  307.500  238.218   55.364    0.294    0.356   17.117
  307.750  237.373   57.283    0.351    0.456   15.571
  308.000  236.421   55.841    0.375    0.499   14.300
  308.250  236.095   54.837    0.373    0.498   13.967
  308.500  236.080   53.334    0.371    0.490   15.147
  308.750  235.648   53.201    0.369    0.483   15.101
  309.000  235.426   54.932    0.371    0.500   14.639
  309.250  235.719   57.598    0.383    0.518   13.544
  309.500  236.325   57.340    0.383    0.508   13.656
  309.750  236.415   52.664    0.374    0.489   15.900
  310.000  236.813   52.219    0.359    0.469   18.580
  310.250  236.902   52.956    0.343    0.448   20.112
  310.500  236.261   51.827    0.336    0.429   21.892
  310.750  236.039   52.377    0.333    0.438   22.486
  311.000  235.917   50.875    0.327    0.443   22.380
  311.250  235.593   49.932    0.323    0.445   21.941
  311.500  235.678   51.041    0.326    0.446   21.391
  311.750  235.664   52.712    0.327    0.447   20.932
  312.000  235.542   52.578    0.325    0.452   20.325
  312.250  235.423   53.252    0.322    0.460   19.671
  312.500  235.611   55.419    0.326    0.456   18.682
  312.750  235.591   56.717    0.330    0.447   17.843
  313.000  235.686   55.588    0.328    0.436   17.265
  313.250  235.669   54.397    0.322    0.431   16.798
  313.500  235.550   55.568    0.327    0.450   15.894
  313.750  235.327   56.990    0.343    0.465   15.581
  314.000  234.893   56.543    0.344    0.458   15.654
  314.250  234.879   57.281    0.343    0.471   15.991
  314.500  234.862   56.587    0.349    0.467   16.636
  314.750  234.747   58.693    0.345    0.449   16.906
  315.000  234.834   59.553    0.338    0.435   17.397
  315.250  234.818   58.425    0.330    0.428   17.706
  315.500  235.731   56.984    0.328    0.434   17.986
  315.750  236.022   56.850    0.335    0.425   18.135
  316.000  236.426   57.152    0.338    0.425   17.678
  316.250  236.511   57.266    0.343    0.433   16.325
  316.500  236.078   57.319    0.348    0.438   16.247
  316.750  236.069   56.252    0.349    0.459   16.845
  317.000  235.743   56.240    0.351    0.457   17.172
  317.250  235.206   57.352    0.355    0.447   17.222
  317.500  234.881   58.587    0.357    0.455   17.202
  317.750  234.757   58.702    0.356    0.470   17.086
  318.000  235.363   57.386    0.354    0.483   16.813
  318.250  235.766   54.763    0.352    0.491   16.483
  318.500  236.267   54.938    0.354    0.477   15.596
  318.750  236.562   57.916    0.357    0.465   15.175
  319.000  236.961   60.894    0.358    0.468   14.738
  319.250  237.150   63.746    0.356    0.484   13.460
  319.500  238.071   66.535    0.352    0.495   12.614
  319.750  240.231   69.512    0.342    0.490   12.300
  320.000  243.949   71.369    0.328    0.486   12.057
  320.250  245.592   70.924    0.324    0.497   11.431
  320.500  246.094   72.344    0.327    0.487    9.869
  320.750  246.182   77.935    0.317    0.486    6.683
  321.000  246.165   88.936    0.268    0.510    5.578
  321.250  246.459   90.294    0.264    0.517    6.106
  321.500  246.650   92.899    0.267    0.513    6.100
  321.750  246.426  101.848    0.262    0.531    5.644
  322.000  246.617   96.860    0.245    0.520    5.481
  322.250  246.915   91.501    0.241    0.520    5.465
  322.500  246.069   83.031    0.239    0.549    5.806
  322.750  241.283   78.416    0.237    0.549    5.735
  323.000  238.571   80.584    0.232    0.557    5.416
  323.250  239.797   79.455    0.209    0.563    5.086
  323.500  241.235   81.001    0.182    0.569    4.636
  323.750  238.938   88.955    0.159    0.523    4.163
  324.000  238.715   93.300    0.200    0.487    3.574
  324.250  241.084   96.463    0.203    0.509    3.543
  324.500  241.379   98.941    0.198    0.519    4.211
  324.750  241.466   96.320    0.220    0.541    4.848
  325.000  241.347   89.280    0.240    0.525    5.540
  325.250  239.981   85.227    0.254    0.509    6.450
  325.500  238.099   82.791    0.264    0.511    7.766
  325.750  236.320   80.231    0.268    0.510    8.629
  326.000  234.334   78.293    0.265    0.506    9.065
  326.250  233.590   78.281    0.258    0.517    9.347
  326.500  233.577   78.646    0.251    0.538    9.029
  326.750  234.287   77.640    0.248    0.534    8.916
  327.000  238.730   80.494    0.260    0.500    9.023
  327.250  242.136   90.874    0.262    0.486    8.781
  327.500  243.468   93.725    0.252    0.481    8.386
  327.750  241.482   92.471    0.242    0.470    8.678
  328.000  241.153   93.955    0.232    0.478    8.654
  328.250  242.173   90.400    0.239    0.486    8.294
  328.500  241.847   86.906    0.247    0.480    8.224
  328.750  241.934   90.131    0.245    0.487    8.464
  329.000  241.711   92.796    0.246    0.501    8.664
  329.250  241.902   90.607    0.250    0.505    8.982
  329.500  242.095   89.106    0.249    0.485    9.296
  329.750  242.387   88.412    0.245    0.484    9.550
  330.000  242.269   89.647    0.243    0.490    9.773
  330.250  242.563   89.077    0.248    0.468    9.947
  330.500  242.549   88.010    0.257    0.460    9.553
  330.750  242.532   90.863    0.261    0.463    8.388
  331.000  242.515   86.809    0.255    0.474    7.546
  331.250  241.670   81.325    0.251    0.486    7.398
  331.500  240.409   76.650    0.281    0.500    8.053
  331.750  239.459   71.289    0.309    0.467    9.660
  332.000  239.338   69.227    0.302    0.452   10.130
  332.250  239.116   71.643    0.292    0.465   10.175
  332.500  239.102   74.620    0.274    0.471   10.030
  332.750  239.394   77.784    0.261    0.463    9.870
  333.000  239.793   80.323    0.247    0.439    9.184
  333.250  239.988   80.066    0.233    0.443    8.820
  333.500  240.384   78.188    0.247    0.467    8.976
  333.750  240.161   77.870    0.275    0.470    9.609
  334.000  239.419   75.496    0.298    0.466    9.908
  334.250  238.263   73.121    0.304    0.484    9.952
