~VERSION INFORMATION
 VERS.                 2.0:   CWLS LOG ASCII STANDARD -VERSION 2.0
 WRAP.                  NO:   ONE LINE PER DEPTH STEP
~WELL INFORMATION BLOCK
#MNEM.UNIT           DATA                    DESCRIPTION OF MNEMONIC
#---------    -------------------            -------------------------------
# Generated from Intellog Unique Number	CN_91_93/WELL/3715
WELL.         10-12-093-07W4                 : Well_name    - WELL
LOC .         AA/10-12-093-07W4/0            : Location     - LOCATION
UWI .         AA/10-12-093-07W400            : Uwi          - UNIQUE WELL ID
ENTR.         JOETTE                         : Entered      - ENTERED BY
SRVC.         WESTERN ATLAS                  : Scn          - SERVICE COMPANY
DATE.         03/22/92                       : Date         - LOG DATE
STRT.F        50                             : top_depth    - START DEPTH
STOP.F        860.367                        : bot_depth    - STOP DEPTH
STEP.F        0.8202                         : increment    - STEP LENGTH
 NULL. -999.2500:NULL Value
~CURVE INFORMATION BLOCK
#MNEM UNIT       ERCB CURVE CODE    CURVE DESCRIPTION
#-----------   ------------------   ----------------------------------
DEPT.F        00 001 00 00         : DEPTH        - DEPTH
CALI.IN       00 280 01 00         : CAL          - CALIPER
GR  .API      00 310 00 00         : GR           - GAMMA RAY
NPHI.V/V      00 330 00 00         : PHIN         - NEUTRON POROSITY (SANDSTONE)
ILD .OHMM     00 120 00 00         : RESD         - DEEP RESISTIVITY (DIL)
~PARAMETER INFORMATION
#MNEM.UNIT           DATA             DESCRIPTION OF MNEMONIC
#---------         -----------     ------------------------------
GL  .M        520.111              : gl           - GROUND LEVEL ELEVATION
EREF.M        521.635              : kb           - ELEVATION OF DEPTH REFERENCE
DATM.M        521.635              : datum        - DATUM ELEVATION
TDD .M        267.31               : tdd          - TOTAL DEPTH DRILLER
RUN .         ONE                  : Run          - RUN NUMBER
ENG .         BILL                 : Engineer     - RECORDING ENGINEER
WIT .         JIM                  : Witness      - WITNESSED BY
MUD .         GEL                  : Mud_type     - MUD TYPE
MATR.         SANDSTONE            : Logunit      - NEUTRON MATRIX
TMAX.F        45                   : BHT          - MAXIMUM RECORDED TEMPERATURE
BHTD.F        877                  : BHTDEP       - MAXIMUM RECORDED TEMPERATURE
RMT .F        45                   : MDTP         - TEMPERATURE OF MUD
MUDD.LB/G     1.07                 : MWT          - MUD DENSITY
NEUT.         1                    : NEUTRON      - NEUTRON TYPE
RESI.         0                    : RESIST       - RESISTIVITY TYPE
RM  .OHMM     8.9                  : RM           - RESISTIVITY OF MUD
RMC .OHMM     8.9                  : RMC          - RESISTIVITY OF MUD CAKE
RMF .OHMM     8.9                  : RMF          - RESISTIVITY OF MUD FILTRATE
SUFT.F        39.2                 : SUFT         - SURFACE TEMPERATURE
~A  DEPTH      CAL       GR     PHIN     RESD
# ...
  335.433    6.356   73.427    0.373   17.206
  336.253    6.357   74.660    0.376   16.287
  337.073    6.358   75.892    0.373   14.861
  337.894    6.359   75.911    0.367   13.560
  338.714    6.360   76.537    0.363   12.602
  339.534    6.361   77.763    0.360   11.929
  340.354    6.362   80.830    0.363   11.714
  341.175    6.363   81.452    0.364   11.504
  341.995    6.404   82.078    0.366   11.505
  342.815    6.405   82.088    0.367   11.299
  343.635    6.406   82.100    0.367   11.095
  344.455    6.407   82.119    0.368   11.097
  345.276    6.408   82.125    0.370   10.897
  346.096    6.408   82.144    0.371   10.701
  346.916    6.409   82.153    0.372   10.319
  347.736    6.410   81.552    0.372   10.132
  348.556    6.411   79.734    0.373    9.950
  349.377    6.412   76.086    0.374    9.953
  350.197    6.413   72.444    0.375   10.138
  351.017    6.414   70.013    0.377   10.913
  351.837    6.414   66.975    0.377   12.188
  352.657    6.415   65.157    0.377   13.863
  353.478    6.416   65.169    0.377   15.480
  354.298    6.417   66.402    0.377   16.663
  355.118    6.418   70.079    0.375   17.939
  355.938    6.419   71.921    0.375   17.941
  356.759    6.419   70.714    0.375   18.279
  357.579    6.421   67.675    0.374   18.282
  358.399    6.421   67.075    0.371   18.624
  359.219    6.585   66.483    0.368   19.326
  360.039    6.667   67.103    0.373   20.805
  360.860    6.668   65.288    0.379   21.193
  361.680    6.547   61.030    0.387   21.990
  362.500    6.466   60.432    0.392   22.817
  363.320    6.467   62.885    0.399   22.409
  364.140    6.427   62.898    0.405   21.210
  364.961    6.387   62.910    0.409   18.656
  365.781    6.388   66.587    0.407   17.337
  366.601    6.389   69.036    0.400   16.411
  367.421    6.390   71.490    0.393   17.028
  368.241    6.391   70.282    0.388   17.997
  369.062    6.392   67.243    0.388   20.850
  369.882    6.392   63.595    0.388   22.860
  370.702    6.393   58.727    0.389   26.001
  371.522    6.394   53.858    0.390   29.576
  372.343    6.395   50.213    0.392   31.255
  373.163    6.396   52.056    0.393   32.431
  373.983    6.397   58.170    0.393   30.701
  374.803    6.357   64.284    0.393   29.059
  375.623    6.358   67.957    0.390   26.034
  376.444    6.318   68.579    0.389   25.099
  377.264    6.319   65.541    0.387   23.759
  378.084    6.320   60.673    0.384   22.491
  378.904    6.320   62.516    0.387   21.289
  379.724    6.403   68.025    0.390   19.073
  380.545    6.444   70.479    0.394   18.054
  381.365    6.486   68.047    0.401   17.406
  382.185    6.446   63.179    0.399   19.084
  383.005    6.366   60.751    0.390   21.310
  383.825    6.366   58.326    0.388   24.239
  384.646    6.326   60.166    0.384   25.618
  385.466    6.327   66.279    0.383   23.810
  386.286    6.369   69.956    0.384   22.537
  387.106    6.370   66.314    0.387   21.729
  387.927    6.412   64.490    0.390   22.136
  388.747    6.412   62.062    0.391   24.721
  389.567    6.413   61.464    0.390   26.126
  390.387    6.414   65.144    0.389   27.109
  391.207    6.415   66.370    0.388   25.196
  392.028    6.375   65.162    0.388   24.291
  392.848    6.376   63.955    0.389   22.992
  393.668    6.377   63.363    0.390   22.579
  394.488    6.378   63.373    0.390   22.173
  395.308    6.378   63.998    0.390   23.008
  396.129    6.379   64.008    0.390   25.227
  396.949    6.380   64.026    0.390   25.697
  397.769    6.340   64.033    0.394   25.236
  398.589    6.341   64.045    0.397   23.886
  399.409    6.342   64.064    0.396   21.401
  400.230    6.302   64.073    0.393   19.172
  401.050    6.303   62.866    0.390   19.176
  401.870    6.304   55.556    0.386   20.641
  402.690    6.305   54.959    0.384   22.220
  403.510    6.306   62.906    0.383   22.223
  404.331    6.307   59.261    0.382   22.228
  405.151    6.348   57.437    0.382   22.234
  405.971    6.349   52.568    0.382   22.236
  406.791    6.350   48.313    0.384   23.937
  407.612    6.350   46.492    0.385   26.733
  408.432    6.351   51.389    0.389   27.738
  409.252    6.352   52.011    0.390   28.783
  410.072    6.353   50.196    0.391   28.262
  410.892    6.354   48.986    0.391   26.752
  411.713    6.355   47.781    0.391   28.797
  412.533    6.356   48.404    0.392   31.573
  413.353    6.357   52.684    0.396   32.761
  414.173    6.357   57.578    0.398   28.816
  414.993    6.318   61.254    0.399   23.550
  415.814    6.318   60.659    0.400   21.098
  416.634    6.360   59.449    0.398   21.495
  417.454    6.320   57.024    0.394   21.895
  418.274    6.321   55.813    0.392   23.569
  419.094    6.363   55.221    0.393   24.013
  419.915    6.364   55.234    0.394   23.580
  420.735    6.405   55.853    0.394   22.734
  421.555    6.406   57.089    0.394   22.323
  422.375    6.407   58.322    0.394   22.744
  423.196    6.408   59.555    0.393   24.036
  424.016    6.368   57.130    0.390   27.340
  424.836    6.328   55.309    0.388   29.430
  425.656    6.248   53.491    0.387   30.538
  426.476    6.208   52.893    0.387   30.544
  427.297    6.208   54.126    0.387   29.447
  428.117    6.250   55.969    0.391   25.899
  428.937    6.251   56.592    0.398   20.781
  429.757    6.333   62.095    0.406   16.675
  430.577    6.375   66.989    0.414   13.627
  431.398    6.416   72.493    0.415   11.768
  432.218    6.417   76.166    0.414   10.542
  433.038    6.418   79.229    0.413    9.620
  433.858    6.378   82.296    0.412    9.447
  434.678    6.379   80.478    0.412    9.448
  435.499    6.380   78.049    0.415    9.451
  436.319    6.380   79.282    0.419    9.452
  437.139    6.381   82.346    0.425    8.947
  437.959    6.464   84.188    0.431    8.164
  438.780    6.587   89.085    0.437    7.314
  439.600    6.587   92.145    0.439    6.433
  440.420    6.629   96.432    0.442    6.089
  441.240    6.630   97.671    0.439    5.871
  442.060    6.590   97.067    0.433    5.872
  442.881    6.550   94.642    0.426    5.873
  443.701    6.510   87.940    0.414    6.322
  444.521    6.430   84.291    0.401    9.130
  445.341    6.349   69.051    0.395    9.650
  446.161    6.229   69.673    0.399    9.651
  446.982    6.351   76.397    0.452    9.136
  447.802    6.677   82.511    0.482    8.336
  448.622    6.759   89.848    0.484    7.891
  449.442    6.638   88.034    0.481    7.069
  450.262    6.517   85.606    0.479    6.450
  451.083    6.762   86.835    0.480    6.218
  451.903    6.885   93.559    0.482    5.779
  452.723    6.886   99.673    0.481    5.675
  453.543    6.805   99.686    0.475    5.472
  454.364    6.603  100.921    0.473    5.473
  455.184    6.278  101.544    0.475    5.576
  456.004    6.320  100.336    0.478    5.680
  456.824    6.727   97.908    0.481    5.894
  457.644    6.809   93.653    0.480    6.229
  458.465    6.770   90.615    0.474    6.346
  459.285    6.771   90.017    0.463    6.347
  460.105    6.772   90.030    0.460    6.008
  460.925    6.732   90.649    0.460    5.793
  461.745    6.733   94.329    0.460    5.794
  462.566    6.733   96.172    0.450    6.012
  463.386    6.694   95.577    0.443    6.124
  464.206    6.654   92.536    0.435    6.124
  465.026    6.533   90.105    0.429    7.500
  465.846    6.330   87.070    0.424    9.350
  466.667    6.250   85.862    0.427    9.701
  467.487    6.250   84.044    0.429    9.883
  468.307    6.333   85.887    0.431    9.356
  469.127    6.497   86.513    0.435    8.856
  469.948    6.538   85.912    0.437    8.696
  470.768    6.620   85.924    0.435    8.082
  471.588    6.621   87.767    0.432    7.650
  472.408    6.622   87.780    0.428    7.376
  473.228    6.623   87.792    0.425    7.378
  474.049    6.623   90.859    0.422    7.379
  474.869    6.665   93.922    0.417    7.656
  475.689    6.829   94.544    0.412    8.092
  476.509    6.667   89.679    0.413    8.244
  477.329    6.505   89.691    0.423    8.399
