~VERSION INFORMATION
 VERS.                 2.0:   CWLS LOG ASCII STANDARD -VERSION 2.0
 WRAP.                  NO:   ONE LINE PER DEPTH STEP
~WELL INFORMATION BLOCK
#MNEM.UNIT           DATA                    DESCRIPTION OF MNEMONIC
#---------    -------------------            -------------------------------
# Generated from Intellog Unique Number	CN_94_101/WELL/5048
WELL.         15-19-098-12W4                 : Well_name    - WELL
LOC .         AA/15-19-098-12W4/0            : Location     - LOCATION
UWI .         AA/15-19-098-12W400            : Uwi          - UNIQUE WELL ID
ENTR.         T                              : Entered      - ENTERED BY
SRVC.         SCHLUMBERGER                   : Scn          - SERVICE COMPANY
DATE.         08/14/92                       : Date         - LOG DATE
STRT.M        195                            : top_depth    - START DEPTH
STOP.M        470                            : bot_depth    - STOP DEPTH
STEP.M        0.25                           : increment    - STEP LENGTH
 NULL. -999.2500:NULL Value
~CURVE INFORMATION BLOCK
#MNEM UNIT       ERCB CURVE CODE    CURVE DESCRIPTION
#-----------   ------------------   ----------------------------------
DEPT.M        00 001 00 00         : DEPTH        - DEPTH
GR  .API      00 310 00 00         : GR           - GAMMA RAY
NPHI.V/V      00 330 00 00         : PHIN         - NEUTRON POROSITY (SANDSTONE)
DPHI.V/V      00 890 00 00         : PHID         - DENSITY POROSITY (SANDSTONE)
ILD .OHMM     00 120 00 00         : RESD         - DEEP RESISTIVITY (DIL)
~PARAMETER INFORMATION
#MNEM.UNIT           DATA             DESCRIPTION OF MNEMONIC
#---------         -----------     ------------------------------
GL  .M        718.4                : gl           - GROUND LEVEL ELEVATION
EREF.M        721.67               : kb           - ELEVATION OF DEPTH REFERENCE
DATM.M        721.67               : datum        - DATUM ELEVATION
TDD .M        479                  : tdd          - TOTAL DEPTH DRILLER
RUN .         ONE                  : Run          - RUN NUMBER
ENG .         BILL                 : Engineer     - RECORDING ENGINEER
WIT .         JIM                  : Witness      - WITNESSED BY
MUD .         GEL                  : Mud_type     - MUD TYPE
MATR.         SANDSTONE            : Logunit      - NEUTRON MATRIX
TMAX.C        21                   : BHT          - MAXIMUM RECORDED TEMPERATURE
BHTD.M        479                  : BHTDEP       - MAXIMUM RECORDED TEMPERATURE
RMT .C        21                   : MDTP         - TEMPERATURE OF MUD
MUDD.KG/M     1090                 : MWT          - MUD DENSITY
NEUT.         1                    : NEUTRON      - NEUTRON TYPE
RESI.         0                    : RESIST       - RESISTIVITY TYPE
RM  .OHMM     5.7                  : RM           - RESISTIVITY OF MUD
RMC .OHMM     5.7                  : RMC          - RESISTIVITY OF MUD CAKE
RMF .OHMM     5.7                  : RMF          - RESISTIVITY OF MUD FILTRATE
SUFT.C        4                    : SUFT         - SURFACE TEMPERATURE
~A  DEPTH       GR     PHIN     PHID     RESD
# ...
  325.500  127.835    0.554    0.238    4.032
  325.750  126.421    0.551    0.239    4.040
  326.000  125.955    0.551    0.240    4.046
  326.250  126.439    0.551    0.240    3.979
  326.500  126.448    0.553    0.240    3.985
  326.750  125.983    0.554    0.241    3.919
  327.000  124.569    0.556    0.242    3.856
  327.250  123.157    0.557    0.243    3.862
  327.500  122.692    0.557    0.245    3.796
  327.750  122.701    0.560    0.245    3.804
  328.000  122.710    0.560    0.243    3.808
  328.250  123.669    0.560    0.242    3.814
  328.500  125.104    0.560    0.242    3.821
  328.750  126.062    0.560    0.242    3.896
  329.000  126.541    0.558    0.241    4.050
  329.250  127.500    0.554    0.237    4.055
  329.500  128.458    0.547    0.234    4.134
  329.750  128.472    0.544    0.231    4.218
  330.000  128.481    0.543    0.230    4.228
  330.250  126.590    0.547    0.230    4.156
  330.500  124.701    0.552    0.235    4.086
  330.750  123.764    0.562    0.239    4.092
  331.000  123.776    0.568    0.247    3.953
  331.250  123.780    0.571    0.251    3.819
  331.500  122.845    0.571    0.260    3.755
  331.750  121.901    0.568    0.265    3.692
  332.000  120.486    0.566    0.268    3.565
  332.250  118.602    0.565    0.272    3.441
  332.500  118.132    0.563    0.274    3.263
  332.750  118.142    0.560    0.272    3.041
  333.000  117.676    0.557    0.267    2.936
  333.250  117.688    0.553    0.263    2.886
  333.500  116.748    0.547    0.260    2.837
  333.750  115.808    0.545    0.258    2.740
  334.000  115.818    0.542    0.255    2.744
  334.250  117.251    0.548    0.252    2.651
  334.500  118.684    0.552    0.250    2.654
  334.750  120.593    0.556    0.250    2.612
  335.000  122.501    0.559    0.250    2.615
  335.250  124.406    0.559    0.251    2.618
  335.500  126.316    0.560    0.253    2.671
  335.750  126.327    0.561    0.255    2.724
  336.000  126.332    0.562    0.256    2.830
  336.250  126.341    0.566    0.257    2.887
  336.500  125.404    0.565    0.262    2.945
  336.750  124.936    0.563    0.264    2.951
  337.000  123.522    0.563    0.266    2.954
  337.250  122.107    0.562    0.264    3.013
  337.500  120.219    0.562    0.260    3.019
  337.750  117.858    0.561    0.256    3.022
  338.000  116.443    0.561    0.254    3.026
  338.250  115.501    0.559    0.258    3.089
  338.500  115.515    0.555    0.260    3.092
  338.750  115.524    0.551    0.261    3.155
  339.000  114.582    0.548    0.263    3.158
  339.250  110.798    0.544    0.264    3.221
  339.500  108.907    0.539    0.266    3.226
  339.750  106.546    0.533    0.273    3.353
  340.000  106.083    0.527    0.281    3.419
  340.250  106.087    0.517    0.289    3.551
  340.500  107.046    0.510    0.292    3.758
  340.750  107.057    0.505    0.295    3.902
  341.000  105.643    0.499    0.295    4.206
  341.250  103.277    0.485    0.294    4.531
  341.500   99.967    0.475    0.288    4.969
  341.750   97.129    0.468    0.279    5.763
  342.000   94.764    0.461    0.272    6.094
  342.250   93.349    0.452    0.259    6.565
  342.500   91.937    0.441    0.251    6.575
  342.750   90.995    0.429    0.248    6.235
  343.000   90.056    0.422    0.240    6.131
  343.250   87.220    0.410    0.232    6.486
  343.500   83.908    0.399    0.222    7.655
  343.750   81.544    0.385    0.210    9.549
  344.000   78.230    0.363    0.193   10.665
  344.250   73.970    0.352    0.185   12.587
  344.500   74.929    0.363    0.215   14.323
  344.750   78.734    0.386    0.226   16.604
  345.000   85.387    0.417    0.247   18.559
  345.250   90.616    0.430    0.278   20.355
  345.500   95.371    0.459    0.275   20.386
  345.750  102.023    0.473    0.267   18.988
  346.000  108.202    0.487    0.263   17.679
  346.250  111.533    0.501    0.255   16.454
  346.500  112.491    0.518    0.244   13.738
  346.750  113.926    0.527    0.240   10.277
  347.000  114.885    0.532    0.242    9.568
  347.250  114.422    0.533    0.248    8.587
  347.500  113.954    0.535    0.253    6.542
  347.750  113.489    0.535    0.254    6.203
  348.000  113.973    0.535    0.250    5.775
  348.250  114.933    0.536    0.247    5.377
  348.500  115.415    0.538    0.241    5.097
  348.750  116.373    0.542    0.235    4.660
  349.000  117.806    0.543    0.229    4.501
  349.250  119.239    0.544    0.222    4.425
  349.500  122.572    0.544    0.216    4.276
  349.750  124.003    0.544    0.223    4.202
  350.000  124.489    0.544    0.232    4.058
  350.250  124.973    0.545    0.240    3.920
  350.500  124.508    0.546    0.247    3.719
  350.750  123.093    0.547    0.253    3.654
  351.000  121.681    0.547    0.256    3.466
  351.250  120.267    0.545    0.258    3.347
  351.500  118.853    0.545    0.255    3.291
  351.750  117.913    0.543    0.252    3.236
  352.000  115.075    0.541    0.245    3.361
  352.250  113.184    0.538    0.245    3.494
  352.500  109.872    0.534    0.245    3.696
  352.750  106.085    0.532    0.245    3.838
  353.000  100.400    0.526    0.249    4.060
  353.250   97.087    0.516    0.251    4.217
  353.500   93.300    0.506    0.256    4.461
  353.750   90.937    0.494    0.258    4.634
  354.000   90.476    0.481    0.261    4.996
  354.250   92.856    0.471    0.263    5.188
  354.500   95.712    0.463    0.264    5.593
  354.750   98.571    0.469    0.266    5.805
  355.000   99.999    0.483    0.269    6.033
  355.250  103.333    0.493    0.272    6.040
  355.500  104.768    0.501    0.274    6.389
  355.750  106.675    0.511    0.275    6.883
  356.000  109.055    0.519    0.276    7.835
  356.250  111.442    0.523    0.277    8.139
  356.500  111.921    0.522    0.277    7.717
  356.750  112.881    0.520    0.279    7.191
  357.000  113.365    0.517    0.280    6.938
  357.250  113.851    0.515    0.280    6.460
  357.500  113.856    0.512    0.281    6.015
  357.750  113.393    0.512    0.280    5.701
  358.000  112.451    0.512    0.278    5.406
  358.250  111.037    0.514    0.277    5.035
  358.500  109.148    0.518    0.276    4.862
  358.750  109.632    0.522    0.275    4.868
  359.000  111.539    0.526    0.275    4.967
  359.250  113.926    0.528    0.276    4.975
  359.500  113.933    0.531    0.276    5.074
  359.750  112.521    0.530    0.273    5.177
  360.000  110.634    0.527    0.272    5.283
  360.250  109.215    0.525    0.271    5.289
  360.500  106.854    0.517    0.267    5.396
  360.750  104.963    0.515    0.264    5.400
  361.000  102.602    0.510    0.259    5.411
  361.250  103.560    0.507    0.249    5.321
  361.500  105.466    0.503    0.238    5.233
  361.750  108.324    0.502    0.225    5.051
  362.000  110.232    0.502    0.213    4.792
  362.250  114.984    0.502    0.202    4.710
  362.500  120.688    0.508    0.200    4.550
  362.750  125.919    0.516    0.207    4.475
  363.000  127.352    0.527    0.213    4.399
  363.250  127.361    0.536    0.229    4.328
  363.500  126.898    0.539    0.241    4.256
  363.750  127.382    0.530    0.242    4.184
  364.000  128.341    0.523    0.242    4.042
  364.250  130.720    0.518    0.242    3.973
  364.500  133.102    0.530    0.243    3.769
  364.750  131.213    0.540    0.236    3.641
  365.000  127.903    0.545    0.231    3.516
  365.250  126.012    0.546    0.205    3.458
  365.500  122.702    0.546    0.198    3.462
  365.750  121.760    0.546    0.199    3.468
  366.000  120.820    0.545    0.207    3.411
  366.250  119.885    0.541    0.216    3.416
  366.500  119.890    0.532    0.226    3.420
  366.750  119.427    0.518    0.233    3.425
  367.000  118.012    0.485    0.239    3.494
  367.250  116.600    0.461    0.243    3.630
  367.500  115.661    0.452    0.240    3.770
  367.750  115.668    0.445    0.233    3.988
  368.000  117.103    0.447    0.228    4.375
  368.250  117.110    0.448    0.221    5.262
  368.500  117.119    0.448    0.216    6.098
  368.750  116.179    0.447    0.211    6.811
