~VERSION INFORMATION
 VERS.                 2.0:   CWLS LOG ASCII STANDARD -VERSION 2.0
 WRAP.                  NO:   ONE LINE PER DEPTH STEP
~WELL INFORMATION BLOCK
#MNEM.UNIT           DATA                    DESCRIPTION OF MNEMONIC
#---------    -------------------            -------------------------------
# Generated from Intellog Unique Number	CN_94_101/WELL/5007
WELL.         10-29-097-06W4                 : Well_name    - WELL
LOC .         AA/10-29-097-06W4/0            : Location     - LOCATION
UWI .         AA/10-29-097-06W400            : Uwi          - UNIQUE WELL ID
ENTR.         JOETTE                         : Entered      - ENTERED BY
SRVC.         SCHLUMBERGER                   : Scn          - SERVICE COMPANY
DATE.         08/11/92                       : Date         - LOG DATE
STRT.M        0                              : top_depth    - START DEPTH
STOP.M        100                            : bot_depth    - STOP DEPTH
STEP.M        0.25                           : increment    - STEP LENGTH
 NULL. -999.2500:NULL Value
~CURVE INFORMATION BLOCK
#MNEM UNIT       ERCB CURVE CODE    CURVE DESCRIPTION
#-----------   ------------------   ----------------------------------
DEPT.M        00 001 00 00         : DEPTH        - DEPTH
DPHI.V/V      00 890 00 00         : PHID         - DENSITY POROSITY (SANDSTONE)
NPHI.V/V      00 330 00 00         : PHIN         - NEUTRON POROSITY (SANDSTONE)
GR  .API      00 310 00 00         : GR           - GAMMA RAY
ILD .OHMM     00 120 00 00         : RESD         - DEEP RESISTIVITY (DIL)
~PARAMETER INFORMATION
#MNEM.UNIT           DATA             DESCRIPTION OF MNEMONIC
#---------         -----------     ------------------------------
GL  .M        345.1                : gl           - GROUND LEVEL ELEVATION
EREF.M        345.1                : kb           - ELEVATION OF DEPTH REFERENCE
DATM.M        345.1                : datum        - DATUM ELEVATION
TDD .M        105.1                : tdd          - TOTAL DEPTH DRILLER
RUN .         ONE                  : Run          - RUN NUMBER
ENG .         BILL                 : Engineer     - RECORDING ENGINEER
WIT .         JIM                  : Witness      - WITNESSED BY
MUD .         GEL                  : Mud_type     - MUD TYPE
MATR.         SANDSTONE            : Logunit      - NEUTRON MATRIX
TMAX.C        10                   : BHT          - MAXIMUM RECORDED TEMPERATURE
BHTD.M        105.1                : BHTDEP       - MAXIMUM RECORDED TEMPERATURE
RMT .C        17.3                 : MDTP         - TEMPERATURE OF MUD
MUDD.KG/M     1130                 : MWT          - MUD DENSITY
NEUT.         1                    : NEUTRON      - NEUTRON TYPE
RESI.         0                    : RESIST       - RESISTIVITY TYPE
RM  .OHMM     8.25                 : RM           - RESISTIVITY OF MUD
RMC .OHMM     7.89                 : RMC          - RESISTIVITY OF MUD CAKE
RMF .OHMM     6.89                 : RMF          - RESISTIVITY OF MUD FILTRATE
SUFT.C        4                    : SUFT         - SURFACE TEMPERATURE
~A  DEPTH     PHID     PHIN       GR     RESD
# ...
   43.500    0.193    0.220   33.888 5175.910
   43.750    0.205    0.222   30.861 5261.440
   44.000    0.202    0.231   29.646 5267.250
   44.250    0.176    0.235   27.834 5200.730
   44.500    0.173    0.239   28.489 5135.050
   44.750    0.177    0.235   32.248 5144.500
   45.000    0.187    0.230   32.884 5075.790
   45.250    0.197    0.225   33.540 5155.880
   45.500    0.190    0.225   37.916 5237.220
   45.750    0.200    0.228   36.094 5395.840
   46.000    0.183    0.239   36.749 5403.790
   46.250    0.165    0.276   39.255 5041.280
   46.500    0.205    0.317   34.358 4772.030
   46.750    0.257    0.374   34.406 4711.760
   47.000    0.295    0.390   36.903 4854.460
   47.250    0.298    0.409   37.558 5003.320
   47.500    0.298    0.352   36.363 5078.520
   47.750    0.295    0.325   37.635 5086.010
   48.000    0.289    0.317   45.076 3143.680
   48.250    0.276    0.327   71.034   91.994
   48.500    0.232    0.341  114.266   89.520
   48.750    0.225    0.284  126.025   87.144
   49.000    0.220    0.311  129.765   83.668
   49.250    0.228    0.427  118.083   81.418
   49.500    0.229    0.513  118.121   79.229
   49.750    0.226    0.564  115.075   77.155
   50.000    0.221    0.583  109.571   74.077
   50.250    0.200    0.614  110.833   74.132
   50.500    0.199    0.620  118.275   72.165
   50.750    0.195    0.631  121.398   69.286
   51.000    0.196    0.636  114.650   68.386
   51.250    0.200    0.635  106.052   67.547
   51.500    0.202    0.634  112.876   66.694
   51.750    0.200    0.635  120.934   65.852
   52.000    0.196    0.646  122.226   64.081
   52.250    0.190    0.631  121.628   62.380
   52.500    0.177    0.622  115.498   59.870
   52.750    0.165    0.627  106.282   60.815
   53.000    0.169    0.639  103.853   66.338
   53.250    0.176    0.600  105.125   68.347
   53.500    0.189    0.569  111.333   69.425
   53.750    0.184    0.524  111.988   63.833
   54.000    0.178    0.555  112.036   57.070
   54.250    0.173    0.593  111.458   63.119
   54.500    0.169    0.596  109.646   77.096
   54.750    0.175    0.594  106.590  154.753
   55.000    0.168    0.593   65.286  994.933
   55.250    0.208    0.597   38.181 1660.850
   55.500    0.237    0.535   25.254 5403.500
   55.750    0.252    0.316   27.153 5488.750
   56.000    0.250    0.286   30.295 5267.870
   56.250    0.249    0.280   31.548 5054.010
   56.500    0.251    0.292   34.681 4714.970
   56.750    0.279    0.302   34.719 4655.420
   57.000    0.287    0.316   31.056 4936.230
   57.250    0.261    0.316   30.478 5230.130
   57.500    0.254    0.288   30.507 5469.520
   57.750    0.250    0.278   30.555 5551.730
   58.000    0.253    0.254   31.210 5483.630
   58.250    0.255    0.232   34.940 5338.130
   58.500    0.256    0.219   42.998 4908.090
   58.750    0.252    0.222   47.355 4146.100
   59.000    0.242    0.190   48.627 2455.970
   59.250    0.227    0.184   64.715  695.344
   59.500    0.210    0.184   69.072  314.598
   59.750    0.193    0.246   71.578  301.937
   60.000    0.162    0.325   74.710  343.677
   60.250    0.171    0.322   69.197  325.081
   60.500    0.217    0.358   74.161  187.179
   60.750    0.192    0.316   85.303  219.103
   61.000    0.188    0.398   81.640  267.719
   61.250    0.212    0.429   53.928  322.396
   61.500    0.223    0.414   50.872  835.960
   61.750    0.235    0.333   43.508  898.384
   62.000    0.245    0.303   46.014 1036.800
   62.250    0.252    0.310   37.406 1399.070
   62.500    0.256    0.272   32.519 3058.890
   62.750    0.259    0.238   30.706 2733.810
   63.000    0.264    0.217   29.511 2182.020
   63.250    0.266    0.217   30.773 1924.080
   63.500    0.268    0.232   36.990 2039.390
   63.750    0.270    0.250   34.561 2192.480
   64.000    0.271    0.276   27.814 2356.200
   64.250    0.273    0.271   26.002 2569.260
   64.500    0.274    0.264   24.189 2802.610
   64.750    0.276    0.263   26.078 2688.840
   65.000    0.281    0.270   27.351 2336.740
   65.250    0.285    0.274   26.762 2060.510
   65.500    0.286    0.264   30.522 2035.240
   65.750    0.287    0.268   26.232 2008.050
   66.000    0.280    0.240   25.654 2039.740
   66.250    0.276    0.235   25.692 2675.480
   66.500    0.281    0.227   23.880 2324.270
   66.750    0.284    0.236   28.863 2048.760
   67.000    0.277    0.226   31.986 2299.140
   67.250    0.263    0.222   35.099 2930.320
   67.500    0.265    0.231   36.989 3683.520
   67.750    0.277    0.221   27.773 3585.780
   68.000    0.284    0.242   28.438 3642.360
   68.250    0.288    0.219   32.785 4084.480
   68.500    0.289    0.214   32.843 4851.190
   68.750    0.291    0.228   30.404 5600.690
   69.000    0.293    0.239   27.349 5454.080
   69.250    0.295    0.249   24.302 5381.230
   69.500    0.297    0.255   21.266 5244.230
   69.750    0.298    0.259   22.538 5250.030
   70.000    0.301    0.257   23.184 5253.890
   70.250    0.302    0.260   25.073 5261.630
   70.500    0.305    0.266   26.345 5269.380
   70.750    0.307    0.258   24.533 5279.090
   71.000    0.305    0.249   21.487 5064.780
   71.250    0.293    0.248   23.376 4726.750
   71.500    0.220    0.241   27.116 5079.710
   71.750    0.200    0.254   29.005 4944.920
   72.000    0.226    0.295   32.755 4297.400
   72.250    0.249    0.316   49.449 3630.220
   72.500    0.274    0.340   48.871 2443.150
   72.750    0.248    0.320   37.805 3249.200
   73.000    0.238    0.356   24.888 5124.780
   73.250    0.236    0.391   27.385 5132.330
   73.500    0.252    0.336   34.836 5067.500
   73.750    0.267    0.291   38.576 5149.350
   74.000    0.281    0.292   39.848 5155.040
   74.250    0.286    0.302   44.205 4877.910
   74.500    0.279    0.299   46.720 3525.400
   74.750    0.272    0.294   44.282 2306.250
   75.000    0.262    0.294   38.151 4373.980
   75.250    0.252    0.303   32.637 3747.690
   75.500    0.259    0.310   39.462 3496.280
   75.750    0.275    0.315   38.276 4034.960
   76.000    0.299    0.316   34.603 4526.400
   76.250    0.311    0.321   29.099 5227.640
   76.500    0.305    0.321   27.904 5620.070
   76.750    0.295    0.313   28.549 5788.150
   77.000    0.284    0.313   31.672 5965.650
   77.250    0.280    0.319   36.646 5976.640
   77.500    0.283    0.343   35.451 5981.040
   77.750    0.287    0.340   29.320 5905.500
   78.000    0.281    0.327   28.134 5590.080
   78.250    0.267    0.317   33.098 5067.370
   78.500    0.257    0.317   39.306 2391.420
   78.750    0.310    0.320   47.373 2078.270
   79.000    0.318    0.330   42.467 2845.550
   79.250    0.323    0.340   35.720 3101.720
   79.500    0.315    0.332   28.972 3682.600
   79.750    0.293    0.319   25.309 4499.710
   80.000    0.288    0.317   25.347 4769.370
   80.250    0.262    0.322   25.386 4579.120
   80.500    0.248    0.315   24.191 4585.870
   80.750    0.244    0.301   23.612 4594.310
   81.000    0.265    0.302   24.894 4663.370
   81.250    0.270    0.305   26.166 4804.610
   81.500    0.277    0.302   26.204 5094.410
   81.750    0.276    0.297   28.094 5176.700
   82.000    0.270    0.297   28.749 5180.510
   82.250    0.265    0.301   29.414 5191.960
   82.500    0.267    0.298   32.537 5197.690
   82.750    0.271    0.299   35.033 5057.920
   83.000    0.277    0.303   35.081 4995.870
   83.250    0.279    0.295   32.652 5003.240
   83.500    0.228    0.293   30.213 5152.870
   83.750    0.217    0.293   29.018 5310.890
   84.000    0.223    0.284   28.439 5318.710
   84.250    0.247    0.269   27.244 5326.550
   84.500    0.271    0.285   26.049 5112.190
   84.750    0.281    0.297   24.863 4906.460
   85.000    0.286    0.297   24.285 4844.490
   85.250    0.281    0.291   26.174 4849.840
   85.500    0.276    0.287   26.212 4790.350
   85.750    0.275    0.291   25.634 4795.640
   86.000    0.277    0.296   25.065 4735.070
   86.250    0.281    0.303   25.084 5020.690
   86.500    0.277    0.305   25.739 5246.630
   86.750    0.279    0.309   27.021 5254.360
