~VERSION INFORMATION
 VERS.                 2.0:   CWLS LOG ASCII STANDARD -VERSION 2.0
 WRAP.                  NO:   ONE LINE PER DEPTH STEP
~WELL INFORMATION BLOCK
#MNEM.UNIT           DATA                    DESCRIPTION OF MNEMONIC
#---------    -------------------            -------------------------------
# Generated from Intellog Unique Number	CC_88_90/WELL/3146
WELL.         PETRO-CANADA                   : Well_name    - WELL
LOC .         AA/10-11-089-15W4/0            : Location     - LOCATION
UWI .         AA/10-11-089-15W400            : Uwi          - UNIQUE WELL ID
ENTR.         JOETTE                         : Entered      - ENTERED BY
SRVC.         SCHLUMBERGER                   : Scn          - SERVICE COMPANY
DATE.         03/04/92                       : Date         - LOG DATE
STRT.M        75.000                         : top_depth    - START DEPTH
STOP.M        176.000                        : bot_depth    - STOP DEPTH
STEP.M        0.25                           : increment    - STEP LENGTH
 NULL. -999.2500:NULL Value
~CURVE INFORMATION BLOCK
#MNEM UNIT       ERCB CURVE CODE    CURVE DESCRIPTION
#-----------   ------------------   ----------------------------------
DEPT.M        00 001 00 00         : DEPTH        - DEPTH
GR  .API      00 310 00 00         : GR           - GAMMA RAY
CALI.MM       00 280 01 00         : CAL          - CALIPER
NPHI.V/V      00 330 00 00         : PHIN         - NEUTRON POROSITY (SANDSTONE)
DPHI.V/V      00 890 00 00         : PHID         - DENSITY POROSITY (SANDSTONE)
ILD .OHMM     00 120 00 00         : RESD         - DEEP RESISTIVITY (DIL)
~PARAMETER INFORMATION
#MNEM.UNIT           DATA             DESCRIPTION OF MNEMONIC
#---------         -----------     ------------------------------
GL  .M        497.5                : gl           - GROUND LEVEL ELEVATION
EREF.M        500.5                : kb           - ELEVATION OF DEPTH REFERENCE
DATM.M        500.5                : datum        - DATUM ELEVATION
TDD .M        237                  : tdd          - TOTAL DEPTH DRILLER
RUN .         ONE                  : Run          - RUN NUMBER
ENG .         BILL                 : Engineer     - RECORDING ENGINEER
WIT .         JIM                  : Witness      - WITNESSED BY
MUD .         GEL                  : Mud_type     - MUD TYPE
MATR.         SANDSTONE            : Logunit      - NEUTRON MATRIX
TMAX.C        60                   : BHT          - MAXIMUM RECORDED TEMPERATURE
BHTD.M        237                  : BHTDEP       - MAXIMUM RECORDED TEMPERATURE
RMT .C        20.6                 : MDTP         - TEMPERATURE OF MUD
MUDD.KG/M     9666.66              : MWT          - MUD DENSITY
NEUT.         1                    : NEUTRON      - NEUTRON TYPE
RESI.         0                    : RESIST       - RESISTIVITY TYPE
RM  .OHMM     8.2                  : RM           - RESISTIVITY OF MUD
RMC .OHMM     10.9                 : RMC          - RESISTIVITY OF MUD CAKE
RMF .OHMM     10.9                 : RMF          - RESISTIVITY OF MUD FILTRATE
SUFT.C        4                    : SUFT         - SURFACE TEMPERATURE
~A  DEPTH       GR      CAL     PHIN     PHID     RESD
   75.000   85.425  206.905    0.420    0.321   22.041
   75.250   84.199  206.772    0.419    0.313   24.138
   75.500   87.275  206.728    0.438    0.316   24.569
   75.750   96.496  204.544    0.450    0.329   24.541
   76.000  112.478  201.346    0.445    0.343   24.057
   76.250  106.336  200.221    0.449    0.333   23.603
   76.500  105.725  201.191    0.468    0.314   22.290
   76.750  119.863  202.139    0.475    0.306   21.068
   77.000  127.241  198.940    0.476    0.298   19.542
   77.250  113.723  195.720    0.483    0.297   17.142
   77.500  111.268  192.522    0.477    0.308   16.198
   77.750  124.792  192.389    0.467    0.313   17.104
   78.000  121.108  192.344    0.469    0.317   17.729
   78.250  110.048  194.307    0.474    0.316   16.445
   78.500  109.437  196.291    0.482    0.312   14.704
   78.750  105.138  197.239    0.504    0.310    9.770
   79.000  102.683  197.128    0.522    0.307    8.109
   79.250  103.916  196.025    0.538    0.303    6.857
   79.500  112.523  195.914    0.538    0.302    5.906
   79.750  105.765  195.847    0.544    0.299    5.378
   80.000   93.477  196.773    0.542    0.303    5.082
   80.250  100.855  196.707    0.533    0.310    4.800
   80.500   95.942  198.691    0.535    0.309    4.974
   80.750  108.237  198.624    0.534    0.306    5.352
   81.000  115.614  199.550    0.531    0.302    5.759
   81.250  119.920  200.498    0.514    0.306    6.671
   81.500  127.297  199.373    0.511    0.300    8.961
   81.750  112.551  193.043    0.500    0.290    9.460
   82.000  104.565  189.845    0.479    0.294    9.629
   82.250  107.641  190.770    0.487    0.314    9.792
   82.500  118.706  192.777    0.497    0.320    9.784
   82.750  121.168  192.710    0.502    0.318   10.145
   83.000  121.171  191.585    0.451    0.331   11.113
   83.250  109.497  192.533    0.445    0.362   11.523
   83.500   90.449  195.553    0.429    0.380   12.395
   83.750   89.838  198.574    0.424    0.345   16.961
   84.000   93.528  199.522    0.422    0.337   21.950
   84.250   94.760  196.324    0.420    0.333   24.059
   84.500  108.899  196.191    0.420    0.309   24.475
   84.750  120.578  197.161    0.419    0.303   23.999
   85.000  126.727  199.123    0.426    0.295   23.100
   85.250  125.501  199.056    0.451    0.305   22.651
   85.500  106.453  197.931    0.462    0.314   22.632
   85.750   84.331  192.638    0.444    0.324   22.607
   86.000   97.856  190.498    0.425    0.328   23.427
   86.250   89.255  188.292    0.419    0.329   23.845
   86.500   91.102  188.248    0.427    0.333   25.157
   86.750   99.094  189.174    0.428    0.334   25.613
   87.000   99.712  190.144    0.417    0.333   26.063
   87.250  102.173  191.069    0.417    0.331   27.008
   87.500   96.030  192.039    0.421    0.332   28.004
   87.750  102.794  191.906    0.418    0.331   30.123
   88.000  124.307  192.898    0.426    0.324   32.402
   88.250  135.987  195.897    0.431    0.308   36.169
   88.500  129.230  197.881    0.400    0.210   38.907
   88.750  116.941  196.734    0.270    0.126   38.139
   89.000  102.195  191.485    0.235    0.093   34.728
   89.250  112.646  181.031    0.319    0.140   31.050
   89.500  114.493  179.906    0.378    0.289   27.754
   89.750  118.183  186.014    0.422    0.312   25.264
   90.000  121.874  190.094    0.428    0.320   24.319
   90.250  118.189  195.165    0.432    0.321   23.846
   90.500  115.734  197.172    0.438    0.308   23.819
   90.750  118.196  200.148    0.441    0.309   23.786
   91.000  120.043  201.140    0.441    0.308   23.759
   91.250  108.984  201.052    0.439    0.306   23.303
   91.500  100.998  200.919    0.438    0.308   22.850
   91.750  102.229  200.874    0.433    0.309   21.585
   92.000  113.295  200.786    0.423    0.305   20.022
   92.250  102.850  200.675    0.422    0.304   18.226
   92.500  101.625  200.586    0.422    0.304   17.227
   92.750  104.701  200.497    0.419    0.300   16.282
   93.000  110.849  201.445    0.426    0.289   16.264
   93.250  112.082  201.312    0.427    0.271   25.336
   93.500  105.325  202.304    0.403    0.242   55.082
   93.750  109.630  197.033    0.307    0.139   62.652
   94.000  109.633  183.470    0.205    0.128   68.634
   94.250  107.792  178.199    0.130    0.135   67.299
   94.500  108.410  178.088    0.135    0.153   60.138
   94.750   99.809  177.955    0.159    0.170   51.815
   95.000   99.812  178.925    0.213    0.200   35.072
   95.250   97.972  178.814    0.279    0.230   31.358
   95.500   83.225  179.806    0.340    0.248   23.713
   95.750   88.145  181.790    0.415    0.265   21.196
   96.000   94.909  187.898    0.432    0.294   19.661
   96.250   89.380  192.970    0.428    0.314   18.578
   96.500   91.842  194.999    0.424    0.332   19.257
   96.750  101.678  197.997    0.427    0.328   19.589
   97.000  102.296  199.982    0.443    0.330   19.578
   97.250   93.081  199.915    0.444    0.329   18.846
   97.500  105.375  199.782    0.446    0.333   16.845
   97.750  120.742  200.752    0.453    0.333   14.239
   98.000  120.131  200.663    0.458    0.328   13.204
   98.250  117.061  201.589    0.467    0.327   12.947
   98.500  120.137  202.559    0.492    0.328   14.184
   98.750  109.079  203.529    0.502    0.305   14.710
   99.000   99.249  205.491    0.485    0.266   17.035
   99.250   94.949  207.453    0.463    0.233   18.662
   99.500   98.640  207.409    0.439    0.181   18.995
   99.750   99.258  205.247    0.430    0.153   18.979
  100.000  100.490  196.866    0.417    0.112   18.604
  100.250   98.650  183.281    0.404    0.156   18.243
  100.500   91.892  179.046    0.421    0.293   17.893
  100.750   96.197  178.936    0.437    0.322   17.545
  101.000  108.492  185.066    0.443    0.343   17.199
  101.250   94.975  192.255    0.438    0.344   17.180
  101.500   95.593  196.312    0.442    0.344   17.481
  101.750  102.356  197.260    0.446    0.347   17.467
  102.000   92.526  198.163    0.446    0.347   18.105
  102.250  101.747  198.097    0.449    0.343   18.423
  102.500  100.522  198.030    0.461    0.339   18.746
  102.750   89.463  197.919    0.466    0.327   19.075
  103.000   88.852  196.794    0.444    0.335   18.009
  103.250   94.386  195.647    0.438    0.339   17.669
  103.500   98.691  194.566    0.438    0.339   16.380
  103.750   95.621  193.397    0.433    0.336   16.070
  104.000   88.864  192.294    0.430    0.324   15.464
  104.250   91.325  190.110    0.424    0.322   15.443
  104.500  118.369  188.984    0.426    0.322   15.430
  104.750  104.852  188.896    0.433    0.326   15.408
  105.000   93.178  189.821    0.428    0.337   15.400
  105.250   90.723  191.850    0.435    0.345   15.378
  105.500   89.498  193.768    0.455    0.347   15.075
  105.750  112.239  194.760    0.468    0.345   15.062
  106.000  123.919  195.730    0.493    0.341   15.050
  106.250  113.475  195.641    0.505    0.340   14.753
  106.500  114.708  195.553    0.474    0.336   14.736
  106.750  114.710  194.405    0.455    0.328   14.442
  107.000  104.266  194.294    0.446    0.332   14.430
  107.250   98.738  193.191    0.452    0.338   14.153
  107.500   97.512  192.044    0.459    0.337   14.137
  107.750  109.806  190.919    0.442    0.335   14.373
  108.000  120.258  190.830    0.429    0.341   14.361
  108.250  110.427  191.800    0.422    0.339   14.617
  108.500  107.357  192.748    0.435    0.338   14.878
  108.750  109.819  192.659    0.462    0.339   15.710
  109.000  108.593  188.424    0.480    0.333   16.280
  109.250  108.597  186.241    0.492    0.321   16.266
  109.500  116.589  186.152    0.497    0.330   16.248
  109.750  112.290  189.173    0.485    0.322   15.636
  110.000   93.241  190.143    0.447    0.318   15.336
  110.250   87.099  192.105    0.458    0.336   14.491
  110.500   82.800  192.038    0.466    0.323   13.430
  110.750   80.960  190.891    0.476    0.306   13.172
  111.000   72.974  187.671    0.417    0.275   13.646
  111.250   64.987  184.450    0.387    0.256   13.898
