~VERSION INFORMATION
 VERS.                 2.0:   CWLS LOG ASCII STANDARD -VERSION 2.0
 WRAP.                  NO:   ONE LINE PER DEPTH STEP
~WELL INFORMATION BLOCK
#MNEM.UNIT           DATA                    DESCRIPTION OF MNEMONIC
#---------    -------------------            -------------------------------
# Generated from Intellog Unique Number	CN_91_93/WELL/2758
WELL.         10-01-093-10W4                 : Well_name    - WELL
LOC .         AA/10-01-093-10W4/0            : Location     - LOCATION
UWI .         AA/10-01-093-10W400            : Uwi          - UNIQUE WELL ID
ENTR.         JO                             : Entered      - ENTERED BY
SRVC.         SCHLUMBERGER                   : Scn          - SERVICE COMPANY
DATE.         03/23/92                       : Date         - LOG DATE
STRT.M        0                              : top_depth    - START DEPTH
STOP.M        70                             : bot_depth    - STOP DEPTH
STEP.M        0.25                           : increment    - STEP LENGTH
 NULL. -999.2500:NULL Value
~CURVE INFORMATION BLOCK
#MNEM UNIT       ERCB CURVE CODE    CURVE DESCRIPTION
#-----------   ------------------   ----------------------------------
DEPT.M        00 001 00 00         : DEPTH        - DEPTH
CALI.MM       00 280 01 00         : CAL          - CALIPER
GR  .API      00 310 00 00         : GR           - GAMMA RAY
NPHI.V/V      00 330 00 00         : PHIN         - NEUTRON POROSITY (SANDSTONE)
DPHI.V/V      00 890 00 00         : PHID         - DENSITY POROSITY (SANDSTONE)
ILD .OHMM     00 120 00 00         : RESD         - DEEP RESISTIVITY (DIL)
~PARAMETER INFORMATION
#MNEM.UNIT           DATA             DESCRIPTION OF MNEMONIC
#---------         -----------     ------------------------------
GL  .M        319.38               : gl           - GROUND LEVEL ELEVATION
EREF.M        319.38               : kb           - ELEVATION OF DEPTH REFERENCE
DATM.M        319.38               : datum        - DATUM ELEVATION
TDD .M        72.54                : tdd          - TOTAL DEPTH DRILLER
RUN .         ONE                  : Run          - RUN NUMBER
ENG .         BILL                 : Engineer     - RECORDING ENGINEER
WIT .         JIM                  : Witness      - WITNESSED BY
MUD .         GEL                  : Mud_type     - MUD TYPE
MATR.         SANDSTONE            : Logunit      - NEUTRON MATRIX
TMAX.C        4                    : BHT          - MAXIMUM RECORDED TEMPERATURE
BHTD.M        72.54                : BHTDEP       - MAXIMUM RECORDED TEMPERATURE
RMT .C        6.6                  : MDTP         - TEMPERATURE OF MUD
MUDD.KG/M     1000                 : MWT          - MUD DENSITY
NEUT.         1                    : NEUTRON      - NEUTRON TYPE
RESI.         0                    : RESIST       - RESISTIVITY TYPE
RM  .OHMM     25.5                 : RM           - RESISTIVITY OF MUD
RMC .OHMM     25.5                 : RMC          - RESISTIVITY OF MUD CAKE
RMF .OHMM     25.5                 : RMF          - RESISTIVITY OF MUD FILTRATE
SUFT.C        4                    : SUFT         - SURFACE TEMPERATURE
~A  DEPTH      CAL       GR     PHIN     PHID     RESD
# ...
   36.500  113.737   68.267    0.422    0.198   37.199
   36.750  112.534   43.178    0.389    0.227   40.104
   37.000  111.131   33.511    0.412    0.265  114.439
   37.250  111.340   23.240    0.399    0.296  116.640
   37.500  112.156   21.440    0.398    0.312 2143.240
   37.750  112.768   23.264    0.383    0.312 2513.580
   38.000  113.178   30.231    0.413    0.297 2333.130
   38.250  113.591   33.267    0.416    0.313 2145.290
   38.500  114.608   25.720    0.426    0.319 2612.170
   38.750  115.827   32.081    0.393    0.315 2540.900
   39.000  116.437   34.210    0.389    0.314 3151.940
   39.250  117.655   26.059    0.390    0.318 3430.060
   39.500  118.267   28.790    0.398    0.318 3562.080
   39.750  119.285   23.661    0.385    0.314 3769.070
   40.000  120.100   30.024    0.402    0.313 4379.350
   40.250  120.100   30.642    0.411    0.322 2667.700
   40.500  120.520   29.442    0.445    0.325 2213.050
   40.750  120.928   27.337    0.418    0.313 2476.910
   41.000  121.339   24.022    0.393    0.316 3160.310
   41.250  121.550   24.337    0.396    0.320 3251.640
   41.500  121.758   20.719    0.386    0.323 3571.540
   41.750  121.968   27.687    0.367    0.319 4556.960
   42.000  121.977   32.237    0.391    0.326 4601.710
   42.250  121.985   25.293    0.377    0.318 4517.500
   42.500  122.194   23.490    0.395    0.313 4735.490
   42.750  122.201   27.736    0.375    0.316 4002.660
   43.000  122.813   25.024    0.387    0.296 5988.000
   43.250  123.224   26.550    0.386    0.303 6395.270
   43.500  123.233   25.654    0.391    0.319 7225.060
   43.750  123.039   28.691    0.373    0.314 7936.510
   44.000  122.643   29.005    0.387    0.308 8014.120
   44.250  122.047   26.900    0.395    0.308 7867.790
   44.500  121.249   27.819    0.391    0.312 7581.220
   44.750  120.249   28.135    0.375    0.291 7103.130
   45.000  119.046   24.818    0.376    0.277 6470.670
   45.250  117.240   22.411    0.393    0.277 5677.940
   45.500  115.837   27.565    0.370    0.294 2563.530
   45.750  114.031   36.346    0.405    0.302 1357.060
   46.000  113.030   26.075    0.414    0.316 2208.490
   46.250  112.231   25.181    0.403    0.337 4759.290
   46.500  111.633   28.216    0.409    0.326 4629.250
   46.750  110.835   31.857    0.418    0.322 4502.200
   47.000  109.837   37.010    0.394    0.299 3530.960
   47.250  109.036   49.725    0.378    0.275 1550.120
   47.500  108.036   71.813    0.361    0.237  133.538
   47.750  107.036   74.850    0.369    0.237  201.660
   48.000  106.238   87.261    0.350    0.208  155.211
   48.250  105.842   96.348    0.376    0.232  111.895
   48.500  105.648   83.656    0.359    0.247   54.447
   48.750  105.656   67.940    0.380    0.261   93.729
   49.000  105.664   52.529    0.371    0.249  192.744
   49.250  106.278   51.028    0.382    0.258  133.848
   49.500  107.295   51.645    0.332    0.257  260.215
   49.750  107.705   65.568    0.350    0.239  177.351
   50.000  107.913   85.844    0.327    0.225  189.421
   50.250  108.324   67.406    0.331    0.229  151.365
   50.500  108.938   31.127    0.304    0.211  122.092
   50.750  109.954   30.534    0.303    0.209  124.440
   51.000  111.373   32.967    0.326    0.218  118.790
   51.250  111.380   43.865    0.344    0.217   99.476
   51.500  110.583   55.066    0.348    0.196  103.305
   51.750  109.179   84.717    0.315    0.201  110.336
   52.000  107.977   98.641    0.356    0.242  115.655
   52.250  107.785   67.805    0.387    0.263  116.781
   52.500  108.799   34.550    0.350    0.271   81.859
   52.750  108.403   53.916    0.316    0.263  140.912
   53.000  107.806   54.534    0.329    0.270  133.262
   53.250  108.622   41.843    0.354    0.281   99.736
   53.500  109.233   56.070    0.346    0.257  149.200
   53.750  109.646   65.154    0.338    0.252  128.493
   54.000  109.049   73.029    0.335    0.239   83.572
   54.250  107.443   68.505    0.350    0.244   69.981
   54.500  106.847   58.535    0.332    0.256   71.330
   54.750  106.653   44.334    0.328    0.262   72.704
   55.000  106.861   48.883    0.332    0.242   80.611
   55.250  106.668   35.586    0.331    0.254   83.710
   55.500  105.669   46.788    0.355    0.260   68.800
   55.750  104.468   41.658    0.363    0.241   68.820
   56.000  104.675   93.387    0.343    0.182   71.469
   56.250  105.692  114.266    0.332    0.140   68.865
   56.500  106.910  118.815    0.361   -0.041   61.570
   56.750  105.306   58.946    0.407   -0.116   21.795
   57.000  104.505   42.020    0.447   -0.075   14.854
   57.250  104.311   47.175    0.359   -0.043  193.057
   57.500  103.111   52.931    0.333    0.002  111.180
   57.750  101.304   36.007    0.271    0.050  124.430
   58.000  100.707   30.575    0.247    0.071  297.223
   58.250  101.320   68.089    0.266    0.072  129.262
   58.500  104.351   70.521    0.283    0.033   47.949
   58.750  105.568   56.621    0.266    0.040   29.483
   59.000  101.747   51.188    0.236    0.076   62.942
   59.250  102.763   68.441    0.275    0.075   56.803
   59.500  104.382   65.427    0.303    0.080   24.937
   59.750  103.988   61.507    0.277    0.110   31.228
   60.000  103.391   70.289    0.259    0.152   50.820
   60.250  103.197   88.144    0.287    0.127   43.767
   60.500  103.204   93.601    0.327    0.111   24.053
   60.750  103.615   90.587    0.363    0.093   20.141
   61.000  104.027   67.312    0.341    0.075   22.333
   61.250  103.229   49.481    0.224    0.056   20.154
   61.500  101.623   46.469    0.202    0.064   21.934
   61.750  100.825   41.640    0.239    0.074   35.032
   62.000  101.437   50.726    0.238    0.101   50.480
   62.250  101.446   48.925    0.224    0.083   25.742
   62.500  101.252   51.657    0.211    0.071   25.037
   62.750  100.655   54.392    0.238    0.083   33.789
   63.000  100.461   55.613    0.244    0.072   27.256
   63.250  100.268   51.391    0.244    0.067   26.018
   63.500  100.073   53.519    0.255    0.066   24.836
   63.750   99.880   61.092    0.252    0.054   22.625
   64.000   99.887   53.845    0.253    0.053   21.397
   64.250   99.895   45.087    0.269    0.046   23.948
   64.500  100.711   52.357    0.257    0.073   21.815
   64.750  101.121   63.559    0.251    0.055   20.826
   65.000  101.129   53.590    0.243    0.051   19.512
   65.250  101.138   50.276    0.193    0.040   25.843
   65.500  101.550   44.541    0.169    0.028   37.944
   65.750  101.558   49.694    0.161    0.021   42.469
   66.000  101.362   34.584    0.153    0.022   47.088
   66.250  101.168   28.547    0.166    0.006   83.369
   66.500  100.975   37.331    0.172    0.031   80.335
   66.750  100.982   46.113    0.173    0.054   65.408
   67.000  100.789   38.866    0.171    0.043   48.497
   67.250  100.595   42.810    0.172    0.028   50.364
   67.500  100.806   36.471    0.170    0.040   43.780
   67.750  100.814   44.950    0.170    0.028   47.647
   68.000  101.224   31.657    0.174    0.047   44.639
   68.250  101.031   32.272    0.171    0.055   42.213
   68.500  100.837   20.792    0.159    0.074   85.999
   68.750  100.441   25.943    0.166    0.129  327.997
   69.000  100.249   56.502    0.184    0.172  194.261
   69.250  100.255  117.909    0.291    0.181   36.733
   69.500  100.263  132.738    0.374    0.166   11.952
   69.750  100.272  123.980    0.380    0.126    7.774
   70.000  100.279  125.201    0.383    0.081    8.948
