~VERSION INFORMATION
 VERS.                 2.0:   CWLS LOG ASCII STANDARD -VERSION 2.0
 WRAP.                  NO:   ONE LINE PER DEPTH STEP
~WELL INFORMATION BLOCK
#MNEM.UNIT           DATA                    DESCRIPTION OF MNEMONIC
#---------    -------------------            -------------------------------
# Generated from Intellog Unique Number	CN_94_101/WELL/5046
WELL.         15-12-097-08W4                 : Well_name    - WELL
LOC .         AA/15-12-097-08W4/0            : Location     - LOCATION
UWI .         AA/15-12-097-08W400            : Uwi          - UNIQUE WELL ID
ENTR.         T                              : Entered      - ENTERED BY
SRVC.         SCHLUMBERGER                   : Scn          - SERVICE COMPANY
DATE.         08/14/92                       : Date         - LOG DATE
STRT.M        0                              : top_depth    - START DEPTH
STOP.M        75                             : bot_depth    - STOP DEPTH
STEP.M        0.25                           : increment    - STEP LENGTH
 NULL. -999.2500:NULL Value
~CURVE INFORMATION BLOCK
#MNEM UNIT       ERCB CURVE CODE    CURVE DESCRIPTION
#-----------   ------------------   ----------------------------------
DEPT.M        00 001 00 00         : DEPTH        - DEPTH
GR  .API      00 310 00 00         : GR           - GAMMA RAY
NPHI.V/V      00 330 00 00         : PHIN         - NEUTRON POROSITY (SANDSTONE)
RHOB.KG/M3    00 350 00 00         : DENS         - BULK DENSITY
ILD .OHMM     00 120 00 00         : RESD         - DEEP RESISTIVITY (DIL)
DPHI.V/V      00 890 00 00         : PHID         - DENSITY POROSITY (SANDSTONE)
~PARAMETER INFORMATION
#MNEM.UNIT           DATA             DESCRIPTION OF MNEMONIC
#---------         -----------     ------------------------------
GL  .M        308.79               : gl           - GROUND LEVEL ELEVATION
EREF.M        308.79               : kb           - ELEVATION OF DEPTH REFERENCE
DATM.M        308.79               : datum        - DATUM ELEVATION
TDD .M        79.5                 : tdd          - TOTAL DEPTH DRILLER
RUN .         ONE                  : Run          - RUN NUMBER
ENG .         BILL                 : Engineer     - RECORDING ENGINEER
WIT .         JIM                  : Witness      - WITNESSED BY
MUD .         GEL                  : Mud_type     - MUD TYPE
MATR.         SANDSTONE            : Logunit      - NEUTRON MATRIX
TMAX.C        8                    : BHT          - MAXIMUM RECORDED TEMPERATURE
BHTD.M        79.5                 : BHTDEP       - MAXIMUM RECORDED TEMPERATURE
RMT .C        8                    : MDTP         - TEMPERATURE OF MUD
MUDD.KG/M     1090                 : MWT          - MUD DENSITY
NEUT.         1                    : NEUTRON      - NEUTRON TYPE
RESI.         0                    : RESIST       - RESISTIVITY TYPE
RM  .OHMM     5.7                  : RM           - RESISTIVITY OF MUD
RMC .OHMM     5.7                  : RMC          - RESISTIVITY OF MUD CAKE
RMF .OHMM     5.7                  : RMF          - RESISTIVITY OF MUD FILTRATE
SUFT.C        4                    : SUFT         - SURFACE TEMPERATURE
~A  DEPTH       GR     PHIN     DENS     RESD     PHID
# ...
   36.500   48.654    0.468 2204.300    3.402    0.270
   36.750   37.407    0.446 2150.250    3.958    0.303
   37.000   36.411    0.432 2208.860    8.892    0.267
   37.250   21.951    0.363 2378.050   16.556    0.165
   37.500   23.639    0.363 2197.360   13.993    0.274
   37.750   30.727    0.390 2161.410   10.973    0.296
   38.000   31.887    0.421 2083.220   19.308    0.344
   38.250   27.118    0.441 2139.820   28.689    0.309
   38.500   30.972    0.428 2150.150   25.177    0.303
   38.750   38.071    0.440 2152.420   14.614    0.302
   39.000   31.135    0.437 2144.650   16.686    0.306
   39.250   23.682    0.419 2152.960   17.022    0.301
   39.500   17.845    0.429 2113.010  338.550    0.325
   39.750   16.289    0.416 2107.250 1525.060    0.329
   40.000   14.764    0.420 2113.580 3238.410    0.325
   40.250   15.385    0.402 2148.000 4139.490    0.304
   40.500   13.839    0.406 2120.120 4639.550    0.321
   40.750   13.382    0.418 2072.130 4822.680    0.350
   41.000   13.464    0.424 2088.480 4738.810    0.340
   41.250   14.095    0.428 2120.920 4569.040    0.321
   41.500   15.244    0.421 2127.220 4488.960    0.317
   41.750   16.953    0.426 2113.420 4410.270    0.325
   42.000   17.045    0.425 2089.590 4094.800    0.340
   42.250   19.262    0.419 2083.830 3271.520    0.343
   42.500   20.442    0.409 2108.220 2614.490    0.328
   42.750   16.202    0.373 2207.010 2520.130    0.268
   43.000   14.656    0.355 2265.620 2429.850    0.233
   43.250   13.131    0.345 2292.030 2093.490    0.217
   43.500   12.694    0.354 2294.340 1736.180    0.216
   43.750   12.745    0.391 2238.240 1262.680    0.250
   44.000   14.993    0.409 2162.110  884.423    0.296
   44.250   18.308    0.391 2188.510  485.172    0.280
   44.500   21.624    0.375 2261.200  309.303    0.236
   44.750   21.177    0.359 2281.570  154.454    0.223
   45.000   28.794    0.372 2303.990   58.178    0.210
   45.250   52.061    0.400 2272.050    9.403    0.229
   45.500   55.916    0.434 2304.490    3.224    0.209
   45.750   41.445    0.459 2230.370    3.752    0.254
   46.000   42.066    0.444 2260.830    3.355    0.236
   46.250   41.069    0.464 2162.510    7.124    0.295
   46.500   32.538    0.459 2150.710   45.870    0.303
   46.750   26.132    0.441 2096.690   97.403    0.335
   47.000   15.444    0.443 2098.970  129.294    0.334
   47.250   18.210    0.439 2059.030   97.648    0.358
   47.500   15.058    0.431 2095.480   67.104    0.336
   47.750   17.845    0.418 2463.800   23.890    0.113
   48.000   22.228    0.419 2377.580   15.521    0.165
   48.250   19.076    0.419 2220.980   60.156    0.260
   48.500   11.622    0.396 2235.330   41.350    0.251
   48.750   14.938    0.411 2261.800    4.855    0.235
   49.000   29.572    0.430 2284.150    2.335    0.222
   49.250   47.988    0.441 2324.630    2.473    0.197
   49.500   45.375    0.442 2228.350    2.878    0.256
   49.750   38.979    0.446 2236.700    2.673    0.250
   50.000   40.139    0.444 2289.240    1.803    0.219
   50.250   40.769    0.442 2281.500    2.580    0.223
   50.500   36.550    0.435 2299.830    2.351    0.212
   50.750   37.689    0.429 2247.820    2.585    0.244
   51.000   40.465    0.429 2272.220    2.356    0.229
   51.250   47.564    0.452 2330.830    1.650    0.193
   51.500   49.811    0.467 2268.730    1.561    0.231
   51.750   52.039    0.470 2379.620    1.450    0.164
   52.000   79.079    0.492 2337.670    1.016    0.189
   52.250   84.560    0.489 2319.840    0.926    0.200
   52.500   81.947    0.499 2334.180    0.927    0.191
   52.750   82.019    0.491 2362.600    0.928    0.174
   53.000   76.710    0.481 2425.230    0.929    0.136
   53.250   80.026    0.468 2499.890    0.984    0.091
   53.500   69.867    0.445 2472.010    0.931    0.108
   53.750   54.848    0.453 2317.460    1.104    0.202
   54.000   49.550    0.452 2271.450    1.260    0.229
   54.250   38.303    0.439 2167.160    1.704    0.293
   54.500   38.934    0.435 2145.280    1.805    0.306
   54.750   48.707    0.438 2266.220    1.677    0.233
   55.000   63.351    0.442 2300.700    1.743    0.212
   55.250   67.744    0.439 2290.880    1.529    0.218
   55.500   55.430    0.445 2246.920    1.848    0.244
   55.750   50.111    0.438 2192.860    1.749    0.277
   56.000   49.115    0.434 2138.840    1.535    0.310
   56.250   25.482    0.426 2121.020    1.452    0.321
   56.500   21.252    0.429 2127.320    1.454    0.317
   56.750   25.117    0.429 2131.610    1.456    0.314
   57.000   25.188    0.427 2065.520    1.430    0.354
   57.250   19.341    0.427 2003.430    1.303    0.392
   57.500   19.444    0.434 1993.640    1.280    0.398
   57.750   19.505    0.444 2098.500    1.306    0.334
   58.000   18.519    0.435 2118.870    1.384    0.322
   58.250   22.912    0.432 2119.140    1.610    0.322
   58.500   22.983    0.432 2107.380    1.467    0.329
   58.750   21.459    0.436 2093.540    1.583    0.337
   59.000   21.550    0.444 2125.970    1.774    0.318
   59.250   28.079    0.443 2146.380    1.711    0.305
   59.500   29.798    0.437 2114.450    1.559    0.325
   59.750   28.782    0.433 2048.360    1.503    0.365
   60.000   35.351    0.438 2072.760    1.562    0.350
   60.250   35.972    0.432 2109.220    1.719    0.328
   60.500   44.138    0.432 2206.030    1.890    0.269
   60.750   48.521    0.439 2222.380    1.788    0.259
   61.000   48.603    0.460 2136.190    1.692    0.311
   61.250   38.993    0.455 2082.170    1.662    0.344
   61.500   40.692    0.456 2088.440    1.515    0.340
   61.750   39.685    0.454 2084.690    1.763    0.343
   62.000   33.310    0.443 2074.900    1.490    0.349
   62.250   25.297    0.432 2040.990    1.259    0.369
   62.500   19.450    0.419 2165.950    1.170    0.293
   62.750   16.837    0.406 2158.180    1.149    0.298
   63.000   14.752    0.411 2142.390    1.150    0.308
   63.250   13.227    0.406 2138.670    1.152    0.310
   63.500   12.221    0.405 2128.850    1.153    0.316
   63.750   10.696    0.391 2127.080    1.154    0.317
   64.000   10.228    0.401 2109.250    1.113    0.328
   64.250   12.476    0.424 2085.390    1.115    0.342
   64.500   12.018    0.410 2135.930    1.116    0.312
   64.750   15.873    0.395 2158.340    1.159    0.298
   65.000   17.032    0.399 2156.600    1.251    0.299
   65.250   12.813    0.395 2100.540    1.119    0.333
   65.500   10.728    0.393 2114.880    1.142    0.324
   65.750   10.820    0.394 2155.390    1.165    0.300
   66.000   10.902    0.400 2111.390    1.144    0.326
   66.250   10.983    0.408 2033.250    1.083    0.374
   66.500   16.455    0.409 1999.330    1.084    0.394
   66.750   17.075    0.408 2094.140    1.148    0.337
   67.000   18.774    0.395 2112.500    1.171    0.326
   67.250   12.917    0.401 2126.840    1.173    0.317
   67.500   17.310    0.409 2056.700    1.110    0.360
   67.750   23.320    0.409 2054.990    1.050    0.361
   68.000   26.107    0.416 2006.970    0.888    0.390
   68.250   35.351    0.416 2041.420    0.765    0.369
   68.500   56.463    0.425 2468.080    0.810    0.110
   68.750   96.438    0.458 2494.490    1.035    0.094
   69.000  113.777    0.462 2480.680    1.076    0.103
   69.250  110.085    0.447 2495.030    1.077    0.094
   69.500   98.300    0.435 2521.470    1.039    0.078
   69.750   91.385    0.441 2531.790    1.001    0.072
   70.000   92.534    0.428 2505.880    1.304    0.087
   70.250   75.908    0.466 2478.000    1.518    0.104
   70.500   70.051    0.458 2512.480    0.881    0.083
   70.750   84.156    0.423 2550.990    1.084    0.060
   71.000   90.705    0.432 2567.310    1.149    0.050
   71.250   84.329    0.413 2557.520    1.150    0.056
   71.500   75.239    0.394 2600.050    1.173    0.030
   71.750   78.015    0.376 2632.520    1.243    0.011
   72.000   81.331    0.372 2644.850    1.392    0.003
   72.250   76.561    0.372 2647.100    1.394    0.002
   72.500   79.877    0.363 2647.370    1.319    0.002
   72.750   72.962    0.367 2611.440    1.296    0.023
