~VERSION INFORMATION
 VERS.                 2.0:   CWLS LOG ASCII STANDARD -VERSION 2.0
 WRAP.                  NO:   ONE LINE PER DEPTH STEP
~WELL INFORMATION BLOCK
#MNEM.UNIT           DATA                    DESCRIPTION OF MNEMONIC
#---------    -------------------            -------------------------------
# Generated from Intellog Unique Number	CN_94_101/WELL/2676
WELL.         14-23-094-14W4                 : Well_name    - WELL
LOC .         AA/14-23-094-14W4/0            : Location     - LOCATION
UWI .         AA/14-23-094-14W400            : Uwi          - UNIQUE WELL ID
ENTR.         JOETTE                         : Entered      - ENTERED BY
SRVC.         SCHLUMBERGER                   : Scn          - SERVICE COMPANY
DATE.         06/19/92                       : Date         - LOG DATE
STRT.M        50                             : top_depth    - START DEPTH
STOP.M        150                            : bot_depth    - STOP DEPTH
STEP.M        0.25                           : increment    - STEP LENGTH
 NULL. -999.2500:NULL Value
~CURVE INFORMATION BLOCK
#MNEM UNIT       ERCB CURVE CODE    CURVE DESCRIPTION
#-----------   ------------------   ----------------------------------
DEPT.M        00 001 00 00         : DEPTH        - DEPTH
CALI.MM       00 280 01 00         : CAL          - CALIPER
GR  .API      00 310 00 00         : GR           - GAMMA RAY
NPHI.V/V      00 330 00 00         : PHIN         - NEUTRON POROSITY (SANDSTONE)
DPHI.V/V      00 890 00 00         : PHID         - DENSITY POROSITY (SANDSTONE)
ILD .OHMM     00 120 00 00         : RESD         - DEEP RESISTIVITY (DIL)
~PARAMETER INFORMATION
#MNEM.UNIT           DATA             DESCRIPTION OF MNEMONIC
#---------         -----------     ------------------------------
GL  .M        409.7                : gl           - GROUND LEVEL ELEVATION
EREF.M        411.4                : kb           - ELEVATION OF DEPTH REFERENCE
DATM.M        411.4                : datum        - DATUM ELEVATION
TDD .M        164                  : tdd          - TOTAL DEPTH DRILLER
RUN .         ONE                  : Run          - RUN NUMBER
ENG .         BILL                 : Engineer     - RECORDING ENGINEER
WIT .         JIM                  : Witness      - WITNESSED BY
MUD .         GEL                  : Mud_type     - MUD TYPE
MATR.         SANDSTONE            : Logunit      - NEUTRON MATRIX
TMAX.C        18                   : BHT          - MAXIMUM RECORDED TEMPERATURE
BHTD.M        164                  : BHTDEP       - MAXIMUM RECORDED TEMPERATURE
RMT .C        19                   : MDTP         - TEMPERATURE OF MUD
MUDD.KG/M     1060                 : MWT          - MUD DENSITY
NEUT.         1                    : NEUTRON      - NEUTRON TYPE
RESI.         0                    : RESIST       - RESISTIVITY TYPE
RM  .OHMM     3.74                 : RM           - RESISTIVITY OF MUD
RMC .OHMM     3.74                 : RMC          - RESISTIVITY OF MUD CAKE
RMF .OHMM     3.74                 : RMF          - RESISTIVITY OF MUD FILTRATE
SUFT.C        4                    : SUFT         - SURFACE TEMPERATURE
~A  DEPTH      CAL       GR     PHIN     PHID     RESD
# ...
  123.000  210.326   72.880    0.387    0.234   21.521
  123.250  206.776   70.022    0.392    0.223   18.315
  123.500  204.929   67.762    0.400    0.231   16.219
  123.750  202.375   67.338    0.416    0.229   14.629
  124.000  200.528   69.945    0.428    0.216   14.425
  124.250  198.753   68.923    0.439    0.208   14.204
  124.500  196.054   67.304    0.435    0.187   14.328
  124.750  195.420   66.837    0.417    0.169   14.680
  125.000  193.717   71.877    0.410    0.167   15.297
  125.250  192.938   71.410    0.400    0.172   16.610
  125.500  190.239   65.564    0.389    0.187   17.284
  125.750  187.541   64.543    0.395    0.212   19.088
  126.000  186.906   64.119    0.403    0.237   21.051
  126.250  187.195   64.292    0.405    0.260   24.121
  126.500  191.540   59.044    0.404    0.265   27.095
  126.750  193.676   50.896    0.405    0.251   33.419
  127.000  201.080   52.221    0.408    0.244   41.278
  127.250  205.353   54.828    0.407    0.261   44.627
  127.500  207.634   54.404    0.394    0.279   51.135
  127.750  209.914   52.741    0.392    0.290   58.678
  128.000  210.203   48.689    0.395    0.284   61.145
  128.250  210.637   45.874    0.398    0.289   63.809
  128.500  211.849   47.884    0.392    0.295   61.862
  128.750  212.138   49.209    0.387    0.283   57.891
  129.000  213.351   52.413    0.394    0.277   54.941
  129.250  214.853   55.661    0.405    0.281   49.556
  129.500  214.997   57.583    0.419    0.290   44.569
  129.750  216.210   60.190    0.426    0.293   40.083
  130.000  215.647   61.515    0.429    0.285   34.212
  130.250  214.868   62.286    0.424    0.287   32.469
  130.500  213.166   60.070    0.419    0.282   30.429
  130.750  211.391   59.645    0.423    0.278   29.457
  131.000  208.692   62.209    0.431    0.273   27.997
  131.250  207.061   66.652    0.438    0.262   25.647
  131.500  207.423   68.020    0.428    0.244   21.429
  131.750  207.567   68.194    0.409    0.236   16.967
  132.000  207.928   67.172    0.404    0.229   15.543
  132.250  206.226   66.107    0.413    0.231   15.349
  132.500  206.442   63.379    0.412    0.221   16.041
  132.750  203.816   62.869    0.409    0.232   18.045
  133.000  203.037   60.011    0.405    0.247   20.240
  133.250  201.407   53.612    0.397    0.260   29.009
  133.500  199.632   51.352    0.389    0.257   31.454
  133.750  197.857   50.373    0.394    0.254   33.385
  134.000  195.230   49.993    0.396    0.254   34.840
  134.250  192.532   50.079    0.393    0.258   35.694
  134.500  192.748   51.491    0.381    0.240   34.605
  134.750  191.046   52.219    0.379    0.225   31.168
  135.000  189.487   54.869    0.382    0.217   28.594
  135.250  188.708   55.640    0.386    0.233   26.232
  135.500  188.001   55.172    0.382    0.217   24.968
  135.750  185.303   54.194    0.380    0.194   24.584
  136.000  184.451   53.770    0.382    0.192   23.903
  136.250  183.745   55.138    0.371    0.186   23.605
  136.500  182.042   55.312    0.373    0.231   23.708
  136.750  179.415   53.649    0.389    0.244   24.254
  137.000  177.785   55.018    0.391    0.245   24.849
  137.250  177.929   54.593    0.389    0.241   25.970
  137.500  178.218   54.767    0.399    0.238   26.646
  137.750  179.648   56.776    0.407    0.234   26.312
  138.000  180.788   59.340    0.403    0.226   25.436
  138.250  182.145   61.306    0.404    0.224   23.768
  138.500  182.507   59.687    0.406    0.241   22.275
  138.750  182.868   59.860    0.407    0.235   21.564
  139.000  183.012   60.631    0.407    0.226   21.263
  139.250  183.446   61.999    0.400    0.226   21.090
  139.500  183.662   61.021    0.389    0.217   21.151
  139.750  184.947   57.609    0.384    0.219   21.244
  140.000  185.309   54.752    0.387    0.230   21.765
  140.250  186.449   51.894    0.394    0.237   22.746
  140.500  186.738   49.080    0.398    0.251   25.588
  140.750  188.095   46.820    0.400    0.263   27.199
  141.000  189.308   46.396    0.400    0.270   29.405
  141.250  189.597   47.807    0.401    0.272   33.792
  141.500  191.026   50.414    0.399    0.269   34.571
  141.750  192.239   54.216    0.399    0.261   34.139
  142.000  193.668   55.498    0.396    0.257   32.446
  142.250  193.885   55.758    0.395    0.270   30.275
  142.500  194.246   53.498    0.397    0.269   30.496
  142.750  194.463   51.238    0.408    0.259   31.199
  143.000  194.752   49.619    0.426    0.279   32.653
  143.250  194.117   47.402    0.441    0.293   33.454
  143.500  193.338   49.368    0.436    0.279   34.275
  143.750  192.703   53.724    0.431    0.270   34.475
  144.000  191.924   58.764    0.432    0.263   33.995
  144.250  189.226   61.285    0.413    0.258   31.813
  144.500  188.374   65.086    0.409    0.254   30.235
  144.750  181.764   65.857    0.410    0.243   28.736
  145.000  180.985   66.031    0.411    0.239   25.019
  145.250  179.283   63.814    0.409    0.244   24.185
  145.500  178.576   58.566    0.404    0.236   23.413
  145.750  177.869   52.124    0.396    0.189   23.585
  146.000  176.238   48.158    0.380    0.163   24.163
  146.250  175.604   45.898    0.240    0.118   28.201
  146.500  174.752   43.040    0.199   -0.027   41.110
  146.750  169.066   37.238    0.181   -0.000   45.271
  147.000  165.372   34.978    0.165   -0.010   59.007
  147.250  163.669   33.403    0.151   -0.017   74.347
  147.500  162.962   32.978    0.137   -0.013   76.060
  147.750  163.179   33.108    0.131   -0.006   75.000
  148.000  161.621   32.684    0.130   -0.007   74.062
  148.250  161.765   33.455    0.138   -0.020   65.489
  148.500  161.203   34.270    0.146   -0.036   53.719
  148.750  161.347   36.920    0.160   -0.032   41.698
  149.000  160.785   38.799    0.174   -0.018   36.146
  149.250  161.002   42.557    0.207   -0.004   33.209
  149.500  161.363   49.390    0.208    0.008   32.148
  149.750  160.511   48.966    0.207    0.016   30.129
  150.000  160.800   46.750    0.207    0.007   29.666
