~VERSION INFORMATION
 VERS.                 2.0:   CWLS LOG ASCII STANDARD -VERSION 2.0
 WRAP.                  NO:   ONE LINE PER DEPTH STEP
~WELL INFORMATION BLOCK
#MNEM.UNIT           DATA                    DESCRIPTION OF MNEMONIC
#---------    -------------------            -------------------------------
# Generated from Intellog Unique Number	CC_84_87/WELL/2327
NULL.         -999.25                        : NULL_VALUE
WELL.         SUN CHEECHAM                   : Well_name    - WELL              
LOC .         11-15-084-07W4                 : Location     - LOCATION          
UWI .         AA/11-15-084-07W4/0            : Uwi          - UNIQUE WELL ID    
ENTR.         DW                             : Entered      - ENTERED BY        
SRVC.         SCHLUMBERGER                   : Scn          - SERVICE COMPANY   
DATE.         15 JAN 80                      : Date         - LOG DATE
STRT.M        140                            : top_depth    - START DEPTH       
STOP.M        430.094                        : bot_depth    - STOP DEPTH        
STEP.M        0.3                            : increment    - STEP LENGTH       
~CURVE INFORMATION BLOCK
#MNEM UNIT       ERCB CURVE CODE    CURVE DESCRIPTION
#-----------   ------------------   ----------------------------------
DEPT.M        00 001 00 00         : DEPTH        - DEPTH                       
DPHI.V/V      00 890 00 00         : PHID         - DENSITY POROSITY (LIMESTONE)
NPHI.V/V      00 330 00 00         : PHIN         - NEUTRON POROSITY (LIMESTONE)
GR  .API      00 310 00 00         : GR           - GAMMA RAY                   
ILD .OHMM     00 120 00 00         : RESD         - DEEP RESISTIVITY (DIL)      
~PARAMETER INFORMATION       
#MNEM.UNIT           DATA             DESCRIPTION OF MNEMONIC
#---------         -----------     ------------------------------
GL  .M        591                  : gl           - GROUND LEVEL ELEVATION      
EREF.M        594.35               : kb           - ELEVATION OF DEPTH REFERENCE
DATM.M        594.35               : datum        - DATUM ELEVATION             
TDD .M        435                  : tdd          - TOTAL DEPTH DRILLER         
RUN .         ONE                  : Run          - RUN NUMBER                  
ENG .         BILL                 : Engineer     - RECORDING ENGINEER          
WIT .         JIM                  : Witness      - WITNESSED BY                
MUD .         GEL                  : Mud_type     - MUD TYPE                    
MATR.         LIMESTONE            : Logunit      - NEUTRON MATRIX              
TMAX.C        20.5                 : BHT          - MAXIMUM RECORDED TEMPERATURE
BHTD.M        435                  : BHTDEP       - MAXIMUM RECORDED TEMPERATURE
MATR.         1                    : LOGUNIT      - NEUTRON MATRIX              
RMT .C        25                   : MDTP         - TEMPERATURE OF MUD          
NEUT.         1                    : NEUTRON      - NEUTRON TYPE                
RESI.         0                    : RESIST       - RESISTIVITY TYPE            
RMC .OHMM     0.25                 : RMC          - RESISTIVITY OF MUD CAKE     
RMF .OHMM     0.25                 : RMF          - RESISTIVITY OF MUD FILTRATE 
SUFT.C        4                    : SUFT         - SURFACE TEMPERATURE         
~A  DEPTH     PHID     PHIN       GR     RESD
# ...
  400.995    0.172    0.441   88.999    2.497
  401.295    0.183    0.420   89.614    2.442
  401.595    0.177    0.401   92.637    2.392
  401.895    0.187    0.413   98.673    2.388
  402.195    0.184    0.414   99.290    2.425
  402.495    0.189    0.399   97.496    2.466
  402.795    0.193    0.401   92.695    2.600
  403.095    0.200    0.391   86.087    2.595
  403.395    0.186    0.364   83.692    2.494
  403.695    0.184    0.364   82.504    2.354
  403.995    0.182    0.365   89.743    2.222
  404.295    0.173    0.370   97.582    2.259
  404.595    0.163    0.391   94.588    2.381
  404.895    0.157    0.406   90.991    2.375
  405.195    0.186    0.404   95.820    2.327
  405.495    0.178    0.427   95.836    2.116
  405.795    0.150    0.457   92.236    2.034
  406.095    0.150    0.438   93.458    2.068
  406.395    0.152    0.377   93.469    2.222
  406.695    0.172    0.369   94.687    2.978
  406.995    0.211    0.403  100.721    3.197
  407.295    0.253    0.468  103.751    2.963
  407.595    0.400    0.530  100.150    2.597
  407.895    0.373    0.584   85.113    2.318
  408.195    0.330    0.647   71.279    2.190
  408.495    0.234    0.659   41.793    2.105
  408.795    0.156    0.249   43.013    2.099
  409.095    0.158    0.287   46.036    2.135
  409.395    0.165    0.329   48.459    2.209
  409.695    0.176    0.345   53.289    2.163
  409.995    0.187    0.339   58.119    1.931
  410.295    0.188    0.310   50.308    1.757
  410.595    0.191    0.315   42.495    1.628
  410.895    0.200    0.341   36.490    1.454
  411.195    0.236    0.348   34.697    1.348
  411.495    0.284    0.359   35.916    1.181
  411.795    0.294    0.368   37.136    0.944
  412.095    0.269    0.368   35.945    0.701
  412.395    0.241    0.359   34.754    0.625
  412.695    0.269    0.372   31.760    0.624
  412.995    0.265    0.374   31.773    0.658
  413.295    0.222    0.357   39.613    0.747
  413.595    0.212    0.340   51.068    0.833
  413.895    0.213    0.350   51.683    0.963
  414.195    0.222    0.345   43.271    1.073
  414.495    0.222    0.310   35.458    1.153
  414.795    0.187    0.263   30.655    1.261
  415.095    0.190    0.262   27.660    1.306
  415.395    0.190    0.269   24.666    1.328
  415.695    0.212    0.287   22.274    1.276
  415.995    0.242    0.352   20.478    1.140
  416.295    0.281    0.355   16.279    0.911
  416.595    0.290    0.356   14.487    0.701
  416.895    0.294    0.369   13.900    0.603
  417.195    0.296    0.369   14.513    0.549
  417.495    0.293    0.354   15.736    0.538
  417.795    0.278    0.350   15.746    0.536
  418.095    0.293    0.351   15.761    0.535
  418.395    0.289    0.364   15.775    0.544
  418.695    0.279    0.366   16.392    0.553
  418.995    0.274    0.345   17.008    0.572
  419.295    0.276    0.339   18.229    0.592
  419.595    0.278    0.343   18.242    0.613
  419.895    0.271    0.340   18.860    0.635
  420.194    0.248    0.342   19.478    0.657
  420.494    0.243    0.336   18.890    0.680
  420.794    0.259    0.317   17.696    0.704
  421.094    0.248    0.327   16.515    0.715
  421.394    0.250    0.338   16.525    0.714
  421.694    0.263    0.342   17.137    0.712
  421.994    0.272    0.333   17.153    0.710
  422.294    0.267    0.336   17.770    0.708
  422.594    0.249    0.338   18.387    0.707
  422.894    0.260    0.349   19.003    0.705
  423.194    0.269    0.358   19.014    0.690
  423.494    0.285    0.360   18.428    0.677
  423.794    0.272    0.357   17.239    0.663
  424.094    0.249    0.353   17.854    0.637
  424.394    0.227    0.339   22.082    0.635
  424.694    0.201    0.322   27.515    0.646
  424.994    0.177    0.311   31.743    0.656
  425.294    0.098    0.302   30.554    0.732
  425.594    0.025    0.286   26.353    0.999
  425.894    0.000    0.193   27.575    1.903
  426.194    0.000    0.169   29.394    4.871
  426.494    0.000    0.166   30.611    9.989
  426.794    0.002    0.160   31.226   11.765
  427.094    0.009    0.161   31.243   12.875
  427.394    0.011    0.162   31.256   13.828
  427.694    0.006    0.156   30.672   14.054
  427.994    0.000    0.150   29.482   13.755
  428.294    0.000    0.150   27.085   13.477
  428.594    0.000    0.150   25.292   13.934
  428.894    0.000    0.147   18.689   13.912
  429.194    0.000    0.145   15.690   13.877
  429.494    0.000    0.146   13.896   12.869
  429.794    0.000    0.144   13.916   13.322
  430.094    0.000    0.126   13.927   15.407
