~VERSION INFORMATION
 VERS.                 2.0:   CWLS LOG ASCII STANDARD -VERSION 2.0
 WRAP.                  NO:   ONE LINE PER DEPTH STEP
~WELL INFORMATION BLOCK
#MNEM.UNIT           DATA                    DESCRIPTION OF MNEMONIC
#---------    -------------------            -------------------------------
# Generated from Intellog Unique Number	CS_73_76/WELL/3285
WELL.         AMOCO KIRBY                    : Well_name    - WELL
LOC .         AA/10-11-074-07W4/0            : Location     - LOCATION
UWI .         AA/10-11-074-07W4/0            : Uwi          - UNIQUE WELL ID
ENTR.         TIM                            : Entered      - ENTERED BY
SRVC.         SCHLUMBERGER                   : Scn          - SERVICE COMPANY
STRT.M        300                            : top_depth    - START DEPTH
STOP.M        515                            : bot_depth    - STOP DEPTH
STEP.M        0.25                           : increment    - STEP LENGTH
 NULL. -999.2500:NULL Value
~CURVE INFORMATION BLOCK
#MNEM UNIT       ERCB CURVE CODE    CURVE DESCRIPTION
#-----------   ------------------   ----------------------------------
DEPT.M        00 001 00 00         : DEPTH        - DEPTH
NPHI.V/V      00 330 00 00         : PHIN         - NEUTRON POROSITY (SANDSTONE)
GR  .API      00 310 00 00         : GR           - GAMMA RAY
DPHI.V/V      00 890 00 00         : PHID         - DENSITY POROSITY (SANDSTONE)
ILD .OHMM     00 120 00 00         : RESD         - DEEP RESISTIVITY (DIL)
~PARAMETER INFORMATION
#MNEM.UNIT           DATA             DESCRIPTION OF MNEMONIC
#---------         -----------     ------------------------------
GL  .M        685.15               : gl           - GROUND LEVEL ELEVATION
EREF.M        688.25               : kb           - ELEVATION OF DEPTH REFERENCE
DATM.M        688.25               : datum        - DATUM ELEVATION
TDD .M        519                  : tdd          - TOTAL DEPTH DRILLER
RUN .         ONE                  : Run          - RUN NUMBER
ENG .         BILL                 : Engineer     - RECORDING ENGINEER
WIT .         JIM                  : Witness      - WITNESSED BY
MUD .         GEL                  : Mud_type     - MUD TYPE
MATR.         SANDSTONE            : Logunit      - NEUTRON MATRIX
TMAX.C        22                   : BHT          - MAXIMUM RECORDED TEMPERATURE
BHTD.M        519                  : BHTDEP       - MAXIMUM RECORDED TEMPERATURE
RMT .C        20                   : MDTP         - TEMPERATURE OF MUD
MUDD.KG/M     1150                 : MWT          - MUD DENSITY
NEUT.         1                    : NEUTRON      - NEUTRON TYPE
RESI.         0                    : RESIST       - RESISTIVITY TYPE
RM  .OHMM     6.05                 : RM           - RESISTIVITY OF MUD
RMC .OHMM     5.92                 : RMC          - RESISTIVITY OF MUD CAKE
RMF .OHMM     6.3                  : RMF          - RESISTIVITY OF MUD FILTRATE
SUFT.C        4                    : SUFT         - SURFACE TEMPERATURE
~A  DEPTH     PHIN       GR     PHID     RESD
# ...
  430.500    0.400   84.185    0.252    6.339
  430.750    0.409   87.135    0.253    6.217
  431.000    0.412   85.930    0.255    6.096
  431.250    0.403   78.797    0.256    5.976
  431.500    0.397   75.805    0.257    5.973
  431.750    0.393   75.203    0.260    6.314
  432.000    0.392   73.994    0.264    6.553
  432.250    0.391   73.382    0.269    6.801
  432.500    0.391   73.363    0.269    7.192
  432.750    0.397   74.530    0.268    7.186
  433.000    0.405   79.254    0.265    6.658
  433.250    0.413   83.972    0.253    6.170
  433.500    0.410   86.918    0.238    5.717
  433.750    0.409   83.939    0.239    5.297
  434.000    0.408   78.585    0.243    5.097
  434.250    0.409   75.005    0.243    4.814
  434.500    0.412   76.764    0.246    4.214
  434.750    0.414   80.307    0.255    4.057
  435.000    0.419   86.809    0.277    3.620
  435.250    0.431   85.007    0.337    3.230
  435.500    0.440   83.210    0.324    2.673
  435.750    0.439   82.598    0.298    2.340
  436.000    0.449   81.982    0.300    2.169
  436.250    0.458   79.004    0.299    2.127
  436.500    0.443   72.464    0.290    2.086
  436.750    0.433   74.223    0.278    2.084
  437.000    0.434   77.761    0.283    2.122
  437.250    0.435   81.295    0.289    2.160
  437.500    0.436   81.869    0.298    2.284
  437.750    0.434   79.478    0.305    2.508
  438.000    0.432   77.088    0.299    2.807
  438.250    0.422   74.698    0.293    3.082
  438.500    0.415   74.082    0.294    3.449
  438.750    0.406   74.068    0.319    3.647
  439.000    0.393   73.451    0.350    3.929
  439.250    0.395   71.061    0.390    4.154
  439.500    0.416   68.676    0.409    4.393
  439.750    0.403   63.322    0.374    4.645
  440.000    0.404   54.999    0.331    5.004
  440.250    0.412   54.387    0.321    5.194
  440.500    0.406   57.328    0.321    5.492
  440.750    0.398   55.535    0.338    5.917
  441.000    0.398   50.769    0.350    6.257
  441.250    0.402   48.972    0.350    6.870
  441.500    0.406   48.355    0.343    7.131
  441.750    0.411   48.939    0.336    7.683
  442.000    0.418   51.884    0.338    8.597
  442.250    0.426   54.829    0.343    9.620
  442.500    0.411   57.774    0.350   10.764
  442.750    0.398   57.158    0.354   12.271
  443.000    0.401   52.985    0.353   13.477
  443.250    0.408   53.559    0.349   15.364
  443.500    0.413   52.947    0.345   17.195
  443.750    0.409   51.742    0.335   20.356
  444.000    0.400   51.728    0.304   23.657
  444.250    0.376   52.302    0.276   28.539
  444.500    0.377   52.876    0.258   33.161
  444.750    0.383   52.853    0.264   34.403
  445.000    0.391   52.839    0.314   35.045
  445.250    0.387   53.403    0.346   33.710
  445.500    0.371   55.760    0.270   33.062
  445.750    0.350   56.329    0.216   33.025
  446.000    0.327   53.351    0.252   33.007
  446.250    0.343   51.549    0.282   32.988
  446.500    0.378   52.128    0.352   33.591
  446.750    0.415   52.702    0.350   35.500
  447.000    0.419   52.090    0.345   36.162
  447.250    0.408   52.664    0.340   38.238
  447.500    0.398   53.831    0.339   38.944
  447.750    0.407   53.807    0.333   39.656
  448.000    0.414   53.788    0.326   39.626
  448.250    0.419   54.362    0.327   38.857
  448.500    0.420   54.936    0.343   38.828
  448.750    0.418   54.917    0.356   38.799
  449.000    0.412   53.713    0.355   39.501
  449.250    0.397   51.916    0.349   39.471
  449.500    0.385   50.118    0.344   35.893
  449.750    0.391   51.285    0.351   32.640
  450.000    0.398   53.045    0.353   30.246
  450.250    0.402   54.212    0.355   29.105
  450.500    0.399   54.193    0.349   30.195
  450.750    0.387   52.983    0.336   30.753
  451.000    0.382   51.181    0.281   32.506
  451.250    0.384   48.791    0.240   32.494
  451.500    0.393   46.401    0.239   28.997
  451.750    0.405   48.161    0.301   21.421
  452.000    0.398   51.699    0.354   18.068
  452.250    0.392   53.463    0.362   15.526
  452.500    0.381   56.992    0.322   14.116
  452.750    0.367   56.982    0.243   14.650
  453.000    0.344   55.773    0.204   16.084
  453.250    0.328   52.790    0.181   17.334
  453.500    0.419   50.400    0.307   19.392
  453.750    0.423   50.974    0.295   22.112
  454.000    0.419   53.322    0.311   24.747
  454.250    0.410   54.488    0.324   28.217
  454.500    0.396   55.062    0.322   34.041
  454.750    0.378   53.270    0.261   36.687
  455.000    0.357   51.472    0.228   38.785
  455.250    0.327   50.861    0.184   40.239
  455.500    0.367   53.213    0.213   41.754
  455.750    0.395   54.973    0.278   44.151
  456.000    0.395   53.768    0.330   41.699
  456.250    0.405   51.971    0.317   37.211
  456.500    0.417   50.752    0.305   32.586
  456.750    0.428   51.336    0.335   33.813
  457.000    0.430   53.090    0.342   37.114
  457.250    0.425   53.669    0.352   39.252
  457.500    0.424   54.836    0.355   41.513
  457.750    0.421   54.224    0.355   44.732
  458.000    0.419   55.391    0.357   46.416
  458.250    0.424   57.743    0.357   48.155
  458.500    0.434   57.132    0.356   48.128
  458.750    0.429   52.370    0.352   46.313
  459.000    0.418   47.604    0.348   41.320
  459.250    0.401   48.178    0.346   38.290
  459.500    0.396   49.345    0.341   36.150
  459.750    0.394   49.919    0.332   35.449
  460.000    0.393   49.900    0.323   31.627
  460.250    0.392   51.062    0.316   28.766
  460.500    0.390   52.827    0.314   26.163
  460.750    0.387   54.586    0.310   24.244
  461.000    0.383   54.567    0.305   21.631
  461.250    0.379   55.141    0.298   20.045
  461.500    0.383   56.896    0.295   18.224
  461.750    0.384   58.067    0.289   16.888
  462.000    0.380   58.637    0.283   15.652
  462.250    0.374   60.392    0.275   13.704
  462.500    0.357   62.744    0.266   12.701
  462.750    0.345   64.504    0.257   12.220
  463.000    0.339   65.675    0.250   11.985
  463.250    0.336   63.868    0.250   11.750
  463.500    0.341   63.261    0.250   11.520
  463.750    0.348   62.052    0.249   11.730
  464.000    0.353   61.450    0.247   12.170
  464.250    0.355   62.024    0.246   12.395
  464.500    0.355   63.191    0.241   12.623
  464.750    0.355   63.764    0.239   12.852
  465.000    0.354   61.958    0.236   13.084
  465.250    0.348   60.753    0.237   13.326
  465.500    0.342   58.961    0.239   13.318
  465.750    0.340   56.571    0.240   13.559
  466.000    0.342   57.145    0.241   13.807
  466.250    0.344   58.307    0.247   14.062
  466.500    0.340   57.690    0.262   14.051
  466.750    0.338   57.681    0.267   14.038
  467.000    0.333   58.255    0.262   14.028
  467.250    0.328   60.014    0.257   14.015
  467.500    0.327   62.959    0.251   13.486
  467.750    0.327   65.905    0.243   12.497
  468.000    0.326   70.628    0.233   11.583
  468.250    0.326   75.935    0.228   10.533
  468.500    0.330   79.478    0.224    9.578
  468.750    0.334   78.273    0.216    9.043
  469.000    0.343   77.069    0.208    8.866
  469.250    0.348   75.860    0.206    8.694
  469.500    0.350   74.655    0.209    8.687
  469.750    0.348   73.451    0.213    8.518
  470.000    0.344   70.463    0.212    8.512
  470.250    0.341   67.485    0.211    8.668
  470.500    0.338   66.873    0.209    8.663
  470.750    0.336   71.597    0.207    8.819
  471.000    0.332   72.166    0.203    8.981
  471.250    0.334   70.966    0.202    8.976
  471.500    0.343   69.169    0.201    9.138
  471.750    0.353   70.924    0.205    9.133
  472.000    0.361   72.684    0.208    9.124
  472.250    0.362   72.072    0.213    9.116
  472.500    0.360   72.646    0.216    9.111
  472.750    0.354   73.817    0.205    9.102
  473.000    0.348   73.798    0.203    9.095
  473.250    0.351   77.924    0.206    9.090
  473.500    0.353   81.467    0.216    8.912
  473.750    0.356   87.376    0.222    8.904
