~VERSION INFORMATION
 VERS.                 2.0:   CWLS LOG ASCII STANDARD -VERSION 2.0
 WRAP.                  NO:   ONE LINE PER DEPTH STEP
~WELL INFORMATION BLOCK
#MNEM.UNIT           DATA                    DESCRIPTION OF MNEMONIC
#---------    -------------------            -------------------------------
# Generated from Intellog Unique Number	CC_80_83/WELL/2336
NULL.         -999.25                        : NULL_VALUE
WELL.         ARCO ACI MCMURRAY OV           : Well_name    - WELL
LOC .         10-08-081-10W4                 : Location     - LOCATION          
UWI .         AA/10-08-081-10W400            : Uwi          - UNIQUE WELL ID    
ENTR.         JHS                            : Entered      - ENTERED BY        
SRVC.         DRESSER ATLAS                  : Scn          - SERVICE COMPANY   
DATE.         10 FEB 76                      : Date         - LOG DATE
STRT.M        243.84                         : top_depth    - START DEPTH       
STOP.M        502.928                        : bot_depth    - STOP DEPTH        
STEP.M        0.305                          : increment    - STEP LENGTH       
~CURVE INFORMATION BLOCK
#MNEM UNIT       ERCB CURVE CODE    CURVE DESCRIPTION
#-----------   ------------------   ----------------------------------
DEPT.M        00 001 00 00         : DEPTH        - DEPTH                       
NPHI.V/V      00 330 00 00         : PHIN         - NEUTRON POROSITY (LIMESTONE)
GR  .API      00 310 00 00         : GR           - GAMMA RAY                   
ILD .OHMM     00 120 00 00         : RESD         - DEEP RESISTIVITY (DIL)      
~PARAMETER INFORMATION       
#MNEM.UNIT           DATA             DESCRIPTION OF MNEMONIC
#---------         -----------     ------------------------------
GL  .M        705.307              : gl           - GROUND LEVEL ELEVATION      
EREF.M        708.355              : kb           - ELEVATION OF DEPTH REFERENCE
DATM.M        708.355              : datum        - DATUM ELEVATION             
TDD .M        502.92               : tdd          - TOTAL DEPTH DRILLER         
RUN .         ONE                  : Run          - RUN NUMBER                  
ENG .         BILL                 : Engineer     - RECORDING ENGINEER          
WIT .         JIM                  : Witness      - WITNESSED BY                
MUD .         GEL                  : Mud_type     - MUD TYPE                    
MATR.         LIMESTONE            : Logunit      - NEUTRON MATRIX              
TMAX.C        23.3333              : BHT          - MAXIMUM RECORDED TEMPERATURE
BHTD.M        502.92               : BHTDEP       - MAXIMUM RECORDED TEMPERATURE
MATR.         1                    : LOGUNIT      - NEUTRON MATRIX              
RMT .C        25                   : MDTP         - TEMPERATURE OF MUD          
NEUT.         1                    : NEUTRON      - NEUTRON TYPE                
RESI.         0                    : RESIST       - RESISTIVITY TYPE            
RMC .OHMM     0.25                 : RMC          - RESISTIVITY OF MUD CAKE     
RMF .OHMM     0.25                 : RMF          - RESISTIVITY OF MUD FILTRATE 
SUFT.C        15                   : SUFT         - SURFACE TEMPERATURE         
~A  DEPTH     PHIN       GR     RESD
# ...
  442.270    0.340  103.464    8.850
  442.575    0.329  101.091    9.715
  442.880    0.329  101.725   10.669
  443.185    0.336  102.955   11.287
  443.490    0.340  100.579   13.344
  443.794    0.333   85.607   16.369
  444.099    0.318   79.638   18.649
  444.404    0.324   82.069   20.852
  444.709    0.335   80.296   20.497
  445.014    0.338   77.328   19.773
  445.319    0.335   77.954   22.535
  445.623    0.326   70.784   27.129
  445.928    0.323   54.013   34.525
  446.233    0.323   54.649   43.941
  446.538    0.323   57.071   58.034
  446.843    0.330   56.501   62.554
  447.147    0.332   57.729   50.177
  447.452    0.327   63.156   37.385
  447.757    0.321   67.992   29.981
  448.062    0.314   69.214   23.180
  448.367    0.310   70.446   19.648
  448.671    0.305   72.872   15.764
  448.976    0.301   80.697   13.615
  449.281    0.317   91.532   13.135
  449.586    0.342   89.156   13.148
  449.891    0.340   83.784   14.434
  450.195    0.340   75.414   19.422
  450.500    0.338   58.044   25.175
  450.805    0.335   49.673   42.272
  451.110    0.333   47.908   82.262
  451.415    0.336   52.134  163.093
  451.720    0.336   59.962  240.690
  452.024    0.333   59.989  236.490
  452.329    0.331   54.018  160.680
  452.634    0.331   58.849  141.342
  452.939    0.332   63.673  129.076
  453.244    0.333   64.304  124.481
  453.548    0.332   62.535  113.627
  453.853    0.334   63.758   94.562
  454.158    0.338   61.989   69.165
  454.463    0.340   60.824   44.447
  454.768    0.342   60.848   33.730
  455.072    0.348   69.275   29.136
  455.377    0.347   71.110   26.599
  455.682    0.337   72.333   24.723
  455.987    0.330   76.558   21.352
  456.292    0.318   79.587   18.783
  456.596    0.310   75.418   15.349
  456.901    0.301   76.644   13.257
  457.206    0.289   82.073   11.880
  457.511    0.289   88.106   11.249
  457.816    0.300   86.936   10.856
  458.121    0.301   86.358   11.070
  458.425    0.314   87.591   11.714
  458.730    0.341   83.415   12.625
  459.035    0.344   81.646   14.924
  459.340    0.333   83.474   17.977
  459.645    0.278   84.707   18.330
  459.949    0.246   87.730   15.826
  460.254    0.257   99.160   10.361
  460.559    0.359  100.989    9.812
  460.864    0.361   99.218    9.825
  461.169    0.353   95.644   10.205
  461.473    0.334   89.073   11.417
  461.778    0.322   86.703   11.639
  462.083    0.317   92.133   11.026
  462.388    0.308   95.759   10.443
  462.693    0.303   94.588    9.891
  462.997    0.308   88.621    9.543
  463.302    0.312   88.647    9.732
  463.607    0.312   87.476   10.108
  463.912    0.310   83.306   10.695
  464.217    0.316   81.537   11.109
  464.522    0.317   82.166   11.126
  464.826    0.316   82.791   10.934
  465.131    0.314   85.822   10.550
  465.436    0.308   85.254   10.368
  465.741    0.296   84.681   10.377
  466.046    0.293   84.105   10.781
  466.350    0.296   82.937   11.406
  466.655    0.303   84.763   12.298
  466.960    0.303   78.791   12.307
  467.265    0.300   82.421   12.095
  467.570    0.298   85.452   11.671
  467.874    0.294   86.077   11.467
  468.179    0.292   84.307   11.697
  468.484    0.291   81.338   11.707
  468.789    0.300   82.565   12.162
  469.094    0.308   81.396   13.111
  469.398    0.312   76.624   13.871
  469.703    0.314   70.651   14.148
  470.008    0.311   69.481   13.648
  470.313    0.301   76.109   12.460
  470.618    0.287   80.937   11.375
  470.923    0.290   81.567   10.772
  471.227    0.294   80.994   10.201
  471.532    0.302   78.023    9.316
  471.837    0.309   77.452    9.152
  472.142    0.320   78.682    8.831
  472.447    0.326   82.313    8.840
  472.751    0.333   90.140    8.852
  473.056    0.361   93.169    9.195
  473.361    0.362   91.395    9.548
  473.666    0.356   86.026   10.488
  473.971    0.361   81.857   11.304
  474.275    0.357   81.883   12.183
  474.580    0.350   83.116   13.129
  474.885    0.341   83.741   13.894
  475.190    0.338   90.967   14.169
  475.495    0.334   96.993   14.181
  475.799    0.335   92.227   13.434
  476.104    0.339   92.859   12.723
  476.409    0.343   97.680   13.464
  476.714    0.356   92.912   15.337
  477.019    0.355   79.743   19.165
  477.324    0.354   77.969   23.944
  477.628    0.357   73.801   26.292
  477.933    0.357   73.226   24.913
  478.238    0.353   75.659   24.470
  478.543    0.351   82.884   22.340
  478.848    0.344   87.110   21.163
  479.152    0.334   84.145   21.183
  479.457    0.332   81.173   20.819
  479.762    0.337   76.998   19.714
  480.067    0.334   74.629   17.667
  480.372    0.341   77.656   16.133
  480.676    0.340   83.683   15.566
  480.981    0.335   87.311   15.294
  481.286    0.336   87.940   15.312
  481.591    0.341   83.776   15.618
  481.896    0.346   83.799   16.222
  482.200    0.345   77.834   16.851
  482.505    0.337   79.657   17.501
  482.810    0.334   81.487   18.515
  483.115    0.335   76.716   19.234
  483.420    0.331   73.749   19.979
  483.725    0.325   70.775   21.140
  484.029    0.325   67.803   22.789
  484.334    0.321   67.233   23.242
  484.639    0.312   59.460   22.424
  484.944    0.305   51.694   20.467
  485.249    0.306   50.520   18.009
  485.553    0.309   48.148   16.139
  485.858    0.306   44.577   14.197
  486.163    0.303   45.206   13.197
  486.468    0.303   48.233   11.400
  486.773    0.305   51.264   10.599
  487.077    0.318   51.893    9.856
  487.382    0.330   62.120    9.332
  487.687    0.335   57.353    8.680
  487.992    0.336   50.180    8.220
  488.297    0.338   50.209    7.932
  488.601    0.331   55.038    7.652
  488.906    0.319   59.269    7.520
  489.211    0.320   67.090    7.530
  489.516    0.320   83.320    7.537
  489.821    0.321   84.550    7.687
  490.126    0.323   75.578    7.693
  490.430    0.322   54.009    7.702
  490.735    0.324   43.839    7.858
  491.040    0.324   47.465    8.012
  491.345    0.312   64.894    8.322
  491.650    0.297   78.119    8.643
  491.954    0.285   83.555    9.144
  492.259    0.279   80.575    9.858
  492.564    0.278   75.207   10.241
  492.869    0.274   69.237   10.253
  493.174    0.274   60.269   10.262
  493.478    0.281   58.500   10.276
  493.783    0.292   60.322    9.916
  494.088    0.295   63.956    9.741
  494.393    0.304   63.384    9.228
  494.698    0.311   59.809    8.905
  495.002    0.308   50.239    8.590
  495.307    0.302   48.470    8.289
  495.612    0.291   49.696    7.999
  495.917    0.285   47.926    7.857
  496.222    0.287   43.161    7.583
  496.527    0.297   43.783    7.315
  496.831    0.322   45.018    6.928
  497.136    0.332   45.049    6.683
  497.441    0.334   44.472    6.332
  497.746    0.326   42.705    6.221
  498.051    0.339   40.931    6.228
  498.355    0.356   40.356    6.591
  498.660    0.352   40.991    7.104
  498.965    0.353   41.617    7.519
  499.270    0.346   40.451    7.525
  499.575    0.332   41.070    7.261
  499.879    0.332   45.303    6.877
  500.184    0.326   43.533    6.758
  500.489    0.307   39.956    6.766
  500.794    0.312   40.588    6.901
  501.099    0.302   39.421    6.910
  501.403    0.293   38.847    6.916
  501.708    0.267   38.879    6.923
  502.013    0.197   38.901    6.931
  502.318    0.098   39.530    6.940
  502.623    0.079   40.157    6.945
  502.928    0.064   39.587    6.953
