~VERSION INFORMATION
 VERS.                 2.0:   CWLS LOG ASCII STANDARD -VERSION 2.0
 WRAP.                  NO:   ONE LINE PER DEPTH STEP
~WELL INFORMATION BLOCK
#MNEM.UNIT           DATA                    DESCRIPTION OF MNEMONIC
#---------    -------------------            -------------------------------
# Generated from Intellog Unique Number	CN_94_101/WELL/5006
WELL.         10-27-097-06W4                 : Well_name    - WELL
LOC .         AA/10-27-097-06W4/0            : Location     - LOCATION
UWI .         AA/10-27-097-06W400            : Uwi          - UNIQUE WELL ID
ENTR.         JOETTE                         : Entered      - ENTERED BY
SRVC.         SCHLUMBERGER                   : Scn          - SERVICE COMPANY
DATE.         08/11/92                       : Date         - LOG DATE
STRT.M        0                              : top_depth    - START DEPTH
STOP.M        90                             : bot_depth    - STOP DEPTH
STEP.M        0.25                           : increment    - STEP LENGTH
 NULL. -999.2500:NULL Value
~CURVE INFORMATION BLOCK
#MNEM UNIT       ERCB CURVE CODE    CURVE DESCRIPTION
#-----------   ------------------   ----------------------------------
DEPT.M        00 001 00 00         : DEPTH        - DEPTH
DPHI.V/V      00 890 00 00         : PHID         - DENSITY POROSITY (SANDSTONE)
NPHI.V/V      00 330 00 00         : PHIN         - NEUTRON POROSITY (SANDSTONE)
GR  .API      00 310 00 00         : GR           - GAMMA RAY
ILD .OHMM     00 120 00 00         : RESD         - DEEP RESISTIVITY (DIL)
~PARAMETER INFORMATION
#MNEM.UNIT           DATA             DESCRIPTION OF MNEMONIC
#---------         -----------     ------------------------------
GL  .M        358.5                : gl           - GROUND LEVEL ELEVATION
EREF.M        358.5                : kb           - ELEVATION OF DEPTH REFERENCE
DATM.M        358.5                : datum        - DATUM ELEVATION
TDD .M        93.8                 : tdd          - TOTAL DEPTH DRILLER
RUN .         ONE                  : Run          - RUN NUMBER
ENG .         BILL                 : Engineer     - RECORDING ENGINEER
WIT .         JIM                  : Witness      - WITNESSED BY
MUD .         GEL                  : Mud_type     - MUD TYPE
MATR.         SANDSTONE            : Logunit      - NEUTRON MATRIX
TMAX.C        0                    : BHT          - MAXIMUM RECORDED TEMPERATURE
BHTD.M        93.8                 : BHTDEP       - MAXIMUM RECORDED TEMPERATURE
RMT .C        0                    : MDTP         - TEMPERATURE OF MUD
MUDD.KG/M     0                    : MWT          - MUD DENSITY
NEUT.         1                    : NEUTRON      - NEUTRON TYPE
RESI.         0                    : RESIST       - RESISTIVITY TYPE
RM  .OHMM     7.7                  : RM           - RESISTIVITY OF MUD
RMC .OHMM     7.7                  : RMC          - RESISTIVITY OF MUD CAKE
RMF .OHMM     7.7                  : RMF          - RESISTIVITY OF MUD FILTRATE
SUFT.C        4                    : SUFT         - SURFACE TEMPERATURE
~A  DEPTH     PHID     PHIN       GR     RESD
# ...
   43.500    0.245    0.309   20.970 5287.010
   43.750    0.233    0.305   20.935 5434.990
   44.000    0.236    0.293   20.901 5508.250
   44.250    0.251    0.286   20.246 5501.420
   44.500    0.271    0.302   22.050 5421.540
   44.750    0.259    0.310   24.475 5116.580
   45.000    0.240    0.308   25.053 4694.390
   45.250    0.244    0.301   22.569 4431.250
   45.500    0.252    0.288   22.526 4302.600
   45.750    0.244    0.295   23.726 4299.940
   46.000    0.233    0.290   31.043 4234.870
   46.250    0.220    0.292   38.369 4232.250
   46.500    0.247    0.287   43.236 4287.520
   46.750    0.283    0.291   46.265 4285.750
   47.000    0.259    0.312   51.124 4342.620
   47.250    0.237    0.282   55.386 4402.060
   47.500    0.235    0.298   50.451 4398.430
   47.750    0.255    0.327   39.381 4394.790
   48.000    0.274    0.332   29.545 4391.170
   48.250    0.305    0.341   22.159 4387.540
   48.500    0.320    0.352   26.414 4383.920
   48.750    0.315    0.366   27.605 4506.620
   49.000    0.293    0.353   26.958 4697.130
   49.250    0.286    0.352   27.537 4762.410
   49.500    0.285    0.340   31.791 4895.710
   49.750    0.280    0.319   35.424 4821.620
   50.000    0.268    0.306   31.714 4616.510
   50.250    0.265    0.312   28.013 4883.590
   50.500    0.264    0.295   31.654 2883.170
   50.750    0.252    0.286   59.189 2607.400
   51.000    0.221    0.310   73.254 2426.500
   51.250    0.200    0.331   62.797 2290.960
   51.500    0.192    0.352   82.988 2601.480
   51.750    0.225    0.314   84.792 2319.920
   52.000    0.214    0.262   72.505 2010.430
   52.250    0.208    0.274   68.786 1311.370
   52.500    0.221    0.363   66.302 1058.680
   52.750    0.233    0.372   63.205  784.641
   53.000    0.198    0.357   69.297  661.043
   53.250    0.193    0.366   66.191  572.975
   53.500    0.271    0.367   60.039  641.453
   53.750    0.262    0.357   52.653  728.397
   54.000    0.241    0.350   47.097  792.593
   54.250    0.235    0.325   49.522  887.135
   54.500    0.229    0.313   52.551  925.021
   54.750    0.233    0.302   47.003  911.212
   55.000    0.266    0.297   37.771  936.909
   55.250    0.285    0.307   28.547 1879.020
   55.500    0.283    0.317   21.766 2716.400
   55.750    0.272    0.308   20.506 3219.640
   56.000    0.254    0.306   22.931 5143.570
   56.250    0.254    0.300   25.960 5839.520
   56.500    0.267    0.300   25.926 6174.800
   56.750    0.280    0.300   23.442 6259.330
   57.000    0.288    0.297   25.849 6167.150
   57.250    0.279    0.295   27.049 5988.100
   57.500    0.268    0.295   23.331 5651.280
   57.750    0.245    0.297   26.368 5489.470
   58.000    0.236    0.296   25.722 5255.950
   58.250    0.249    0.293   23.237 5251.610
   58.500    0.266    0.288   24.420 5246.190
   58.750    0.286    0.286   26.845 5241.860
   59.000    0.303    0.287   27.423 5312.510
   59.250    0.301    0.287   25.551 5308.120
   59.500    0.277    0.290   25.500 5378.560
   59.750    0.257    0.294   24.862 5300.460
   60.000    0.254    0.290   24.828 5146.570
   60.250    0.260    0.285   26.019 5070.780
   60.500    0.281    0.277   26.589 4924.580
   60.750    0.293    0.268   25.329 4920.510
   61.000    0.293    0.269   23.457 4984.780
   61.250    0.299    0.279   22.811 4980.660
   61.500    0.301    0.278   21.543 4978.600
   61.750    0.305    0.277   21.526 4972.440
   62.000    0.305    0.277   20.879 4968.330
   62.250    0.305    0.276   20.836 4895.170
   62.500    0.304    0.284   21.406 4618.870
   62.750    0.303    0.289   22.002 4551.790
   63.000    0.299    0.266   23.806 4420.560
   63.250    0.298    0.264   26.213 4293.100
   63.500    0.308    0.268   21.899 4289.550
   63.750    0.309    0.269   20.027 4285.120
   64.000    0.312    0.268   19.993 4405.060
   64.250    0.312    0.273   21.176 4658.940
   64.500    0.308    0.284   22.359 4925.420
   64.750    0.306    0.300   22.946 4993.870
   65.000    0.309    0.312   22.920 5061.180
   65.250    0.302    0.311   22.273 5057.000
   65.500    0.277    0.314   22.239 4840.880
   65.750    0.274    0.314   21.593 4703.240
   66.000    0.266    0.310   19.721 4565.750
   66.250    0.263    0.300   21.516 4563.860
   66.500    0.270    0.293   24.553 4688.690
   66.750    0.270    0.284   24.502 4821.910
   67.000    0.266    0.281   23.251 4887.920
   67.250    0.264    0.310   25.668 5094.560
   67.500    0.272    0.319   26.255 5092.450
   67.750    0.282    0.314   24.366 4942.560
   68.000    0.280    0.281   27.403 4870.790
   68.250    0.276    0.277   29.216 4663.580
   68.500    0.274    0.279   24.272 4794.110
   68.750    0.273    0.266   19.328 4858.730
   69.000    0.270    0.253   18.690 4718.640
   69.250    0.265    0.256   18.035 4648.200
   69.500    0.261    0.268   18.001 4984.410
   69.750    0.264    0.285   19.183 5126.040
   70.000    0.287    0.298   19.762 5344.940
   70.250    0.303    0.309   19.745 5570.910
   70.500    0.306    0.310   19.702 5647.160
   70.750    0.304    0.313   19.668 5804.020
   71.000    0.307    0.314   19.030 5882.250
   71.250    0.309    0.316   18.383 5795.630
   71.500    0.309    0.318   17.736 5470.760
   71.750    0.304    0.318   19.540 5092.270
   72.000    0.299    0.318   22.569 4875.640
   72.250    0.302    0.318   22.526 4940.340
   72.500    0.297    0.317   20.663 5006.930
   72.750    0.291    0.313   19.404 5074.420
   73.000    0.282    0.309   19.369 5142.820
   73.250    0.264    0.301   20.561 5139.630
   73.500    0.259    0.287   21.743 5061.860
   73.750    0.238    0.265   23.556 4845.520
   74.000    0.233    0.258   32.098 4572.970
   74.250    0.230    0.247   44.930 4506.560
   74.500    0.205    0.229   39.994 4567.300
   74.750    0.205    0.232   31.996 4694.170
   75.000    0.219    0.248   33.800 4758.420
   75.250    0.198    0.240   39.892 4754.490
   75.500    0.193    0.228   42.921 4683.510
   75.750    0.192    0.223   39.824 4679.650
   76.000    0.203    0.229   37.952 4608.830
   76.250    0.248    0.350   54.459 4413.680
   76.500    0.254    0.330   50.136 4166.280
   76.750    0.230    0.298   30.489 3931.930
   77.000    0.203    0.287   34.131 3712.300
   77.250    0.195    0.288   46.971 2751.380
   77.500    0.162    0.348   80.640 1744.370
   77.750    0.143    0.443  130.850 1074.710
   78.000    0.147    0.514  114.879  721.228
   78.250    0.141    0.578  101.367  277.970
   78.500    0.105    0.536   76.207  203.110
   78.750    0.097    0.506   65.758  148.442
   79.000    0.072    0.473   58.985  163.837
   79.250    0.040    0.418   52.212  191.409
   79.500    0.088    0.343   44.205  257.779
   79.750    0.144    0.182   50.306  296.909
   80.000    0.169    0.141   61.299  356.952
   80.250    0.182    0.224  112.122  382.930
   80.500    0.191    0.316  131.683  283.809
   80.750    0.179    0.458  123.694  216.456
   81.000    0.126    0.543  113.245  147.342
   81.250    0.054    0.436  103.408  198.391
   81.500    0.025    0.372   89.275  222.147
   81.750    0.021    0.309   75.151  252.153
   82.000    0.062    0.232   63.476  241.477
   82.250    0.063    0.193   73.245  231.252
   82.500    0.037    0.286   65.246  215.164
   82.750    0.014    0.215   62.753  221.186
   83.000    0.013    0.279   69.466  233.934
   83.250    0.034    0.285   74.946  237.038
   83.500    0.031    0.248   70.002  217.479
   83.750    0.025    0.235   65.680  202.391
   84.000    0.033    0.288   62.582  191.086
   84.250    0.040    0.301   63.161  172.773
   84.500    0.032    0.267   66.803  165.457
   84.750    0.029    0.272   66.769  158.419
   85.000    0.063    0.297   72.248  153.883
   85.250    0.082    0.323   77.728  147.306
   85.500    0.092    0.333   78.910  147.185
   85.750    0.068    0.359   76.434  147.093
   86.000    0.062    0.399   87.436  146.942
   86.250    0.040    0.307   68.402  157.635
   86.500    0.032    0.268   64.683  171.564
   86.750    0.023    0.258   62.820  194.818
