~VERSION INFORMATION
 VERS.                 2.0:   CWLS LOG ASCII STANDARD -VERSION 2.0
 WRAP.                  NO:   ONE LINE PER DEPTH STEP
~WELL INFORMATION BLOCK
#MNEM.UNIT           DATA                    DESCRIPTION OF MNEMONIC
#---------    -------------------            -------------------------------
# Generated from Intellog Unique Number	CC_84_87/WELL/2337
NULL.         -999.25                        : NULL_VALUE
WELL.         SUN CHEECHAM CH 26             : Well_name    - WELL              
LOC .         11-36-086-07W4                 : Location     - LOCATION          
UWI .         AA/11-36-086-07W400            : Uwi          - UNIQUE WELL ID    
ENTR.         DW                             : Entered      - ENTERED BY        
SRVC.         SCHLUMBERGER                   : Scn          - SERVICE COMPANY   
DATE.         13 MAR 80                      : Date         - LOG DATE
STRT.M        55                             : top_depth    - START DEPTH       
STOP.M        238.902                        : bot_depth    - STOP DEPTH        
STEP.M        0.3                            : increment    - STEP LENGTH       
~CURVE INFORMATION BLOCK
#MNEM UNIT       ERCB CURVE CODE    CURVE DESCRIPTION
#-----------   ------------------   ----------------------------------
DEPT.M        00 001 00 00         : DEPTH        - DEPTH                       
DPHI.V/V      00 890 00 00         : PHID         - DENSITY POROSITY (LIMESTONE)
NPHI.V/V      00 330 00 00         : PHIN         - NEUTRON POROSITY (LIMESTONE)
GR  .API      00 310 00 00         : GR           - GAMMA RAY                   
ILD .OHMM     00 120 00 00         : RESD         - DEEP RESISTIVITY (DIL)      
~PARAMETER INFORMATION       
#MNEM.UNIT           DATA             DESCRIPTION OF MNEMONIC
#---------         -----------     ------------------------------
GL  .M        459                  : gl           - GROUND LEVEL ELEVATION      
EREF.M        461.06               : kb           - ELEVATION OF DEPTH REFERENCE
DATM.M        461.06               : datum        - DATUM ELEVATION             
TDD .M        239                  : tdd          - TOTAL DEPTH DRILLER         
RUN .         ONE                  : Run          - RUN NUMBER                  
ENG .         BILL                 : Engineer     - RECORDING ENGINEER          
WIT .         JIM                  : Witness      - WITNESSED BY                
MUD .         GEL                  : Mud_type     - MUD TYPE                    
MATR.         LIMESTONE            : Logunit      - NEUTRON MATRIX              
TMAX.C        20                   : BHT          - MAXIMUM RECORDED TEMPERATURE
BHTD.M        245                  : BHTDEP       - MAXIMUM RECORDED TEMPERATURE
MATR.         1                    : LOGUNIT      - NEUTRON MATRIX              
RMT .C        25                   : MDTP         - TEMPERATURE OF MUD          
NEUT.         1                    : NEUTRON      - NEUTRON TYPE                
RESI.         0                    : RESIST       - RESISTIVITY TYPE            
RMC .OHMM     0.25                 : RMC          - RESISTIVITY OF MUD CAKE     
RMF .OHMM     0.25                 : RMF          - RESISTIVITY OF MUD FILTRATE 
SUFT.C        4                    : SUFT         - SURFACE TEMPERATURE         
~A  DEPTH     PHID     PHIN       GR     RESD
# ...
  107.200    0.309    0.474   83.171    6.899
  107.500    0.280    0.472   83.125    7.291
  107.800    0.282    0.498   86.783    7.427
  108.100    0.308    0.509   86.108    7.420
  108.400    0.317    0.515   86.066    6.869
  108.700    0.339    0.515   89.100    6.006
  109.000    0.323    0.516   89.064    5.053
  109.300    0.313    0.522   82.835    4.860
  109.600    0.341    0.529   81.550    5.237
  109.900    0.347    0.503   82.115    5.755
  110.200    0.327    0.512   83.307    6.952
  110.500    0.330    0.497   85.120    7.492
  110.800    0.332    0.493   87.541    7.775
  111.100    0.306    0.500   85.023    7.335
  111.400    0.295    0.519   83.736    6.663
  111.700    0.313    0.526   84.300    5.937
  112.000    0.334    0.536   86.119    5.190
  112.300    0.350    0.550   90.395    4.624
  112.600    0.358    0.570   90.343    4.199
  112.900    0.377    0.585   87.830    3.813
  113.200    0.395    0.601   92.094    3.398
  113.500    0.402    0.626   95.138    3.146
  113.800    0.395    0.609   95.718    2.912
  114.100    0.401    0.599   90.726    2.800
  114.400    0.392    0.592   86.350    2.744
  114.700    0.385    0.576   86.920    2.794
  115.000    0.321    0.506   87.480    3.188
  115.300    0.318    0.521   87.446    3.570
  115.601    0.335    0.529   84.296    4.396
  115.901    0.317    0.515   83.642    5.517
  116.201    0.293    0.496   82.983    6.062
  116.501    0.331    0.493   85.401    6.410
  116.801    0.326    0.488   88.438    6.526
  117.101    0.284    0.486   89.008    6.771
  117.401    0.302    0.488   91.441    7.027
  117.701    0.299    0.490   95.100    7.289
  118.001    0.300    0.489   90.104    7.562
  118.301    0.275    0.480   89.444    7.702
  118.601    0.265    0.491   91.863    7.839
  118.901    0.280    0.486   91.816    7.982
  119.201    0.283    0.449   90.538    8.767
  119.501    0.291    0.428   89.242    9.273
  119.801    0.281    0.422   90.443    9.622
  120.101    0.271    0.417   92.865    9.983
  120.401    0.272    0.414   94.048   10.162
  120.701    0.295    0.426   92.141   10.150
  121.001    0.287    0.449   90.245    9.948
  121.301    0.289    0.474   89.588    9.748
  121.601    0.306    0.475   89.525    9.373
  121.901    0.307    0.484   90.111    8.844
  122.201    0.316    0.499   89.434    8.184
  122.501    0.334    0.509   90.632    7.723
  122.801    0.349    0.511   93.057    7.288
  123.101    0.292    0.514   96.098    7.007
  123.401    0.281    0.504   92.952    6.611
  123.701    0.281    0.456   94.144    6.602
  124.001    0.278    0.443   95.334    7.254
  124.301    0.287    0.453   94.056    8.437
  124.601    0.295    0.452   90.298    9.270
  124.901    0.301    0.449   92.103    9.616
  125.201    0.282    0.450   94.528    9.425
  125.501    0.273    0.455   95.101    8.560
  125.801    0.268    0.465   96.285    7.924
  126.101    0.286    0.496   91.298    7.059
  126.401    0.301    0.524   93.104    6.535
  126.701    0.300    0.517   94.911    5.935
  127.001    0.286    0.499   96.097    5.189
  127.301    0.284    0.484   92.345    4.895
  127.601    0.294    0.483   87.351    4.797
  127.901    0.296    0.493   86.071    5.073
  128.201    0.300    0.491   85.407    5.468
  128.501    0.310    0.475   82.883    6.123
  128.801    0.320    0.481   81.599    6.726
  129.101    0.333    0.507   82.170    7.250
  129.401    0.345    0.539   84.592    7.240
  129.701    0.363    0.574   85.785    6.577
  130.001    0.389    0.619   86.964    3.856
  130.301    0.346    0.601   89.383    3.435
  130.601    0.325    0.557   90.585    3.367
  130.901    0.302    0.493   91.770    3.842
  131.201    0.279    0.453   91.094    4.642
  131.501    0.304    0.441   89.210    6.052
  131.801    0.293    0.443   84.213    6.907
  132.101    0.292    0.448   82.924    7.586
  132.401    0.292    0.455   85.347    7.723
  132.701    0.289    0.465   84.069    7.569
  133.001    0.299    0.474   80.933    7.562
  133.301    0.279    0.482   82.729    7.551
  133.601    0.248    0.482   82.687    7.834
  133.901    0.202    0.456   82.031    7.980
  134.201    0.225    0.443   83.218    8.764
  134.501    0.223    0.443   87.498    9.096
  134.801    0.259    0.446   93.617    9.434
  135.101    0.263    0.471   95.434    8.902
  135.401    0.265    0.493   97.236    7.783
  135.701    0.288    0.493   97.186    7.485
  136.001    0.302    0.452   92.200    7.620
  136.301    0.308    0.463   83.504    7.610
  136.601    0.332    0.490   79.130    6.527
  136.901    0.359    0.518   73.522    5.391
  137.201    0.408    0.563   70.387    4.204
  137.501    0.437    0.584   74.045    3.472
  137.801    0.429    0.584   81.403    2.867
  138.101    0.373    0.588   81.971    2.704
  138.401    0.346    0.577   83.171    2.701
  138.701    0.298    0.539   85.590    2.803
  139.001    0.307    0.533   84.929    3.138
  139.301    0.281    0.523   84.253    3.720
  139.601    0.299    0.515   85.451    4.165
  139.901    0.313    0.522   86.024    4.405
  140.201    0.311    0.483   83.503    4.484
  140.501    0.317    0.461   80.368    4.478
  140.801    0.311    0.457   78.454    4.560
  141.101    0.306    0.459   77.802    5.009
  141.401    0.298    0.455   80.842    5.828
  141.701    0.295    0.459   81.409    6.282
  142.001    0.330    0.478   80.743    5.490
  142.301    0.385    0.532   81.936    4.801
  142.601    0.380    0.533   84.969    4.040
  142.901    0.379    0.529   86.775    3.670
  143.201    0.369    0.526   86.731    3.461
  143.501    0.381    0.532   87.291    3.392
  143.801    0.381    0.556   87.260    3.453
  144.101    0.370    0.574   87.208    3.449
  144.401    0.354    0.575   85.925    3.446
  144.701    0.345    0.560   85.876    3.441
  145.001    0.346    0.526   88.301    3.438
  145.301    0.321    0.516   92.584    3.433
  145.601    0.300    0.521   90.674    3.495
  145.901    0.295    0.515   88.765    3.627
  146.201    0.282    0.501   88.112    3.910
  146.501    0.282    0.477   83.736    4.296
  146.801    0.291    0.482   78.129    4.543
  147.101    0.307    0.442   73.141    4.623
  147.401    0.327    0.379   68.154    4.891
  147.701    0.336    0.354   65.634    6.376
  148.001    0.339    0.346   69.295    8.157
  148.301    0.341    0.351   72.336   10.045
  148.601    0.336    0.359   71.041   11.035
  148.901    0.315    0.365   71.006   11.445
  149.201    0.305    0.368   72.183   11.436
  149.501    0.308    0.373   74.000   10.991
  149.801    0.299    0.391   80.747   10.575
  150.101    0.290    0.406   81.933    8.567
  150.401    0.287    0.420   79.418    6.680
  150.701    0.296    0.399   72.569    6.304
  151.001    0.311    0.384   69.438    6.297
  151.301    0.324    0.374   67.538    7.050
  151.601    0.329    0.374   70.568    8.358
  151.901    0.329    0.377   74.226   10.897
  152.201    0.316    0.385   76.651   12.676
  152.501    0.321    0.402   74.761   14.462
  152.801    0.337    0.396   67.915   15.297
  153.101    0.319    0.381   64.781   15.874
  153.401    0.294    0.382   69.674   15.261
  153.701    0.299    0.381   74.561   12.604
  154.001    0.300    0.371   77.608   10.211
  154.301    0.288    0.375   82.507    8.116
  154.601    0.266    0.380   88.635    7.371
  154.901    0.273    0.392   83.032    6.953
  155.201    0.272    0.390   74.332    6.814
  155.501    0.272    0.368   66.873    7.205
  155.801    0.301    0.364   61.880    8.069
  156.101    0.320    0.364   51.949    9.035
  156.401    0.338    0.361   48.188    9.924
  156.701    0.325    0.369   51.222   10.299
  157.001    0.314    0.381   53.032   11.312
  157.301    0.326    0.390   50.519   12.196
  157.601    0.320    0.381   47.381   14.737
  157.901    0.307    0.376   50.425   17.139
  158.201    0.293    0.376   52.231   18.473
  158.501    0.279    0.374   49.097   18.445
  158.801    0.307    0.368   47.197   18.077
  159.101    0.313    0.357   50.851   17.059
