~VERSION INFORMATION
 VERS.                 2.0:   CWLS LOG ASCII STANDARD -VERSION 2.0
 WRAP.                  NO:   ONE LINE PER DEPTH STEP
~WELL INFORMATION BLOCK
#MNEM.UNIT           DATA                    DESCRIPTION OF MNEMONIC
#---------    -------------------            -------------------------------
# Generated from Intellog Unique Number	CN_91_93/WELL/3233
WELL.         PETRO-CANADA                   : Well_name    - WELL
LOC .         AA/10-26-092-17W4/0            : Location     - LOCATION
UWI .         AA/10-26-092-17W400            : Uwi          - UNIQUE WELL ID
ENTR.         JOETTE                         : Entered      - ENTERED BY
SRVC.         SCHLUMBERGER                   : Scn          - SERVICE COMPANY
DATE.         04/14/92                       : Date         - LOG DATE
STRT.F        290                            : top_depth    - START DEPTH
STOP.F        869.888                        : bot_depth    - STOP DEPTH
STEP.F        0.82                           : increment    - STEP LENGTH
 NULL. -999.2500:NULL Value
~CURVE INFORMATION BLOCK
#MNEM UNIT       ERCB CURVE CODE    CURVE DESCRIPTION
#-----------   ------------------   ----------------------------------
DEPT.F        00 001 00 00         : DEPTH        - DEPTH
CALI.IN       00 280 01 00         : CAL          - CALIPER
GR  .API      00 310 00 00         : GR           - GAMMA RAY
NPHI.V/V      00 330 00 00         : PHIN         - NEUTRON POROSITY (SANDSTONE)
DPHI.V/V      00 890 00 00         : PHID         - DENSITY POROSITY (SANDSTONE)
ILD .OHMM     00 120 00 00         : RESD         - DEEP RESISTIVITY (DIL)
~PARAMETER INFORMATION
#MNEM.UNIT           DATA             DESCRIPTION OF MNEMONIC
#---------         -----------     ------------------------------
GL  .F        1607.53              : gl           - GROUND LEVEL ELEVATION
EREF.F        1708.93              : kb           - ELEVATION OF DEPTH REFERENCE
DATM.F        1708.93              : datum        - DATUM ELEVATION
TDD .F        920                  : tdd          - TOTAL DEPTH DRILLER
RUN .         ONE                  : Run          - RUN NUMBER
ENG .         BILL                 : Engineer     - RECORDING ENGINEER
WIT .         JIM                  : Witness      - WITNESSED BY
MUD .         GEL                  : Mud_type     - MUD TYPE
MATR.         SANDSTONE            : Logunit      - NEUTRON MATRIX
TMAX.F        76                   : BHT          - MAXIMUM RECORDED TEMPERATURE
BHTD.F        920                  : BHTDEP       - MAXIMUM RECORDED TEMPERATURE
RMT .F        70                   : MDTP         - TEMPERATURE OF MUD
MUDD.LB/G     9                    : MWT          - MUD DENSITY
NEUT.         1                    : NEUTRON      - NEUTRON TYPE
RESI.         0                    : RESIST       - RESISTIVITY TYPE
RM  .OHMM     0.601                : RM           - RESISTIVITY OF MUD
RMC .OHMM     0.601                : RMC          - RESISTIVITY OF MUD CAKE
RMF .OHMM     0.601                : RMF          - RESISTIVITY OF MUD FILTRATE
SUFT.F        39.2                 : SUFT         - SURFACE TEMPERATURE
~A  DEPTH      CAL       GR     PHIN     PHID     RESD
# ...
  649.252    6.573   98.503    0.428    0.075   11.293
  650.072    6.695  100.934    0.433    0.137   10.297
  650.892    7.222  104.578    0.445    0.169    9.389
  651.713    7.667  108.219    0.451    0.195   10.105
  652.533    7.911  106.994    0.453    0.184   10.678
  653.353    8.235  104.548    0.456    0.217   11.077
  654.173    8.478  104.536    0.456    0.219   10.479
  654.993    6.975  104.523    0.455    0.189    9.913
  655.814    6.934  102.075    0.453    0.172    9.378
  656.634    7.258  100.852    0.453    0.209    9.206
  657.454    7.622  103.882    0.455    0.258    9.726
  658.274    7.825  105.095    0.465    0.214    9.725
  659.094    7.905  103.867    0.464    0.208   10.276
  659.915    7.661  105.075    0.463    0.203   12.128
  660.735    7.132  108.110    0.473    0.187   11.264
  661.555    7.294  108.709    0.467    0.165   11.902
  662.375    7.334  105.652    0.437    0.124   19.216
  663.196    7.171  103.815    0.408    0.089   23.969
  664.016    6.886  101.371    0.401    0.069   20.300
  664.836    6.723  101.361    0.371    0.165   13.531
  665.656    7.372  106.223    0.426    0.221   10.646
  666.476    7.453  111.082    0.442    0.249   10.449
  667.297    7.168  114.120    0.441    0.220   10.256
  668.117    7.532  118.982    0.434    0.213    9.703
  668.937    7.775  118.363    0.428    0.215    8.847
  669.757    7.978  115.917    0.433    0.201    8.845
  670.577    8.058  114.080    0.449    0.192    9.878
  671.398    7.855  113.461    0.457    0.201    9.877
  672.218    7.570  114.667    0.461    0.192    8.679
  673.038    7.163  115.263    0.464    0.202    8.061
  673.858    7.649  114.038    0.477    0.196    8.676
  674.678    7.730  105.500    0.455    0.235    8.674
  675.499    7.283  100.012    0.426    0.176    8.359
  676.319    6.836  105.482    0.416    0.137    7.079
  677.139    6.794  112.778    0.430    0.190    7.210
  677.959    6.875  115.812    0.432    0.160    8.667
  678.780    6.915  113.367    0.430    0.149    8.353
  679.600    6.833  112.139    0.430    0.111    6.694
  680.420    6.751  110.304    0.440    0.055    5.465
  681.240    6.628  106.638    0.445    0.020    6.102
  682.060    6.912  110.893    0.427    0.147    8.044
  682.881    7.520  115.753    0.435    0.167    8.345
  683.701    7.479  110.265    0.444    0.172    7.894
  684.521    7.519  108.425    0.435    0.198    8.497
  685.341    7.031  107.200    0.411    0.204    9.665
  686.161    6.949  106.576    0.426    0.151    9.487
  686.982    7.882  107.789    0.440    0.153    9.312
  687.802    8.369  105.341    0.446    0.179   10.398
  688.622    8.125  100.459    0.430    0.147   11.829
  689.442    7.434   93.141    0.418    0.153   14.754
  690.262    6.946   85.821    0.407    0.188   18.403
  691.083    6.783   82.157    0.407    0.210   18.063
  691.903    6.823   80.321    0.410    0.196   15.873
  692.723    6.985   81.531    0.407    0.187   13.949
  693.543    6.862   83.957    0.369    0.197   13.196
  694.364    6.699   83.947    0.399    0.202   13.194
  695.184    6.820   82.110    0.418    0.181   14.734
  696.004    7.104   78.446    0.437    0.254   18.378
  696.824    8.199   72.956    0.447    0.273   22.923
  697.644    7.305   70.510    0.394    0.264   30.218
  698.465    6.655   65.019    0.362    0.294   39.106
  699.285    6.208   59.529    0.342    0.313   40.565
  700.105    6.126   49.773    0.320    0.332   37.673
  700.925    6.166   49.151    0.325    0.324   35.644
  701.745    6.206   55.843    0.356    0.309   31.905
  702.566    6.205   61.922    0.382    0.294   30.184
  703.386    6.204   58.258    0.395    0.292   34.973
  704.206    6.204   48.505    0.398    0.298   45.260
  705.026    6.244   44.227    0.398    0.294   52.441
  705.846    6.243   45.440    0.400    0.290   44.417
  706.667    6.242   47.257    0.400    0.295   42.800
  707.487    6.242   48.465    0.401    0.302   46.068
  708.307    6.241   49.671    0.405    0.292   53.375
  709.127    6.281   51.488    0.407    0.290   59.605
  709.948    6.321   52.696    0.411    0.287   69.062
  710.768    6.361   52.683    0.405    0.274   70.330
  711.588    6.401   52.676    0.402    0.264   62.956
  712.408    6.441   52.666    0.410    0.257   54.317
  713.228    6.521   53.262    0.415    0.256   51.383
  714.049    6.561   53.866    0.424    0.265   29.015
  714.869    6.601   55.683    0.429    0.258   22.829
  715.689    6.641   58.109    0.427    0.234   20.815
  716.509    6.681   58.708    0.422    0.225   21.198
  717.329    6.721   61.134    0.415    0.249   21.195
  718.150    6.761   65.996    0.406    0.270   20.424
  718.970    6.679   66.593    0.414    0.276   16.673
  719.790    6.556   70.234    0.425    0.247   12.643
  720.610    6.678   75.707    0.446    0.241   10.132
  721.430    7.001   81.787    0.457    0.283    9.069
  722.251    7.448   82.386    0.468    0.247    9.943
  723.071    7.366   79.940    0.457    0.278   11.104
  723.891    6.918   75.058    0.442    0.285   12.631
  724.711    6.634   70.174    0.430    0.257   19.654
  725.531    6.268   67.731    0.416    0.244   44.216
  726.352    6.104   65.285    0.399    0.245   57.219
  727.172    6.104   62.837    0.389    0.220   47.581
  727.992    6.103   66.478    0.399    0.217   29.460
  728.812    6.183   68.300    0.429    0.227   23.179
  729.633    6.224   70.117    0.415    0.251   32.893
  730.453    6.304   80.460    0.415    0.248   36.062
  731.273    6.303   82.276    0.405    0.250   40.271
  732.093    6.343   74.350    0.381    0.224   43.344
  732.913    6.343   72.513    0.358    0.217   41.766
  733.734    6.301   72.503    0.363    0.209   38.792
  734.554    6.260   74.317    0.370    0.234   33.468
  735.374    6.219   74.919    0.379    0.260   29.410
  736.194    6.177   74.909    0.384    0.271   27.315
  737.014    6.177   73.072    0.360    0.288   28.861
  737.835    6.217   69.406    0.351    0.305   31.642
  738.655    6.257   66.351    0.349    0.299   37.343
  739.475    6.256   60.861    0.340    0.291   41.704
  740.295    6.296   52.934    0.347    0.324   60.279
  741.115    6.336   48.052    0.373    0.332   64.882
  741.936    6.376   43.779    0.376    0.293   90.391
  742.756    6.375   39.504    0.364    0.285  110.686
  743.576    6.455   36.452    0.359    0.289   88.707
  744.396    6.455   31.565    0.365    0.280   67.268
  745.217    6.454   30.951    0.371    0.287   49.163
  746.037    6.332   30.941    0.380    0.293   50.070
  746.857    6.291   30.320    0.376    0.288   73.721
  747.677    6.331   29.704    0.371    0.294   79.347
  748.497    6.411   29.694    0.371    0.303   95.388
  749.318    6.410   29.072    0.375    0.302  100.792
  750.138    6.409   28.453    0.377    0.304   83.811
  750.958    6.368   28.443    0.371    0.298   68.418
  751.778    6.327   30.869    0.368    0.305   73.632
  752.598    6.327   33.293    0.368    0.313   79.248
  753.419    6.326   33.285    0.374    0.311   79.237
  754.239    6.325   33.882    0.379    0.311   76.358
  755.059    6.324   34.483    0.389    0.303   69.623
  755.879    6.364   35.080    0.396    0.296   48.148
  756.699    6.364   35.681    0.393    0.292   25.255
  757.520    6.404   37.498    0.383    0.287   29.262
  758.340    6.444   42.360    0.376    0.278   40.022
  759.160    6.443   50.876    0.381    0.265   46.372
  759.980    6.483   51.475    0.390    0.290   48.996
  760.801    6.482   44.766    0.405    0.306   51.772
  761.621    6.481   38.055    0.400    0.313   57.818
  762.441    6.481   33.785    0.387    0.308   57.807
  763.261    6.440   34.384    0.389    0.298   61.083
  764.081    6.439   34.983    0.395    0.297   74.797
  764.902    6.438   35.579    0.403    0.307   89.919
  765.722    6.437   36.787    0.414    0.310  112.156
  766.542    6.437   37.995    0.420    0.297  122.961
  767.362    6.517   40.421    0.415    0.301  118.478
  768.182    6.557   40.409    0.418    0.297  114.169
