~VERSION INFORMATION
 VERS.                 2.0:   CWLS LOG ASCII STANDARD -VERSION 2.0
 WRAP.                  NO:   ONE LINE PER DEPTH STEP
~WELL INFORMATION BLOCK
#MNEM.UNIT           DATA                    DESCRIPTION OF MNEMONIC
#---------    -------------------            -------------------------------
# Generated from Intellog Unique Number	CC_80_83/WELL/2373
NULL.         -999.25                        : NULL_VALUE
WELL.         PEX PCEJ HOUSE OV              : Well_name    - WELL
LOC .         10-26-081-14W4                 : Location     - LOCATION          
UWI .         AA/10-26-081-14W400            : Uwi          - UNIQUE WELL ID    
ENTR.         DW                             : Entered      - ENTERED BY        
SRVC.         SCHLUMBERGER                   : Scn          - SERVICE COMPANY   
DATE.         20 DEC 81                      : Date         - LOG DATE
STRT.M        200                            : top_depth    - START DEPTH       
STOP.M        379.996                        : bot_depth    - STOP DEPTH        
STEP.M        0.3                            : increment    - STEP LENGTH       
~CURVE INFORMATION BLOCK
#MNEM UNIT       ERCB CURVE CODE    CURVE DESCRIPTION
#-----------   ------------------   ----------------------------------
DEPT.M        00 001 00 00         : DEPTH        - DEPTH                       
DPHI.V/V      00 890 00 00         : PHID         - DENSITY POROSITY (LIMESTONE)
NPHI.V/V      00 330 00 00         : PHIN         - NEUTRON POROSITY (LIMESTONE)
GR  .API      00 310 00 00         : GR           - GAMMA RAY                   
ILD .OHMM     00 120 00 00         : RESD         - DEEP RESISTIVITY (DIL)      
~PARAMETER INFORMATION       
#MNEM.UNIT           DATA             DESCRIPTION OF MNEMONIC
#---------         -----------     ------------------------------
GL  .M        592.5                : gl           - GROUND LEVEL ELEVATION      
EREF.M        596.2                : kb           - ELEVATION OF DEPTH REFERENCE
DATM.M        596.2                : datum        - DATUM ELEVATION             
TDD .M        388                  : tdd          - TOTAL DEPTH DRILLER         
RUN .         ONE                  : Run          - RUN NUMBER                  
ENG .         BILL                 : Engineer     - RECORDING ENGINEER          
WIT .         JIM                  : Witness      - WITNESSED BY                
MUD .         GEL                  : Mud_type     - MUD TYPE                    
MATR.         LIMESTONE            : Logunit      - NEUTRON MATRIX              
TMAX.C        22.2                 : BHT          - MAXIMUM RECORDED TEMPERATURE
BHTD.M        387                  : BHTDEP       - MAXIMUM RECORDED TEMPERATURE
MATR.         1                    : LOGUNIT      - NEUTRON MATRIX              
RMT .C        25                   : MDTP         - TEMPERATURE OF MUD          
NEUT.         1                    : NEUTRON      - NEUTRON TYPE                
RESI.         0                    : RESIST       - RESISTIVITY TYPE            
RMC .OHMM     0.25                 : RMC          - RESISTIVITY OF MUD CAKE     
RMF .OHMM     0.25                 : RMF          - RESISTIVITY OF MUD FILTRATE 
SUFT.C        15                   : SUFT         - SURFACE TEMPERATURE         
~A  DEPTH     PHID     PHIN       GR     RESD
# ...
  252.201    0.278    0.454   67.228   12.264
  252.501    0.314    0.502   62.895   10.942
  252.801    0.319    0.505   61.658    9.762
  253.101    0.282    0.399   74.065    8.224
  253.401    0.348    0.390   72.829    6.544
  253.701    0.520    0.501   71.594    6.302
  254.001    0.461    0.543   82.761    6.426
  254.301    0.365    0.547   83.385    7.635
  254.601    0.326    0.481   75.949    9.423
  254.901    0.348    0.486   70.374   11.630
  255.201    0.352    0.457   65.422   12.323
  255.501    0.347    0.457   64.184   12.096
  255.801    0.344    0.447   65.429   11.650
  256.101    0.345    0.439   72.255   11.654
  256.401    0.342    0.452   69.780   12.114
  256.701    0.350    0.461   62.964   12.351
  257.001    0.347    0.451   58.629   12.595
  257.301    0.348    0.451   61.734   12.363
  257.600    0.340    0.454   66.079   11.907
  257.900    0.335    0.461   69.186   11.685
  258.200    0.348    0.471   65.471   11.693
  258.500    0.361    0.471   62.995   11.921
  258.800    0.358    0.462   64.860   11.929
  259.100    0.354    0.449   68.585   11.269
  259.400    0.339    0.444   74.171   10.248
  259.700    0.309    0.519   75.415   10.652
  260.000    0.167    0.512   71.081   11.285
  260.300    0.157    0.304   67.985   11.730
  260.600    0.231    0.445   72.331   11.734
  260.900    0.344    0.471   67.997   11.086
  261.200    0.323    0.439   66.760    9.891
  261.500    0.314    0.445   71.727    9.346
  261.800    0.344    0.473   73.591    8.663
  262.100    0.355    0.488   70.497    8.029
  262.400    0.331    0.521   69.261    7.586
  262.700    0.317    0.522   74.226    7.445
  263.000    0.303    0.494   70.512    7.311
  263.300    0.305    0.491   68.657    7.313
  263.600    0.333    0.488   69.902    7.315
  263.900    0.316    0.506   71.766    7.750
  264.200    0.319    0.517   70.533    8.530
  264.500    0.329    0.493   71.158    9.039
  264.800    0.333    0.498   75.502    9.216
  265.100    0.329    0.491   71.167    8.706
  265.400    0.325    0.483   70.552    7.768
  265.700    0.311    0.481   81.098    7.339
  266.000    0.284    0.506   85.443    7.777
  266.300    0.288    0.498   80.488    8.083
  266.600    0.262    0.459   83.593    7.635
  266.900    0.257    0.472   91.660    6.433
  267.200    0.250    0.486   87.944    5.851
  267.500    0.233    0.484   84.848    5.633
  267.800    0.233    0.464   86.715    5.530
  268.100    0.267    0.453   87.339    6.086
  268.400    0.273    0.458   87.344    7.513
  268.700    0.258    0.466   78.048    7.959
  269.000    0.212    0.495   68.753    7.812
  269.300    0.257    0.466   65.037    6.582
  269.600    0.278    0.437   77.443    5.040
  269.900    0.298    0.428   81.789    3.645
  270.200    0.549    0.508   79.314    2.956
  270.500    0.601    0.589   76.839    2.793
  270.800    0.448    0.605   80.564    2.958
  271.100    0.494    0.568   78.709    4.505
  271.400    0.507    0.536   81.814    6.235
  271.700    0.390    0.500   78.720    6.864
  272.000    0.380    0.483   73.765    6.866
  272.300    0.604    0.556   69.428    6.487
  272.600    0.569    0.594   65.713    5.900
  272.900    0.342    0.606   78.739    5.681
  273.200    0.358    0.464   76.885    5.684
  273.500    0.404    0.457   74.409    6.258
  273.800    0.409    0.470   78.754    6.503
  274.100    0.312    0.543   79.379    6.890
  274.400    0.281    0.493   78.146    6.763
  274.700    0.249    0.459   79.389    6.766
  275.000    0.263    0.475   75.055    6.642
  275.300    0.307    0.495   83.740    6.518
  275.600    0.327    0.464   78.165    6.398
  275.900    0.529    0.464   68.870    6.778
  276.200    0.541    0.540   60.814    7.605
  276.500    0.017    0.580   48.418    7.755
  276.800    0.116    0.236   49.043    7.469
  277.100    0.360    0.416   62.689    7.192
  277.400    0.465    0.463   74.475    6.666
  277.700    0.503    0.491   83.162    6.179
  278.000    0.483    0.511   88.126    6.182
  278.300    0.481    0.519   87.511    6.184
  278.600    0.335    0.501   83.176    6.429
  278.900    0.399    0.489   81.942    6.681
  279.200    0.470    0.513   81.326    7.079
  279.500    0.474    0.520   81.331    7.219
  279.800    0.442    0.460   91.257    7.361
  280.100    0.255    0.469   86.302    7.508
  280.400    0.240    0.517   85.686    7.510
  280.700    0.228    0.466   93.753    7.514
  281.000    0.216    0.438   96.237    7.236
  281.300    0.220    0.454   94.383    7.102
  281.600    0.211    0.468   93.768    6.711
  281.900    0.191    0.470   94.393    6.713
  282.199    0.231    0.473   94.397    6.716
  282.499    0.349    0.490   94.404    6.849
  282.799    0.322    0.509  103.089    6.722
  283.099    0.200    0.494  106.815    6.113
  283.399    0.189    0.485  103.099    5.668
  283.699    0.227    0.506   89.463    5.457
  283.999    0.353    0.497   83.888    5.356
  284.299    0.264    0.483   86.992    5.061
  284.599    0.267    0.504   88.858    5.063
  284.899    0.358    0.556   88.243    5.262
  285.199    0.397    0.609   91.970    5.469
  285.499    0.282    0.537   93.213    6.375
  285.799    0.236    0.481   88.879    8.823
  286.099    0.230    0.441   82.064    9.530
  286.399    0.245    0.455   81.448    9.716
  286.699    0.272    0.463   88.894    9.006
  286.999    0.263    0.448   89.519    8.191
  287.299    0.226    0.434   87.045    8.353
  287.599    0.231    0.426   86.428    8.517
  287.899    0.205    0.431   83.334    8.521
  288.199    0.211    0.403   80.861    8.689
  288.499    0.219    0.399   80.243    8.861
  288.799    0.245    0.411   88.308    8.867
  289.099    0.303    0.470   93.895    8.871
  289.399    0.313    0.517   90.799    8.706
  289.699    0.299    0.459   87.704    8.546
  289.999    0.289    0.484   87.090    8.229
  290.299    0.274    0.480   81.514    7.924
  290.599    0.273    0.482   80.278    7.632
  290.899    0.269    0.500   90.825    7.348
  291.199    0.228    0.516   83.389    6.812
  291.499    0.204    0.464   76.574    6.077
  291.799    0.216    0.452   89.601    5.319
  292.099    0.274    0.557   95.185    4.481
  292.399    0.240    0.539   93.331    4.399
  292.699    0.267    0.533   87.135    4.750
  292.999    0.381    0.538   93.961    5.433
  293.299    0.322    0.508   93.346    5.865
  293.599    0.289    0.461   89.011    7.240
  293.899    0.303    0.445   87.776    9.110
  294.199    0.233    0.455   87.780   10.026
  294.499    0.243    0.446   92.746    9.655
  294.799    0.257    0.416   97.711    8.134
  295.099    0.223    0.410  100.198    6.723
  295.399    0.234    0.471   99.582    6.114
  295.699    0.226    0.511   96.486    5.561
  295.999    0.216    0.521   94.632    5.457
  296.299    0.216    0.508   97.119    5.566
  296.599    0.234    0.481   96.502    5.785
  296.899    0.258    0.463   96.506    6.129
  297.199    0.239    0.458   98.371    6.618
  297.499    0.247    0.513   98.996    7.567
  297.799    0.289    0.538  102.103    9.165
  298.099    0.283    0.537  104.588    9.897
  298.399    0.209    0.457  110.175   10.484
  298.699    0.200    0.420  108.939   10.489
  298.999    0.161    0.427  101.502   10.495
  299.299    0.104    0.406   89.728    9.728
  299.599    0.100    0.334   88.491    8.846
  299.899    0.211    0.346  103.377    7.452
  300.199    0.237    0.392  105.243    6.280
  300.499    0.199    0.436  100.287    6.163
  300.799    0.178    0.451   99.674    5.712
  301.099    0.212    0.462   98.438    5.715
  301.399    0.219    0.447   97.823    6.174
  301.699    0.209    0.436   97.208    6.666
  301.999    0.245    0.488   94.733    7.061
  302.299    0.263    0.520   91.017    9.229
  302.599    0.245    0.433   84.823   10.158
  302.899    0.258    0.416   85.450   10.359
  303.199    0.269    0.442   84.212   10.170
  303.499    0.272    0.456   79.877    9.980
  303.799    0.272    0.461   82.362    9.077
  304.099    0.250    0.446   94.148    8.740
