~VERSION INFORMATION
 VERS.                 2.0:   CWLS LOG ASCII STANDARD -VERSION 2.0
 WRAP.                  NO:   ONE LINE PER DEPTH STEP
~WELL INFORMATION BLOCK
#MNEM.UNIT           DATA                    DESCRIPTION OF MNEMONIC
#---------    -------------------            -------------------------------
# Generated from Intellog Unique Number	CN_94_101/WELL/3264
WELL.         10-11-095-06W4                 : Well_name    - WELL
LOC .         AA/10-11-095-06W4/0            : Location     - LOCATION
UWI .         AA/10-11-095-06W400            : Uwi          - UNIQUE WELL ID
ENTR.         TIM                            : Entered      - ENTERED BY
SRVC.         SCHLUMBERGER                   : Scn          - SERVICE COMPANY
DATE.         05/17/92                       : Date         - LOG DATE
STRT.M        100                            : top_depth    - START DEPTH
STOP.M        340                            : bot_depth    - STOP DEPTH
STEP.M        0.25                           : increment    - STEP LENGTH
 NULL. -999.2500:NULL Value
~CURVE INFORMATION BLOCK
#MNEM UNIT       ERCB CURVE CODE    CURVE DESCRIPTION
#-----------   ------------------   ----------------------------------
DEPT.M        00 001 00 00         : DEPTH        - DEPTH
GR  .API      00 310 00 00         : GR           - GAMMA RAY
NPHI.V/V      00 330 00 00         : PHIN         - NEUTRON POROSITY (SANDSTONE)
DPHI.V/V      00 890 00 00         : PHID         - DENSITY POROSITY (SANDSTONE)
ILD .OHMM     00 120 00 00         : RESD         - DEEP RESISTIVITY (DIL)
~PARAMETER INFORMATION
#MNEM.UNIT           DATA             DESCRIPTION OF MNEMONIC
#---------         -----------     ------------------------------
GL  .M        596.9                : gl           - GROUND LEVEL ELEVATION
EREF.M        599.8                : kb           - ELEVATION OF DEPTH REFERENCE
DATM.M        599.8                : datum        - DATUM ELEVATION
TDD .M        342                  : tdd          - TOTAL DEPTH DRILLER
RUN .         0                    : Run          - RUN NUMBER
ENG .         COMPANY:             : Engineer     - RECORDING ENGINEER
MUD .         GEL                  : Mud_type     - MUD TYPE
MATR.         SANDSTONE            : Logunit      - NEUTRON MATRIX
TMAX.C        18                   : BHT          - MAXIMUM RECORDED TEMPERATURE
BHTD.M        342                  : BHTDEP       - MAXIMUM RECORDED TEMPERATURE
RMT .C        18                   : MDTP         - TEMPERATURE OF MUD
MUDD.KG/M     1050                 : MWT          - MUD DENSITY
NEUT.         1                    : NEUTRON      - NEUTRON TYPE
RESI.         0                    : RESIST       - RESISTIVITY TYPE
RM  .OHMM     3.5                  : RM           - RESISTIVITY OF MUD
RMC .OHMM     3.5                  : RMC          - RESISTIVITY OF MUD CAKE
RMF .OHMM     3.5                  : RMF          - RESISTIVITY OF MUD FILTRATE
SUFT.C        4                    : SUFT         - SURFACE TEMPERATURE
~A  DEPTH       GR     PHIN     PHID     RESD
  100.000   92.786    0.401    0.248   17.059
  100.250   92.781    0.402    0.245   17.384
  100.500   92.136    0.404    0.235   17.378
  100.750   92.132    0.397    0.227   17.707
  101.000   92.768    0.395    0.217   17.703
  101.250   94.044    0.402    0.213   17.696
  101.500   96.597    0.409    0.239   17.691
  101.750   96.593    0.402    0.250   17.685
  102.000   95.947    0.392    0.243   17.348
  102.250   95.304    0.383    0.239   17.343
  102.500   94.659    0.388    0.239   17.336
  102.750   94.017    0.400    0.236   17.330
  103.000   92.092    0.410    0.235   17.327
  103.250   91.447    0.413    0.233   17.322
  103.500   90.803    0.395    0.225   17.317
  103.750   90.799    0.388    0.217   17.311
  104.000   90.794    0.385    0.211   17.307
  104.250   91.431    0.386    0.210   17.299
  104.500   92.066    0.394    0.211   17.299
  104.750   92.062    0.396    0.215   17.959
  105.000   92.057    0.401    0.217   18.301
  105.250   92.694    0.401    0.220   18.294
  105.500   93.328    0.397    0.224   18.288
  105.750   93.962    0.392    0.225   18.282
  106.000   94.600    0.387    0.228   18.279
  106.250   94.595    0.390    0.228   18.272
  106.500   94.589    0.396    0.228   18.265
  106.750   94.586    0.403    0.226   17.918
  107.000   94.583    0.405    0.224   17.913
  107.250   94.575    0.404    0.220   17.906
  107.500   93.932    0.404    0.218   17.902
  107.750   93.927    0.404    0.218   17.559
  108.000   93.924    0.404    0.223   17.554
  108.250   93.279    0.404    0.225   17.547
  108.500   93.276    0.411    0.224   17.542
  108.750   93.270    0.414    0.219   17.535
  109.000   93.267    0.409    0.213   17.533
  109.250   93.899    0.393    0.207   17.196
  109.500   93.898    0.375    0.202   17.191
  109.750   93.894    0.365    0.199   17.186
  110.000   93.888    0.362    0.206   16.855
  110.250   93.245    0.371    0.218   16.853
  110.500   91.960    0.382    0.225   16.848
  110.750   91.317    0.390    0.227   16.843
  111.000   89.392    0.379    0.215   17.161
  111.250   87.467    0.367    0.202   17.822
  111.500   86.185    0.357    0.204   18.862
  111.750   82.980    0.346    0.210   20.739
  112.000   80.417    0.332    0.223   21.954
  112.250   77.213    0.318    0.234   23.238
  112.500   72.728    0.318    0.237   25.549
  112.750   68.243    0.318    0.223   27.043
  113.000   65.680    0.310    0.223   29.174
  113.250   61.836    0.304    0.210   32.078
  113.500   59.272    0.312    0.197   34.606
  113.750   56.067    0.320    0.201   38.051
  114.000   54.785    0.324    0.199   41.050
  114.250   52.221    0.322    0.195   46.881
  114.500   49.016    0.327    0.213   48.690
  114.750   45.171    0.338    0.230   52.531
  115.000   43.249    0.348    0.260   55.598
  115.250   40.045    0.355    0.286   57.743
  115.500   37.480    0.357    0.293   59.962
  115.750   36.836    0.359    0.294   62.266
  116.000   36.833    0.356    0.289   63.453
  116.250   38.107    0.351    0.283   68.449
  116.500   38.744    0.342    0.276   69.743
  116.750   38.740    0.329    0.261   72.423
  117.000   40.015    0.307    0.236   72.412
  117.250   42.570    0.298    0.209   71.020
  117.500   47.685    0.293    0.185   67.058
  117.750   54.080    0.285    0.167   60.955
  118.000   59.834    0.281    0.153   54.358
  118.250   59.828    0.276    0.151   48.472
  118.500   59.183    0.274    0.151   44.054
  118.750   59.181    0.275    0.150   41.599
  119.000   59.175    0.279    0.148   40.036
  119.250   59.811    0.284    0.144   37.086
  119.500   60.447    0.288    0.143   35.017
  119.750   62.362    0.293    0.158   34.349
  120.000   62.996    0.299    0.177   32.430
  120.250   62.994    0.302    0.199   31.206
  120.500   62.989    0.307    0.180   30.611
  120.750   62.983    0.313    0.167   28.903
  121.000   62.981    0.318    0.166   28.349
  121.250   63.617    0.321    0.181   27.806
  121.500   64.252    0.321    0.184   27.798
  121.750   65.526    0.319    0.180   26.752
  122.000   66.162    0.318    0.178   25.744
  122.250   65.519    0.316    0.175   26.227
  122.500   65.512    0.311    0.167   26.224
  122.750   65.510    0.306    0.167   26.718
  123.000   65.505    0.306    0.170   26.712
  123.250   66.140    0.308    0.169   26.704
  123.500   66.136    0.311    0.169   26.696
  123.750   66.130    0.313    0.169   26.686
  124.000   65.487    0.312    0.167   26.676
  124.250   64.202    0.308    0.167   26.670
  124.500   63.559    0.304    0.165   27.176
  124.750   63.553    0.297    0.161   27.166
  125.000   64.189    0.293    0.159   27.680
  125.250   64.825    0.293    0.155   27.672
  125.500   65.461    0.293    0.159   27.663
  125.750   65.456    0.292    0.166   28.185
  126.000   65.450    0.287    0.170   28.180
  126.250   64.808    0.283    0.169   28.714
  126.500   64.804    0.280    0.163   28.705
  126.750   67.359    0.278    0.155   28.694
  127.000   69.273    0.277    0.151   29.239
  127.250   67.989    0.273    0.144   29.793
  127.500   67.346    0.268    0.136   30.354
  127.750   64.141    0.263    0.132   30.930
  128.000   62.858    0.261    0.131   32.734
  128.250   60.294    0.259    0.133   33.358
  128.500   57.729    0.256    0.155   35.308
  128.750   55.805    0.254    0.160   36.659
  129.000   54.520    0.254    0.161   37.358
  129.250   54.517    0.254    0.161   38.065
  129.500   54.513    0.254    0.160   39.528
  129.750   54.509    0.254    0.159   41.050
  130.000   55.144    0.255    0.156   42.633
  130.250   55.776    0.255    0.154   44.275
  130.500   56.413    0.258    0.151   47.764
  130.750   57.049    0.260    0.151   51.521
  131.000   58.323    0.263    0.154   52.499
  131.250   58.321    0.265    0.160   53.496
  131.500   58.317    0.268    0.159   53.468
  131.750   55.753    0.268    0.151   53.460
  132.000   56.389    0.264    0.158   51.452
  132.250   60.221    0.258    0.167   48.577
  132.500   62.138    0.249    0.164   47.650
  132.750   64.052    0.249    0.150   44.988
  133.000   64.690    0.254    0.136   44.130
  133.250   64.046    0.263    0.151   43.281
  133.500   59.562    0.268    0.168   43.272
  133.750   54.437    0.273    0.177   44.087
  134.000   53.154    0.278    0.179   45.788
  134.250   52.510    0.288    0.168   49.392
  134.500   55.065    0.281    0.151   50.331
  134.750   56.977    0.268    0.144   51.279
  135.000   57.616    0.267    0.141   51.267
  135.250   58.251    0.273    0.145   50.278
  135.500   59.527    0.279    0.151   49.322
  135.750   61.439    0.293    0.165   48.378
  136.000   62.075    0.302    0.179   46.556
  136.250   62.713    0.310    0.188   43.126
  136.500   63.987    0.321    0.196   39.193
  136.750   65.262    0.333    0.203   37.720
  137.000   65.898    0.344    0.201   37.000
  137.250   65.254    0.344    0.190   35.605
  137.500   62.050    0.324    0.172   34.261
  137.750   58.846    0.290    0.167   34.256
  138.000   60.761    0.273    0.167   33.598
  138.250   62.676    0.286    0.169   33.588
  138.500   63.313    0.301    0.172   33.580
  138.750   63.309    0.310    0.178   34.215
  139.000   63.304    0.313    0.186   34.200
  139.250   63.299    0.311    0.191   34.192
  139.500   63.935    0.306    0.186   33.535
  139.750   64.569    0.301    0.183   32.898
  140.000   65.206    0.299    0.185   32.265
  140.250   65.843    0.300    0.185   31.645
  140.500   65.837    0.301    0.176   31.044
  140.750   65.834    0.304    0.171   31.034
  141.000   65.189    0.303    0.166   30.440
  141.250   63.903    0.299    0.178   30.428
  141.500   63.261    0.297    0.191   30.422
  141.750   63.255    0.297    0.196   29.835
  142.000   63.251    0.297    0.192   29.828
  142.250   63.247    0.303    0.187   29.821
  142.500   63.883    0.304    0.178   29.812
  142.750   65.156    0.306    0.180   29.801
  143.000   65.154    0.306    0.186   29.233
  143.250   66.428    0.306    0.191   29.224
