~VERSION INFORMATION
 VERS.                 2.0:   CWLS LOG ASCII STANDARD -VERSION 2.0
 WRAP.                  NO:   ONE LINE PER DEPTH STEP
~WELL INFORMATION BLOCK
#MNEM.UNIT           DATA                    DESCRIPTION OF MNEMONIC
#---------    -------------------            -------------------------------
# Generated from Intellog Unique Number	CN_94_101/WELL/5008
WELL.         10-29-100-14W4                 : Well_name    - WELL
LOC .         AA/10-29-100-14W4/0            : Location     - LOCATION
UWI .         AA/10-29-100-14W400            : Uwi          - UNIQUE WELL ID
ENTR.         TIM                            : Entered      - ENTERED BY
SRVC.         SCHLUMBERGER                   : Scn          - SERVICE COMPANY
DATE.         08/11/92                       : Date         - LOG DATE
STRT.M        275                            : top_depth    - START DEPTH
STOP.M        480                            : bot_depth    - STOP DEPTH
STEP.M        0.25                           : increment    - STEP LENGTH
 NULL. -999.2500:NULL Value
~CURVE INFORMATION BLOCK
#MNEM UNIT       ERCB CURVE CODE    CURVE DESCRIPTION
#-----------   ------------------   ----------------------------------
DEPT.M        00 001 00 00         : DEPTH        - DEPTH
GR  .API      00 310 00 00         : GR           - GAMMA RAY
ILD .OHMM     00 120 00 00         : RESD         - DEEP RESISTIVITY (DIL)
NPHI.V/V      00 330 00 00         : PHIN         - NEUTRON POROSITY (SANDSTONE)
DPHI.V/V      00 890 00 00         : PHID         - DENSITY POROSITY (SANDSTONE)
~PARAMETER INFORMATION
#MNEM.UNIT           DATA             DESCRIPTION OF MNEMONIC
#---------         -----------     ------------------------------
GL  .M        713.6                : gl           - GROUND LEVEL ELEVATION
EREF.M        716.96               : kb           - ELEVATION OF DEPTH REFERENCE
DATM.M        716.96               : datum        - DATUM ELEVATION
TDD .M        480                  : tdd          - TOTAL DEPTH DRILLER
RUN .         ONE                  : Run          - RUN NUMBER
ENG .         BILL                 : Engineer     - RECORDING ENGINEER
WIT .         JIM                  : Witness      - WITNESSED BY
MUD .         GEL                  : Mud_type     - MUD TYPE
MATR.         SANDSTONE            : Logunit      - NEUTRON MATRIX
TMAX.C        28                   : BHT          - MAXIMUM RECORDED TEMPERATURE
BHTD.M        480                  : BHTDEP       - MAXIMUM RECORDED TEMPERATURE
RMT .C        17.3                 : MDTP         - TEMPERATURE OF MUD
MUDD.KG/M     1130                 : MWT          - MUD DENSITY
NEUT.         1                    : NEUTRON      - NEUTRON TYPE
RESI.         0                    : RESIST       - RESISTIVITY TYPE
RM  .OHMM     8.25                 : RM           - RESISTIVITY OF MUD
RMC .OHMM     7.89                 : RMC          - RESISTIVITY OF MUD CAKE
RMF .OHMM     6.89                 : RMF          - RESISTIVITY OF MUD FILTRATE
SUFT.C        4                    : SUFT         - SURFACE TEMPERATURE
~A  DEPTH       GR     RESD     PHIN     PHID
# ...
  405.500  138.041    5.201    0.432    0.208
  405.750  138.024    5.196    0.435    0.213
  406.000  138.007    5.190    0.436    0.227
  406.250  138.000    5.183    0.434    0.227
  406.500  138.602    5.176    0.429    0.224
  406.750  139.200    5.169    0.426    0.220
  407.000  138.568    5.163    0.424    0.218
  407.250  137.329    5.154    0.420    0.215
  407.500  136.704    5.146    0.413    0.209
  407.750  134.846    5.137    0.403    0.204
  408.000  137.292    5.134    0.391    0.196
  408.250  140.352    5.126    0.397    0.192
  408.500  142.180    5.119    0.425    0.200
  408.750  141.549    4.904    0.429    0.207
  409.000  140.312    4.897    0.429    0.216
  409.250  139.069    4.683    0.431    0.219
  409.500  139.052    4.676    0.433    0.217
  409.750  137.809    4.671    0.408    0.216
  410.000  137.184    4.664    0.432    0.220
  410.250  135.941    4.656    0.435    0.227
  410.500  134.084    4.855    0.443    0.232
  410.750  132.226    4.850    0.448    0.241
  411.000  130.983    5.052    0.449    0.247
  411.250  129.118    5.047    0.434    0.252
  411.500  129.108    5.040    0.412    0.253
  411.750  126.632    5.241    0.399    0.249
  412.000  125.392    5.235    0.396    0.236
  412.250  122.916    5.226    0.401    0.222
  412.500  121.673    5.221    0.401    0.218
  412.750  121.656    5.211    0.395    0.219
  413.000  121.640    5.206    0.378    0.226
  413.250  121.636    5.201    0.377    0.235
  413.500  122.234    5.191    0.380    0.241
  413.750  123.451    4.978    0.394    0.245
  414.000  124.667    4.973    0.403    0.250
  414.250  125.886    4.966    0.409    0.251
  414.500  128.329    4.751    0.428    0.252
  414.750  132.001    4.536    0.431    0.252
  415.000  133.839    4.320    0.436    0.252
  415.250  138.129    3.897    0.447    0.248
  415.500  138.731    3.684    0.480    0.244
  415.750  136.258    3.261    0.491    0.241
  416.000  136.245    3.045    0.487    0.240
  416.250  138.076    3.038    0.479    0.238
  416.500  141.136    3.031    0.476    0.236
  416.750  143.579    3.025    0.482    0.235
  417.000  142.339    3.224    0.512    0.240
  417.250  139.863    3.217    0.528    0.244
  417.500  138.620    3.212    0.555    0.251
  417.750  136.762    3.204    0.573    0.261
  418.000  135.522    3.196    0.584    0.271
  418.250  134.279    3.191    0.583    0.277
  418.500  133.651    3.185    0.584    0.279
  418.750  133.631    3.177    0.588    0.278
  419.000  133.621    3.172    0.589    0.276
  419.250  133.604    3.164    0.581    0.272
  419.500  133.591    3.159    0.563    0.266
  419.750  134.189    3.360    0.533    0.260
  420.000  134.179    3.560    0.484    0.257
  420.250  134.784    3.761    0.501    0.255
  420.500  135.382    3.964    0.505    0.243
  420.750  136.598    3.957    0.505    0.240
  421.000  136.588    4.365    0.486    0.237
  421.250  137.189    4.358    0.463    0.231
  421.500  136.561    4.561    0.469    0.212
  421.750  132.859    4.549    0.489    0.214
  422.000  127.927    4.544    0.489    0.211
  422.250  127.913    4.539    0.435    0.195
  422.500  132.815    4.534    0.416    0.179
  422.750  135.261    4.527    0.461    0.198
  423.000  135.862    4.103    0.468    0.233
  423.250  136.460    3.886    0.479    0.232
  423.500  136.454    3.673    0.479    0.237
  423.750  137.670    3.457    0.467    0.239
  424.000  139.498    3.246    0.452    0.242
  424.250  141.329    3.239    0.443    0.243
  424.500  141.933    2.816    0.446    0.241
  424.750  143.150    2.601    0.455    0.241
  425.000  140.062    2.383    0.461    0.243
  425.250  136.971    2.586    0.468    0.245
  425.500  134.499    2.586    0.478    0.247
  425.750  132.644    3.609    0.481    0.248
  426.000  133.242    3.187    0.478    0.251
  426.250  133.844    2.975    0.480    0.257
  426.500  135.060    2.759    0.511    0.262
  426.750  135.043    2.544    0.535    0.268
  427.000  135.030    2.329    0.546    0.274
  427.250  134.401    2.324    0.520    0.274
  427.500  133.158    2.314    0.505    0.274
  427.750  130.686    2.309    0.497    0.273
  428.000  131.899    2.301    0.483    0.266
  428.250  134.348    2.296    0.471    0.255
  428.500  134.953    2.291    0.470    0.247
  428.750  133.088    2.282    0.474    0.256
  429.000  132.460    2.275    0.477    0.269
  429.250  133.683    2.062    0.481    0.267
  429.500  136.740    2.056    0.485    0.261
  429.750  139.804    1.836    0.481    0.254
  430.000  143.480    1.831    0.476    0.249
  430.250  150.226    1.827    0.464    0.255
  430.500  147.753    1.821    0.469    0.257
  430.750  144.054    1.814    0.490    0.257
  431.000  137.278    1.805    0.495    0.249
  431.250  131.731    1.800    0.498    0.245
  431.500  126.799    1.794    0.500    0.249
  431.750  121.249    1.579    0.505    0.273
  432.000  118.165    1.571    0.516    0.283
  432.250  114.462    1.357    0.554    0.289
  432.500  105.223    1.555    0.579    0.300
  432.750   92.299    1.550    0.603    0.315
  433.000   80.604    2.166    0.585    0.325
  433.250   70.754    2.785    0.527    0.319
  433.500   59.673   48.345    0.462    0.314
  433.750   52.897   52.293    0.412    0.315
  434.000   52.269   60.609    0.406    0.321
  434.250   53.485   64.553    0.400    0.325
  434.500   54.701   64.338    0.397    0.326
  434.750   57.147   64.122    0.400    0.327
  435.000   58.978   63.285    0.403    0.323
  435.250   60.809   61.614    0.405    0.318
  435.500   62.640   59.944    0.407    0.318
  435.750   65.701   55.983    0.410    0.324
  436.000   69.370   52.647    0.411    0.325
  436.250   71.204   48.479    0.414    0.325
  436.500   73.035   42.647    0.434    0.325
  436.750   75.481   35.983    0.441    0.321
  437.000   77.927   29.109    0.441    0.315
  437.250   79.146   26.397    0.432    0.313
  437.500   82.207   22.854    0.427    0.308
  437.750   85.268   19.934    0.433    0.301
  438.000   88.940   17.431    0.439    0.293
  438.250   92.615   13.679    0.444    0.282
  438.500   96.294    9.926    0.448    0.271
  438.750   98.125    7.422    0.454    0.262
  439.000  101.179    5.750    0.459    0.262
  439.250  105.473    4.496    0.458    0.273
  439.500  112.226    3.033    0.455    0.269
  439.750  120.205    1.984    0.488    0.267
  440.000  125.725    1.562    0.513    0.262
  440.250  127.553    1.347    0.494    0.259
  440.500  127.536    1.340    0.485    0.258
  440.750  127.529    1.749    0.512    0.256
  441.000  126.894    2.159    0.518    0.258
  441.250  126.266    2.984    0.510    0.259
  441.500  125.026    4.018    0.502    0.261
  441.750  120.094    5.051    0.493    0.257
  442.000  110.859    6.087    0.460    0.253
  442.250   92.401    7.952    0.437    0.249
  442.500   82.550   10.026    0.414    0.244
  442.750   73.315   14.181    0.409    0.249
  443.000   71.454   18.543    0.408    0.260
  443.250   72.058   17.704    0.416    0.278
  443.500   74.497   17.489    0.429    0.312
  443.750   75.720   18.731    0.437    0.305
  444.000   78.163   19.555    0.441    0.300
  444.250   79.997   19.964    0.443    0.305
  444.500   82.440   19.335    0.449    0.310
  444.750   84.889   18.704    0.451    0.312
  445.000   89.791   16.617    0.450    0.316
  445.250   95.314   12.865    0.443    0.314
  445.500  102.064    9.737    0.436    0.310
  445.750  106.969    6.400    0.466    0.305
  446.000  113.718    4.521    0.485    0.294
  446.250  118.005    3.888    0.500    0.284
  446.500  120.451    3.675    0.513    0.277
  446.750  121.053    3.461    0.504    0.272
  447.000  118.580    3.244    0.494    0.266
  447.250  115.496    3.237    0.478    0.258
  447.500  107.486    4.481    0.464    0.258
  447.750  101.325    6.138    0.460    0.264
  448.000   89.626   10.085    0.455    0.267
  448.250   85.313   14.865    0.452    0.276
  448.500   79.766   19.642    0.447    0.281
  448.750   73.604   23.173    0.439    0.286
