~VERSION INFORMATION
 VERS.                 2.0:   CWLS LOG ASCII STANDARD -VERSION 2.0
 WRAP.                  NO:   ONE LINE PER DEPTH STEP
~WELL INFORMATION BLOCK
#MNEM.UNIT           DATA                    DESCRIPTION OF MNEMONIC
#---------    -------------------            -------------------------------
# Generated from Intellog Unique Number	CC_88_90/WELL/3155
WELL.         ESSO RESOURCES                 : Well_name    - WELL
LOC .         AA/12-14-089-10W4/0            : Location     - LOCATION
UWI .         AA/12-14-089-10W400            : Uwi          - UNIQUE WELL ID
ENTR.         JOETTE                         : Entered      - ENTERED BY
SRVC.         SCHLUMBERGER                   : Scn          - SERVICE COMPANY
DATE.         03/04/92                       : Date         - LOG DATE
STRT.M        30.000                         : top_depth    - START DEPTH
STOP.M        131.000                        : bot_depth    - STOP DEPTH
STEP.M        0.25                           : increment    - STEP LENGTH
 NULL. -999.2500:NULL Value
~CURVE INFORMATION BLOCK
#MNEM UNIT       ERCB CURVE CODE    CURVE DESCRIPTION
#-----------   ------------------   ----------------------------------
DEPT.M        00 001 00 00         : DEPTH        - DEPTH
GR  .API      00 310 00 00         : GR           - GAMMA RAY
CALI.MM       00 280 01 00         : CAL          - CALIPER
NPHI.V/V      00 330 00 00         : PHIN         - NEUTRON POROSITY (SANDSTONE)
DPHI.V/V      00 890 00 00         : PHID         - DENSITY POROSITY (SANDSTONE)
ILD .OHMM     00 120 00 00         : RESD         - DEEP RESISTIVITY (DIL)
~PARAMETER INFORMATION
#MNEM.UNIT           DATA             DESCRIPTION OF MNEMONIC
#---------         -----------     ------------------------------
GL  .M        367.97               : gl           - GROUND LEVEL ELEVATION
EREF.M        367.97               : kb           - ELEVATION OF DEPTH REFERENCE
DATM.M        367.97               : datum        - DATUM ELEVATION
TDD .M        189.7                : tdd          - TOTAL DEPTH DRILLER
RUN .         ONE                  : Run          - RUN NUMBER
ENG .         BILL                 : Engineer     - RECORDING ENGINEER
WIT .         JIM                  : Witness      - WITNESSED BY
MUD .         GEL                  : Mud_type     - MUD TYPE
MATR.         SANDSTONE            : Logunit      - NEUTRON MATRIX
TMAX.C        20                   : BHT          - MAXIMUM RECORDED TEMPERATURE
BHTD.M        189.7                : BHTDEP       - MAXIMUM RECORDED TEMPERATURE
RMT .C        11                   : MDTP         - TEMPERATURE OF MUD
MUDD.KG/M     1                    : MWT          - MUD DENSITY
NEUT.         1                    : NEUTRON      - NEUTRON TYPE
RESI.         0                    : RESIST       - RESISTIVITY TYPE
RM  .OHMM     30.7                 : RM           - RESISTIVITY OF MUD
RMC .OHMM     30.7                 : RMC          - RESISTIVITY OF MUD CAKE
RMF .OHMM     30.7                 : RMF          - RESISTIVITY OF MUD FILTRATE
SUFT.C        4                    : SUFT         - SURFACE TEMPERATURE
~A  DEPTH       GR      CAL     PHIN     PHID     RESD
   30.000   85.425  246.205    0.429    0.240  100.117
   30.250   84.199  250.522    0.479    0.271   55.416
   30.500   87.275  254.793    0.466    0.310   16.965
   30.750   96.496  260.155    0.490    0.310   17.712
   31.000  112.478  265.494    0.489    0.298   18.491
   31.250  106.336  270.832    0.506    0.288   12.916
   31.500  105.725  274.035    0.543    0.284    7.779
   31.750  119.863  279.421    0.592    0.281    6.858
   32.000  127.241  282.671    0.582    0.284    6.173
   32.250  113.723  283.785    0.557    0.283    5.329
   32.500  111.268  284.947    0.568    0.282    7.480
   32.750  124.792  285.064    0.597    0.289    6.734
   33.000  121.108  285.181    0.579    0.301    3.888
   33.250  110.048  284.254    0.563    0.296    3.149
   33.500  109.437  281.262    0.531    0.280    4.063
   33.750  105.138  277.179    0.526    0.270    4.241
   34.000  102.683  272.075    0.600    0.288    6.344
   34.250  103.916  268.015    0.584    0.287    8.357
   34.500  112.523  265.997    0.546    0.292    4.826
   34.750  105.765  266.091    0.509    0.289   10.125
   35.000   93.477  266.208    0.518    0.278    9.712
   35.250  100.855  268.437    0.555    0.273   15.157
   35.500   95.942  270.620    0.517    0.272   11.045
   35.750  108.237  270.760    0.502    0.271   16.520
   36.000  115.614  270.831    0.519    0.274   11.539
   36.250  119.920  266.794    0.501    0.272    7.893
   36.500  127.297  263.755    0.523    0.258    8.778
   36.750  112.551  258.675    0.528    0.235    8.785
   37.000  104.565  258.745    0.476    0.215    8.078
   37.250  107.641  258.862    0.459    0.228    8.435
   37.500  118.706  264.248    0.500    0.273    8.994
   37.750  121.168  270.584    0.589    0.311    8.447
   38.000  121.171  280.099    0.576    0.321    7.768
   38.250  109.497  288.571    0.626    0.327    6.702
   38.500   90.449  296.045    0.611    0.322   15.965
   38.750   89.838  298.204    0.606    0.323   25.447
   39.000   93.528  300.409    0.659    0.314   15.654
   39.250   94.760  300.527    0.641    0.302    7.164
   39.500  108.899  300.644    0.638    0.308    6.314
   39.750  120.578  300.784    0.637    0.325    3.211
   40.000  126.727  299.811    0.640    0.310    2.493
   40.250  125.501  298.884    0.605    0.288    1.705
   40.500  106.453  297.933    0.607    0.276    0.944
   40.750   84.331  295.962    0.564    0.281    0.606
   41.000   97.856  291.902    0.566    0.279    0.244
   41.250   89.255  287.819    0.560    0.284    0.350
   41.500   91.102  285.848    0.553    0.278    0.343
   41.750   99.094  281.788    0.587    0.262    0.558
   42.000   99.712  271.462    0.543    0.262    0.225
   42.250  102.173  265.291    0.523    0.265    0.211
   42.500   96.030  258.121    0.523    0.266    1.645
   42.750  102.794  257.171    0.518    0.270    3.679
   43.000  124.307  263.530    0.518    0.263    2.980
   43.250  135.987  277.223    0.482    0.267    1.954
   43.500  129.230  275.252    0.471    0.257    2.520
   43.750  116.941  260.749    0.494    0.240    3.319
   44.000  102.195  245.179    0.534    0.220    2.746
   44.250  112.646  235.898    0.413    0.159    2.001
   44.500  114.493  229.750    0.407    0.188    2.474
   44.750  118.183  224.646    0.509    0.185    3.400
   45.000  121.874  222.651    0.388   -0.004    4.480
   45.250  118.189  225.925    0.315    0.159    7.141
   45.500  115.734  230.195    0.484    0.197    5.545
   45.750  118.196  236.555    0.488    0.220    4.888
   46.000  120.043  273.245    0.501    0.322    4.590
   46.250  108.984  285.916    0.521    0.359    6.865
   46.500  100.998  280.812    0.508    0.308    9.238
   46.750  102.229  278.794    0.510    0.305    8.144
   47.000  113.295  275.779    0.516    0.284   16.726
   47.250  102.850  276.964    0.543    0.271   14.744
   47.500  101.625  279.193    0.553    0.264    7.990
   47.750  104.701  280.331    0.438    0.251   15.736
   48.000  110.849  280.401    0.490    0.224   58.439
   48.250  112.082  281.586    0.522    0.238   12.755
   48.500  105.325  281.680    0.509    0.232    8.539
   48.750  109.630  282.865    0.459    0.251    5.037
   49.000  109.633  282.982    0.481    0.246    6.226
   49.250  107.792  283.099    0.520    0.263    4.938
   49.500  108.410  283.170    0.522    0.239    4.445
   49.750   99.809  280.154    0.435    0.206    6.111
   50.000   99.812  274.029    0.455    0.234    4.846
   50.250   97.972  280.365    0.479    0.238    3.843
   50.500   83.225  285.727    0.500    0.266    2.628
   50.750   88.145  285.821    0.552    0.310    4.101
   51.000   94.909  280.740    0.518    0.283    4.466
   51.250   89.380  273.524    0.487    0.252    4.968
   51.500   91.842  258.999    0.489    0.188    9.782
   51.750  101.678  258.072    0.510    0.225    8.995
   52.000  102.296  258.189    0.589    0.242    7.929
   52.250   93.081  258.283    0.633    0.299    6.843
   52.500  105.375  259.444    0.585    0.312    5.783
   52.750  120.742  265.827    0.548    0.333    5.787
   53.000  120.131  274.298    0.554    0.289    5.321
   53.250  117.061  273.395    0.526    0.268    4.402
   53.500  120.137  271.376    0.535    0.249    9.237
   53.750  109.079  264.207    0.484    0.236    6.055
   54.000   99.249  255.947    0.456    0.213    5.570
   54.250   94.949  250.843    0.485    0.237    5.937
   54.500   98.640  248.848    0.494    0.257    6.331
   54.750   99.258  256.275    0.553    0.311    5.128
   55.000  100.490  264.747    0.552    0.424    5.024
   55.250   98.650  267.997    0.567    0.392    7.203
   55.500   91.892  260.804    0.568    0.452    5.361
   55.750   96.197  252.544    0.431    0.264    4.162
   56.000  108.492  239.086    0.405    0.159    1.865
   56.250   94.975  233.958    0.522    0.226    0.720
   56.500   95.593  231.987    0.600    0.444    0.784
   56.750  102.356  226.883    0.687    0.412    0.970
   57.000   92.526  195.649    0.667    0.393    0.971
   57.250  101.747  188.480    0.529    0.344    0.786
   57.500  100.522  185.441    0.575    0.142    1.913
   57.750   89.463  183.446    0.550    0.184    2.574
   58.000   88.852  179.433    0.680    0.218    3.933
   58.250   94.386  177.415    0.611    0.269    6.969
   58.500   98.691  175.420    0.568    0.154    6.407
   58.750   95.621  173.449    0.491    0.112    5.769
   59.000   88.864  171.501    0.512    0.112    6.152
   59.250   91.325  171.618    0.568    0.152    7.139
   59.500  118.369  171.689    0.547    0.119    7.611
   59.750  104.852  171.829    0.482    0.036    8.289
   60.000   93.178  170.926    0.493    0.118    5.100
   60.250   90.723  170.996    0.564    0.104    5.918
   60.500   89.498  171.090    0.604    0.144    7.796
   60.750  112.239  171.207    0.586    0.098   28.960
   61.000  123.919  171.325    0.561    0.089    6.877
   61.250  113.475  171.465    0.596    0.107    2.657
   61.500  114.708  171.582    0.635    0.075    0.431
   61.750  114.710  171.676    0.625    0.065    0.568
   62.000  104.266  171.794    0.642    0.086    0.450
   62.250   98.738  171.887    0.581    0.111    0.357
   62.500   97.512  172.051    0.604    0.117    0.006
   62.750  109.806  172.098    0.633    0.136    0.006
   63.000  120.258  172.239    0.596    0.162    0.006
   63.250  110.427  172.333    0.618    0.215    0.006
   63.500  107.357  172.450    0.659    0.233    0.006
   63.750  109.819  172.567    0.608    0.140    0.006
   64.000  108.593  172.661    0.580    0.136    0.005
   64.250  108.597  172.778    0.611    0.130    0.005
   64.500  116.589  172.919    0.610    0.141    0.005
   64.750  112.290  173.013    0.563   -0.010    0.005
   65.000   93.241  173.130    0.440   -0.032    0.005
   65.250   87.099  174.268    0.404    0.095    0.005
   65.500   82.800  174.385    0.412    0.130    0.006
   65.750   80.960  174.526    0.398    0.134    0.006
   66.000   72.974  175.688    0.396    0.140    0.007
   66.250   64.987  177.893    0.428    0.132    0.007
