~VERSION INFORMATION
 VERS.                 2.0:   CWLS LOG ASCII STANDARD -VERSION 2.0
 WRAP.                  NO:   ONE LINE PER DEPTH STEP
~WELL INFORMATION BLOCK
#MNEM.UNIT           DATA                    DESCRIPTION OF MNEMONIC
#---------    -------------------            -------------------------------
# Generated from Intellog Unique Number	CN_94_101/WELL/1073
WELL.         11-14-096-14W4                 : Well_name    - WELL
LOC .         AA/11-14-096-14W4/0            : Location     - LOCATION
UWI .         AA/11-14-096-14W400            : Uwi          - UNIQUE WELL ID
ENTR.         JOETTE                         : Entered      - ENTERED BY
SRVC.         SCHLUMBERGER                   : Scn          - SERVICE COMPANY
DATE.         05/03/92                       : Date         - LOG DATE
STRT.M        60.5                           : top_depth    - START DEPTH
STOP.M        295                            : bot_depth    - STOP DEPTH
STEP.M        0.25                           : increment    - STEP LENGTH
 NULL. -999.2500:NULL Value
~CURVE INFORMATION BLOCK
#MNEM UNIT       ERCB CURVE CODE    CURVE DESCRIPTION
#-----------   ------------------   ----------------------------------
DEPT.M        00 001 00 00         : DEPTH        - DEPTH
ILD .OHMM     00 120 00 00         : RESD         - DEEP RESISTIVITY (DIL)
DPHI.V/V      00 890 00 00         : PHID         - DENSITY POROSITY (SANDSTONE)
NPHI.V/V      00 330 00 00         : PHIN         - NEUTRON POROSITY (SANDSTONE)
GR  .API      00 310 00 00         : GR           - GAMMA RAY
CALI.MM       00 280 01 00         : CAL          - CALIPER
~PARAMETER INFORMATION
#MNEM.UNIT           DATA             DESCRIPTION OF MNEMONIC
#---------         -----------     ------------------------------
GL  .M        530.78               : gl           - GROUND LEVEL ELEVATION
EREF.M        533.78               : kb           - ELEVATION OF DEPTH REFERENCE
DATM.M        533.78               : datum        - DATUM ELEVATION
TDD .M        296                  : tdd          - TOTAL DEPTH DRILLER
RUN .         ONE                  : Run          - RUN NUMBER
ENG .         BILL                 : Engineer     - RECORDING ENGINEER
WIT .         JIM                  : Witness      - WITNESSED BY
MUD .         GEL                  : Mud_type     - MUD TYPE
MATR.         SANDSTONE            : Logunit      - NEUTRON MATRIX
TMAX.C        25                   : BHT          - MAXIMUM RECORDED TEMPERATURE
BHTD.M        296                  : BHTDEP       - MAXIMUM RECORDED TEMPERATURE
RMT .C        10                   : MDTP         - TEMPERATURE OF MUD
MUDD.KG/M     1115                 : MWT          - MUD DENSITY
NEUT.         1                    : NEUTRON      - NEUTRON TYPE
RESI.         0                    : RESIST       - RESISTIVITY TYPE
RM  .OHMM     0.62                 : RM           - RESISTIVITY OF MUD
RMC .OHMM     0.62                 : RMC          - RESISTIVITY OF MUD CAKE
RMF .OHMM     0.62                 : RMF          - RESISTIVITY OF MUD FILTRATE
SUFT.C        4                    : SUFT         - SURFACE TEMPERATURE
~A  DEPTH     RESD     PHID     PHIN       GR      CAL
   60.500   54.707    0.370    0.422   20.943  162.901
   60.750   54.744    0.373    0.419   22.179  163.952
   61.000   54.781    0.365    0.408   23.405  163.016
   61.250   54.827    0.360    0.405   24.036  163.073
   61.500   54.864    0.366    0.405   24.667  164.124
   61.750   54.901    0.377    0.418   25.297  168.156
   62.000   54.938    0.372    0.441   26.533  171.180
   62.250   54.984    0.368    0.460   27.742  172.245
   62.500   55.002    0.382    0.456   27.777  169.322
   62.750   55.039    0.386    0.443   26.023  164.411
   63.000   55.086    0.383    0.439   25.461  164.440
   63.250   55.113    0.388    0.423   25.495  167.492
   63.500   55.169    0.379    0.413   25.530  170.530
   63.750   55.197    0.378    0.417   25.564  168.601
   64.000   55.234    0.380    0.408   25.607  166.685
   64.250   55.262    0.389    0.420   25.624  167.707
   64.500   55.308    0.384    0.432   26.255  169.766
   64.750   55.346    0.373    0.441   26.886  170.817
   65.000   55.373    0.375    0.439   28.717  171.868
   65.250   55.429    0.374    0.433   28.752  169.953
   65.500   54.431    0.365    0.432   28.777  168.009
   65.750   54.486    0.365    0.433   27.023  168.052
   66.000   53.513    0.379    0.441   28.250  169.117
   66.250   52.575    0.387    0.445   30.073  172.155
   66.500   52.593    0.378    0.441   32.501  176.187
   66.750   50.723    0.380    0.441   33.140  179.225
   67.000   49.834    0.379    0.447   31.965  182.263
   67.250   48.936    0.379    0.443   30.211  180.334
   67.500   48.078    0.383    0.431   29.061  176.417
   67.750   47.228    0.380    0.427   28.500  174.472
   68.000   47.252    0.379    0.444   28.517  172.543
   68.250   46.416    0.386    0.433   28.560  171.621
   68.500   45.603    0.382    0.436   28.594  171.649
   68.750   44.796    0.378    0.438   28.629  171.707
   69.000   43.196    0.382    0.443   28.655  173.766
   69.250   42.439    0.388    0.446   30.486  177.798
   69.500   41.681    0.382    0.459   32.309  177.855
   69.750   40.951    0.373    0.456   34.132  177.912
   70.000   40.213    0.380    0.440   34.158  174.989
   70.250   38.777    0.376    0.426   34.192  174.053
   70.500   37.386    0.361    0.426   34.831  173.116
   70.750   34.745    0.342    0.428   35.462  173.174
   71.000   31.112    0.343    0.430   36.084  173.217
   71.250   28.375    0.353    0.430   38.503  173.288
   71.500   24.942    0.367    0.443   42.123  173.346
   71.750   20.358    0.373    0.428   45.735  174.397
   72.000   17.895    0.360    0.406   49.337  175.448
   72.250   15.730    0.357    0.405   55.938  176.513
   72.500   12.372    0.353    0.420   61.330  177.535
   72.750    9.037    0.345    0.443   67.326  182.604
   73.000    6.848    0.325    0.460   79.292  184.620
   73.250    5.590    0.302    0.521   88.278  189.645
   73.500    5.699    0.277    0.544   91.285  194.671
   73.750    5.809    0.278    0.564   93.108  199.696
   74.000    6.146    0.265    0.558   93.150  203.728
   74.250    6.264    0.253    0.549   91.993  207.760
   74.500    6.269    0.279    0.546   90.843  211.792
   74.750    6.158    0.303    0.544   90.282  213.822
   75.000    6.049    0.288    0.535   90.307  216.860
   75.250    5.942    0.280    0.550   89.728  218.919
   75.500    5.837    0.268    0.546   89.763  219.956
   75.750    5.840    0.272    0.542   89.806  222.015
   76.000    5.737    0.289    0.542   89.244  223.052
   76.250    5.432    0.295    0.547   89.270  224.117
   76.500    5.237    0.279    0.549   88.121  225.139
   76.750    4.957    0.271    0.555   88.164  226.205
   77.000    4.607    0.287    0.562   88.181  227.241
   77.250    4.441    0.299    0.574   90.013  228.307
   77.500    4.284    0.301    0.578   91.835  228.350
   77.750    4.286    0.282    0.581   92.457  228.407
   78.000    4.369    0.267    0.591   90.703  228.464
   78.250    4.455    0.269    0.582   88.362  227.542
   78.500    4.456    0.280    0.571   87.212  226.606
   78.750    4.459    0.291    0.570   87.238  225.670
   79.000    4.462    0.295    0.572   87.273  225.713
   79.250    4.383    0.296    0.568   87.886  225.770
   79.500    4.389    0.297    0.504   89.121  224.848
   79.750    4.389    0.297    0.510   89.164  224.892
   80.000    4.393    0.303    0.530   89.182  223.970
   80.250    4.562    0.286    0.528   87.428  224.027
   80.500    4.564    0.291    0.534   85.086  224.070
   80.750    4.740    0.264    0.533   82.736  223.148
   81.000    4.922    0.248    0.507   80.385  223.177
   81.250    5.017    0.261    0.494   80.411  222.255
   81.500    5.020    0.280    0.513   80.446  221.319
   81.750    5.025    0.299    0.537   82.269  221.376
   82.000    4.934    0.303    0.553   83.504  220.440
   82.250    4.847    0.277    0.574   83.538  218.524
   82.500    4.675    0.284    0.575   83.564  217.574
   82.750    4.508    0.290    0.558   84.203  213.671
   83.000    4.346    0.292    0.525   84.825  212.706
   83.250    4.115    0.293    0.525   85.465  209.783
   83.500    4.041    0.289    0.524   86.683  207.853
   83.750    3.898    0.301    0.543   86.112  205.937
   84.000    3.899    0.306    0.565   83.762  205.980
   84.250    4.049    0.311    0.584   84.989  206.023
   84.500    4.363    0.334    0.577   86.216  208.082
   84.750    4.880    0.292    0.565   84.462  208.125
   85.000    5.162    0.262    0.527   79.139  208.183
   85.250    5.563    0.238    0.497   76.184  200.291
   85.500    5.569    0.193    0.454   73.238  195.381
   85.750    5.571    0.197    0.424   73.272  191.463
   86.000    5.471    0.258    0.456   74.499  190.556
   86.250    5.376    0.274    0.482   77.523  189.591
   86.500    5.380    0.270    0.495   75.769  191.664
   86.750    5.382    0.260    0.545   74.015  191.693
   87.000    5.486    0.263    0.486   74.032  193.766
   87.250    5.804    0.285    0.500   77.652  193.795
   87.500    6.028    0.284    0.519   79.466  193.852
   87.750    6.259    0.288    0.512   76.528  192.945
   88.000    6.379    0.285    0.495   78.351  191.994
   88.250    6.505    0.309    0.487   81.963  192.023
   88.500    6.272    0.329    0.478   80.200  191.115
   88.750    5.721    0.302    0.489   77.850  191.173
   89.000    5.218    0.307    0.511   80.865  191.216
   89.250    4.673    0.338    0.544   84.477  191.259
   89.500    4.341    0.342    0.557   86.904  193.318
   89.750    3.888    0.338    0.533   85.142  194.354
   90.000    3.613    0.286    0.512   78.022  200.402
   90.250    3.420    0.280    0.554   72.691  198.444
   90.500    3.297    0.240    0.526   72.743  187.571
   90.750    3.179    0.295    0.511   73.952  189.616
   91.000    3.124    0.326    0.523   73.408  193.662
   91.250    3.304    0.351    0.548   72.829  194.699
   91.500    3.695    0.346    0.561   71.075  190.796
   91.750    4.368    0.310    0.580   68.128  185.885
   92.000    5.069    0.260    0.550   65.182  182.933
   92.250    6.219    0.243    0.502   64.015  178.037
   92.500    6.826    0.284    0.478   61.665  176.093
   92.750    7.090    0.327    0.482   62.296  174.163
   93.000    7.093    0.323    0.491   63.531  173.226
   93.250    7.503    0.330    0.483   60.584  172.305
   93.500    8.870    0.342    0.464   57.638  172.348
   93.750   10.486    0.353    0.448   56.472  170.418
   94.000   12.396    0.359    0.461   52.938  168.502
   94.250   14.122    0.338    0.466   51.166  168.545
   94.500   16.090    0.339    0.450   48.816  167.638
   94.750   17.660    0.333    0.434   48.272  167.681
   95.000   19.749    0.341    0.437   48.894  167.738
   95.250   20.515    0.360    0.442   51.304  168.775
   95.500   20.522    0.358    0.439   59.685  168.832
   95.750   20.539    0.338    0.435   60.920  168.875
   96.000   20.549    0.321    0.433   57.974  168.933
   96.250   20.189    0.310    0.427   55.615  169.004
   96.500   19.832    0.331    0.418   58.043  169.076
   96.750   19.846    0.340    0.422   59.866  169.105
