~VERSION INFORMATION
 VERS.                 2.0:   CWLS LOG ASCII STANDARD -VERSION 2.0
 WRAP.                  NO:   ONE LINE PER DEPTH STEP
~WELL INFORMATION BLOCK
#MNEM.UNIT           DATA                    DESCRIPTION OF MNEMONIC
#---------    -------------------            -------------------------------
# Generated from Intellog Unique Number	CS_77_79/WELL/933
WELL.         LEISMER OV                     : Well_name    - WELL
LOC .         AA/10-08-079-08W4/0            : Location     - LOCATION
UWI .         AA/10-08-079-08W4/0            : Uwi          - UNIQUE WELL ID
ENTR.         JHS                            : Entered      - ENTERED BY
SRVC.         SCHLUMBERGER                   : Scn          - SERVICE COMPANY
STRT.M        145                            : top_depth    - START DEPTH
STOP.M        400                            : bot_depth    - STOP DEPTH
STEP.M        0.25                           : increment    - STEP LENGTH
 NULL. -999.2500:NULL Value
~CURVE INFORMATION BLOCK
#MNEM UNIT       ERCB CURVE CODE    CURVE DESCRIPTION
#-----------   ------------------   ----------------------------------
DEPT.M        00 001 00 00         : DEPTH        - DEPTH
DPHI.V/V      00 890 00 00         : PHID         - DENSITY POROSITY (LIMESTONE)
NPHI.V/V      00 330 00 00         : PHIN         - NEUTRON POROSITY (LIMESTONE)
GR  .API      00 310 00 00         : GR           - GAMMA RAY
ILD .OHMM     00 120 00 00         : RESD         - DEEP RESISTIVITY (DIL)
RHOB.KG/M3    00 350 00 00         : DENS         - BULK DENSITY
~PARAMETER INFORMATION
#MNEM.UNIT           DATA             DESCRIPTION OF MNEMONIC
#---------         -----------     ------------------------------
GL  .M        611.36               : gl           - GROUND LEVEL ELEVATION
EREF.M        614.94               : kb           - ELEVATION OF DEPTH REFERENCE
DATM.M        614.94               : datum        - DATUM ELEVATION
TDD .M        407                  : tdd          - TOTAL DEPTH DRILLER
RUN .         ONE                  : Run          - RUN NUMBER
ENG .         BILL                 : Engineer     - RECORDING ENGINEER
WIT .         JIM                  : Witness      - WITNESSED BY
MUD .         GEL                  : Mud_type     - MUD TYPE
MATR.         LIMESTONE            : Logunit      - NEUTRON MATRIX
TMAX.C        17                   : BHT          - MAXIMUM RECORDED TEMPERATURE
BHTD.M        407                  : BHTDEP       - MAXIMUM RECORDED TEMPERATURE
MATR.         1                    : LOGUNIT      - NEUTRON MATRIX
RMT .C        25                   : MDTP         - TEMPERATURE OF MUD
NEUT.         1                    : NEUTRON      - NEUTRON TYPE
RESI.         0                    : RESIST       - RESISTIVITY TYPE
RMC .OHMM     0.25                 : RMC          - RESISTIVITY OF MUD CAKE
RMF .OHMM     0.25                 : RMF          - RESISTIVITY OF MUD FILTRATE
SUFT.C        15                   : SUFT         - SURFACE TEMPERATURE
~A  DEPTH     PHID     PHIN       GR     RESD     DENS
# ...
  364.000    0.188    0.321  115.692    7.518 2389.290
  364.250    0.200    0.321  120.003    6.977 2368.380
  364.500    0.216    0.326  116.938    6.980 2341.190
  364.750    0.228    0.328  110.798    6.982 2320.280
  365.000    0.233    0.330  108.962    7.116 2311.940
  365.250    0.234    0.332  105.894    7.391 2309.870
  365.500    0.236    0.339  110.821    7.533 2305.720
  365.750    0.245    0.340  114.517    7.678 2291.100
  366.000    0.252    0.339  117.598    7.682 2278.560
  366.250    0.257    0.344  116.993    7.683 2270.210
  366.500    0.262    0.350  113.925    8.132 2261.880
  366.750    0.263    0.345  110.245    8.936 2259.810
  367.000    0.262    0.337  108.408    9.817 2261.950
  367.250    0.262    0.337  113.334   10.586 2261.970
  367.500    0.262    0.337  120.718   11.202 2261.990
  367.750    0.267    0.333  128.717   12.079 2253.650
  368.000    0.279    0.334  134.874   14.309 2232.740
  368.250    0.294    0.340  137.339   16.947 2207.650
  368.500    0.305    0.344  126.281   20.072 2188.830
  368.750    0.313    0.345   93.092   26.114 2174.210
  369.000    0.321    0.345   66.050   33.973 2161.680
  369.250    0.321    0.341   53.763   45.038 2161.710
  369.500    0.311    0.334   50.697   50.423 2178.490
  369.750    0.294    0.328   53.163   53.361 2207.840
  370.000    0.274    0.325   58.092   53.378 2241.380
  370.250    0.254    0.324   58.714   57.559 2274.900
  370.500    0.237    0.327   55.031   63.248 2304.250
  370.750    0.226    0.332   50.735   63.267 2323.130
  371.000    0.241    0.333   51.359   57.617 2298.030
  371.250    0.275    0.329   61.818   38.858 2239.430
  371.500    0.268    0.323   72.891   23.417 2252.030
  371.750    0.254    0.342   88.266   14.111 2275.090
  372.000    0.237    0.362  101.798   10.068 2304.440
  372.250    0.224    0.364  116.560    8.193 2327.510
  372.500    0.215    0.369  127.018    6.667 2342.190
  372.750    0.207    0.377  133.788    6.072 2356.880
  373.000    0.197    0.373  139.331    5.850 2373.660
  373.250    0.187    0.358  137.493    5.962 2390.440
  373.500    0.180    0.350  134.426    6.077 2403.040
  373.750    0.170    0.344  133.820    6.432 2419.820
  374.000    0.159    0.339  137.516    6.555 2438.700
  374.250    0.154    0.340  144.286    6.557 2447.110
  374.500    0.154    0.346  150.441    6.201 2447.130
  374.750    0.159    0.343  153.521    6.203 2438.800
  375.000    0.162    0.336  149.841    6.323 2432.550
  375.250    0.166    0.328  127.104    6.444 2426.290
  375.500    0.176    0.321  119.119    6.949 2409.570
  375.750    0.189    0.323  110.520    7.354 2386.570
  376.000    0.195    0.334  109.299    7.783 2376.140
  376.250    0.188    0.343  114.226    8.083 2388.730
  376.500    0.183    0.347  114.846    8.394 2397.140
  376.750    0.184    0.342  109.936    8.397 2395.070
  377.000    0.195    0.331  101.952    8.400 2376.260
  377.250    0.193    0.324  103.189    8.562 2380.480
  377.500    0.193    0.319  109.344    8.407 2380.510
  377.750    0.204    0.320  114.885    8.409 2361.700
  378.000    0.209    0.325  117.968    8.411 2353.350
  378.250    0.211    0.329  116.745    8.259 2349.190
  378.500    0.216    0.331  114.907    8.106 2340.850
  378.750    0.209    0.335  116.146    8.109 2353.460
  379.000    0.206    0.331  113.694    7.962 2357.680
  379.250    0.202    0.335  108.782    7.964 2363.980
  379.500    0.194    0.346  108.792    7.967 2378.670
  379.750    0.188    0.350  111.259    7.969 2389.170
  380.000    0.184    0.335  112.496    7.972 2395.480
  380.250    0.189    0.322  111.272    7.975 2387.140
  380.500    0.192    0.317  106.364    7.828 2380.880
  380.750    0.197    0.319  103.912    7.979 2372.540
  381.000    0.202    0.332  106.377    7.982 2364.190
  381.250    0.202    0.336  110.075    7.985 2364.230
  381.500    0.199    0.332  108.241    8.140 2370.540
  381.750    0.192    0.327  107.016    8.296 2381.040
  382.000    0.186    0.322  110.714    8.298 2391.540
  382.250    0.187    0.322  110.722    8.458 2389.480
  382.500    0.202    0.322  110.112    8.622 2364.390
  382.750    0.208    0.320  108.893    8.625 2353.940
  383.000    0.212    0.316  110.744    8.791 2347.690
  383.250    0.213    0.318  111.979    8.960 2345.640
  383.500    0.212    0.326  110.759    9.133 2347.760
  383.750    0.197    0.328  107.694    9.136 2372.920
  384.000    0.179    0.329  107.084    8.969 2404.360
  384.250    0.166    0.326  114.469    8.642 2425.330
  384.500    0.158    0.311  121.854    8.483 2440.010
  384.750    0.153    0.301  122.478    7.873 2448.430
  385.000    0.163    0.306  121.255    7.728 2431.700
  385.250    0.176    0.316  124.335    7.308 2408.710
  385.500    0.177    0.321  127.417    7.174 2406.650
  385.750    0.182    0.321  128.040    6.912 2398.300
  386.000    0.188    0.323  125.589    6.786 2387.860
  386.250    0.197    0.329  120.680    6.788 2373.230
  386.500    0.208    0.341  119.456    6.918 2354.420
  386.750    0.216    0.340  112.087    7.461 2339.790
  387.000    0.230    0.332  103.487    8.197 2316.790
  387.250    0.243    0.318   93.044    9.529 2293.790
  387.500    0.258    0.308   83.218   11.076 2268.690
  387.750    0.273    0.300   80.150   13.368 2243.600
  388.000    0.278    0.305   79.544   16.133 2235.260
  388.250    0.284    0.316   75.863   18.404 2224.820
  388.500    0.284    0.314   76.484   20.223 2224.840
  388.750    0.258    0.309   82.026   20.229 2268.850
  389.000    0.248    0.308   85.721   19.490 2285.630
  389.250    0.244    0.309   89.418   18.779 2291.940
  389.500    0.246    0.314   88.198   17.756 2289.880
  389.750    0.259    0.318   85.131   17.108 2266.880
  390.000    0.276    0.319   80.835   17.436 2237.600
  390.250    0.284    0.311   75.924   20.653 2225.060
  390.500    0.292    0.303   71.013   25.399 2210.440
  390.750    0.290    0.301   72.251   27.905 2214.660
  391.000    0.287    0.308   74.104   28.445 2218.870
  391.250    0.291    0.320   71.651   26.396 2212.620
  391.500    0.293    0.317   72.889   23.593 2208.480
  391.750    0.293    0.306   73.512   21.484 2208.500
  392.000    0.292    0.296   74.749   16.839 2210.620
  392.250    0.297    0.288   76.601   13.961 2202.280
  392.500    0.297    0.275   75.379   11.149 2202.320
  392.750    0.291    0.261   80.919    8.575 2212.810
  393.000    0.239    0.241   84.000    6.848 2300.780
  393.250    0.203    0.225   82.778    6.599    0.000
  393.500    0.149    0.209   71.719    6.725    0.000
  393.750    0.094    0.180   45.293    8.116    0.000
  394.000    0.057    0.152   36.080   11.171    0.000
  394.250    0.038    0.131   28.095   15.964    0.000
  394.500    0.022    0.117   25.029   25.531    0.000
  394.750    0.011    0.111   25.037   37.176    0.000
  395.000    0.009    0.108   24.430   47.466    0.000
  395.250    0.010    0.111   28.127   52.158    0.000
  395.500    0.014    0.115   30.593   53.162    0.000
  395.750    0.021    0.126   36.748   50.272    0.000
  396.000    0.021    0.131   40.444   49.345    0.000
  396.250    0.020    0.139   42.298   44.106    0.000
  396.500    0.016    0.147   43.534   38.689    0.000
  396.750    0.016    0.155   46.615   35.233    0.000
  397.000    0.022    0.168   49.696   30.903    0.000
  397.250    0.030    0.179   52.778   26.109    0.000
  397.500    0.036    0.186   54.630   23.335    0.000
  397.750    0.033    0.194   60.785   20.089    0.000
  398.000    0.020    0.196   66.326   18.995    0.000
  398.250    0.005    0.175   69.407   18.648    0.000
  398.500    0.000    0.152   63.266   19.007    0.000
  398.750    0.000    0.140   47.291   20.884    0.000
  399.000    0.000    0.134   41.151   26.168    0.000
  399.250    0.000    0.124   39.314   32.792    0.000
  399.500    0.000    0.116   39.938   36.032    0.000
  399.750    0.000    0.116   42.404   37.419    0.000
  400.000    0.005    0.129   47.330   38.140    0.000
