~VERSION INFORMATION
 VERS.                 2.0:   CWLS LOG ASCII STANDARD -VERSION 2.0
 WRAP.                  NO:   ONE LINE PER DEPTH STEP
~WELL INFORMATION BLOCK
#MNEM.UNIT           DATA                    DESCRIPTION OF MNEMONIC
#---------    -------------------            -------------------------------
# Generated from Intellog Unique Number	CX_WELLS/WELL/3107
WELL.         OIL BUTTES GRANDA              : Well_name    - WELL
LOC .         AA/11-17-082-18W4/0            : Location     - LOCATION
UWI .         AA/11-17-082-18W400            : Uwi          - UNIQUE WELL ID
ENTR.         TIM                            : Entered      - ENTERED BY
SRVC.         SCHLUMBERGER                   : Scn          - SERVICE COMPANY
STRT.M        190                            : top_depth    - START DEPTH
STOP.M        337                            : bot_depth    - STOP DEPTH
STEP.M        0.25                           : increment    - STEP LENGTH
 NULL. -999.2500:NULL Value
~CURVE INFORMATION BLOCK
#MNEM UNIT       ERCB CURVE CODE    CURVE DESCRIPTION
#-----------   ------------------   ----------------------------------
DEPT.M        00 001 00 00         : DEPTH        - DEPTH
GR  .API      00 310 00 00         : GR           - GAMMA RAY
NPHI.V/V      00 330 00 00         : PHIN         - NEUTRON POROSITY (SANDSTONE)
DPHI.V/V      00 890 00 00         : PHID         - DENSITY POROSITY (SANDSTONE)
ILD .OHMM     00 120 00 00         : RESD         - DEEP RESISTIVITY (OTHER)
~PARAMETER INFORMATION
#MNEM.UNIT           DATA             DESCRIPTION OF MNEMONIC
#---------         -----------     ------------------------------
GL  .M        572                  : gl           - GROUND LEVEL ELEVATION
EREF.M        575.7                : kb           - ELEVATION OF DEPTH REFERENCE
DATM.M        575.7                : datum        - DATUM ELEVATION
TDD .M        339                  : tdd          - TOTAL DEPTH DRILLER
RUN .         ONE                  : Run          - RUN NUMBER
ENG .         BILL                 : Engineer     - RECORDING ENGINEER
WIT .         JIM                  : Witness      - WITNESSED BY
MUD .         GEL                  : Mud_type     - MUD TYPE
MATR.         SANDSTONE            : Logunit      - NEUTRON MATRIX
TMAX.C        22                   : BHT          - MAXIMUM RECORDED TEMPERATURE
BHTD.M        339                  : BHTDEP       - MAXIMUM RECORDED TEMPERATURE
MATR.         1                    : LOGUNIT      - NEUTRON MATRIX
RMT .C        18                   : MDTP         - TEMPERATURE OF MUD
NEUT.         1                    : NEUTRON      - NEUTRON TYPE
RESI.         5.54                 : RESIST       - RESISTIVITY TYPE
RMC .OHMM     5.54                 : RMC          - RESISTIVITY OF MUD CAKE
RMF .OHMM     5.54                 : RMF          - RESISTIVITY OF MUD FILTRATE
SUFT.C        4                    : SUFT         - SURFACE TEMPERATURE
~A  DEPTH       GR     PHIN     PHID     RESD
  190.000   39.870    0.467    0.351   10.759
  190.250   42.870    0.480    0.352   11.182
  190.500   45.285    0.491    0.350   11.633
  190.750   47.133    0.502    0.349   12.818
  191.000   48.377    0.501    0.349   13.329
  191.250   49.018    0.496    0.350   13.860
  191.500   49.676    0.487    0.352   14.693
  191.750   50.353    0.476    0.352   15.001
  192.000   51.030    0.463    0.352   15.621
  192.250   51.670    0.438    0.351   15.940
  192.500   52.347    0.433    0.348   16.591
  192.750   53.609    0.449    0.345   16.312
  193.000   53.646    0.437    0.342   15.446
  193.250   53.152    0.427    0.334   14.903
  193.500   53.810    0.433    0.325   14.386
  193.750   54.451    0.437    0.317   14.131
  194.000   55.695    0.429    0.300   13.136
  194.250   55.786    0.427    0.298   12.432
  194.500   54.688    0.431    0.323   11.135
  194.750   54.157    0.442    0.331   10.739
  195.000   54.230    0.450    0.334   10.759
  195.250   54.340    0.445    0.332   10.979
  195.500   54.980    0.441    0.330   11.428
  195.750   55.072    0.449    0.330   11.667
  196.000   55.145    0.458    0.330   11.689
  196.250   55.181    0.468    0.331   11.711
  196.500   54.706    0.467    0.334   11.733
  196.750   54.175    0.468    0.341   11.761
  197.000   54.266    0.475    0.348   11.342
  197.250   54.303    0.485    0.352   10.938
  197.500   54.376    0.493    0.356   10.554
  197.750   54.467    0.499    0.359   10.579
  198.000   54.558    0.492    0.355   10.599
  198.250   54.009    0.483    0.342   11.021
  198.500   52.948    0.486    0.329   11.466
  198.750   52.399    0.495    0.316   12.161
  199.000   52.490    0.499    0.305   12.892
  199.250   52.582    0.488    0.327   13.162
  199.500   52.618    0.485    0.342   12.007
  199.750   52.106    0.484    0.348   10.949
  200.000   51.008    0.482    0.348   10.554
  200.250   50.514    0.478    0.356   12.533
  200.500   50.605    0.481    0.361   12.802
  200.750   51.245    0.493    0.361   11.455
  201.000   52.508    0.533    0.334   10.644
  201.250   53.166    0.428    0.338    9.886
  201.500   53.239    0.451    0.352    9.369
  201.750   52.160    0.495    0.368    9.556
  202.000   51.611    0.530    0.316   10.720
  202.250   48.170    0.511    0.298   11.364
  202.500   45.316    0.459    0.296   12.047
  202.750   43.047    0.408    0.298   12.784
  203.000   41.967    0.394    0.298   13.039
  203.250   42.589    0.393    0.295   13.319
  203.500   43.248    0.390    0.294   13.856
  203.750   44.510    0.390    0.299   14.152
  204.000   44.602    0.395    0.302   14.449
  204.250   44.675    0.419    0.308   15.609
  204.500   44.748    0.422    0.311   16.547
  204.750   44.821    0.424    0.319   17.223
  205.000   44.308    0.420    0.321   17.583
  205.250   43.796    0.416    0.324   17.600
  205.500   43.283    0.415    0.324   17.977
  205.750   42.753    0.416    0.324   18.011
  206.000   42.826    0.407    0.323   18.036
  206.250   42.313    0.396    0.323   18.070
  206.500   42.386    0.389    0.323   18.113
  206.750   42.459    0.396    0.325   18.139
  207.000   41.965    0.401    0.329   18.173
  207.250   40.886    0.403    0.333   18.224
  207.500   40.337    0.392    0.328   18.606
  207.750   39.824    0.394    0.319   18.995
  208.000   39.897    0.404    0.319   19.762
  208.250   39.403    0.413    0.320   20.185
  208.500   38.305    0.408    0.317   20.214
  208.750   37.793    0.402    0.314   20.261
  209.000   37.847    0.396    0.317   20.290
  209.250   37.957    0.392    0.318   20.328
  209.500   38.579    0.392    0.323   20.744
  209.750   39.238    0.390    0.325   20.783
  210.000   41.086    0.388    0.326   21.218
  210.250   41.140    0.384    0.324   21.268
  210.500   41.799    0.380    0.321   21.714
  210.750   41.872    0.380    0.321   21.755
  211.000   42.549    0.386    0.323   21.379
  211.250   42.622    0.400    0.324   19.504
  211.500   42.695    0.413    0.324   18.459
  211.750   43.353    0.436    0.321   16.831
  212.000   44.030    0.439    0.324   16.248
  212.250   45.274    0.410    0.325   16.271
  212.500   47.122    0.398    0.326   16.935
  212.750   47.763    0.406    0.325   17.618
  213.000   47.836    0.421    0.327   18.329
  213.250   46.738    0.430    0.329   18.030
  213.500   45.072    0.433    0.334   17.718
  213.750   44.523    0.436    0.336   17.752
  214.000   44.029    0.447    0.336   17.453
  214.250   43.517    0.453    0.337   17.160
  214.500   42.986    0.446    0.338   17.201
  214.750   42.492    0.435    0.338   17.225
  215.000   43.151    0.426    0.338   16.936
  215.250   45.566    0.427    0.339   16.976
  215.500   46.828    0.428    0.339   17.008
  215.750   46.883    0.430    0.339   17.040
  216.000   46.956    0.431    0.339   17.064
  216.250   47.029    0.431    0.339   17.112
  216.500   47.102    0.426    0.336   17.137
  216.750   47.157    0.419    0.336   16.841
  217.000   47.852    0.417    0.335   16.888
  217.250   48.492    0.425    0.333   16.912
  217.500   48.565    0.428    0.331   16.936
  217.750   47.486    0.435    0.328   16.976
  218.000   46.351    0.443    0.325   17.008
  218.250   45.253    0.444    0.322   17.040
  218.500   45.912    0.450    0.323   17.064
  218.750   45.418    0.453    0.332   17.105
  219.000   45.472    0.459    0.340   17.145
  219.250   46.186    0.461    0.340   17.186
  219.500   46.240    0.454    0.337   17.202
  219.750   47.503    0.447    0.334   17.578
  220.000   48.125    0.447    0.333   17.603
  220.250   48.198    0.451    0.334   17.628
  220.500   48.875    0.452    0.335   17.678
  220.750   48.948    0.447    0.335   17.695
  221.000   49.003    0.436    0.332   17.737
  221.250   48.490    0.438    0.332   17.762
  221.500   47.392    0.443    0.332   17.812
  221.750   46.313    0.439    0.335   17.829
  222.000   44.666    0.436    0.334   17.871
  222.250   44.702    0.435    0.333   17.913
  222.500   43.604    0.439    0.332   17.939
  222.750   43.696    0.443    0.329   17.629
  223.000   43.732    0.447    0.329   17.679
  223.250   43.805    0.451    0.329   17.374
  223.500   44.464    0.455    0.329   17.398
  223.750   45.141    0.457    0.327   17.122
  224.000   44.646    0.462    0.326   17.138
  224.250   44.116    0.471    0.321   16.858
  224.500   41.847    0.472    0.317   16.890
  224.750   41.316    0.445    0.312   16.614
  225.000   39.633    0.418    0.311   16.637
  225.250   38.535    0.415    0.313   16.669
  225.500   38.022    0.424    0.316   16.708
  225.750   39.888    0.436    0.313   16.740
  226.000   41.114    0.435    0.306   17.738
  226.250   41.754    0.383    0.112   20.276
  226.500   42.413    0.331    0.152   23.617
  226.750   41.315    0.296    0.224   23.220
  227.000   39.083    0.367    0.288   21.173
  227.250   38.533    0.397    0.319   19.307
  227.500   38.039    0.429    0.319   18.281
  227.750   38.680    0.440    0.319   17.638
  228.000   39.356    0.450    0.320   17.018
  228.250   40.015    0.451    0.321   16.428
  228.500   40.674    0.452    0.321   15.851
  228.750   41.900    0.453    0.321   15.301
  229.000   43.766    0.453    0.313   15.315
  229.250   44.991    0.454    0.306   14.784
  229.500   47.443    0.454    0.303   14.271
  229.750   49.254    0.451    0.305   14.018
  230.000   51.066    0.444    0.303   13.273
  230.250   54.085    0.435    0.267   12.103
  230.500   58.842    0.422    0.250   10.830
  230.750   67.112    0.411    0.204    9.333
  231.000   74.211    0.406    0.167    8.352
  231.250   79.005    0.431    0.169    7.066
  231.500   80.231    0.464    0.171    6.440
  231.750   82.060    0.464    0.186    5.763
  232.000   86.232    0.460    0.183    5.355
  232.250   89.233    0.466    0.175    5.268
  232.500   92.252    0.478    0.180    5.273
  232.750   88.793    0.494    0.184    5.184
  233.000   84.182    0.493    0.190    5.004
  233.250   82.499    0.489    0.194    5.016
