~Version : LASO    vs 4.00
VERS.                2.00:   CWLS Log ASCII Standard -VERSION 2.0
WRAP.                  NO:
~Well Information Block
#MNEM.UNIT       Data                        Description of Mnemonic
#----.----      -------------------------- : -----------------------------
STRT.M            21.0000:
STOP.M           215.4000:
STEP.M             0.2000:
NULL.           -999.2500:
COMP.  MOBIL OIL CANADA                 :COMPANY
WELL.  MOBIL CLARKE OV PROG. 2-81       :WELL
FLD.                                    :FIELD
LOC.   13-28-089-07W4                   :LOCATION
CTRY.  CANADA                           :COUNTRY
PROV.  ALBERTA                          :PROVINCE
SRVC.  SCHLUMBERGER                     :SERVICE COMPANY
DATE.  31-JAN-81                        :LOG DATE
UWI.   AA/13-28-089-07W400              :UNIQUE WELL ID
~Parameter Information Block
#MNEM.UNIT       Data                        Description of Mnemonic
#----.----      -------------------------- : -----------------------------
RUN .                   1                 : Run Number
GL  .M           458.5000                 : Ground Level Elevation
DREF.                  GD                 : Depth Reference
EREF.M           458.5000                 : Elevation of Depth Reference
TDL .M           216.0000                 : Total Depth Logger
TDD .M           216.0000                 : Total Depth Driller
CSGL.M            22.0000                 : Casing Bottom Logger
CSGD.M            22.0000                 : Casing Bottom Driller
CSGS.MM          219.0000                 : Casing Size
CSGW.KG/M          0.0000                 : Casing Weight
BHT .DEGC         12.0000                 : Bottom Hole Temperature
BS  .MM          171.0000                 : Bit Size
DFD .           9999.0000                 : Mud Weight (Density)
DFV .             45.0000                 : Mud Viscosity
DFPH.             11.0000                 : Mud pH
RM  .OHMM          5.7400                 : Mud Resistivity
RMT .DEGC         12.0000                 : Mud Resistivity Temperature
~Curve Information Block
#MNEM.UNIT        API CODE    Curve Description
#---------    ------------    -------------------------------------------
DEPT.M                    :   DEPTH
CALI.MM       42 280  1  1:   3 DENSITY CALIPER
DPHI.V/V                  :   DPHI
DT  .US/M     60 520  0  1:   2 SONIC INTERVAL TRANSIT TIME (COMPENSATED)
GR  .GAPI     42 310  1  1:   4 GAMMA RAY
ILD .OHMM      5 120 46  1:   7 DEEP INDUCTION
ILM .OHMM      5 120 44  1:   8 MEDIUM INDUCTION
NPHI.V/V      42 890  3  1:   5 NEUTRON POROSITY (SANDSTONE)
RHOB.K/M3     42 350  1  1:   6 BULK DENSITY
SFLU.OHMM      5 220  1  1:   9 FOCUSSED RESISTIVITY
SP  .MV        5  10  1  1:   10 SPONTANEOUS POTENTIAL
~A  Depth           CALI        DPHI          DT          GR         ILD         ILM        NPHI        RHOB        SFLU          SP
# ...
179.6000        166.7500      0.1783    421.3200     77.7900     10.8600     10.5446      0.4048   2338.2000     12.8775    -82.6050
179.8000        166.5500      0.1748    421.9600     78.1800     10.8600     10.3521      0.3938   2358.1001     12.4117    -80.8650
180.0000        166.2750      0.1730    420.6800     79.8450     10.9605     10.3521      0.3915   2353.7000     11.6367    -79.3650
180.2000        166.0000      0.1758    415.1200     81.6900     10.9605     10.4479      0.3928   2403.2000     10.6128    -76.6350
180.4000        168.5750      0.1794    404.2800     83.5500     11.1643     10.7406      0.4126   2378.3000     12.8775    -76.6350
180.6000        172.2000      0.1797    402.3600     82.8150     11.1643     10.8400      0.4228   2377.8999     13.8621    -76.6350
180.8000        175.5500      0.1809    402.7600     80.6700     11.3718     10.9403      0.4241   2396.0000     13.1169    -76.1250
181.0000        170.3500      0.1772    411.3200     74.8350     12.1291     11.0415      0.4183   2373.1001     11.7444    -75.8850
181.2000        172.1500      0.1713    407.8800     72.2700     13.1774     11.5619      0.4153   2403.8999     10.8101    -74.6400
181.4000        173.9500      0.1627    403.6400     69.6300     14.8535     12.9131      0.4151   2330.8000     10.4191    -74.8950
181.6000        174.9000      0.1590    398.3200     66.7200     16.7429     16.2566      0.4280   2300.8999     11.2158    -78.6150
181.8000        181.2750      0.1691    413.8400     59.3850     22.0714     26.0034      0.4406   2253.8000     39.6853    -91.0650
182.0000        181.8500      0.2023    412.6000     49.9200     26.5357     32.7062      0.4339   2236.2000    194.0126    -97.5300
182.2000        178.1750      0.2328    406.6000     43.7250     34.3423     40.4231      0.4147   2263.2000    457.7516   -101.7600
182.4000        169.9500      0.2504    395.5200     41.7900     61.9199     76.3185      0.4186   2220.2000    161.3727   -105.2400
182.6000        169.2750      0.2555    401.0800     41.0100     74.4440    109.3025      0.4407   2208.0000    155.5356   -106.7250
182.8000        169.3750      0.2627    405.9600     40.2450     78.6738    141.3286      0.4465   2191.5000    231.3289   -108.9750
183.0000        169.5500      0.2545    400.6400     37.8750     71.7513    153.5430      0.4186   2185.5000    520.7508   -109.2150
183.2000        169.6500      0.2525    394.6800     38.1900     68.5220    134.9677      0.4046   2229.0000    561.0866   -107.9700
183.4000        169.7500      0.2747    390.0000     40.1550     64.8381    113.4044      0.3971   2250.7000    483.7599   -106.2300
183.6000        169.7750      0.2669    387.8800     47.9400     54.4289     79.9153      0.3870   2250.8000    192.2339   -104.2500
183.8000        169.7500      0.2640    384.4400     51.9750     47.8443     67.7064      0.3832   2231.1001    113.6135   -103.7400
184.0000        169.5000      0.2683    384.8800     54.3900     41.6706     56.8368      0.3860   2216.6001     80.8035   -102.0000
184.2000        167.9750      0.2639    398.3200     58.4700     31.9029     39.6853      0.3995   2243.8000     65.3176    -98.7750
184.4000        166.8500      0.2620    405.3200     60.3450     29.6367     33.0088      0.4051   2223.7000     73.6258   -101.0100
184.6000        166.0000      0.2662    410.2400     62.6100     28.0434     28.2507      0.4048   2212.5000     65.3176   -102.2550
184.8000        166.1750      0.2582    410.0400     64.1100     27.5315     26.4868      0.4012   2209.1001     45.5648    -99.2700
185.0000        167.2000      0.2474    402.7600     66.4050     27.5315     28.5121      0.3969   2301.6001     33.0088    -91.5600
185.2000        168.1250      0.2368    399.3600     65.1750     28.8290     30.3829      0.4001   2313.2000     39.3215    -91.3050
185.4000        171.1250      0.2283    388.7200     63.1950     31.3206     33.9336      0.3995   2332.5000     50.0069    -91.3050
185.6000        169.2250      0.2203    382.3200     57.5550     40.1634     45.9865      0.3997   2300.6001     93.6332    -91.3050
185.8000        170.7250      0.2217    385.3200     57.9000     44.8570     55.7995      0.4048   2298.1001    121.1797    -91.3050
186.0000        172.3250      0.2321    388.2800     58.7250     46.9710     66.4706      0.4036   2292.3999    148.5354    -92.8050
186.2000        173.8750      0.2398    374.6400     65.0400     41.2886     60.6220      0.3885   2304.3000    199.4481    -97.0350
186.4000        174.0500      0.2390    367.0000     71.0850     34.3423     46.4120      0.3757   2304.5000    101.7255    -98.0250
186.6000        173.8250      0.2372    359.9600     77.7450     28.3028     33.9336      0.3681   2298.0000     45.5648    -98.0250
186.8000        171.6000      0.2363    385.5200     88.7700     18.6995     19.0121      0.3955   2290.8000     21.0005    -95.5350
187.0000        167.0500      0.2188    405.9600     92.5500     15.5536     14.9634      0.4036   2296.1001     16.8202    -90.3150
187.2000        165.7500      0.1854    410.8800     95.8800     13.4224     12.1068      0.4115   2383.0000     12.6424    -83.1000
187.4000        168.6500      0.1679    413.6400    102.4350     10.8600      9.7956      0.4377   2404.3999      9.0663    -76.8750
187.6000        171.8500      0.1589    410.4400    104.1450      9.9961      9.3547      0.4431   2374.2000      9.1502    -76.3800
187.8000        175.9750      0.1603    433.4400    105.3450      9.5462      8.9337      0.4462   2361.3000      9.8499    -76.6350
188.0000        180.1000      0.1594    440.2800    105.6450      9.3720      8.6902      0.4480   2360.2000     10.4191    -76.6350
188.2000        173.2000      0.1580    450.0800    106.3950      9.8136      9.2689      0.4471   2375.2000      8.8192    -79.1100
188.4000        176.5250      0.1659    446.8800    106.8000     10.2761      9.7956      0.4484   2365.0000     10.0330    -81.8550
188.6000        179.7750      0.1627    442.8400    100.9950     10.8600     10.3521      0.4453   2360.5000     12.1851    -83.3400
188.8000        168.8000      0.1664    427.9200     98.4600     12.0179     11.9958      0.4217   2362.6001     14.6497    -84.0900
189.0000        168.3750      0.1672    423.6400     98.7300     12.4690     12.3319      0.4198   2357.6001     16.9758    -84.8400
189.2000        168.5500      0.1722    419.4000     99.0000     12.9369     12.9131      0.4173   2404.8999     18.4599    -84.3450
189.4000        169.2000      0.1842    408.7600     99.6000     13.1774     13.2749      0.4114   2385.3000     16.8202    -81.6000
189.6000        169.6000      0.1945    405.9600    100.6650     13.0566     13.0326      0.4067   2382.5000     16.8202    -82.3500
189.8000        169.0750      0.1910    403.6400    101.6700     12.8183     12.3319      0.4036   2416.1001     16.3618    -82.8450
190.0000        168.0250      0.1756    412.1600     99.5400     12.3546     11.7769      0.4055   2403.2000     11.6367    -83.5950
190.2000        170.3500      0.1609    420.4800     98.4900     12.0179     11.7769      0.4112   2389.3000     11.7444    -85.0950
190.4000        172.4500      0.1626    427.0800     97.5600     11.6904     11.5619      0.4129   2377.0000     13.2382    -86.8350
190.6000        168.2500      0.1716    427.2800     96.8100     11.4770     11.2468      0.4118   2365.3999     14.5154    -86.5800
190.8000        165.6250      0.1784    420.2400     94.8150     11.1643     10.8400      0.4098   2434.8999     12.4117    -84.3450
191.0000        166.9250      0.1725    422.4000     93.6750     11.0619     10.6422      0.4130   2425.2000     12.0734    -83.3400
191.2000        168.2000      0.1571    422.8000     93.1350     10.9605     10.4479      0.4177   2425.8000     11.7444    -82.8450
191.4000        170.8000      0.1387    422.4000     92.0700     10.8600     10.3521      0.4249   2413.3999     11.5300    -83.1000
191.6000        172.1250      0.1381    422.4000     91.5900     10.7604     10.4479      0.4223   2405.3999     12.6424    -82.8450
