~VERSION INFORMATION
 VERS.                 2.0:   CWLS LOG ASCII STANDARD -VERSION 2.0
 WRAP.                  NO:   ONE LINE PER DEPTH STEP
~WELL INFORMATION BLOCK
#MNEM.UNIT           DATA                    DESCRIPTION OF MNEMONIC
#---------    -------------------            -------------------------------
# Generated from Intellog Unique Number	CC_84_87/WELL/2345
NULL.         -999.25                        : NULL_VALUE
WELL.         ARCO ACI MCMURRAY              : Well_name    - WELL
LOC .         13-26-084-11W4                 : Location     - LOCATION          
UWI .         AA/13-26-084-11W400            : Uwi          - UNIQUE WELL ID    
ENTR.         JHS                            : Entered      - ENTERED BY        
SRVC.         SCHLUMBERGER                   : Scn          - SERVICE COMPANY   
DATE.         17 JAN 74                      : Date         - LOG DATE
STRT.M        76.2                           : top_depth    - START DEPTH       
STOP.M        317.906                        : bot_depth    - STOP DEPTH        
STEP.M        0.3048                         : increment    - STEP LENGTH       
~CURVE INFORMATION BLOCK
#MNEM UNIT       ERCB CURVE CODE    CURVE DESCRIPTION
#-----------   ------------------   ----------------------------------
DEPT.M        00 001 00 00         : DEPTH        - DEPTH                       
NPHI.V/V      00 330 00 00         : PHIN         - NEUTRON POROSITY (LIMESTONE)
GR  .API      00 310 00 00         : GR           - GAMMA RAY                   
ILD .OHMM     00 120 00 00         : RESD         - DEEP RESISTIVITY (DIL)      
~PARAMETER INFORMATION       
#MNEM.UNIT           DATA             DESCRIPTION OF MNEMONIC
#---------         -----------     ------------------------------
GL  .M        566.318              : gl           - GROUND LEVEL ELEVATION      
EREF.M        567.995              : kb           - ELEVATION OF DEPTH REFERENCE
DATM.M        567.995              : datum        - DATUM ELEVATION             
TDD .M        317.906              : tdd          - TOTAL DEPTH DRILLER         
RUN .         ONE                  : Run          - RUN NUMBER                  
ENG .         BILL                 : Engineer     - RECORDING ENGINEER          
WIT .         JIM                  : Witness      - WITNESSED BY                
MUD .         GEL                  : Mud_type     - MUD TYPE                    
MATR.         LIMESTONE            : Logunit      - NEUTRON MATRIX              
TMAX.C        60                   : BHT          - MAXIMUM RECORDED TEMPERATURE
BHTD.M        317.906              : BHTDEP       - MAXIMUM RECORDED TEMPERATURE
MATR.         1                    : LOGUNIT      - NEUTRON MATRIX              
RMT .C        25                   : MDTP         - TEMPERATURE OF MUD          
NEUT.         1                    : NEUTRON      - NEUTRON TYPE                
RESI.         0                    : RESIST       - RESISTIVITY TYPE            
RMC .OHMM     0.25                 : RMC          - RESISTIVITY OF MUD CAKE     
RMF .OHMM     0.25                 : RMF          - RESISTIVITY OF MUD FILTRATE 
SUFT.C        15                   : SUFT         - SURFACE TEMPERATURE         
~A  DEPTH     PHIN       GR     RESD
# ...
  142.342    0.328   69.047   17.942
  142.646    0.325   71.439   16.669
  142.951    0.314   72.641   14.929
  143.256    0.302   78.606   13.370
  143.561    0.302   86.155   12.420
  143.866    0.308   88.153   11.969
  144.170    0.327   89.351   11.959
  144.475    0.334   88.568   11.955
  144.780    0.321   81.834   12.167
  145.085    0.308   72.718   13.084
  145.390    0.320   71.936   15.134
  145.694    0.308   79.089   17.506
  145.999    0.293   81.480   17.818
  146.304    0.320   75.143   16.253
  146.609    0.334   79.122   14.557
  146.914    0.337   79.132   12.341
  147.218    0.323   71.604   11.676
  147.523    0.309   69.632   11.885
  147.828    0.311   74.404   12.777
  148.133    0.330   77.590   13.993
  148.438    0.313   72.442   13.482
  148.742    0.331   74.042   12.298
  149.047    0.343   78.019   10.426
  149.352    0.335   72.080    9.865
  149.657    0.325   66.535    9.505
  149.962    0.348   62.181    9.158
  150.266    0.329   56.239    8.987
  150.571    0.340   53.472    8.820
  150.876    0.354   51.498    8.498
  151.181    0.350   58.652    7.895
  151.485    0.351   64.218    7.202
  151.790    0.350   63.039    6.567
  152.095    0.352   59.085    6.565
  152.400    0.363   53.934    6.805
  152.705    0.362   51.566    7.316
  153.009    0.349   56.337    8.463
  153.314    0.333   55.158    9.268
  153.619    0.332   56.756    9.607
  153.924    0.321   60.734    9.958
  154.229    0.322   63.128   10.706
  154.533    0.334   63.536   11.512
  154.838    0.339   71.483   12.607
  155.143    0.337   74.669   12.831
  155.448    0.334   90.947   12.363
  155.753    0.333   90.960   11.911
  156.057    0.326   91.763   11.905
  156.362    0.308  101.697   12.118
  156.667    0.308  103.294   12.560
  156.972    0.323   96.558   13.022
  157.277    0.339   92.601   14.001
  157.581    0.334   83.088   14.513
  157.886    0.329   87.465   14.241
  158.191    0.344   84.300   13.474
  158.496    0.332   79.153   12.984
  158.801    0.327   73.213   13.706
  159.105    0.345   76.794   15.286
  159.410    0.338   83.154   17.048
  159.715    0.333   78.800   19.363
  160.020    0.328   77.621   21.595
  160.325    0.322   80.013   24.082
  160.629    0.306   82.801   27.855
  160.934    0.273   84.401   40.860
  161.239    0.112   83.221   49.018
  161.544    0.064   82.438   51.755
  161.848    0.061   82.052   48.967
  162.153    0.096   77.699   36.531
  162.458    0.188   74.931   29.863
  162.763    0.309   80.497   26.259
  163.068    0.319   84.080   24.395
  163.372    0.315   76.551   23.508
  163.677    0.319   49.579   23.069
  163.982    0.314   41.653   22.224
  164.287    0.322   41.267   22.214
  164.592    0.312   38.104   21.797
  164.896    0.316   35.734   21.388
  165.201    0.326   33.760   20.611
  165.506    0.330   32.977   19.499
  165.811    0.344   23.464   19.137
  166.116    0.348   23.477   18.779
  166.420    0.323   25.871   18.767
  166.725    0.360   27.467   18.755
  167.030    0.348   29.860   18.745
  167.335    0.332   33.045   18.060
  167.640    0.337   32.657   16.475
  167.944    0.332   34.652   14.756
  168.249    0.341   42.996   12.510
  168.554    0.340   39.436   11.003
  168.859    0.334   46.987    9.501
  169.164    0.329   41.045    8.203
  169.468    0.340   41.453    7.621
  169.773    0.334   42.654    7.342
  170.078    0.354   49.808    7.206
  170.383    0.338   46.645    7.071
  170.688    0.353   43.879    7.066
  170.992    0.357   45.875    7.193
  171.297    0.345   46.282    7.594
  171.602    0.345   48.673    8.316
  171.907    0.342   52.256    9.976
  172.212    0.344   57.427   11.970
  172.516    0.328   61.404   10.917
  172.821    0.330   71.732    9.778
  173.126    0.330   78.888    8.600
  173.431    0.342   82.071    7.158
  173.735    0.354   88.035    6.774
  174.040    0.361   96.379    6.407
  174.345    0.353   99.564    6.289
  174.650    0.354   92.036    6.171
  174.955    0.362   99.190    6.056
  175.259    0.342   96.820    6.053
  175.564    0.356   99.212    5.938
  175.869    0.358   88.508    5.828
  176.174    0.360   70.266    5.720
  176.479    0.355   65.515    5.821
  176.783    0.368   69.494    5.925
  177.088    0.356   78.236    5.709
  177.393    0.373   95.706    5.401
  177.698    0.379   92.543    5.300
  178.003    0.372  100.887    5.107
  178.307    0.376   94.549    5.012
  178.612    0.361   96.941    5.008
  178.917    0.344   98.935    5.006
  179.222    0.345   96.170    5.095
  179.527    0.367   93.799    5.186
  179.831    0.352   93.810    5.279
  180.136    0.339   89.457    5.676
  180.441    0.350   93.437    6.102
  180.746    0.350   87.493    6.561
  181.051    0.350   84.331    7.316
  181.355    0.352   87.517    8.463
  181.660    0.326   87.129   10.156
  181.965    0.321   81.981   12.871
  182.270    0.320   83.979   15.440
  182.575    0.304   84.386   16.007
  182.879    0.331   80.825   15.997
  183.184    0.316   80.439   15.414
  183.489    0.334   77.672   15.127
  183.794    0.344   80.064   15.117
  184.098    0.336   78.886   15.108
  184.403    0.341   76.912   14.293
  184.708    0.359   76.129   13.524
  185.013    0.360   71.378   11.894
  185.318    0.364   65.437    9.901
  185.622    0.353   60.290    9.198
  185.927    0.348   59.903    8.545
  186.232    0.382   53.566    7.113
  186.537    0.379   49.607    6.489
  186.842    0.358   44.459    6.028
  187.146    0.353   46.852    6.024
  187.451    0.362   48.055    6.596
  187.756    0.355   50.048    7.491
  188.061    0.343   48.870    8.203
  188.366    0.343   49.674    8.820
  188.670    0.340   51.672    9.484
  188.975    0.341   55.649   10.384
  189.280    0.357   62.008   10.964
  189.585    0.352   64.400   10.564
  189.890    0.337   57.665    9.994
  190.194    0.344   67.993    9.284
  190.499    0.351   77.528    8.785
  190.804    0.336   73.968    8.311
  191.109    0.333   77.153    8.007
  191.414    0.347   68.434    7.716
  191.718    0.355   62.889    7.572
  192.023    0.349   58.535    7.568
  192.328    0.351   62.514    7.845
  192.633    0.333   62.922    8.435
  192.938    0.354   64.124    9.236
  193.242    0.329   57.388    8.737
  193.547    0.324   57.797    8.267
  193.852    0.333   58.999    7.404
  194.157    0.334   60.597    6.632
  194.461    0.353   61.798    5.940
  194.766    0.364   55.460    5.829
  195.071    0.390   60.232    6.500
  195.376    0.352   65.799    7.518
  195.681    0.351   67.793    8.540
  195.985    0.345   72.169    9.699
  196.290    0.333   70.992   10.055
  196.595    0.335   67.033    9.687
  196.900    0.335   66.251    8.677
  197.205    0.335   59.912    6.473
  197.509    0.336   58.733    5.102
  197.814    0.342   65.093    3.603
  198.119    0.387   69.073    3.227
  198.424    0.385   70.273    3.109
  198.729    0.373   70.285    3.108
  199.033    0.372   73.072    3.341
  199.338    0.369   72.687    3.401
  199.643    0.372   68.731    3.277
  199.948    0.389   69.931    3.216
  200.253    0.414   69.943    3.586
  200.557    0.392   65.588    4.303
  200.862    0.359   67.186    5.656
  201.167    0.344   63.230    6.786
  201.472    0.341   60.463    7.850
  201.777    0.358   62.459    7.564
  202.081    0.375   75.960    7.288
  202.386    0.381   87.082    6.769
  202.691    0.359   81.141    6.404
  202.996    0.351   77.977    6.286
  203.301    0.355   80.767    6.281
  203.605    0.341   79.983    6.632
  203.910    0.344   82.377    7.131
  204.215    0.320   78.418    9.547
  204.520    0.258   77.636   15.066
  204.824    0.168   70.901   34.898
  205.129    0.181   70.515   49.352
  205.434    0.154   66.558   52.101
  205.739    0.160   68.554   38.872
  206.044    0.268   68.166   18.705
  206.348    0.344   75.320   13.210
  206.653    0.350   71.365   11.200
  206.958    0.344   69.788   10.404
  207.263    0.344   72.180   10.026
  207.568    0.355   72.983   10.019
  207.872    0.359   67.439   10.014
  208.177    0.363   65.071   10.007
