~VERSION INFORMATION
 VERS.                 2.0:   CWLS LOG ASCII STANDARD -VERSION 2.0
 WRAP.                  NO:   ONE LINE PER DEPTH STEP
~WELL INFORMATION BLOCK
#MNEM.UNIT           DATA                    DESCRIPTION OF MNEMONIC
#---------    -------------------            -------------------------------
# Generated from Intellog Unique Number	CC_88_90/WELL/2308
WELL.         11-29-090-15W4                 : Well_name    - WELL
LOC .         AA/11-29-090-15W4/0            : Location     - LOCATION
UWI .         AA/11-29-090-15W400            : Uwi          - UNIQUE WELL ID
ENTR.         DW                             : Entered      - ENTERED BY
SRVC.         SCHLUMBERGER                   : Scn          - SERVICE COMPANY
STRT.M        75                             : top_depth    - START DEPTH
STOP.M        199.75                         : bot_depth    - STOP DEPTH
STEP.M        0.25                           : increment    - STEP LENGTH
 NULL. -999.2500:NULL Value
~CURVE INFORMATION BLOCK
#MNEM UNIT       ERCB CURVE CODE    CURVE DESCRIPTION
#-----------   ------------------   ----------------------------------
DEPT.M        00 001 00 00         : DEPTH        - DEPTH
GR  .API      00 310 00 00         : GR           - GAMMA RAY
DPHI.V/V      00 890 00 00         : PHID         - DENSITY POROSITY (SANDSTONE)
NPHI.V/V      00 330 00 00         : PHIN         - NEUTRON POROSITY (SANDSTONE)
ILD .OHMM     00 120 00 00         : RESD         - DEEP RESISTIVITY (DIL)
~PARAMETER INFORMATION
#MNEM.UNIT           DATA             DESCRIPTION OF MNEMONIC
#---------         -----------     ------------------------------
GL  .M        470                  : gl           - GROUND LEVEL ELEVATION
EREF.M        473.35               : kb           - ELEVATION OF DEPTH REFERENCE
DATM.M        473.35               : datum        - DATUM ELEVATION
TDD .M        210                  : tdd          - TOTAL DEPTH DRILLER
RUN .         ONE                  : Run          - RUN NUMBER
ENG .         BILL                 : Engineer     - RECORDING ENGINEER
WIT .         JIM                  : Witness      - WITNESSED BY
MUD .         GEL                  : Mud_type     - MUD TYPE
MATR.         SANDSTONE            : Logunit      - NEUTRON MATRIX
TMAX.C        25                   : BHT          - MAXIMUM RECORDED TEMPERATURE
BHTD.M        210                  : BHTDEP       - MAXIMUM RECORDED TEMPERATURE
MATR.         1                    : LOGUNIT      - NEUTRON MATRIX
RMT .C        25                   : MDTP         - TEMPERATURE OF MUD
NEUT.         1                    : NEUTRON      - NEUTRON TYPE
RESI.         0                    : RESIST       - RESISTIVITY TYPE
RMC .OHMM     0.25                 : RMC          - RESISTIVITY OF MUD CAKE
RMF .OHMM     0.25                 : RMF          - RESISTIVITY OF MUD FILTRATE
SUFT.C        15                   : SUFT         - SURFACE TEMPERATURE
~A  DEPTH       GR     PHID     PHIN     RESD
# ...
  118.500  119.008    0.229    0.491   10.529
  118.750  117.892    0.216    0.494   10.387
  119.000  117.539    0.198    0.524   10.478
  119.250  115.428    0.165    0.531   12.205
  119.500  106.249    0.130    0.454   13.937
  119.750  101.537    0.136    0.377   14.310
  120.000  114.062    0.188    0.420   14.533
  120.250  117.760    0.223    0.447   14.342
  120.500  118.266    0.202    0.444   13.899
  120.750  120.183    0.213    0.424   13.575
  121.000  117.192    0.233    0.414   13.446
  121.250  108.868    0.228    0.423   13.535
  121.500  104.200    0.260    0.430   14.008
  121.750  102.566    0.277    0.436   14.710
  122.000  101.240    0.219    0.431   15.098
  122.250   99.047    0.158    0.413   15.012
  122.500   94.722    0.174    0.414   14.720
  122.750   88.971    0.234    0.431   14.544
  123.000   85.732    0.252    0.419   14.840
  123.250   87.050    0.224    0.414   15.854
  123.500   89.779    0.198    0.417   16.238
  123.750   94.111    0.219    0.424   16.620
  124.000   97.895    0.258    0.432   17.056
  124.250   98.560    0.271    0.434   16.870
  124.500   97.386    0.260    0.430   16.330
  124.750   95.021    0.242    0.437   16.035
  125.000   90.890    0.214    0.440   16.171
  125.250   88.086    0.190    0.486   16.770
  125.500   87.320    0.115    0.418   19.389
  125.750   87.776    0.057    0.259   24.462
  126.000   89.966    0.147    0.290   29.338
  126.250   92.511    0.174    0.345   31.610
  126.500   94.953    0.215    0.378   30.730
  126.750   95.163    0.212    0.422   28.799
  127.000   88.969    0.117    0.408   27.130
  127.250   81.077    0.037    0.334   26.942
  127.500   82.551    0.074    0.319   28.829
  127.750   89.337    0.130    0.317   29.062
  128.000   93.220    0.162    0.355   27.323
  128.250   93.569    0.218    0.411   24.453
  128.500   92.468    0.248    0.438   21.412
  128.750   90.805    0.181    0.410   19.022
  129.000   89.915    0.103    0.357   17.343
  129.250   93.614    0.150    0.372   15.728
  129.500  105.147    0.230    0.414   14.903
  129.750  110.317    0.278    0.424   14.025
  130.000  108.116    0.251    0.444   12.921
  130.250  105.900    0.202    0.488   12.645
  130.500  100.371    0.221    0.499   13.573
  130.750   91.635    0.191    0.506   14.726
  131.000   90.430    0.131    0.483   15.535
  131.250   96.514    0.112    0.421   16.136
  131.500  106.464    0.175    0.414   15.716
  131.750  114.836    0.236    0.487   14.031
  132.000  115.680    0.205    0.513   12.607
  132.250  114.158    0.207    0.455   12.038
  132.500  112.797    0.195    0.427   11.174
  132.750  112.772    0.208    0.425   10.631
  133.000  113.371    0.222    0.422   10.688
  133.250  112.012    0.205    0.433   10.899
  133.500  107.674    0.204    0.457   11.263
  133.750  103.838    0.189    0.473   11.660
  134.000  102.766    0.123    0.475   11.639
  134.250  105.265    0.096    0.427   11.159
  134.500  110.594    0.147    0.409   10.737
  134.750  116.787    0.208    0.454   10.324
  135.000  120.531    0.222    0.451    9.518
  135.250  118.006    0.225    0.436    9.193
  135.500  111.380    0.247    0.461    9.049
  135.750  106.342    0.202    0.507    8.945
  136.000  104.958    0.128    0.495    9.116
  136.250  107.167    0.145    0.437    9.642
  136.500  112.493    0.223    0.427   10.270
  136.750  117.042    0.224    0.436   10.791
  137.000  121.498    0.201    0.449   11.144
  137.250  116.356    0.193    0.479   11.559
  137.500  108.840    0.167    0.461   11.715
  137.750  111.043    0.161    0.410   11.471
  138.000  117.380    0.231    0.438   11.302
  138.250  121.162    0.220    0.467   11.117
  138.500  123.378    0.227    0.455   11.080
  138.750  122.474    0.224    0.451   11.107
  139.000  119.126    0.206    0.454   11.098
  139.250  120.267    0.218    0.445   11.794
  139.500  124.759    0.204    0.435   13.659
  139.750  117.304    0.087    0.399   14.888
  140.000  122.836    0.142    0.365   15.188
  140.250  130.388    0.220    0.383   14.474
  140.500  129.080    0.224    0.429   13.104
  140.750  124.343    0.228    0.453   11.739
  141.000  121.642    0.226    0.460   10.706
  141.250  124.281    0.199    0.491   10.015
  141.500  118.761    0.184    0.526    9.810
  141.750  113.139    0.118    0.469   10.316
  142.000  118.480    0.102    0.419   10.826
  142.250  131.593    0.191    0.456   10.626
  142.500  137.614    0.232    0.469    9.754
  142.750  125.148    0.237    0.492    8.193
  143.000  114.971    0.207    0.527    7.322
  143.250  111.534    0.125    0.498    7.157
  143.500  119.314    0.093    0.430    7.299
  143.750  131.378    0.165    0.409    7.752
  144.000  129.593    0.223    0.442    8.389
  144.250  126.498    0.209    0.469    8.687
  144.500  123.224    0.195    0.491    8.766
  144.750  121.585    0.165    0.472    8.522
  145.000  121.635    0.175    0.457    8.046
  145.250  124.464    0.262    0.494    7.538
  145.500  128.329    0.301    0.523    7.089
  145.750  120.392    0.228    0.507    6.959
  146.000  115.013    0.187    0.507    6.994
  146.250  123.408    0.141    0.488    7.378
  146.500  134.860    0.141    0.462    8.099
  146.750  137.521    0.208    0.455    8.877
  147.000  135.069    0.210    0.438    9.417
  147.250  130.120    0.196    0.441    9.438
  147.500  123.326    0.177    0.447    9.402
  147.750  113.630    0.135    0.440    9.528
  148.000  111.795    0.094    0.381   10.560
  148.250  119.749    0.104    0.322   12.376
  148.500  121.511    0.162    0.365   13.749
  148.750  116.938    0.184    0.407   14.775
  149.000  114.308    0.113    0.388   14.432
  149.250  119.494    0.145    0.386   13.412
  149.500  128.629    0.206    0.419   12.297
  149.750  132.527    0.183    0.445   11.218
  150.000  129.471    0.210    0.459   10.572
  150.250  128.428    0.203    0.453   10.234
  150.500  126.373    0.190    0.407   10.013
  150.750  123.497    0.177    0.379   10.098
  151.000  121.246    0.189    0.389   10.654
  151.250  119.165    0.217    0.408   11.283
  151.500  117.145    0.202    0.420   11.413
  151.750  115.814    0.186    0.430   11.253
  152.000  111.847    0.137    0.457   10.953
  152.250  107.575    0.073    0.424   10.498
  152.500  114.918    0.120    0.387   10.014
  152.750  128.545    0.234    0.418    9.238
  153.000  125.150    0.231    0.451    7.837
  153.250  108.840    0.232    0.473    6.747
  153.500   94.742    0.246    0.484    6.394
  153.750   82.955    0.257    0.422    6.852
  154.000   71.757    0.272    0.362    7.827
  154.250   65.517    0.298    0.374    9.574
  154.500   66.064    0.310    0.383   12.096
  154.750   66.451    0.290    0.396   13.391
  155.000   62.415    0.288    0.394   14.232
  155.250   53.576    0.297    0.397   15.377
  155.500   45.915    0.306    0.404   18.068
  155.750   43.821    0.316    0.405   24.129
  156.000   44.524    0.323    0.409   36.846
  156.250   45.604    0.332    0.415   61.264
  156.500   45.919    0.331    0.417   94.079
  156.750   45.280    0.325    0.417  120.047
  157.000   45.464    0.318    0.418  131.323
  157.250   46.404    0.306    0.420  133.762
  157.500   45.733    0.298    0.419  131.022
  157.750   45.071    0.307    0.403  113.478
  158.000   46.052    0.307    0.404   87.351
  158.250   48.709    0.283    0.431   64.849
  158.500   53.434    0.259    0.446   49.608
  158.750   60.899    0.247    0.426   40.052
  159.000   68.421    0.242    0.403   36.316
  159.250   69.179    0.286    0.416   36.600
  159.500   64.390    0.317    0.432   39.100
  159.750   65.514    0.327    0.437   40.261
  160.000   70.737    0.320    0.440   39.548
  160.250   76.101    0.286    0.438   35.788
  160.500   86.197    0.238    0.418   27.413
  160.750   92.044    0.207    0.405   21.113
  161.000   85.913    0.189    0.392   17.998
  161.250   80.103    0.232    0.404   17.022
  161.500   80.759    0.286    0.428   17.313
  161.750   83.850    0.284    0.441   17.772
