~VERSION INFORMATION
 VERS.                 2.0:   CWLS LOG ASCII STANDARD -VERSION 2.0
 WRAP.                  NO:   ONE LINE PER DEPTH STEP
~WELL INFORMATION BLOCK
#MNEM.UNIT           DATA                    DESCRIPTION OF MNEMONIC
#---------    -------------------            -------------------------------
# Generated from Intellog Unique Number	CS_77_79/WELL/962
WELL.         PEX PCEJ LEISMER OV            : Well_name    - WELL
LOC .         AA/10-26-078-08W4/0            : Location     - LOCATION
UWI .         AA/10-26-078-08W4/0            : Uwi          - UNIQUE WELL ID
ENTR.         JHS                            : Entered      - ENTERED BY
SRVC.         SCHLUMBERGER                   : Scn          - SERVICE COMPANY
STRT.M        120                            : top_depth    - START DEPTH
STOP.M        335                            : bot_depth    - STOP DEPTH
STEP.M        0.25                           : increment    - STEP LENGTH
 NULL. -999.2500:NULL Value
~CURVE INFORMATION BLOCK
#MNEM UNIT       ERCB CURVE CODE    CURVE DESCRIPTION
#-----------   ------------------   ----------------------------------
DEPT.M        00 001 00 00         : DEPTH        - DEPTH
DPHI.V/V      00 890 00 00         : PHID         - DENSITY POROSITY (LIMESTONE)
NPHI.V/V      00 330 00 00         : PHIN         - NEUTRON POROSITY (LIMESTONE)
GR  .API      00 310 00 00         : GR           - GAMMA RAY
ILD .OHMM     00 120 00 00         : RESD         - DEEP RESISTIVITY (DIL)
RHOB.KG/M3    00 350 00 00         : DENS         - BULK DENSITY
~PARAMETER INFORMATION
#MNEM.UNIT           DATA             DESCRIPTION OF MNEMONIC
#---------         -----------     ------------------------------
GL  .M        560                  : gl           - GROUND LEVEL ELEVATION
EREF.M        563.58               : kb           - ELEVATION OF DEPTH REFERENCE
DATM.M        563.58               : datum        - DATUM ELEVATION
TDD .M        342                  : tdd          - TOTAL DEPTH DRILLER
RUN .         ONE                  : Run          - RUN NUMBER
ENG .         BILL                 : Engineer     - RECORDING ENGINEER
WIT .         JIM                  : Witness      - WITNESSED BY
MUD .         GEL                  : Mud_type     - MUD TYPE
MATR.         LIMESTONE            : Logunit      - NEUTRON MATRIX
TMAX.C        16                   : BHT          - MAXIMUM RECORDED TEMPERATURE
BHTD.M        342                  : BHTDEP       - MAXIMUM RECORDED TEMPERATURE
MATR.         1                    : LOGUNIT      - NEUTRON MATRIX
RMT .C        25                   : MDTP         - TEMPERATURE OF MUD
NEUT.         1                    : NEUTRON      - NEUTRON TYPE
RESI.         0                    : RESIST       - RESISTIVITY TYPE
RMC .OHMM     0.25                 : RMC          - RESISTIVITY OF MUD CAKE
RMF .OHMM     0.25                 : RMF          - RESISTIVITY OF MUD FILTRATE
SUFT.C        15                   : SUFT         - SURFACE TEMPERATURE
~A  DEPTH     PHID     PHIN       GR     RESD     DENS
# ...
  193.000    0.314    0.403   75.615   31.349    0.000
  193.250    0.321    0.391   80.533   30.787    0.000
  193.500    0.326    0.380   83.607   30.238    0.000
  193.750    0.335    0.372   73.156   29.700    0.000
  194.000    0.338    0.399   68.238   29.162    0.000
  194.250    0.338    0.393   76.230   28.652    0.000
  194.500    0.336    0.389   72.541   28.664    0.000
  194.750    0.332    0.391   71.311   28.157    0.000
  195.000    0.333    0.414   72.541   28.177    0.000
  195.250    0.338    0.408   71.926   27.667    0.000
  195.500    0.331    0.394   76.844   27.690    0.000
  195.750    0.327    0.397   76.844   27.199    0.000
  196.000    0.333    0.392   77.459   27.210    0.000
  196.250    0.346    0.407   73.156   27.236    0.000
  196.500    0.348    0.426   75.615   26.744    0.000
  196.750    0.333    0.416   75.615   26.770    0.000
  197.000    0.322    0.418   76.230   26.284    0.000
  197.250    0.321    0.410   74.385   26.303    0.000
  197.500    0.324    0.409   74.385   26.325    0.000
  197.750    0.321    0.397   71.926   26.338    0.000
  198.000    0.322    0.388   67.008   26.358    0.000
  198.250    0.326    0.416   75.000   26.879    0.000
  198.500    0.328    0.405   85.451   26.889    0.000
  198.750    0.328    0.408   86.680   27.416    0.000
  199.000    0.328    0.405   75.615   27.436    0.000
  199.250    0.327    0.402   68.238   27.978    0.000
  199.500    0.329    0.385   71.311   27.990    0.000
  199.750    0.331    0.391   63.934   28.006    0.000
  200.000    0.332    0.403   64.549   28.551    0.000
  200.250    0.332    0.393   67.623   28.570    0.000
  200.500    0.331    0.391   71.311   29.136    0.000
  200.750    0.330    0.393   71.926   29.148    0.000
  201.000    0.329    0.397   71.926   28.631    0.000
  201.250    0.330    0.393   73.156   28.117    0.000
  201.500    0.331    0.404   71.311   27.616    0.000
  201.750    0.331    0.396   77.459   26.626    0.000
  202.000    0.331    0.398   78.074   26.149    0.000
  202.250    0.330    0.402   81.147   25.686    0.000
  202.500    0.330    0.408   82.377   25.700    0.000
  202.750    0.332    0.408   76.230   26.201    0.000
  203.000    0.330    0.404   73.156   26.718    0.000
  203.250    0.327    0.400   75.000   26.735    0.000
  203.500    0.325    0.376   73.770   26.257    0.000
  203.750    0.325    0.376   79.303   25.786    0.000
  204.000    0.325    0.390   82.992   24.865    0.000
  204.250    0.325    0.392   76.230   24.417    0.000
  204.500    0.325    0.408   79.303   24.433    0.000
  204.750    0.324    0.416   78.689   23.993    0.000
  205.000    0.321    0.426   85.451   23.573    0.000
  205.250    0.321    0.420   87.910   23.149    0.000
  205.500    0.321    0.416   85.451   23.159    0.000
  205.750    0.324    0.411   76.844   22.328    0.000
  206.000    0.325    0.402   78.074   21.932    0.000
  206.250    0.326    0.391   83.607   21.536    0.000
  206.500    0.325    0.394   85.451   21.154    0.000
  206.750    0.325    0.414   79.303   20.775    0.000
  207.000    0.322    0.424   81.147   21.183    0.000
  207.250    0.320    0.433   81.762   21.199    0.000
  207.500    0.321    0.443   78.689   21.610    0.000
  207.750    0.325    0.446   82.992   21.223    0.000
  208.000    0.326    0.440   79.918   20.848    0.000
  208.250    0.325    0.441   84.836   20.096    0.000
  208.500    0.322    0.427   84.836   19.736    0.000
  208.750    0.320    0.419   80.533   19.027    0.000
  209.000    0.320    0.413   79.303   18.345    0.000
  209.250    0.320    0.413   80.533   18.019    0.000
  209.500    0.318    0.422   79.918   18.027    0.000
  209.750    0.314    0.416   83.607   18.038    0.000
  210.000    0.307    0.409   77.459   18.390    0.000
  210.250    0.301    0.422   79.918   18.750    0.000
  210.500    0.299    0.436   84.221   18.761    0.000
  210.750    0.303    0.429   78.689   18.776    0.000
  211.000    0.310    0.433   81.147   18.788    0.000
  211.250    0.311    0.427   78.074   18.110    0.000
  211.500    0.307    0.420   82.377   18.814    0.000
  211.750    0.307    0.430   87.295   19.180    0.000
  212.000    0.313    0.435   88.525   18.839    0.000
  212.250    0.320    0.453   85.451   17.496    0.000
  212.500    0.320    0.480   96.516   12.985    0.000
  212.750    0.320    0.513  121.721    7.704    0.000
  213.000    0.331    0.498  123.566    5.017    0.000
  213.250    0.338    0.496  115.574    3.588    0.000
  213.500    0.315    0.486  110.656    3.092    0.000
  213.750    0.294    0.444  101.434    3.152    0.000
  214.000    0.283    0.420   99.590    3.732    0.000
  214.250    0.275    0.451  107.582    4.585    0.000
  214.500    0.268    0.457  116.189    5.741    0.000
  214.750    0.260    0.441  128.484    7.602    0.000
  215.000    0.252    0.440  134.016    8.510    0.000
  215.250    0.246    0.442  132.787    8.356    0.000
  215.500    0.241    0.457  134.016    8.208    0.000
  215.750    0.238    0.463  130.943    7.624    0.000
  216.000    0.236    0.469  121.721    7.349    0.000
  216.250    0.232    0.462  118.648    7.217    0.000
  216.500    0.237    0.485  126.639    7.089    0.000
  216.750    0.247    0.508  133.402    6.961    0.000
  217.000    0.247    0.542  127.254    6.711    0.000
  217.250    0.242    0.558  136.475    6.470    0.000
  217.500    0.238    0.552  130.328    6.238    0.000
  217.750    0.237    0.540  127.254    6.013    0.000
  218.000    0.248    0.532  127.869    5.795    0.000
  218.250    0.301    0.493  123.566    5.586    0.000
  218.500    0.318    0.514  112.500    5.188    0.000
  218.750    0.327    0.529  121.107    4.818    0.000
  219.000    0.310    0.507  119.877    4.559    0.000
  219.250    0.299    0.491  122.336    4.477    0.000
  219.500    0.301    0.509  126.025    4.317    0.000
  219.750    0.315    0.564  122.336    4.239    0.000
  220.000    0.331    0.597  118.033    4.242    0.000
  220.250    0.346    0.607  121.107    4.325    0.000
  220.500    0.364    0.616  125.410    4.248    0.000
  220.750    0.381    0.620  130.328    4.095    0.000
  221.000    0.383    0.607  123.566    4.097    0.000
  221.250    0.346    0.565  126.025    4.673    0.000
  221.500    0.269    0.562  130.328    5.133    0.000
  221.750    0.258    0.546  121.721    5.746    0.000
  222.000    0.282    0.546  118.033    6.082    0.000
  222.250    0.313    0.536  121.721    6.200    0.000
  222.500    0.343    0.546  116.189    5.757    0.000
  222.750    0.336    0.571  118.033    5.056    0.000
  223.000    0.340    0.599  121.107    4.695    0.000
  223.250    0.358    0.613  121.721    4.361    0.000
  223.500    0.365    0.616  122.951    4.204    0.000
  223.750    0.358    0.610  114.344    4.052    0.000
  224.000    0.337    0.598  120.492    3.980    0.000
  224.250    0.335    0.574  122.336    3.908    0.000
  224.500    0.354    0.565  119.877    3.839    0.000
  224.750    0.374    0.562  118.033    3.770    0.000
  225.000    0.381    0.565  116.189    3.773    0.000
  225.250    0.403    0.577  119.262    3.992    0.000
  225.500    0.418    0.555  121.721    4.469    0.000
  225.750    0.370    0.503  114.344    5.097    0.000
  226.000    0.265    0.464  112.500    5.812    0.000
  226.250    0.257    0.438  106.352    6.627    0.000
  226.500    0.253    0.446  111.885    7.419    0.000
  226.750    0.259    0.462  110.041    7.999    0.000
  227.000    0.270    0.471  110.041    8.308    0.000
  227.250    0.258    0.507  114.344    8.011    0.000
  227.500    0.254    0.505  108.197    7.439    0.000
  227.750    0.251    0.498  103.893    7.305    0.000
  228.000    0.241    0.486  108.811    7.043    0.000
  228.250    0.240    0.432  106.967    7.455    0.000
  228.500    0.246    0.418  104.508    7.742    0.000
  228.750    0.253    0.413  106.352    8.507    0.000
  229.000    0.258    0.421  102.664    9.344    0.000
  229.250    0.255    0.415  102.664   10.265    0.000
