~VERSION INFORMATION
 VERS.                 2.0:   CWLS LOG ASCII STANDARD -VERSION 2.0
 WRAP.                  NO:   ONE LINE PER DEPTH STEP
~WELL INFORMATION BLOCK
#MNEM.UNIT           DATA                    DESCRIPTION OF MNEMONIC
#---------    -------------------            -------------------------------
# Generated from Intellog Unique Number	CC_88_90/WELL/1173
WELL.         10-11-089-16W4                 : Well_name    - WELL
LOC .         AA/10-11-089-16W4/0            : Location     - LOCATION
UWI .         AA/10-11-089-16W400            : Uwi          - UNIQUE WELL ID
ENTR.         DW                             : Entered      - ENTERED BY
SRVC.         SCHLUMBERGER                   : Scn          - SERVICE COMPANY
STRT.M        65                             : top_depth    - START DEPTH
STOP.M        249.75                         : bot_depth    - STOP DEPTH
STEP.M        0.25                           : increment    - STEP LENGTH
 NULL. -999.2500:NULL Value
~CURVE INFORMATION BLOCK
#MNEM UNIT       ERCB CURVE CODE    CURVE DESCRIPTION
#-----------   ------------------   ----------------------------------
DEPT.M        00 001 00 00         : DEPTH        - DEPTH
GR  .API      00 310 00 00         : GR           - GAMMA RAY
DPHI.V/V      00 890 00 00         : PHID         - DENSITY POROSITY (SANDSTONE)
NPHI.V/V      00 330 00 00         : PHIN         - NEUTRON POROSITY (SANDSTONE)
ILD .OHMM     00 120 00 00         : RESD         - DEEP RESISTIVITY (DIL)
~PARAMETER INFORMATION
#MNEM.UNIT           DATA             DESCRIPTION OF MNEMONIC
#---------         -----------     ------------------------------
GL  .M        509.6                : gl           - GROUND LEVEL ELEVATION
EREF.M        512.8                : kb           - ELEVATION OF DEPTH REFERENCE
DATM.M        512.8                : datum        - DATUM ELEVATION
TDD .M        258                  : tdd          - TOTAL DEPTH DRILLER
RUN .         ONE                  : Run          - RUN NUMBER
ENG .         BILL                 : Engineer     - RECORDING ENGINEER
WIT .         JIM                  : Witness      - WITNESSED BY
MUD .         GEL                  : Mud_type     - MUD TYPE
MATR.         SANDSTONE            : Logunit      - NEUTRON MATRIX
TMAX.C        25                   : BHT          - MAXIMUM RECORDED TEMPERATURE
BHTD.M        258                  : BHTDEP       - MAXIMUM RECORDED TEMPERATURE
MATR.         1                    : LOGUNIT      - NEUTRON MATRIX
RMT .C        25                   : MDTP         - TEMPERATURE OF MUD
NEUT.         1                    : NEUTRON      - NEUTRON TYPE
RESI.         0                    : RESIST       - RESISTIVITY TYPE
RMC .OHMM     0.25                 : RMC          - RESISTIVITY OF MUD CAKE
RMF .OHMM     0.25                 : RMF          - RESISTIVITY OF MUD FILTRATE
SUFT.C        15                   : SUFT         - SURFACE TEMPERATURE
~A  DEPTH       GR     PHID     PHIN     RESD
   65.000   71.304    0.315    0.558    9.040
   65.250   73.971    0.293    0.541    7.886
   65.500   75.404    0.334    0.531    6.627
   65.750   75.382    0.326    0.532    5.716
   66.000   74.714    0.316    0.575    5.085
   66.250   75.221    0.304    0.639    4.605
   66.500   77.994    0.221    0.654    4.415
   66.750   81.702    0.255    0.669    4.264
   67.000   83.130    0.317    0.674    4.338
   67.250   79.198    0.322    0.659    4.887
   67.500   73.511    0.312    0.620    5.566
   67.750   69.897    0.331    0.567    6.053
   68.000   66.244    0.358    0.535    6.422
   68.250   62.674    0.379    0.562    6.587
   68.500   65.044    0.399    0.580    7.221
   68.750   71.089    0.373    0.562    7.579
   69.000   70.812    0.349    0.568    7.679
   69.250   65.676    0.365    0.612    7.922
   69.500   67.403    0.354    0.614    7.888
   69.750   71.081    0.305    0.552    7.648
   70.000   73.437    0.278    0.503    7.361
   70.250   75.456    0.272    0.487    6.777
   70.500   80.207    0.276    0.505    6.274
   70.750   85.040    0.291    0.538    6.144
   71.000   84.545    0.304    0.556    6.052
   71.250   83.145    0.310    0.576    6.298
   71.500   79.767    0.317    0.554    7.012
   71.750   74.340    0.301    0.520    8.205
   72.000   69.070    0.302    0.524    9.411
   72.250   65.442    0.338    0.545   10.157
   72.500   63.579    0.353    0.533   10.429
   72.750   64.376    0.366    0.513   10.285
   73.000   66.850    0.348    0.534    9.992
   73.250   68.967    0.325    0.575    9.582
   73.500   70.055    0.333    0.556    8.698
   73.750   73.208    0.339    0.495    7.729
   74.000   79.484    0.311    0.496    7.563
   74.250   81.285    0.323    0.521    7.745
   74.500   80.715    0.342    0.551    8.545
   74.750   73.323    0.351    0.564    9.486
   75.000   65.869    0.351    0.549    9.930
   75.250   65.377    0.344    0.535   10.063
   75.500   66.513    0.339    0.560   10.398
   75.750   69.176    0.360    0.586   10.576
   76.000   70.092    0.376    0.563   10.613
   76.250   70.637    0.367    0.522   10.480
   76.500   71.941    0.338    0.493    9.865
   76.750   74.600    0.307    0.489    8.666
   77.000   79.349    0.292    0.515    7.539
   77.250   83.086    0.285    0.542    7.286
   77.500   85.177    0.267    0.559    7.003
   77.750   85.304    0.266    0.537    6.684
   78.000   84.610    0.278    0.512    5.963
   78.250   84.080    0.289    0.509    4.910
   78.500   82.971    0.309    0.514    4.529
   78.750   79.928    0.321    0.561    4.559
   79.000   71.112    0.275    0.592    5.123
   79.250   61.730    0.229    0.604    6.932
   79.500   55.657    0.263    0.574    9.013
   79.750   52.322    0.336    0.498   13.116
   80.000   49.712    0.355    0.446   21.156
   80.250   44.526    0.367    0.439   25.898
   80.500   40.653    0.409    0.468   28.524
   80.750   36.646    0.528    0.422   29.361
   81.000   35.004    0.490    0.338   28.801
   81.250   38.116    0.243    0.289   26.121
   81.500   41.638    0.142    0.281   21.131
   81.750   44.076    0.240    0.411   18.963
   82.000   48.033    0.305    0.469   15.799
   82.250   51.292    0.333    0.484   13.345
   82.500   55.349    0.345    0.505   12.243
   82.750   59.978    0.340    0.517   11.175
   83.000   61.248    0.365    0.528   10.716
   83.250   64.216    0.386    0.523   10.553
   83.500   67.257    0.396    0.521   10.265
   83.750   68.487    0.411    0.542    9.902
   84.000   70.208    0.449    0.593    9.214
   84.250   72.458    0.444    0.601    8.185
   84.500   71.016    0.352    0.517    7.483
   84.750   66.879    0.356    0.506    7.413
   85.000   63.589    0.396    0.520    7.947
   85.250   60.210    0.431    0.547    8.557
   85.500   56.937    0.452    0.577    9.052
   85.750   55.427    0.468    0.592    9.412
   86.000   55.572    0.482    0.602    9.543
   86.250   55.901    0.468    0.612    9.715
   86.500   52.448    0.479    0.624    9.547
   86.750   48.728    0.486    0.642    8.986
   87.000   48.636    0.526    0.664    8.163
   87.250   53.099    0.526    0.661    7.309
   87.500   60.415    0.371    0.612    6.790
   87.750   65.330    0.326    0.575    6.761
   88.000   67.582    0.348    0.553    7.015
   88.250   69.998    0.356    0.562    8.162
   88.500   71.891    0.347    0.562   10.715
   88.750   70.060    0.313    0.532   14.807
   89.000   64.663    0.243    0.514   19.084
   89.250   59.905    0.201    0.482   20.215
   89.500   57.161    0.176    0.397   19.817
   89.750   61.739    0.194    0.389   18.618
   90.000   68.626    0.242    0.444   17.110
   90.250   72.022    0.261    0.470   15.376
   90.500   75.033    0.242    0.486   12.841
   90.750   76.053    0.258    0.494   10.210
   91.000   78.246    0.258    0.453    7.622
   91.250   85.872    0.249    0.445    5.865
   91.500   94.484    0.272    0.504    5.023
   91.750   98.052    0.309    0.558    4.573
   92.000   97.712    0.313    0.576    4.385
   92.250   95.359    0.318    0.626    4.443
   92.500   91.340    0.304    0.594    4.566
   92.750   90.491    0.289    0.562    4.782
   93.000   93.541    0.288    0.576    4.935
   93.250   95.049    0.293    0.593    4.887
   93.500   90.889    0.300    0.614    4.811
   93.750   84.374    0.304    0.640    4.798
   94.000   82.319    0.302    0.658    4.879
   94.250   81.593    0.303    0.673    4.871
   94.500   79.613    0.316    0.673    4.760
   94.750   84.459    0.331    0.641    4.578
   95.000   98.179    0.325    0.612    4.290
   95.250   99.814    0.307    0.634    4.090
   95.500   98.413    0.297    0.656    3.900
   95.750   95.200    0.297    0.665    3.751
   96.000   94.637    0.301    0.673    3.647
   96.250   96.795    0.308    0.683    3.630
   96.500   93.203    0.321    0.693    3.755
   96.750   91.688    0.329    0.699    3.817
   97.000   94.978    0.318    0.693    3.851
   97.250  101.773    0.306    0.692    3.704
   97.500  105.203    0.306    0.696    3.457
   97.750  102.153    0.306    0.674    3.339
   98.000   98.665    0.298    0.613    3.349
   98.250   98.476    0.292    0.565    3.395
   98.500   99.166    0.291    0.561    3.502
   98.750   98.990    0.278    0.579    3.572
   99.000   96.808    0.233    0.601    3.653
   99.250   91.909    0.190    0.625    3.754
   99.500   89.368    0.209    0.638    3.744
   99.750   98.069    0.254    0.632    3.740
  100.000  102.450    0.278    0.632    3.771
  100.250   98.963    0.276    0.638    3.918
  100.500   98.134    0.266    0.615    4.087
  100.750  102.154    0.262    0.570    4.093
  101.000  101.598    0.269    0.563    3.955
  101.250   97.226    0.284    0.583    3.882
  101.500   91.349    0.289    0.606    3.912
  101.750   89.582    0.293    0.621    4.055
  102.000   89.425    0.300    0.641    4.480
  102.250   86.864    0.313    0.655    5.196
  102.500   83.703    0.334    0.616    6.088
  102.750   78.610    0.355    0.553    7.279
  103.000   73.687    0.371    0.552    8.141
  103.250   69.617    0.271    0.612    9.416
  103.500   65.112    0.166    0.542   11.229
  103.750   60.905    0.183    0.399   12.632
  104.000   63.349    0.228    0.459   13.149
  104.250   76.959    0.265    0.498   13.361
  104.500   83.781    0.272    0.509   13.477
  104.750   86.811    0.282    0.523   13.009
  105.000   84.007    0.307    0.513   11.956
  105.250   75.648    0.322    0.477   10.241
  105.500   75.573    0.320    0.465    7.899
  105.750   80.904    0.304    0.499    6.436
  106.000   82.646    0.268    0.545    5.106
  106.250   84.299    0.224    0.589    4.266
  106.500   84.996    0.198    0.583    4.016
  106.750   80.420    0.233    0.544    4.294
  107.000   75.502    0.321    0.540    5.213
  107.250   77.134    0.340    0.514    5.761
  107.500   75.184    0.359    0.536    6.132
  107.750   69.716    0.382    0.547    6.556
  108.000   68.691    0.386    0.526    7.204
  108.250   72.370    0.356    0.531    7.803
