~VERSION INFORMATION
 VERS.                 2.0:   CWLS LOG ASCII STANDARD -VERSION 2.0
 WRAP.                  NO:   ONE LINE PER DEPTH STEP
~WELL INFORMATION BLOCK
#MNEM.UNIT           DATA                    DESCRIPTION OF MNEMONIC
#---------    -------------------            -------------------------------
# Generated from Intellog Unique Number	CN_91_93/WELL/1171
WELL.         12-08-091-14W4                 : Well_name    - WELL
LOC .         AA/12-08-091-14W4/0            : Location     - LOCATION
UWI .         AA/12-08-091-14W400            : Uwi          - UNIQUE WELL ID
ENTR.         JOETTE                         : Entered      - ENTERED BY
SRVC.         SCHLUMBERGER                   : Scn          - SERVICE COMPANY
STRT.F        246.063                        : top_depth    - START DEPTH
STOP.F        656.168                        : bot_depth    - STOP DEPTH
STEP.F        0.82                           : increment    - STEP LENGTH
 NULL. -999.2500:NULL Value
~CURVE INFORMATION BLOCK
#MNEM UNIT       ERCB CURVE CODE    CURVE DESCRIPTION
#-----------   ------------------   ----------------------------------
DEPT.F        00 001 00 00         : DEPTH        - DEPTH
ILD .OHMM     00 120 00 00         : RESD         - DEEP RESISTIVITY (DIL)
DPHI.V/V      00 890 00 00         : PHID         - DENSITY POROSITY (SANDSTONE)
CALI.IN       00 280 01 00         : CAL          - CALIPER
GR  .API      00 310 00 00         : GR           - GAMMA RAY
~PARAMETER INFORMATION
#MNEM.UNIT           DATA             DESCRIPTION OF MNEMONIC
#---------         -----------     ------------------------------
GL  .M        475.5                : gl           - GROUND LEVEL ELEVATION
EREF.M        478.5                : kb           - ELEVATION OF DEPTH REFERENCE
DATM.M        478.5                : datum        - DATUM ELEVATION
TDD .M        208.7                : tdd          - TOTAL DEPTH DRILLER
RUN .         ONE                  : Run          - RUN NUMBER
ENG .         BILL                 : Engineer     - RECORDING ENGINEER
WIT .         JIM                  : Witness      - WITNESSED BY
MUD .         GEL                  : Mud_type     - MUD TYPE
MATR.         SANDSTONE            : Logunit      - NEUTRON MATRIX
TMAX.F        140                  : BHT          - MAXIMUM RECORDED TEMPERATURE
BHTD.F        6797.9               : BHTDEP       - MAXIMUM RECORDED TEMPERATURE
RMT .F        77                   : MDTP         - TEMPERATURE OF MUD
MUDD.LB/G     9.5                  : MWT          - MUD DENSITY
NEUT.         1                    : NEUTRON      - NEUTRON TYPE
RESI.         0                    : RESIST       - RESISTIVITY TYPE
RM  .OHMM     1.43                 : RM           - RESISTIVITY OF MUD
RMC .OHMM     0.25                 : RMC          - RESISTIVITY OF MUD CAKE
RMF .OHMM     1.88                 : RMF          - RESISTIVITY OF MUD FILTRATE
SUFT.F        39.2                 : SUFT         - SURFACE TEMPERATURE
~A  DEPTH     RESD     PHID      CAL       GR
  246.063    4.976    0.349   10.210   71.315
  246.883    4.716    0.333   10.528   75.561
  247.703    4.349    0.361   10.551   81.616
  248.524    3.903    0.385   10.653   81.668
  249.344    3.766    0.451   10.677   75.126
  250.164    4.096    0.468   11.408   65.589
  250.984    4.538    0.509   10.782   59.352
  251.804    5.166    0.433   10.117   63.304
  252.625    6.750    0.366    9.472   63.663
  253.445    7.973    0.326    8.354   62.218
  254.265    8.436    0.270    8.083   60.467
  255.085    8.606    0.275    8.264   69.504
  255.906    8.386    0.334    8.523   77.955
  256.726    7.873    0.373    8.585   75.306
  257.546    7.329    0.385    8.608   69.668
  258.366    7.339    0.440    8.514   65.834
  259.186    7.283    0.475    8.713   64.390
  260.007    7.096    0.477    8.992   61.441
  260.827    6.725    0.438    8.838   62.991
  261.647    5.816    0.327    8.842   71.435
  262.467    4.849    0.323    8.590   80.791
  263.287    4.596    0.311    8.181   81.729
  264.108    4.602    0.300    8.204   83.878
  264.928    4.782    0.306    8.247   85.435
  265.748    5.201    0.314    8.270   85.188
  266.568    5.976    0.323    8.254   85.546
  267.388    6.867    0.324    8.238   84.394
  268.209    7.964    0.326    8.261   83.848
  269.029    8.740    0.310    8.343   80.313
  269.849    9.333    0.316    8.464   77.963
  270.669   10.245    0.321    8.586   75.327
  271.490   11.350    0.310    8.512   74.774
  272.310   12.006    0.288    8.397   74.834
  273.130   11.593    0.282    8.302   71.585
  273.950   10.788    0.291    8.286   67.152
  274.770    9.501    0.326    8.761   63.005
  275.591    8.761    0.368   10.455   59.770
  276.411    7.860    0.367   10.419   63.416
  277.231    7.450    0.324    9.420   65.266
  278.051    6.870    0.274    9.070   67.415
  278.871    6.052    0.205    8.660   68.672
  279.692    5.683    0.148    7.995   69.024
  280.512    5.242    0.113    7.783   67.586
  281.332    4.790    0.243    7.728   76.017
  282.152    4.457    0.259    7.771  108.433
  282.972    4.186    0.265    7.774  107.900
  283.793    4.153    0.259    7.699  107.047
  284.613    4.238    0.239    7.663  109.795
  285.433    4.283    0.233    7.765  106.261
  286.253    4.408    0.219    7.866  101.814
  287.073    4.455    0.235    7.988  104.269
  287.894    4.263    0.248    8.011  108.808
  288.714    4.152    0.235    7.975  110.371
  289.534    4.009    0.237    8.038  112.220
  290.354    3.871    0.238    8.100  113.464
  291.175    3.841    0.211    8.163  108.725
  291.995    3.916    0.191    8.167   98.888
  292.815    4.146    0.164    8.229   90.855
  293.635    4.188    0.234    8.330   88.518
  294.455    4.195    0.288    8.452   98.154
  295.276    4.562    0.310    8.770   95.511
  296.096    5.798    0.338    9.069   77.888
  296.916    7.645    0.354    8.974   60.264
  297.736   10.553    0.287    9.351   58.520
  298.556   12.237    0.298    9.177   63.065
  299.377   14.063    0.306    9.064   61.620
  300.197   14.088    0.269    9.264   64.075
  301.017   13.351    0.246    9.168   68.620
  301.837   12.541    0.190    9.211   67.474
  302.657   12.555    0.203    9.313   61.238
  303.478   12.693    0.238    9.356   58.595
  304.298   12.254    0.302    9.438   56.857
  305.118   12.496    0.290    9.481   57.808
  305.938   14.760    0.259    9.484   59.957
  306.759   14.515    0.196    9.625   59.411
  307.579   13.888    0.219    9.472   56.475
  308.399   15.806    0.239    9.043   58.917
  309.219   14.984    0.261    8.889   67.362
  310.039   14.070    0.264    8.834   78.508
  310.860   13.097    0.245    8.798   84.244
  311.680   12.641    0.238    8.703   86.107
  312.500   11.988    0.236    8.628   84.955
  313.320   11.154    0.247    8.573   87.403
  314.140   10.474    0.255    8.556   87.456
  314.961   10.300    0.275    8.580   77.625
  315.781   10.797    0.268    8.622   66.890
  316.601   12.073    0.264    8.646   58.857
  317.421   12.091    0.276    8.689   58.310
  318.241   11.995    0.268    8.712   66.149
  319.062   10.665    0.229    8.754   70.707
  319.882   10.204    0.235    8.777   67.765
  320.702    9.850    0.302    8.702   66.320
  321.522    9.506    0.323    8.569   63.970
  322.343    9.875    0.348    8.651   62.233
  323.163   11.774    0.354    9.185   61.094
  323.983   12.117    0.344    9.070   60.534
  324.803   12.590    0.328    8.759   60.287
  325.623   14.076    0.317    8.429   60.945
  326.444   14.492    0.321    8.432   63.094
  327.264   14.375    0.323    8.573   64.651
  328.084   13.753    0.315    8.754   64.703
  328.904   13.773    0.307    8.404   66.859
  329.724   13.542    0.287    8.270   70.199
  330.545   12.720    0.273    8.333   72.049
  331.365   11.621    0.209    8.454   79.002
  332.185    9.513    0.246    8.555   80.845
  333.005    8.004    0.262    8.539   85.995
  333.825    7.182    0.278    8.464   83.359
  334.646    8.480    0.285    8.467   77.116
  335.466   10.979    0.278    8.432   71.172
  336.286   12.850    0.282    8.357   67.338
  337.106   14.499    0.281    8.302   65.887
  337.927   15.621    0.280    8.325   62.352
  338.747   14.143    0.262    8.387   66.005
  339.567   13.534    0.254    8.410   66.650
  340.387   12.828    0.299    8.374   73.304
  341.207   12.380    0.317    8.359   78.149
  342.028   11.005    0.322    8.381   75.799
  342.848   10.529    0.322    8.463   73.768
  343.668   11.244    0.320    8.408   73.508
  344.488   11.364    0.314    8.195   75.078
  345.308   10.673    0.304    7.963   75.723
  346.129   11.085    0.274    7.908   74.271
  346.949   12.508    0.221    7.892   75.828
  347.769   10.239    0.250    7.875   74.077
  348.589    7.105    0.267    7.859   80.126
  349.409    5.816    0.311    7.843   87.978
  350.230    4.423    0.314    7.867   92.516
  351.050    3.621    0.310    7.890   99.170
  351.870    3.132    0.307    7.933  100.720
  352.690    2.915    0.286    7.955  100.174
  353.510    2.738    0.286    7.959   98.123
  354.331    2.949    0.270    7.943   94.296
  355.151    3.818    0.250    7.946   91.041
  355.971    4.943    0.226    7.989   91.100
  356.791    6.400    0.230    8.032   97.455
  357.612    7.840    0.234    8.075   99.890
  358.432    8.766    0.227    8.118  101.147
  359.252    8.385    0.219    8.122   98.804
  360.072    8.872    0.210    8.086   97.059
  360.892   10.195    0.172    8.090   94.716
  361.713   11.822    0.173    8.131   89.977
  362.533   13.102    0.244    8.234   93.024
  363.353   13.361    0.252    8.296   91.879
  364.173   13.258    0.247    8.398   89.536
  364.993   13.156    0.241    8.460   90.493
  365.814   13.421    0.250    8.504   90.845
  366.634   15.559    0.261    8.389   87.604
  367.454   16.312    0.282    8.117   84.062
  368.274   15.183    0.300    7.826   81.426
  369.094   15.921    0.309    7.731   80.268
  369.915   16.691    0.294    7.734   78.530
  370.735   16.559    0.290    7.699   75.881
  371.555   15.986    0.311    7.624   75.933
  372.375   16.606    0.299    7.568   73.597
  373.196   16.786    0.288    7.552   72.764
  374.016   16.360    0.281    7.556   73.103
  374.836   15.646    0.295    7.559   74.060
  375.656   15.669    0.282    7.544   75.317
  376.476   17.355    0.272    7.527   78.358
  377.297   17.543    0.283    7.491   78.717
  378.117   15.881    0.283    7.455   76.666
  378.937   14.117    0.285    7.439   78.815
  379.757   14.534    0.289    7.443   77.670
  380.577   15.516    0.272    7.426   73.530
  381.398   17.351    0.248    7.450   74.780
  382.218   19.039    0.229    7.435   73.335
  383.038   19.070    0.205    7.417   70.692
  383.858   21.317    0.230    7.382   68.649
  384.678   25.642    0.250    7.365   68.421
  385.499   28.669    0.199    7.369   70.863
  386.319   27.676    0.183    7.431   71.515
  387.139   26.002    0.202    7.474   71.574
  387.959   27.251    0.227    7.459   74.921
