~VERSION INFORMATION
 VERS.                 2.0:   CWLS LOG ASCII STANDARD -VERSION 2.0
 WRAP.                  NO:   ONE LINE PER DEPTH STEP
~WELL INFORMATION BLOCK
#MNEM.UNIT           DATA                    DESCRIPTION OF MNEMONIC
#---------    -------------------            -------------------------------
# Generated from Intellog Unique Number	CX_WELLS/WELL/1182
WELL.         10-26-088-16W4                 : Well_name    - WELL
LOC .         AA/10-26-088-16W4/0            : Location     - LOCATION
UWI .         AA/10-26-088-16W400            : Uwi          - UNIQUE WELL ID
ENTR.         DW                             : Entered      - ENTERED BY
SRVC.         SCHLUMBERGER                   : Scn          - SERVICE COMPANY
STRT.M        85                             : top_depth    - START DEPTH
STOP.M        275                            : bot_depth    - STOP DEPTH
STEP.M        0.25                           : increment    - STEP LENGTH
 NULL. -999.2500:NULL Value
~CURVE INFORMATION BLOCK
#MNEM UNIT       ERCB CURVE CODE    CURVE DESCRIPTION
#-----------   ------------------   ----------------------------------
DEPT.M        00 001 00 00         : DEPTH        - DEPTH
GR  .API      00 310 00 00         : GR           - GAMMA RAY
NPHI.V/V      00 330 00 00         : PHIN         - NEUTRON POROSITY (SANDSTONE)
DPHI.V/V      00 890 00 00         : PHID         - DENSITY POROSITY (SANDSTONE)
ILD .OHMM     00 120 00 00         : RESD         - DEEP RESISTIVITY (DIL)
~PARAMETER INFORMATION
#MNEM.UNIT           DATA             DESCRIPTION OF MNEMONIC
#---------         -----------     ------------------------------
GL  .M        537.55               : gl           - GROUND LEVEL ELEVATION
EREF.M        540.75               : kb           - ELEVATION OF DEPTH REFERENCE
DATM.M        540.75               : datum        - DATUM ELEVATION
TDD .M        282                  : tdd          - TOTAL DEPTH DRILLER
RUN .         ONE                  : Run          - RUN NUMBER
ENG .         BILL                 : Engineer     - RECORDING ENGINEER
WIT .         JIM                  : Witness      - WITNESSED BY
MUD .         GEL                  : Mud_type     - MUD TYPE
MATR.         SANDSTONE            : Logunit      - NEUTRON MATRIX
TMAX.C        32.7                 : BHT          - MAXIMUM RECORDED TEMPERATURE
BHTD.M        282                  : BHTDEP       - MAXIMUM RECORDED TEMPERATURE
MATR.         1                    : LOGUNIT      - NEUTRON MATRIX
RMT .C        25                   : MDTP         - TEMPERATURE OF MUD
NEUT.         1                    : NEUTRON      - NEUTRON TYPE
RESI.         0                    : RESIST       - RESISTIVITY TYPE
RMC .OHMM     0.25                 : RMC          - RESISTIVITY OF MUD CAKE
RMF .OHMM     0.25                 : RMF          - RESISTIVITY OF MUD FILTRATE
SUFT.C        15                   : SUFT         - SURFACE TEMPERATURE
~A  DEPTH       GR     PHIN     PHID     RESD
   85.000   60.810    0.475    0.412   29.721
   85.250   60.271    0.473    0.415   29.241
   85.500   59.773    0.476    0.416   29.862
   85.750   60.456    0.468    0.411   30.449
   86.000   62.362    0.464    0.401   31.658
   86.250   63.646    0.467    0.388   31.725
   86.500   65.531    0.480    0.372   31.808
   86.750   65.013    0.499    0.357   32.468
   87.000   63.292    0.524    0.315   34.384
   87.250   59.788    0.536    0.291   36.413
   87.500   58.047    0.439    0.203   41.554
   87.750   55.103    0.379    0.098   43.960
   88.000   52.801    0.344    0.120   50.139
   88.250   55.889    0.363    0.147   55.090
   88.500   58.977    0.385    0.184   46.775
   88.750   61.442    0.414    0.207   37.581
   89.000   63.970    0.454    0.211   33.123
   89.250   63.451    0.471    0.232   32.604
   89.500   62.331    0.479    0.255   32.655
   89.750   61.211    0.484    0.294   32.127
   90.000   60.672    0.488    0.390   31.590
   90.250   60.174    0.492    0.392   31.079
   90.500   60.235    0.498    0.392   30.034
   90.750   60.939    0.494    0.392   26.949
   91.000   63.426    0.486    0.389   22.870
   91.250   65.290    0.480    0.385   19.768
   91.500   70.222    0.469    0.382   12.970
   91.750   72.688    0.472    0.357   11.012
   92.000   78.180    0.482    0.324    9.706
   92.250   88.501    0.501    0.310   14.848
   92.500   88.583    0.521    0.319   17.897
   92.750   82.655    0.557    0.342   20.402
   93.000   73.120    0.534    0.359   24.591
   93.250   67.171    0.476    0.380   27.536
   93.500   61.242    0.466    0.380   30.834
   93.750   57.117    0.467    0.377   32.041
   94.000   55.396    0.470    0.376   32.723
   94.250   54.898    0.467    0.377   32.774
   94.500   54.960    0.464    0.383   33.471
   94.750   54.441    0.461    0.385   33.524
   95.000   54.523    0.464    0.385   34.892
   95.250   54.626    0.470    0.385   34.965
   95.500   54.708    0.482    0.385   35.020
   95.750   55.391    0.484    0.385   34.472
   96.000   56.075    0.482    0.386   32.653
   96.250   56.758    0.479    0.390   29.299
   96.500   59.265    0.478    0.395   19.602
   96.750   60.529    0.482    0.402   17.560
   97.000   64.238    0.486    0.398   11.954
   97.250   67.968    0.489    0.379    9.604
   97.500   70.413    0.494    0.372    7.860
   97.750   74.703    0.494    0.362    6.548
   98.000   81.417    0.519    0.292    5.663
   98.250   99.552    0.542    0.250    4.721
   98.500  109.893    0.560    0.278    4.238
   98.750  110.556    0.563    0.305    4.095
   99.000  110.037    0.549    0.314    4.025
   99.250  105.912    0.555    0.319    4.033
   99.500  102.367    0.570    0.319    4.351
   99.750  100.667    0.576    0.326    4.872
  100.000  103.153    0.595    0.330    5.353
  100.250  102.033    0.612    0.327    6.102
  100.500   96.685    0.627    0.305    6.956
  100.750   90.156    0.620    0.303    9.026
  101.000   80.020    0.558    0.304   14.348
  101.250   73.470    0.439    0.305   16.057
  101.500   71.148    0.438    0.315   17.634
  101.750   75.499    0.439    0.326   19.756
  102.000   75.561    0.441    0.352   20.911
  102.250   75.664    0.445    0.367   21.753
  102.500   75.705    0.449    0.357   21.798
  102.750   75.808    0.454    0.347   20.293
  103.000   75.890    0.452    0.333   18.209
  103.250   76.552    0.445    0.317   15.739
  103.500   80.282    0.435    0.309   12.887
  103.750   83.950    0.427    0.316   11.766
  104.000   87.639    0.436    0.323   10.181
  104.250   96.758    0.450    0.316    9.130
  104.500  104.654    0.466    0.325    8.043
  104.750  114.974    0.572    0.333    7.085
  105.000  119.886    0.627    0.323    6.245
  105.250  121.191    0.639    0.310    5.501
  105.500  121.273    0.589    0.303    5.313
  105.750  121.956    0.602    0.308    5.322
  106.000  122.639    0.619    0.282    5.438
  106.250  123.323    0.625    0.271    5.446
  106.500  125.229    0.568    0.265    5.556
  106.750  125.871    0.555    0.265    5.672
  107.000  125.953    0.560    0.259    6.013
  107.250  125.475    0.560    0.246    6.137
  107.500  125.537    0.549    0.251    6.268
  107.750  125.018    0.541    0.258    6.274
  108.000  124.499    0.548    0.264    6.408
  108.250  123.400    0.558    0.270    6.537
  108.500  122.861    0.565    0.265    6.554
  108.750  122.342    0.562    0.259    6.572
  109.000  122.444    0.562    0.251    6.708
  109.250  122.527    0.558    0.245    6.722
  109.500  122.609    0.542    0.236    6.740
  109.750  122.712    0.538    0.236    6.747
  110.000  123.374    0.547    0.237    6.398
  110.250  124.700    0.561    0.239    6.066
  110.500  124.741    0.567    0.240    5.650
  110.750  124.844    0.571    0.240    5.361
  111.000  124.905    0.575    0.247    5.172
  111.250  124.407    0.579    0.253    4.996
  111.500  124.489    0.579    0.268    4.996
  111.750  123.970    0.588    0.282    4.841
  112.000  122.851    0.615    0.311    4.585
  112.250  122.332    0.624    0.325    4.269
  112.500  121.212    0.619    0.334    4.123
  112.750  120.092    0.624    0.338    3.914
  113.000  117.790    0.627    0.339    3.848
  113.250  115.448    0.631    0.339    3.715
  113.500  114.328    0.626    0.338    3.523
  113.750  113.809    0.632    0.335    3.466
  114.000  112.669    0.634    0.327    3.605
  114.250  110.948    0.630    0.317    3.750
  114.500  107.424    0.624    0.301    3.760
  114.750  101.495    0.615    0.268    3.766
  115.000   97.411    0.603    0.254    3.772
  115.250   98.654    0.594    0.230    3.784
  115.500  102.964    0.582    0.295    3.860
  115.750  106.052    0.572    0.320    4.164
  116.000  108.538    0.574    0.320    4.576
  116.250  108.020    0.578    0.316    5.316
  116.500  105.096    0.581    0.321    6.057
  116.750   99.769    0.586    0.329    7.858
  117.000   95.022    0.583    0.329   10.005
  117.250   87.291    0.530    0.325   12.744
  117.500   82.564    0.488    0.316   14.798
  117.750   77.237    0.464    0.307   16.259
  118.000   73.692    0.460    0.321   18.889
  118.250   67.764    0.463    0.338   20.025
  118.500   64.240    0.470    0.331   20.067
  118.750   61.337    0.474    0.326   20.472
  119.000   60.798    0.455    0.320   20.886
  119.250   59.678    0.449    0.323   20.930
  119.500   59.159    0.444    0.329   20.985
  119.750   60.464    0.440    0.344   21.018
  120.000   62.370    0.434    0.357   21.465
  120.250   64.255    0.431    0.354   22.732
  120.500   64.317    0.430    0.350   25.441
  120.750   63.798    0.436    0.347   35.532
  121.000   63.300    0.444    0.334   49.599
  121.250   62.760    0.467    0.256   69.273
  121.500   61.682    0.468    0.206   88.195
  121.750   61.723    0.441    0.141   95.286
  122.000   61.825    0.416    0.085   85.454
  122.250   60.125    0.164    0.066   79.469
  122.500   58.964    0.159    0.035   61.539
  122.750   57.243    0.166    0.014   51.297
  123.000   52.517    0.219    0.014   41.980
  123.250   52.640    0.266    0.039   36.306
  123.500   53.303    0.321    0.247   31.399
  123.750   53.966    0.360    0.283   28.159
  124.000   57.675    0.397    0.323   24.818
  124.250   58.358    0.455    0.333   23.546
  124.500   58.461    0.472    0.346   23.571
  124.750   57.942    0.459    0.353   22.779
  125.000   56.843    0.453    0.351   22.434
  125.250   56.283    0.459    0.348   22.469
  125.500   55.784    0.460    0.346   22.935
  125.750   55.286    0.460    0.349   23.410
  126.000   54.747    0.464    0.352   23.459
  126.250   55.430    0.467    0.354   23.509
  126.500   56.093    0.469    0.354   23.558
  126.750   58.019    0.472    0.354   23.595
  127.000   58.702    0.472    0.354   23.214
  127.250   58.785    0.474    0.356   22.850
  127.500   58.846    0.474    0.362   21.668
  127.750   58.949    0.463    0.370   21.317
  128.000   59.011    0.460    0.374   20.235
  128.250   59.114    0.458    0.376   19.524
