~VERSION INFORMATION
 VERS.                 2.0:   CWLS LOG ASCII STANDARD -VERSION 2.0
 WRAP.                  NO:   ONE LINE PER DEPTH STEP
~WELL INFORMATION BLOCK
#MNEM.UNIT           DATA                    DESCRIPTION OF MNEMONIC
#---------    -------------------            -------------------------------
# Generated from Intellog Unique Number	CS_77_79/WELL/933
WELL.         LEISMER OV                     : Well_name    - WELL
LOC .         AA/10-08-079-08W4/0            : Location     - LOCATION
UWI .         AA/10-08-079-08W4/0            : Uwi          - UNIQUE WELL ID
ENTR.         JHS                            : Entered      - ENTERED BY
SRVC.         SCHLUMBERGER                   : Scn          - SERVICE COMPANY
STRT.M        145                            : top_depth    - START DEPTH
STOP.M        400                            : bot_depth    - STOP DEPTH
STEP.M        0.25                           : increment    - STEP LENGTH
 NULL. -999.2500:NULL Value
~CURVE INFORMATION BLOCK
#MNEM UNIT       ERCB CURVE CODE    CURVE DESCRIPTION
#-----------   ------------------   ----------------------------------
DEPT.M        00 001 00 00         : DEPTH        - DEPTH
DPHI.V/V      00 890 00 00         : PHID         - DENSITY POROSITY (LIMESTONE)
NPHI.V/V      00 330 00 00         : PHIN         - NEUTRON POROSITY (LIMESTONE)
GR  .API      00 310 00 00         : GR           - GAMMA RAY
ILD .OHMM     00 120 00 00         : RESD         - DEEP RESISTIVITY (DIL)
RHOB.KG/M3    00 350 00 00         : DENS         - BULK DENSITY
~PARAMETER INFORMATION
#MNEM.UNIT           DATA             DESCRIPTION OF MNEMONIC
#---------         -----------     ------------------------------
GL  .M        611.36               : gl           - GROUND LEVEL ELEVATION
EREF.M        614.94               : kb           - ELEVATION OF DEPTH REFERENCE
DATM.M        614.94               : datum        - DATUM ELEVATION
TDD .M        407                  : tdd          - TOTAL DEPTH DRILLER
RUN .         ONE                  : Run          - RUN NUMBER
ENG .         BILL                 : Engineer     - RECORDING ENGINEER
WIT .         JIM                  : Witness      - WITNESSED BY
MUD .         GEL                  : Mud_type     - MUD TYPE
MATR.         LIMESTONE            : Logunit      - NEUTRON MATRIX
TMAX.C        17                   : BHT          - MAXIMUM RECORDED TEMPERATURE
BHTD.M        407                  : BHTDEP       - MAXIMUM RECORDED TEMPERATURE
MATR.         1                    : LOGUNIT      - NEUTRON MATRIX
RMT .C        25                   : MDTP         - TEMPERATURE OF MUD
NEUT.         1                    : NEUTRON      - NEUTRON TYPE
RESI.         0                    : RESIST       - RESISTIVITY TYPE
RMC .OHMM     0.25                 : RMC          - RESISTIVITY OF MUD CAKE
RMF .OHMM     0.25                 : RMF          - RESISTIVITY OF MUD FILTRATE
SUFT.C        15                   : SUFT         - SURFACE TEMPERATURE
~A  DEPTH     PHID     PHIN       GR     RESD     DENS
# ...
  181.500    0.250    0.406  115.284    3.175    0.000
  181.750    0.249    0.409  115.297    3.177    0.000
  182.000    0.247    0.407  117.147    3.178    0.000
  182.250    0.236    0.401  118.388    3.364    0.000
  182.500    0.234    0.387  118.401    3.561    0.000
  182.750    0.237    0.381  118.415    3.631    0.000
  183.000    0.237    0.376  118.427    3.632    0.000
  183.250    0.231    0.374  119.666    3.634    0.000
  183.500    0.228    0.375  121.517    3.775    0.000
  183.750    0.226    0.374  122.142    4.307    0.000
  184.000    0.217    0.365  117.258    4.732    0.000
  184.250    0.192    0.342  106.251    5.008    0.000
  184.500    0.162    0.325   88.508    5.106    0.000
  184.750    0.143    0.322   85.462    5.014    0.000
  185.000    0.162    0.354   96.497    4.569    0.000
  185.250    0.231    0.382  106.306    4.086    0.000
  185.500    0.238    0.382  112.445    3.724    0.000
  185.750    0.226    0.381  113.681    3.657    0.000
  186.000    0.216    0.377  116.144    3.728    0.000
  186.250    0.207    0.371  114.322    4.096    0.000
  186.500    0.211    0.368  111.275    4.672    0.000
  186.750    0.218    0.366  108.838    5.430    0.000
  187.000    0.222    0.355  105.792    6.553    0.000
  187.250    0.223    0.356  110.090    7.337    0.000
  187.500    0.225    0.360  116.840    7.913    0.000
  187.750    0.229    0.354  121.143    7.916    0.000
  188.000    0.231    0.349  121.155    7.629    0.000
  188.250    0.225    0.354  118.716    7.083    0.000
  188.500    0.208    0.362  118.120    6.576    0.000
  188.750    0.195    0.365  123.643    6.339    0.000
  189.000    0.182    0.372  129.783    6.342    0.000
  189.250    0.176    0.377  131.630    7.234    0.000
  189.500    0.185    0.362  131.031    8.729    0.000
  189.750    0.209    0.356  132.881   10.145    0.000
  190.000    0.217    0.352  134.735   11.146    0.000
  190.250    0.214    0.350  133.520   11.798    0.000
  190.500    0.214    0.348  130.475   11.587    0.000
  190.750    0.214    0.346  129.263   11.167    0.000
  191.000    0.209    0.345  127.441   10.178    0.000
  191.250    0.209    0.346  126.231    9.809    0.000
  191.500    0.212    0.352  128.079    9.454    0.000
  191.750    0.210    0.359  125.036    9.639    0.000
  192.000    0.210    0.359  121.374   10.201    0.000
  192.250    0.220    0.346  114.653   11.419    0.000
  192.500    0.242    0.340  106.094   12.785    0.000
  192.750    0.270    0.336   95.088   14.313    0.000
  193.000    0.280    0.336   88.980   15.150    0.000
  193.250    0.291    0.334   84.708   15.737    0.000
  193.500    0.292    0.340   81.049   16.044    0.000
  193.750    0.293    0.330   75.551   15.758    0.000
  194.000    0.281    0.325   69.442   15.770    0.000
  194.250    0.245    0.329   70.069   15.775    0.000
  194.500    0.226    0.335   77.430   15.495    0.000
  194.750    0.243    0.343   84.790   15.214    0.000
  195.000    0.264    0.342   90.317   14.940    0.000
  195.250    0.284    0.339   92.779   15.235    0.000
  195.500    0.293    0.341   93.401   15.822    0.000
  195.750    0.300    0.344   92.192   16.748    0.000
  196.000    0.310    0.341   86.088   17.073    0.000
  196.250    0.310    0.336   83.650   17.083    0.000
  196.500    0.305    0.333   82.438   16.468    0.000
  196.750    0.299    0.342   81.841   15.871    0.000
  197.000    0.292    0.358   79.402   15.297    0.000
  197.250    0.288    0.376   79.419   15.024    0.000
  197.500    0.289    0.381   82.493   15.035    0.000
  197.750    0.293    0.378   84.954   15.041    0.000
  198.000    0.298    0.369   84.357   15.628    0.000
  198.250    0.300    0.360   82.533   15.931    0.000
  198.500    0.294    0.355   84.383   16.238    0.000
  198.750    0.290    0.354   84.400   16.558    0.000
  199.000    0.288    0.356   80.129   16.568    0.000
  199.250    0.295    0.362   77.693   16.889    0.000
  199.500    0.300    0.370   76.479   16.899    0.000
  199.750    0.300    0.374   80.167   16.910    0.000
  200.000    0.302    0.377   86.916   16.921    0.000
  200.250    0.311    0.371   87.541   16.929    0.000
  200.500    0.312    0.371   90.618   16.945    0.000
  200.750    0.307    0.360   98.589   16.952    0.000
  201.000    0.303    0.344  101.664   16.648    0.000
  201.250    0.302    0.339   99.229   16.346    0.000
  201.500    0.297    0.338   99.243   15.754    0.000
  201.750    0.287    0.344  104.157   15.186    0.000
  202.000    0.279    0.363  110.905   14.366    0.000
  202.250    0.268    0.356  115.815   14.109    0.000
  202.500    0.262    0.344  118.891   13.853    0.000
  202.750    0.260    0.337  117.684   13.861    0.000
  203.000    0.256    0.335  115.246   14.674    0.000
  203.250    0.241    0.329  109.749   15.530    0.000
  203.500    0.230    0.322   96.906   17.066    0.000
  203.750    0.220    0.317   84.673   17.725    0.000
  204.000    0.216    0.313   74.279   18.761    0.000
  204.250    0.216    0.309   68.782   19.124    0.000
  204.500    0.220    0.312   72.473   19.141    0.000
  204.750    0.222    0.320   77.994   18.444    0.000
  205.000    0.217    0.325   85.967   16.805    0.000
  205.250    0.211    0.331   94.552   14.478    0.000
  205.500    0.199    0.338  111.709   10.736    0.000
  205.750    0.193    0.347  116.625    6.360    0.000
  206.000    0.182    0.359  119.085    4.629    0.000
  206.250    0.175    0.390  128.283    3.914    0.000
  206.500    0.165    0.418  135.032    3.500    0.000
  206.750    0.162    0.420  130.761    3.311    0.000
  207.000    0.179    0.421  128.323    3.132    0.000
  207.250    0.206    0.415  133.237    3.019    0.000
  207.500    0.217    0.412  132.026    3.256    0.000
  207.750    0.220    0.413  126.530    3.855    0.000
  208.000    0.221    0.407  121.034    5.109    0.000
  208.250    0.224    0.389  117.376    6.399    0.000
  208.500    0.224    0.364  112.489    8.321    0.000
  208.750    0.220    0.341  104.541   10.425    0.000
  209.000    0.228    0.337   93.537   10.829    0.000
  209.250    0.243    0.343   88.040   11.041    0.000
  209.500    0.262    0.348   84.994   10.841    0.000
  209.750    0.255    0.349   85.617   10.648    0.000
  210.000    0.235    0.349   90.528   10.856    0.000
  210.250    0.219    0.348   97.281   11.065    0.000
  210.500    0.219    0.345   96.678   11.497    0.000
  210.750    0.230    0.343   91.182   12.167    0.000
  211.000    0.244    0.338   82.624   12.403    0.000
  211.250    0.277    0.337   77.741   12.648    0.000
  211.500    0.274    0.341   83.266   12.421    0.000
  211.750    0.257    0.348   90.629   12.197    0.000
  212.000    0.250    0.355   95.539   12.204    0.000
  212.250    0.241    0.367   97.390   12.676    0.000
  212.500    0.228    0.368   96.177   13.418    0.000
  212.750    0.219    0.365  100.480   13.940    0.000
  213.000    0.240    0.357   99.880   13.948    0.000
  213.250    0.267    0.354   94.993   12.948    0.000
  213.500    0.265    0.367   92.563   11.797    0.000
  213.750    0.252    0.380   99.919    9.790    0.000
  214.000    0.239    0.391  114.018    8.123    0.000
  214.250    0.198    0.388  125.051    6.373    0.000
  214.500    0.174    0.377  133.023    5.698    0.000
  214.750    0.159    0.391  141.610    4.908    0.000
  215.000    0.155    0.395  144.071    4.644    0.000
  215.250    0.161    0.381  139.187    4.734    0.000
  215.500    0.171    0.376  137.977    5.202    0.000
  215.750    0.193    0.372  137.990    5.823    0.000
  216.000    0.207    0.376  137.394    7.160    0.000
  216.250    0.230    0.358  134.957    8.479    0.000
  216.500    0.264    0.352  135.585   10.230    0.000
  216.750    0.270    0.352  136.209   11.889    0.000
  217.000    0.269    0.378  136.223   13.311    0.000
  217.250    0.268    0.386  135.011   13.573    0.000
  217.500    0.258    0.389  133.191   12.367    0.000
  217.750    0.245    0.374  126.471   11.481    0.000
