~VERSION INFORMATION
 VERS.                 2.0:   CWLS LOG ASCII STANDARD -VERSION 2.0
 WRAP.                  NO:   ONE LINE PER DEPTH STEP
~WELL INFORMATION BLOCK
#MNEM.UNIT           DATA                    DESCRIPTION OF MNEMONIC
#---------    -------------------            -------------------------------
# Generated from Intellog Unique Number	CS_77_79/WELL/943
WELL.         PEX PCEJ THORNBURY OV          : Well_name    - WELL
LOC .         AA/10-10-079-14W4/0            : Location     - LOCATION
UWI .         AA/10-10-079-14W4/0            : Uwi          - UNIQUE WELL ID
ENTR.         JHS                            : Entered      - ENTERED BY
SRVC.         SCHLUMBERGER                   : Scn          - SERVICE COMPANY
STRT.M        265                            : top_depth    - START DEPTH
STOP.M        505                            : bot_depth    - STOP DEPTH
STEP.M        0.25                           : increment    - STEP LENGTH
 NULL. -999.2500:NULL Value
~CURVE INFORMATION BLOCK
#MNEM UNIT       ERCB CURVE CODE    CURVE DESCRIPTION
#-----------   ------------------   ----------------------------------
DEPT.M        00 001 00 00         : DEPTH        - DEPTH
DPHI.V/V      00 890 00 00         : PHID         - DENSITY POROSITY (LIMESTONE)
NPHI.V/V      00 330 00 00         : PHIN         - NEUTRON POROSITY (LIMESTONE)
GR  .API      00 310 00 00         : GR           - GAMMA RAY
ILD .OHMM     00 120 00 00         : RESD         - DEEP RESISTIVITY (DIL)
~PARAMETER INFORMATION
#MNEM.UNIT           DATA             DESCRIPTION OF MNEMONIC
#---------         -----------     ------------------------------
GL  .M        690.52               : gl           - GROUND LEVEL ELEVATION
EREF.M        693.42               : kb           - ELEVATION OF DEPTH REFERENCE
DATM.M        693.42               : datum        - DATUM ELEVATION
TDD .M        504.5                : tdd          - TOTAL DEPTH DRILLER
RUN .         ONE                  : Run          - RUN NUMBER
ENG .         BILL                 : Engineer     - RECORDING ENGINEER
WIT .         JIM                  : Witness      - WITNESSED BY
MUD .         GEL                  : Mud_type     - MUD TYPE
MATR.         LIMESTONE            : Logunit      - NEUTRON MATRIX
TMAX.C        19                   : BHT          - MAXIMUM RECORDED TEMPERATURE
BHTD.M        504.5                : BHTDEP       - MAXIMUM RECORDED TEMPERATURE
MATR.         1                    : LOGUNIT      - NEUTRON MATRIX
RMT .C        25                   : MDTP         - TEMPERATURE OF MUD
NEUT.         1                    : NEUTRON      - NEUTRON TYPE
RESI.         0                    : RESIST       - RESISTIVITY TYPE
RMC .OHMM     0.25                 : RMC          - RESISTIVITY OF MUD CAKE
RMF .OHMM     0.25                 : RMF          - RESISTIVITY OF MUD FILTRATE
SUFT.C        15                   : SUFT         - SURFACE TEMPERATURE
~A  DEPTH     PHID     PHIN       GR     RESD
  265.000    0.258    0.481  109.833    3.893
  265.250    0.233    0.499  106.706    3.896
  265.500    0.205    0.490  101.069    3.901
  265.750    0.252    0.468   96.060    3.982
  266.000    0.257    0.471  106.743    4.065
  266.250    0.237    0.484  112.402    4.068
  266.500    0.215    0.481  112.413    4.075
  266.750    0.226    0.499  104.893    4.156
  267.000    0.241    0.489  108.042    4.164
  267.250    0.236    0.490  104.289    4.170
  267.500    0.247    0.513  106.184    4.174
  267.750    0.238    0.511  101.175    4.181
  268.000    0.248    0.495   93.027    4.188
  268.250    0.256    0.481   99.315    4.192
  268.500    0.245    0.471  100.582    4.199
  268.750    0.242    0.456  104.361    4.202
  269.000    0.229    0.461   96.838    4.209
  269.250    0.237    0.479  101.243    4.217
  269.500    0.225    0.492   92.469    4.220
  269.750    0.239    0.470  101.266    4.227
  270.000    0.266    0.444  101.909    4.231
  270.250    0.257    0.454  100.662    4.319
  270.500    0.241    0.478   92.515    4.323
  270.750    0.256    0.461   95.037    4.412
  271.000    0.246    0.466   91.913    4.503
  271.250    0.225    0.463   97.572    4.595
  271.500    0.239    0.450  104.486    4.601
  271.750    0.256    0.451   95.083    4.438
  272.000    0.255    0.468   90.703    4.279
  272.250    0.270    0.472   95.108    4.205
  272.500    0.263    0.495   90.098    4.056
  272.750    0.252    0.502   85.088    3.984
  273.000    0.262    0.498   92.631    3.840
  273.250    0.261    0.479   86.993    3.704
  273.500    0.261    0.476   95.792    3.573
  273.750    0.263    0.468  102.708    3.445
  274.000    0.285    0.458  104.604    3.322
  274.250    0.289    0.469   95.827    3.202
  274.500    0.296    0.511   90.190    3.206
  274.750    0.289    0.484   93.340    3.212
  275.000    0.279    0.486   93.353    3.279
  275.250    0.269    0.480   96.501    3.282
  275.500    0.263    0.494   93.376    3.287
  275.750    0.269    0.484   84.599    3.289
  276.000    0.280    0.495   95.282    3.358
  276.250    0.279    0.479   94.038    3.363
  276.500    0.241    0.473   85.889    3.497
  276.750    0.178    0.448   77.742    3.569
  277.000    0.179    0.442   82.774    3.573
  277.250    0.260    0.469   90.317    3.578
  277.500    0.261    0.474   90.957    3.651
  277.750    0.268    0.459   95.362    3.656
  278.000    0.263    0.476   96.629    3.661
  278.250    0.213    0.474   96.640    3.665
  278.500    0.084    0.449   87.865    3.813
  278.750    0.105    0.453   85.994    3.965
  279.000    0.177    0.460   92.911    4.122
  279.250    0.233    0.445   96.688    4.368
  279.500    0.221    0.454   95.444    4.542
  279.750    0.243    0.470   96.712    4.723
  280.000    0.246    0.457  101.742    4.822
  280.250    0.232    0.449   96.735    4.735
  280.500    0.227    0.455  106.788    4.654
  280.750    0.231    0.476  107.425    4.488
  281.000    0.239    0.481   97.395    4.410
  281.250    0.260    0.488   89.877    4.332
  281.500    0.230    0.497   95.536    4.421
  281.750    0.214    0.500  103.079    4.513
  282.000    0.236    0.486  104.345    4.604
  282.250    0.228    0.477   98.081    4.787
  282.500    0.216    0.487   99.977    4.980
  282.750    0.213    0.488  108.146    4.986
  283.000    0.215    0.472  113.806    4.901
  283.250    0.223    0.466  106.286    4.813
  283.500    0.225    0.478  101.906    4.642
  283.750    0.231    0.472   95.640    4.476
  284.000    0.226    0.484   93.141    4.398
  284.250    0.234    0.496   95.036    4.322
  284.500    0.233    0.487   99.442    4.410
  284.750    0.236    0.463   96.943    4.587
  285.000    0.233    0.445   89.422    4.680
  285.250    0.238    0.467   90.062    4.775
  285.500    0.233    0.457   85.680    4.694
  285.750    0.244    0.444   78.788    4.879
  286.000    0.210    0.432   71.268    5.579
  286.250    0.157    0.379   53.078    6.745
  286.500    0.205    0.333   49.325    8.794
  286.750    0.302    0.378   55.615   11.255
  287.000    0.327    0.376   54.369   13.353
  287.250    0.316    0.373   60.028   16.772
  287.500    0.305    0.365   60.043   18.456
  287.750    0.291    0.369   63.819   17.801
  288.000    0.274    0.375   73.245   17.485
  288.250    0.253    0.374   81.413   16.548
  288.500    0.231    0.398   80.798   15.079
  288.750    0.249    0.421   93.362   13.739
  289.000    0.253    0.438   97.141   11.612
  289.250    0.200    0.454   94.013   10.001
  289.500    0.180    0.435   95.908    9.112
  289.750    0.190    0.423   98.428    8.619
  290.000    0.225    0.432  100.324    7.853
  290.250    0.216    0.449   98.454    6.893
  290.500    0.220    0.459  100.347    6.280
  290.750    0.236    0.450  102.243    5.722
  291.000    0.250    0.440   98.487    5.217
  291.250    0.246    0.431  103.521    5.030
  291.500    0.246    0.423  104.788    4.760
  291.750    0.241    0.428  107.937    4.678
  292.000    0.226    0.408  106.692    4.683
  292.250    0.199    0.398   96.035    4.962
  292.500    0.187    0.381   91.653    5.563
  292.750    0.247    0.360   76.603    6.856
  293.000    0.313    0.336   63.433    8.773
  293.250    0.349    0.376   60.308   11.442
  293.500    0.320    0.409   55.926   14.921
  293.750    0.311    0.427   59.704   17.712
  294.000    0.311    0.420   72.267   16.760
  294.250    0.304    0.418   81.693   14.984
  294.500    0.295    0.422   88.609   12.659
  294.750    0.285    0.431   96.151   10.301
  295.000    0.231    0.429   91.141    9.391
  295.250    0.188    0.415  103.705    9.229
  295.500    0.191    0.417  109.366    9.592
  295.750    0.224    0.412  102.475    9.788
  296.000    0.220    0.402  101.230    9.439
  296.250    0.202    0.425   96.220    8.764
  296.500    0.205    0.423  106.901    8.450
  296.750    0.228    0.416  100.638    9.132
  297.000    0.251    0.385   86.213   10.240
  297.250    0.253    0.355   73.674   10.844
  297.500    0.270    0.339   71.802   12.628
  297.750    0.299    0.341   69.930   14.707
  298.000    0.295    0.336   68.687   17.131
  298.250    0.292    0.347   64.933   18.843
  298.500    0.302    0.350   73.103   21.131
  298.750    0.313    0.359   72.487   21.985
  299.000    0.282    0.348   65.596   22.005
  299.250    0.155    0.339   54.938   22.040
  299.500    0.200    0.335   56.204   21.251
  299.750    0.246    0.346   54.332   20.500
  300.000    0.181    0.358   56.855   20.131
  300.250    0.271    0.370   65.654   19.784
  300.500    0.306    0.376   66.919   19.441
  300.750    0.302    0.392   71.952   18.746
  301.000    0.311    0.407   60.667   18.081
  301.250    0.306    0.397   62.564   17.766
  301.500    0.282    0.389   67.595   17.792
  301.750    0.289    0.397   72.628   17.821
  302.000    0.301    0.409   84.562   17.845
  302.250    0.288    0.413   93.361   17.868
  302.500    0.282    0.421   82.703   17.558
  302.750    0.257    0.429   87.736   16.922
  303.000    0.234    0.429   94.023   15.420
  303.250    0.200    0.440   94.036   12.550
  303.500    0.188    0.428  100.323   10.405
  303.750    0.187    0.414  107.237    8.792
  304.000    0.190    0.403  109.132    7.861
  304.250    0.211    0.416  106.007    7.441
  304.500    0.220    0.450  102.252    7.311
  304.750    0.216    0.453   94.106    7.461
  305.000    0.213    0.438   95.999    7.330
  305.250    0.199    0.443   94.755    7.340
  305.500    0.198    0.432  101.672    6.947
  305.750    0.196    0.438  104.192    6.697
  306.000    0.189    0.426  109.226    6.341
  306.250    0.184    0.410  104.218    6.350
  306.500    0.188    0.441  104.229    6.476
  306.750    0.190    0.447   97.963    6.736
  307.000    0.190    0.433   95.464    7.007
  307.250    0.184    0.442   94.220    7.147
  307.500    0.175    0.446   97.372    7.296
  307.750    0.186    0.443   95.501    7.301
  308.000    0.190    0.426   99.276    7.178
  308.250    0.199    0.437  102.425    7.054
