~VERSION INFORMATION
 VERS.                 2.0:   CWLS LOG ASCII STANDARD -VERSION 2.0
 WRAP.                  NO:   ONE LINE PER DEPTH STEP
~WELL INFORMATION BLOCK
#MNEM.UNIT           DATA                    DESCRIPTION OF MNEMONIC
#---------    -------------------            -------------------------------
# Generated from Intellog Unique Number	CN_94_101/WELL/5028
WELL.         12-08-097-12W4                 : Well_name    - WELL
LOC .         AA/12-08-097-12W4/0            : Location     - LOCATION
UWI .         AA/12-08-097-12W400            : Uwi          - UNIQUE WELL ID
ENTR.         T                              : Entered      - ENTERED BY
SRVC.         SCHLUMBERGER                   : Scn          - SERVICE COMPANY
DATE.         08/13/92                       : Date         - LOG DATE
STRT.M        25                             : top_depth    - START DEPTH
STOP.M        180                            : bot_depth    - STOP DEPTH
STEP.M        0.25                           : increment    - STEP LENGTH
 NULL. -999.2500:NULL Value
~CURVE INFORMATION BLOCK
#MNEM UNIT       ERCB CURVE CODE    CURVE DESCRIPTION
#-----------   ------------------   ----------------------------------
DEPT.M        00 001 00 00         : DEPTH        - DEPTH
GR  .API      00 310 00 00         : GR           - GAMMA RAY
ILD .OHMM     00 120 00 00         : RESD         - DEEP RESISTIVITY (DIL)
NPHI.V/V      00 330 00 00         : PHIN         - NEUTRON POROSITY (SANDSTONE)
DPHI.V/V      00 890 00 00         : PHID         - DENSITY POROSITY (SANDSTONE)
~PARAMETER INFORMATION
#MNEM.UNIT           DATA             DESCRIPTION OF MNEMONIC
#---------         -----------     ------------------------------
GL  .M        410                  : gl           - GROUND LEVEL ELEVATION
EREF.M        410                  : kb           - ELEVATION OF DEPTH REFERENCE
DATM.M        410                  : datum        - DATUM ELEVATION
TDD .M        185.5                : tdd          - TOTAL DEPTH DRILLER
RUN .         ONE                  : Run          - RUN NUMBER
ENG .         BILL                 : Engineer     - RECORDING ENGINEER
WIT .         JIM                  : Witness      - WITNESSED BY
MUD .         GEL                  : Mud_type     - MUD TYPE
MATR.         SANDSTONE            : Logunit      - NEUTRON MATRIX
TMAX.C        26.5                 : BHT          - MAXIMUM RECORDED TEMPERATURE
BHTD.M        188                  : BHTDEP       - MAXIMUM RECORDED TEMPERATURE
RMT .C        8                    : MDTP         - TEMPERATURE OF MUD
MUDD.KG/M     1050                 : MWT          - MUD DENSITY
NEUT.         1                    : NEUTRON      - NEUTRON TYPE
RESI.         0                    : RESIST       - RESISTIVITY TYPE
RM  .OHMM     16.4                 : RM           - RESISTIVITY OF MUD
RMC .OHMM     16.4                 : RMC          - RESISTIVITY OF MUD CAKE
RMF .OHMM     16.4                 : RMF          - RESISTIVITY OF MUD FILTRATE
SUFT.C        4                    : SUFT         - SURFACE TEMPERATURE
~A  DEPTH       GR     RESD     PHIN     PHID
# ...
   68.500  143.299    4.969    0.507    0.190
   68.750  138.536    5.174    0.565    0.210
   69.000  136.157    5.582    0.587    0.224
   69.250  131.389    6.193    0.561    0.235
   69.500  126.022    6.397    0.538    0.236
   69.750  120.655    6.806    0.509    0.235
   70.000  120.083    7.212    0.491    0.233
   70.250  121.303    7.822    0.489    0.232
   70.500  122.522    8.838    0.504    0.232
   70.750  122.538    9.651    0.509    0.230
   71.000  123.164    9.855    0.466    0.227
   71.250  123.185   10.262    0.448    0.226
   71.500  123.207   10.266    0.436    0.227
   71.750  123.827   10.268    0.429    0.236
   72.000  124.453   10.272    0.433    0.240
   72.250  125.062   10.274    0.440    0.232
   72.500  125.089   10.278    0.451    0.221
   72.750  124.512   10.078    0.481    0.213
   73.000  123.930    9.879    0.495    0.207
   73.250  123.358    9.679    0.512    0.208
   73.500  122.781    9.479    0.481    0.211
   73.750  123.401    9.281    0.468    0.213
   74.000  124.016    9.284    0.461    0.215
   74.250  123.444    9.083    0.457    0.217
   74.500  118.676    9.087    0.460    0.218
   74.750  114.507    9.292    0.462    0.221
   75.000  112.732    9.903    0.462    0.224
   75.250  113.347   10.108    0.462    0.228
   75.500  114.572   10.111    0.458    0.235
   75.750  114.588    9.507    0.454    0.239
   76.000  116.406    8.498    0.456    0.240
   76.250  114.631    7.691    0.461    0.230
   76.500  111.659    7.290    0.468    0.222
   76.750  108.692    7.293    0.482    0.225
   77.000  108.110    8.308    0.500    0.234
   77.250  110.532    9.120    0.495    0.249
   77.500  112.350    9.933    0.479    0.264
   77.750  112.975    9.733    0.468    0.269
   78.000  114.200    8.926    0.460    0.271
   78.250  114.211    7.108    0.458    0.265
   78.500  114.232    6.301    0.465    0.252
   78.750  112.463    6.102    0.470    0.240
   79.000  110.694    5.902    0.475    0.241
   79.250  110.705    7.119    0.474    0.249
   79.500  110.737    7.933    0.470    0.261
   79.750  111.951    8.138    0.461    0.272
   80.000  113.774    8.140    0.456    0.277
   80.250  115.581    7.941    0.455    0.272
   80.500  119.195    7.540    0.458    0.261
   80.750  122.809    7.137    0.464    0.256
   81.000  124.028    6.534    0.469    0.267
   81.250  120.462    6.133    0.474    0.269
   81.500  118.084    5.933    0.487    0.257
   81.750  118.111    5.732    0.491    0.240
   82.000  119.928    5.735    0.466    0.238
   82.250  122.340    6.345    0.463    0.243
   82.500  124.157    8.170    0.493    0.244
   82.750  122.383    9.387    0.498    0.246
   83.000  118.817    7.771    0.509    0.243
   83.250  117.642    4.536    0.470    0.255
   83.500  116.466    3.527    0.471    0.249
   83.750  114.691    2.923    0.496    0.221
   84.000  114.109    3.533    0.502    0.222
   84.250  112.334    4.143    0.510    0.232
   84.500  111.158    5.361    0.508    0.240
   84.750  111.180    5.972    0.484    0.250
   85.000  114.195    5.569    0.457    0.256
   85.250  117.809    4.359    0.446    0.227
   85.500  120.226    3.755    0.454    0.214
   85.750  121.450    3.555    0.508    0.208
   86.000  121.472    3.153    0.543    0.202
   86.250  120.301    2.953    0.565    0.208
   86.500  119.729    2.956    0.566    0.234
   86.750  120.339    3.161    0.541    0.280
   87.000  122.755    3.974    0.514    0.281
   87.250  125.172    5.191    0.501    0.266
   87.500  128.786    6.813    0.530    0.271
   87.750  130.010    7.423    0.580    0.276
   88.000  127.044    7.224    0.593    0.277
   88.250  125.868    7.025    0.613    0.283
   88.500  124.681    6.824    0.623    0.291
   88.750  122.308    7.030    0.581    0.275
   89.000  120.533    7.641    0.545    0.255
   89.250  120.555    8.047    0.501    0.261
   89.500  124.773    8.657    0.480    0.265
   89.750  127.184    9.268    0.471    0.267
   90.000  130.803    9.676    0.476    0.261
   90.250  132.616    9.476    0.501    0.251
   90.500  130.847    9.277    0.505    0.243
   90.750  128.479    8.674    0.477    0.231
   91.000  127.292    8.473    0.465    0.227
   91.250  123.134    8.072    0.458    0.233
   91.500  121.354    7.872    0.453    0.233
   91.750  120.172    8.279    0.445    0.226
   92.000  119.606    9.092    0.437    0.223
   92.250  120.814    9.905    0.433    0.234
   92.500  123.231   10.516    0.437    0.258
   92.750  124.461   10.720    0.442    0.255
   93.000  124.471   11.128    0.451    0.223
   93.250  125.696   11.131    0.456    0.218
   93.500  126.915   11.133    0.456    0.215
   93.750  127.535   10.935    0.451    0.222
   94.000  126.953   10.535    0.442    0.222
   94.250  125.782   10.535    0.442    0.220
   94.500  125.798   10.336    0.444    0.225
   94.750  125.825   10.138    0.444    0.235
   95.000  125.852   10.140    0.440    0.231
   95.250  125.869   10.142    0.438    0.234
   95.500  126.494   10.146    0.438    0.238
   95.750  127.120   10.149    0.435    0.241
   96.000  127.136   10.151    0.430    0.244
   96.250  127.762   10.358    0.425    0.237
   96.500  127.778   10.562    0.423    0.230
   96.750  128.393   10.970    0.423    0.224
   97.000  128.420   11.377    0.424    0.215
   97.250  128.442   11.786    0.425    0.201
   97.500  127.859   11.990    0.426    0.197
   97.750  127.892   12.195    0.429    0.196
   98.000  127.309   11.794    0.434    0.196
   98.250  126.727   11.392    0.436    0.197
   98.500  124.958   10.789    0.439    0.201
   98.750  123.776   10.185    0.439    0.205
   99.000  120.804    9.985    0.439    0.211
   99.250  117.832    9.786    0.437    0.217
   99.500  113.070    9.788    0.437    0.217
   99.750  110.098    9.993    0.436    0.216
  100.000  108.323   10.199    0.436    0.216
  100.250  108.339   10.607    0.440    0.232
  100.500  107.169   10.812    0.443    0.250
  100.750  105.993   11.424    0.442    0.264
  101.000  104.812   12.033    0.435    0.275
  101.250  102.449   13.047    0.427    0.273
  101.500  103.059   14.466    0.422    0.273
  101.750  104.877   15.683    0.422    0.280
  102.000  103.102   15.281    0.422    0.284
  102.250  100.130   14.475    0.434    0.273
  102.500   95.961   13.062    0.458    0.273
  102.750   92.989   10.838    0.453    0.270
  103.000   92.417    9.020    0.431    0.253
  103.250   96.031    7.203    0.348    0.230
  103.500  100.238    6.397    0.330    0.194
  103.750  112.234    6.197    0.292    0.194
  104.000  115.848    6.199    0.320    0.210
  104.250  124.850    6.203    0.368    0.224
  104.500  132.062    6.408    0.420    0.236
  104.750  135.676    6.613    0.447    0.240
  105.000  135.697    6.819    0.478    0.241
  105.250  135.120    7.025    0.516    0.241
  105.500  130.956    7.027    0.529    0.241
  105.750  128.578    6.828    0.525    0.242
  106.000  125.606    6.426    0.516    0.245
  106.250  126.226    5.822    0.510    0.246
  106.500  128.044    5.420    0.501    0.242
  106.750  129.861    4.815    0.492    0.230
  107.000  132.283    4.010    0.485    0.213
  107.250  134.101    3.607    0.476    0.189
  107.500  135.913    3.003    0.471    0.177
  107.750  137.138    2.804    0.477    0.166
  108.000  137.758    2.605    0.498    0.155
  108.250  137.181    2.607    0.510    0.175
  108.500  136.599    3.014    0.523    0.205
  108.750  135.428    3.828    0.562    0.227
  109.000  134.846    4.641    0.578    0.238
  109.250  134.878    5.249    0.573    0.250
  109.500  134.889    5.859    0.564    0.268
  109.750  133.713    7.078    0.559    0.280
  110.000  131.340    7.486    0.544    0.284
  110.250  130.164    7.690    0.532    0.275
  110.500  131.383    7.896    0.522    0.235
  110.750  133.805    8.101    0.505    0.237
  111.000  136.227    8.307    0.490    0.239
  111.250  137.440    8.511    0.490    0.241
  111.500  138.055    8.919    0.490    0.226
  111.750  138.082    9.529    0.489    0.215
