~VERSION INFORMATION
 VERS.                 2.0:   CWLS LOG ASCII STANDARD -VERSION 2.0
 WRAP.                  NO:   ONE LINE PER DEPTH STEP
~WELL INFORMATION BLOCK
#MNEM.UNIT           DATA                    DESCRIPTION OF MNEMONIC
#---------    -------------------            -------------------------------
# Generated from Intellog Unique Number	CC_80_83/WELL/2426
NULL.         -999.25                        : NULL_VALUE
WELL.         ARCO ACI MCMURRAY OV           : Well_name    - WELL
LOC .         12-08-083-10W4                 : Location     - LOCATION          
UWI .         AA/12-08-083-10W400            : Uwi          - UNIQUE WELL ID    
ENTR.         DW                             : Entered      - ENTERED BY        
SRVC.         SCHLUMBERGER                   : Scn          - SERVICE COMPANY   
DATE.         12 MAR 74                      : Date         - LOG DATE
STRT.M        262.128                        : top_depth    - START DEPTH       
STOP.M        499.879                        : bot_depth    - STOP DEPTH        
STEP.M        0.305                          : increment    - STEP LENGTH       
~CURVE INFORMATION BLOCK
#MNEM UNIT       ERCB CURVE CODE    CURVE DESCRIPTION
#-----------   ------------------   ----------------------------------
DEPT.M        00 001 00 00         : DEPTH        - DEPTH                       
DPHI.V/V      00 890 00 00         : PHID         - DENSITY POROSITY (LIMESTONE)
GR  .API      00 310 00 00         : GR           - GAMMA RAY                   
ILD .OHMM     00 120 00 00         : RESD         - DEEP RESISTIVITY (DIL)      
NPHI.V/V      00 330 00 00         : PHIN         - NEUTRON POROSITY (LIMESTONE)
~PARAMETER INFORMATION       
#MNEM.UNIT           DATA             DESCRIPTION OF MNEMONIC
#---------         -----------     ------------------------------
GL  .M        729.844              : gl           - GROUND LEVEL ELEVATION      
EREF.M        732.892              : kb           - ELEVATION OF DEPTH REFERENCE
DATM.M        732.892              : datum        - DATUM ELEVATION             
TDD .M        501.701              : tdd          - TOTAL DEPTH DRILLER         
RUN .         ONE                  : Run          - RUN NUMBER                  
ENG .         BILL                 : Engineer     - RECORDING ENGINEER          
WIT .         JIM                  : Witness      - WITNESSED BY                
MUD .         GEL                  : Mud_type     - MUD TYPE                    
MATR.         LIMESTONE            : Logunit      - NEUTRON MATRIX              
TMAX.C        28.8889              : BHT          - MAXIMUM RECORDED TEMPERATURE
BHTD.M        501.701              : BHTDEP       - MAXIMUM RECORDED TEMPERATURE
MATR.         1                    : LOGUNIT      - NEUTRON MATRIX              
RMT .C        25                   : MDTP         - TEMPERATURE OF MUD          
NEUT.         1                    : NEUTRON      - NEUTRON TYPE                
RESI.         0                    : RESIST       - RESISTIVITY TYPE            
RMC .OHMM     0.25                 : RMC          - RESISTIVITY OF MUD CAKE     
RMF .OHMM     0.25                 : RMF          - RESISTIVITY OF MUD FILTRATE 
SUFT.C        15                   : SUFT         - SURFACE TEMPERATURE         
~A  DEPTH     PHID       GR     RESD     PHIN
# ...
  315.165    0.285   78.272   12.602    0.391
  315.470    0.330   84.364   11.919    0.413
  315.774    0.303   87.632   12.141    0.399
  316.079    0.287   80.780   13.076    0.375
  316.384    0.286   68.679   13.321    0.376
  316.689    0.301   66.279   14.890    0.377
  316.994    0.282   64.686   15.169    0.379
  317.299    0.271   61.074   15.168    0.404
  317.603    0.272   59.888   15.451    0.386
  317.908    0.287   60.727   15.450    0.377
  318.213    0.303   58.740   15.165    0.393
  318.518    0.309   59.167   14.342    0.389
  318.823    0.259   61.619   13.565    0.376
  319.127    0.282   66.499   12.134    0.368
  319.432    0.299   75.830   10.266    0.389
  319.737    0.311   80.302    9.014    0.445
  320.042    0.280   83.569    8.214    0.466
  320.347    0.308   87.234    7.348    0.475
  320.651    0.327   90.898    6.821    0.485
  320.956    0.299   94.972    6.451    0.498
  321.261    0.336   96.622    5.989    0.488
  321.566    0.427   96.641    5.771    0.487
  321.871    0.462   96.274    5.878    0.511
  322.175    0.420   95.087    6.819    0.478
  322.480    0.361   92.684   10.071    0.390
  322.785    0.267   83.004    9.525    0.409
  323.090    0.292   77.372    8.680    0.440
  323.395    0.310   79.418    8.209    0.445
  323.700    0.329   94.813    8.208    0.429
  324.004    0.317   94.030    8.362    0.396
  324.309    0.292   75.859    8.518    0.386
  324.614    0.266   77.913    9.174    0.417
  324.919    0.247   82.398    9.699    0.400
  325.224    0.211   83.627   10.066    0.433
  325.528    0.248   82.844   10.254    0.399
  325.833    0.318   75.598   10.445    0.389
  326.138    0.320   82.099   11.250    0.383
  326.443    0.305   84.544   12.117    0.392
  326.748    0.299   84.980   13.295    0.370
  327.052    0.289   78.140   14.319    0.395
  327.357    0.349   71.688   16.006    0.417
  327.662    0.359   67.674   18.916    0.390
  327.967    0.364   56.782   20.756    0.398
  328.272    0.340   40.633   22.355    0.378
  328.576    0.329   44.304   23.634    0.360
  328.881    0.339   44.730   24.075    0.350
  329.186    0.364   47.194   24.074    0.366
  329.491    0.342   49.642   24.524    0.379
  329.796    0.320   51.285   24.522    0.388
  330.101    0.343   45.248   24.981    0.379
  330.405    0.358   43.656   24.520    0.371
  330.710    0.362   44.503   23.624    0.368
  331.015    0.357   44.935   23.189    0.394
  331.320    0.355   44.952   22.760    0.401
  331.625    0.361   46.196   22.759    0.394
  331.929    0.358   46.630   23.184    0.425
  332.234    0.355   46.652   23.617    0.425
  332.539    0.345   48.704   23.616    0.413
  332.844    0.350   47.116   23.615    0.395
  333.149    0.345   47.139   23.613    0.369
  333.453    0.346   48.379   23.178    0.376
  333.758    0.354   47.596   23.177    0.419
  334.063    0.364   45.610   23.175    0.430
  334.368    0.356   45.632   23.607    0.419
  334.673    0.352   46.872   24.049    0.409
  334.977    0.362   48.111   24.957    0.425
  335.282    0.362   48.955   24.956    0.409
  335.587    0.357   48.979   24.954    0.411
  335.892    0.346   48.194   24.494    0.409
  336.197    0.340   44.989   22.740    0.421
  336.502    0.361   41.380   21.110    0.447
  336.806    0.369   40.593   21.109    0.459
  337.111    0.362   40.627   21.108    0.447
  337.416    0.354   41.862   21.107    0.418
  337.721    0.352   41.085   21.904    0.431
  338.026    0.347   41.109   21.902    0.402
  338.330    0.347   43.565   21.498    0.387
  338.635    0.352   44.404   21.497    0.414
  338.940    0.355   46.043   21.899    0.406
  339.245    0.342   46.074   22.308    0.407
  339.550    0.341   44.892   21.897    0.406
  339.854    0.355   44.111   21.895    0.415
  340.159    0.361   44.139   21.491    0.402
  340.464    0.360   44.157   21.489    0.419
  340.769    0.351   43.385   21.488    0.424
  341.074    0.340   45.027   21.890    0.424
  341.378    0.356   46.271   21.889    0.380
  341.683    0.367   46.295   22.297    0.415
  341.988    0.351   44.295   22.714    0.416
  342.293    0.350   44.733   22.712    0.408
  342.598    0.366   45.977   22.711    0.415
  342.903    0.364   45.997   23.136    0.404
  343.207    0.353   39.554   23.134    0.399
  343.512    0.349   40.802   23.134    0.407
  343.817    0.345   41.235   23.132    0.419
  344.122    0.343   40.857   23.130    0.442
  344.427    0.355   42.094   23.129    0.410
  344.731    0.362   44.947   23.128    0.431
  345.036    0.362   43.762   23.127    0.422
  345.341    0.349   41.366   23.125    0.402
  345.646    0.347   42.603   23.124    0.430
  345.951    0.351   44.654   23.123    0.399
  346.255    0.363   45.489   23.122    0.397
  346.560    0.354   49.162   23.120    0.415
  346.865    0.352   47.978   22.694    0.390
  347.170    0.352   46.783   21.865    0.382
  347.475    0.358   49.250   21.461    0.397
  347.779    0.366   50.080   21.460    0.430
  348.084    0.356   50.515   21.861    0.407
  348.389    0.347   50.138   21.859    0.409
  348.694    0.348   50.171   21.858    0.405
  348.999    0.334   50.185   21.857    0.397
  349.304    0.329   51.021   21.856    0.393
  349.608    0.348   52.262   21.452    0.393
  349.913    0.341   55.119   21.853    0.383
  350.218    0.333   55.550   21.852    0.389
  350.523    0.336   56.387   21.449    0.380
  350.828    0.336   55.605   21.849    0.404
  351.132    0.328   54.423   21.848    0.417
  351.437    0.343   56.879   21.445    0.416
  351.742    0.349   60.947   21.444    0.415
  352.047    0.332   60.573   21.442    0.404
  352.352    0.336   57.765   21.442    0.397
  352.656    0.327   56.579   21.440    0.409
  352.961    0.321   54.993   21.439    0.420
  353.266    0.333   55.426   21.438    0.418
  353.571    0.342   57.876   18.824    0.415
  353.876    0.350   57.498   15.063    0.415
  354.180    0.354   58.342   12.744    0.400
  354.485    0.300   59.581    9.468    0.399
  354.790    0.273   62.840    7.718    0.412
  355.095    0.284   70.145    7.436    0.397
  355.400    0.310   74.224    8.159    0.388
  355.705    0.320   72.227    9.465    0.403
  356.009    0.316   68.215   10.195    0.424
  356.314    0.305   65.812   11.186    0.427
  356.619    0.331   62.199   11.395    0.396
  356.924    0.303   65.865   11.185    0.403
  357.229    0.285   65.080   10.978    0.409
  357.533    0.314   61.873   11.393    0.392
  357.838    0.303   68.774   11.606    0.413
  358.143    0.306   63.141   11.823    0.411
  358.448    0.311   60.344   11.605    0.413
  358.753    0.314   62.394   11.604    0.395
  359.057    0.311   63.635   11.389    0.392
  359.362    0.312   64.058   11.389    0.424
  359.667    0.317   66.109   10.973    0.376
  359.972    0.307   64.929   10.378    0.379
  360.277    0.289   65.758    9.999    0.411
  360.581    0.271   67.415    9.457    0.389
  360.886    0.266   67.433    8.779    0.385
  361.191    0.261   74.336    8.459    0.399
  361.496    0.252   75.578    8.150    0.414
  361.801    0.269   74.396    8.149    0.444
  362.106    0.274   72.803    8.149    0.446
  362.410    0.296   70.004    7.565    0.451
  362.715    0.317   70.833    6.401    0.469
  363.020    0.332   75.308    5.027    0.498
  363.325    0.352   77.362    5.315    0.424
  363.630    0.373   76.981    6.166    0.385
  363.934    0.343   76.203    6.892    0.445
  364.239    0.312   71.373    7.153    0.471
  364.544    0.282   65.743    6.398    0.498
  364.849    0.259   64.562    4.666    0.485
  365.154    0.294   67.821    4.097    0.479
  365.458    0.295   77.144    3.466    0.527
  365.763    0.326   85.664    3.402    0.540
  366.068    0.342   88.525    3.402    0.539
  366.373    0.350   84.913    3.531    0.538
  366.678    0.387   80.898    3.664    0.537
  366.982    0.416   83.762    3.803    0.540
  367.287    0.434   84.184    3.802    0.543
  367.592    0.420   80.572    3.596    0.546
  367.897    0.402   77.371    2.932    0.543
