~VERSION INFORMATION
 VERS.                 2.0:   CWLS LOG ASCII STANDARD -VERSION 2.0
 WRAP.                  NO:   ONE LINE PER DEPTH STEP
~WELL INFORMATION BLOCK
#MNEM.UNIT           DATA                    DESCRIPTION OF MNEMONIC
#---------    -------------------            -------------------------------
# Generated from Intellog Unique Number	CC_84_87/WELL/2334
WELL.         ARCO ACT MCMURRAY              : Well_name    - WELL
LOC .         AA/11-29-084-09W4/0            : Location     - LOCATION
UWI .         AA/11-29-084-09W400            : Uwi          - UNIQUE WELL ID
ENTR.         JHS                            : Entered      - ENTERED BY
SRVC.         SCHLUMBERGER                   : Scn          - SERVICE COMPANY
STRT.M        210.312                        : top_depth    - START DEPTH
STOP.M        441.812                        : bot_depth    - STOP DEPTH
STEP.M        0.25                           : increment    - STEP LENGTH
 NULL. -999.2500:NULL Value
~CURVE INFORMATION BLOCK
#MNEM UNIT       ERCB CURVE CODE    CURVE DESCRIPTION
#-----------   ------------------   ----------------------------------
DEPT.M        00 001 00 00         : DEPTH        - DEPTH
GR  .API      00 310 00 00         : GR           - GAMMA RAY
DPHI.V/V      00 890 00 00         : PHID         - DENSITY POROSITY (SANDSTONE)
NPHI.V/V      00 330 00 00         : PHIN         - NEUTRON POROSITY (SANDSTONE)
ILD .OHMM     00 120 00 00         : RESD         - DEEP RESISTIVITY (DIL)
~PARAMETER INFORMATION
#MNEM.UNIT           DATA             DESCRIPTION OF MNEMONIC
#---------         -----------     ------------------------------
GL  .M        687.629              : gl           - GROUND LEVEL ELEVATION
EREF.M        690.677              : kb           - ELEVATION OF DEPTH REFERENCE
DATM.M        690.677              : datum        - DATUM ELEVATION
TDD .M        441.96               : tdd          - TOTAL DEPTH DRILLER
RUN .         ONE                  : Run          - RUN NUMBER
ENG .         BILL                 : Engineer     - RECORDING ENGINEER
WIT .         JIM                  : Witness      - WITNESSED BY
MUD .         GEL                  : Mud_type     - MUD TYPE
MATR.         SANDSTONE            : Logunit      - NEUTRON MATRIX
TMAX.C        20.5556              : BHT          - MAXIMUM RECORDED TEMPERATURE
BHTD.M        441.96               : BHTDEP       - MAXIMUM RECORDED TEMPERATURE
MATR.         1                    : LOGUNIT      - NEUTRON MATRIX
RMT .C        25                   : MDTP         - TEMPERATURE OF MUD
NEUT.         1                    : NEUTRON      - NEUTRON TYPE
RESI.         0                    : RESIST       - RESISTIVITY TYPE
RMC .OHMM     0.25                 : RMC          - RESISTIVITY OF MUD CAKE
RMF .OHMM     0.25                 : RMF          - RESISTIVITY OF MUD FILTRATE
SUFT.C        15                   : SUFT         - SURFACE TEMPERATURE
~A  DEPTH       GR     PHID     PHIN     RESD
# ...
  340.812   66.557    0.326    0.389    9.860
  341.062   67.308    0.322    0.404    9.503
  341.312   65.183    0.318    0.403    8.269
  341.562   66.267    0.316    0.424    7.292
  341.812   70.632    0.302    0.436    6.720
  342.062   71.629    0.283    0.412    6.160
  342.312   69.542    0.284    0.399    6.026
  342.562   72.270    0.297    0.388    6.295
  342.812   76.407    0.297    0.381    6.648
  343.062   77.196    0.293    0.368    7.241
  343.312   73.575    0.287    0.369    7.812
  343.562   68.696    0.276    0.389    8.101
  343.812   67.195    0.268    0.396    8.344
  344.062   70.436    0.262    0.376    8.489
  344.312   75.303    0.266    0.355    8.403
  344.562   77.706    0.280    0.366    8.221
  344.812   76.422    0.284    0.388    7.822
  345.062   74.911    0.276    0.400    7.210
  345.312   76.144    0.278    0.423    6.563
  345.562   77.374    0.286    0.439    5.625
  345.812   81.525    0.291    0.445    5.104
  346.062   82.257    0.290    0.433    4.843
  346.312   78.878    0.285    0.418    4.712
  346.562   78.377    0.278    0.418    4.881
  346.812   80.908    0.270    0.423    5.280
  347.062   77.496    0.268    0.424    5.689
  347.312   75.173    0.255    0.410    6.165
  347.562   74.800    0.238    0.394    6.490
  347.812   75.448    0.262    0.382    6.876
  348.062   79.109    0.312    0.369    7.398
  348.312   84.540    0.309    0.359    7.715
  348.562   84.407    0.268    0.364    7.976
  348.812   81.567    0.241    0.389    7.923
  349.062   81.134    0.215    0.394    7.730
  349.312   81.252    0.223    0.393    7.391
  349.562   79.314    0.255    0.395    6.955
  349.812   79.811    0.245    0.374    6.652
  350.062   86.832    0.251    0.381    6.185
  350.312   90.760    0.277    0.392    5.569
  350.562   88.403    0.286    0.412    5.074
  350.812   84.168    0.285    0.419    4.770
  351.062   82.808    0.290    0.407    4.456
  351.312   85.180    0.294    0.415    4.063
  351.562   88.843    0.291    0.443    3.830
  351.812   90.307    0.291    0.452    3.481
  352.062   93.523    0.293    0.459    3.123
  352.312   95.054    0.286    0.480    2.919
  352.562   93.369    0.272    0.481    2.878
  352.812   91.017    0.263    0.444    2.982
  353.062   80.156    0.259    0.434    3.248
  353.312   77.664    0.250    0.434    3.718
  353.562   82.185    0.225    0.396    4.177
  353.812   85.549    0.235    0.371    4.665
  354.062   86.534    0.277    0.390    5.258
  354.312   86.955    0.277    0.398    5.728
  354.562   85.629    0.271    0.404    5.988
  354.812   82.528    0.261    0.396    6.349
  355.062   78.854    0.257    0.390    6.681
  355.312   81.957    0.255    0.382    7.010
  355.562   90.037    0.258    0.371    7.479
  355.812   91.732    0.271    0.374    7.927
  356.062   90.658    0.267    0.367    8.165
  356.312   90.931    0.256    0.351    8.510
  356.562   91.100    0.248    0.333    8.913
  356.812   91.563    0.245    0.324    9.339
  357.062   91.337    0.241    0.328    9.727
  357.312   87.527    0.234    0.333    9.834
  357.562   85.771    0.221    0.330    9.678
  357.812   92.491    0.225    0.327    9.636
  358.062   94.848    0.241    0.331    9.660
  358.312   95.136    0.258    0.333    9.619
  358.562   97.805    0.263    0.331    9.395
  358.812   94.685    0.251    0.341    8.956
  359.062   90.592    0.250    0.363    8.559
  359.312   88.553    0.242    0.370    8.102
  359.562   90.533    0.235    0.382    7.507
  359.812   93.051    0.235    0.387    7.061
  360.062   91.775    0.240    0.377    6.921
  360.312   88.179    0.249    0.375    6.938
  360.562   86.156    0.254    0.371    7.313
  360.812   84.243    0.267    0.355    8.348
  361.062   82.418    0.284    0.336    9.323
  361.312   81.358    0.301    0.333   10.153
  361.562   81.097    0.305    0.340   10.783
  361.812   81.099    0.289    0.333   10.704
  362.062   81.698    0.275    0.336   10.391
  362.312   86.725    0.262    0.346    9.977
  362.562   88.121    0.256    0.352    9.367
  362.812   85.317    0.253    0.356    8.581
  363.062   80.998    0.252    0.359    7.863
  363.312   74.499    0.254    0.346    7.426
  363.562   73.412    0.240    0.332    7.186
  363.812   78.438    0.228    0.347    7.139
  364.062   82.461    0.243    0.363    7.218
  364.312   82.796    0.268    0.370    7.341
  364.562   84.315    0.274    0.374    7.431
  364.812   88.927    0.262    0.374    7.416
  365.062   89.168    0.245    0.378    7.300
  365.312   86.454    0.241    0.393    7.251
  365.562   75.920    0.261    0.397    7.385
  365.812   68.729    0.287    0.387    7.681
  366.062   71.747    0.300    0.371    8.044
  366.312   74.053    0.301    0.356    8.414
  366.562   75.814    0.306    0.351    8.802
  366.812   74.438    0.294    0.363    9.153
  367.062   74.852    0.283    0.370    9.098
  367.312   77.379    0.282    0.369    8.658
  367.562   80.166    0.287    0.384    7.634
  367.812   84.213    0.293    0.422    5.916
  368.062   86.432    0.296    0.454    4.756
  368.312   86.559    0.294    0.455    4.073
  368.562   89.510    0.294    0.438    3.755
  368.812   91.170    0.290    0.426    3.692
  369.062   90.322    0.284    0.426    3.930
  369.312   92.525    0.283    0.426    4.610
  369.562   91.253    0.270    0.404    5.509
  369.812   87.502    0.271    0.404    6.766
  370.062   78.432    0.269    0.397    7.825
  370.312   70.773    0.268    0.377    8.417
  370.562   69.945    0.271    0.363    8.720
  370.812   71.137    0.261    0.357    8.828
  371.062   74.545    0.253    0.359    8.811
  371.312   77.694    0.230    0.362    9.016
  371.562   75.538    0.250    0.357    9.380
  371.812   73.315    0.275    0.338    9.907
  372.062   74.008    0.256    0.323   10.486
  372.312   71.663    0.228    0.333   10.763
  372.562   69.332    0.185    0.328   10.648
  372.812   71.809    0.189    0.291    9.964
  373.062   78.525    0.229    0.308    9.187
  373.312   82.756    0.247    0.348    8.531
  373.562   81.269    0.238    0.355    7.902
  373.812   80.097    0.239    0.363    7.324
  374.062   84.601    0.239    0.374    6.863
  374.312   86.947    0.232    0.396    6.738
  374.562   85.186    0.235    0.400    6.490
  374.812   82.908    0.248    0.388    6.023
  375.062   81.512    0.265    0.382    5.587
  375.312   79.456    0.287    0.381    5.077
  375.562   78.182    0.300    0.385    4.246
  375.812   79.518    0.312    0.404    3.498
  376.062   74.769    0.323    0.420    3.056
  376.312   67.745    0.307    0.411    3.074
  376.562   65.518    0.276    0.382    3.421
  376.812   65.239    0.272    0.357    3.877
  377.062   67.189    0.276    0.342    4.728
  377.312   69.403    0.258    0.333    5.540
  377.562   73.288    0.254    0.333    5.978
  377.812   77.416    0.270    0.346    5.832
  378.062   80.078    0.277    0.365    5.202
  378.312   81.922    0.268    0.383    4.534
  378.562   81.469    0.268    0.399    4.120
  378.812   80.333    0.275    0.403    3.972
  379.062   74.752    0.269    0.397    4.167
  379.312   68.694    0.246    0.366    4.743
  379.562   67.806    0.212    0.331    5.512
  379.812   70.710    0.175    0.320    6.191
  380.062   76.529    0.180    0.289    6.621
  380.312   83.572    0.239    0.313    6.473
  380.562   89.540    0.264    0.361    5.897
  380.812   91.832    0.258    0.399    5.044
  381.062   90.395    0.268    0.423    4.092
  381.312   87.848    0.278    0.429    3.439
  381.562   86.084    0.291    0.438    3.276
  381.812   87.331    0.290    0.442    3.174
  382.062   85.299    0.281    0.450    3.156
  382.312   82.673    0.284    0.446    3.238
  382.562   84.260    0.290    0.437    3.349
  382.812   86.778    0.278    0.442    3.507
  383.062   88.846    0.268    0.416    3.664
  383.312   89.207    0.268    0.403    3.889
  383.562   83.724    0.268    0.409    4.094
  383.812   79.416    0.257    0.416    4.280
  384.062   78.293    0.238    0.407    4.467
