~VERSION INFORMATION
 VERS.                 2.0:   CWLS LOG ASCII STANDARD -VERSION 2.0
 WRAP.                  NO:   ONE LINE PER DEPTH STEP
~WELL INFORMATION BLOCK
#MNEM.UNIT           DATA                    DESCRIPTION OF MNEMONIC
#---------    -------------------            -------------------------------
# Generated from Intellog Unique Number	CS_77_79/WELL/935
WELL.         PEX PCEJ THORNBURY OV          : Well_name    - WELL
LOC .         AA/10-08-079-13W4/0            : Location     - LOCATION
UWI .         AA/10-08-079-13W4/0            : Uwi          - UNIQUE WELL ID
ENTR.         JHS                            : Entered      - ENTERED BY
SRVC.         SCHLUMBERGER                   : Scn          - SERVICE COMPANY
STRT.M        260                            : top_depth    - START DEPTH
STOP.M        515                            : bot_depth    - STOP DEPTH
STEP.M        0.25                           : increment    - STEP LENGTH
 NULL. -999.2500:NULL Value
~CURVE INFORMATION BLOCK
#MNEM UNIT       ERCB CURVE CODE    CURVE DESCRIPTION
#-----------   ------------------   ----------------------------------
DEPT.M        00 001 00 00         : DEPTH        - DEPTH
DPHI.V/V      00 890 00 00         : PHID         - DENSITY POROSITY (LIMESTONE)
NPHI.V/V      00 330 00 00         : PHIN         - NEUTRON POROSITY (LIMESTONE)
GR  .API      00 310 00 00         : GR           - GAMMA RAY
ILD .OHMM     00 120 00 00         : RESD         - DEEP RESISTIVITY (DIL)
RHOB.KG/M3    00 350 00 00         : DENS         - BULK DENSITY
~PARAMETER INFORMATION
#MNEM.UNIT           DATA             DESCRIPTION OF MNEMONIC
#---------         -----------     ------------------------------
GL  .M        685.55               : gl           - GROUND LEVEL ELEVATION
EREF.M        688.75               : kb           - ELEVATION OF DEPTH REFERENCE
DATM.M        688.75               : datum        - DATUM ELEVATION
TDD .M        522                  : tdd          - TOTAL DEPTH DRILLER
RUN .         ONE                  : Run          - RUN NUMBER
ENG .         BILL                 : Engineer     - RECORDING ENGINEER
WIT .         JIM                  : Witness      - WITNESSED BY
MUD .         GEL                  : Mud_type     - MUD TYPE
MATR.         LIMESTONE            : Logunit      - NEUTRON MATRIX
TMAX.C        26                   : BHT          - MAXIMUM RECORDED TEMPERATURE
BHTD.M        522                  : BHTDEP       - MAXIMUM RECORDED TEMPERATURE
MATR.         1                    : LOGUNIT      - NEUTRON MATRIX
RMT .C        25                   : MDTP         - TEMPERATURE OF MUD
NEUT.         1                    : NEUTRON      - NEUTRON TYPE
RESI.         0                    : RESIST       - RESISTIVITY TYPE
RMC .OHMM     0.25                 : RMC          - RESISTIVITY OF MUD CAKE
RMF .OHMM     0.25                 : RMF          - RESISTIVITY OF MUD FILTRATE
SUFT.C        15                   : SUFT         - SURFACE TEMPERATURE
~A  DEPTH     PHID     PHIN       GR     RESD     DENS
# ...
  442.500    0.408    0.403   75.172    6.340 2013.150
  442.750    0.324    0.411   80.143    5.992 2156.460
  443.000    0.362    0.439   86.976    5.879 2091.200
  443.250    0.361    0.452   88.228    6.221 2093.370
  443.500    0.373    0.438   76.467    6.834 2072.350
  443.750    0.372    0.425   75.252    6.706 2074.510
  444.000    0.353    0.410   74.640    6.219 2106.170
  444.250    0.360    0.410   69.076    5.451 2093.570
  444.500    0.444    0.457   68.469    5.055 1950.370
  444.750    0.411    0.473   71.582    4.601 2007.300
  445.000    0.375    0.475   71.597    4.348 2068.450
  445.250    0.336    0.476   69.752    4.032 2135.920
  445.500    0.318    0.481   76.586    3.811 2165.460
  445.750    0.339    0.477   79.700    3.810 2129.710
  446.000    0.334    0.482   75.994    3.956 2138.180
  446.250    0.304    0.464   71.670    3.956 2190.900
  446.500    0.332    0.471   75.406    4.265 2142.510
  446.750    0.333    0.454   79.137    4.598 2140.460
  447.000    0.343    0.448   76.672    4.774 2123.640
  447.250    0.315    0.457   84.749    4.774 2172.160
  447.500    0.294    0.457   87.239    4.684 2208.030
  447.750    0.295    0.449   82.915    4.597 2205.980
  448.000    0.291    0.462   85.411    4.773 2212.340
  448.250    0.280    0.433   82.324    4.863 2231.360
  448.500    0.306    0.440   82.338    5.243 2187.170
  448.750    0.298    0.460   84.837    5.653 2199.860
  449.000    0.327    0.452   81.749    5.981 2151.460
  449.250    0.336    0.433   87.966    6.822 2134.650
  449.500    0.387    0.426   87.979    7.782 2048.330
  449.750    0.414    0.425   83.651    9.572 2002.040
  450.000    0.252    0.372   50.193   13.781 2279.220
  450.250    0.262    0.354   66.895   15.429 2262.200
  450.500    0.277    0.350   76.156   16.634 2236.750
  450.750    0.297    0.357   71.165   17.268 2202.860
  451.000    0.242    0.348   75.467   16.624 2295.630
  451.250    0.236    0.341   69.237   15.705 2306.060
  451.500    0.241    0.347   56.812   14.019 2297.480
  451.750    0.268    0.335   48.720   12.051 2250.940
  452.000    0.366    0.399   58.603   10.963 2084.070
  452.250    0.376    0.393   67.242   10.163 2067.060
  452.500    0.316    0.397   71.549    9.783 2170.360
  452.750    0.293    0.396   69.040    9.598 2208.240
  453.000    0.313    0.408   71.486    9.595 2174.340
  453.250    0.318    0.406   65.866    9.961 2165.760
  453.500    0.310    0.387   65.844   10.539 2180.440
  453.750    0.291    0.400   80.064   11.578 2211.980
  454.000    0.281    0.416   93.665   14.516 2228.730
  454.250    0.277    0.402   91.140   18.548 2237.050
  454.500    0.289    0.400   89.259   22.395 2215.830
  454.750    0.278    0.409   93.562   25.072 2234.700
  455.000    0.282    0.371   83.617   25.542 2228.250
  455.250    0.260    0.352   67.470   25.059 2266.130
  455.500    0.231    0.331   59.377   22.367 2314.560
  455.750    0.214    0.337   61.208   19.968 2343.970
  456.000    0.197    0.325   71.081   18.163 2373.420
  456.250    0.193    0.334   77.248   17.486 2379.630
  456.500    0.215    0.349   75.974   17.481 2341.510
  456.750    0.237    0.361   73.461   19.205 2305.500
  457.000    0.240    0.367   76.536   22.329 2299.060
  457.250    0.231    0.358   80.216   26.456 2315.810
  457.500    0.218    0.338   77.087   31.343 2336.790
  457.750    0.211    0.336   74.573   31.934 2349.340
  458.000    0.231    0.338   74.541   30.165 2315.460
  458.250    0.281    0.352   64.594   27.963 2228.790
  458.500    0.293    0.358   54.021   25.923 2209.660
  458.750    0.277    0.351   60.805   24.491 2236.970
  459.000    0.250    0.336   60.773   21.453 2283.330
  459.250    0.230    0.319   66.941   19.515 2316.950
  459.500    0.225    0.318   74.961   18.437 2325.300
  459.750    0.232    0.325   77.411   17.417 2312.510
  460.000    0.240    0.329   74.273   15.255 2299.690
  460.250    0.240    0.325   70.513   14.967 2299.610
  460.500    0.225    0.318   79.168   15.248 2324.810
  460.750    0.193    0.318   83.473   16.131 2379.560
  461.000    0.153    0.324   80.341   18.405 2449.090
  461.250    0.185    0.340   85.268   21.398 2394.100
  461.500    0.206    0.349   85.853   24.413 2358.100
  461.750    0.161    0.358   82.102   28.925 2433.970
  462.000    0.190    0.340   68.432   36.953 2385.290
  462.250    0.248    0.336   62.203   42.964 2285.980
  462.500    0.265    0.321   55.971   51.874 2256.300
  462.750    0.264    0.320   46.025   60.314 2258.270
  463.000    0.262    0.323   45.986   71.460 2262.400
  463.250    0.263    0.329   45.956   79.999 2260.160
  463.500    0.283    0.329   45.924   81.498 2226.260
  463.750    0.297    0.326   41.556   79.960 2202.930
  464.000    0.295    0.327   36.559   78.442 2204.920
  464.250    0.303    0.332   34.053   72.715 2192.140
  464.500    0.315    0.347   42.074   69.998 2170.910
  464.750    0.294    0.336   43.281   64.890 2206.670
  465.000    0.280    0.335   45.726   61.304 2231.880
  465.250    0.298    0.345   51.885   55.765 2200.100
  465.500    0.307    0.337   47.523   51.699 2185.190
  465.750    0.282    0.339   33.228   47.030 2227.280
  466.000    0.266    0.358   30.103   42.783 2254.600
  466.250    0.279    0.369   41.838   42.767 2233.380
  466.500    0.280    0.363   44.910   45.248 2231.150
  466.750    0.264    0.360   44.243   56.731 2258.480
  467.000    0.288    0.372   40.502   73.866 2218.250
  467.250    0.310    0.380   35.515  103.719 2180.120
  467.500    0.307    0.359   32.378  137.618 2184.220
  467.750    0.315    0.347   25.535  154.063 2171.440
  468.000    0.320    0.335   18.679  156.970 2162.840
  468.250    0.313    0.327   20.511  148.272 2175.420
  468.500    0.313    0.330   19.232  148.235 2175.320
  468.750    0.298    0.340   17.338  148.196 2200.520
  469.000    0.305    0.351   18.547  129.817 2187.740
  469.250    0.287    0.360   18.511   99.647 2219.230
  469.500    0.283    0.355   15.999   53.441 2225.480
  469.750    0.286    0.349   15.347   33.329 2221.130
  470.000    0.303    0.345   27.713   27.073 2191.480
  470.250    0.337    0.370   61.765   24.168 2134.330
  470.500    0.339    0.389   78.463   23.265 2130.030
  470.750    0.238    0.343   74.088   25.083 2302.990
  471.000    0.125    0.317   54.229   26.537 2497.040
  471.250    0.167    0.286   41.178   28.073 2425.160
  471.500    0.230    0.314   46.724   26.522 2317.390
  471.750    0.235    0.348   63.419   20.356 2308.810
  472.000    0.224    0.345   67.103   17.500 2327.670
  472.250    0.217    0.341   72.035   15.329 2338.130
  472.500    0.215    0.351   76.336   13.944 2342.240
  472.750    0.244    0.363   84.362   13.172 2293.570
  473.000    0.309    0.378   96.725   12.922 2181.590
  473.250    0.335    0.388   91.723   13.166 2137.140
  473.500    0.278    0.360   86.743   13.928 2234.110
  473.750    0.204    0.339   92.891   14.736 2360.610
  474.000    0.192    0.334   95.333   16.189 2381.620
  474.250    0.208    0.340   94.686   17.454 2354.040
  474.500    0.217    0.337   87.227   19.541 2339.130
  474.750    0.231    0.342   78.520   21.877 2315.810
  475.000    0.253    0.352   80.961   23.584 2277.710
  475.250    0.264    0.343   73.498   23.579 2258.600
  475.500    0.278    0.344   59.828   22.274 2235.230
  475.750    0.272    0.346   52.980   20.649 2245.660
  476.000    0.258    0.341   57.275   19.506 2268.760
  476.250    0.258    0.362   66.540   19.134 2268.660
  476.500    0.268    0.367   70.225   19.494 2251.630
  476.750    0.263    0.346   68.960   20.626 2259.980
  477.000    0.200    0.330   60.872   21.819 2367.510
  477.250    0.226    0.319   68.889   21.815 2323.070
  477.500    0.241    0.314   64.519   20.223 2297.610
  477.750    0.242    0.312   61.998   17.714 2295.370
  478.000    0.230    0.319   66.310   15.813 2316.360
  478.250    0.208    0.327   76.193   13.339 2354.240
  478.500    0.192    0.335   82.363   11.907 2381.530
  478.750    0.191    0.345   87.279   11.682 2383.520
