~VERSION INFORMATION
 VERS.                 2.0:   CWLS LOG ASCII STANDARD -VERSION 2.0
 WRAP.                  NO:   ONE LINE PER DEPTH STEP
~WELL INFORMATION BLOCK
#MNEM.UNIT           DATA                    DESCRIPTION OF MNEMONIC
#---------    -------------------            -------------------------------
# Generated from Intellog Unique Number	CN_94_101/WELL/5048
WELL.         15-19-098-12W4                 : Well_name    - WELL
LOC .         AA/15-19-098-12W4/0            : Location     - LOCATION
UWI .         AA/15-19-098-12W400            : Uwi          - UNIQUE WELL ID
ENTR.         T                              : Entered      - ENTERED BY
SRVC.         SCHLUMBERGER                   : Scn          - SERVICE COMPANY
DATE.         08/14/92                       : Date         - LOG DATE
STRT.M        195                            : top_depth    - START DEPTH
STOP.M        470                            : bot_depth    - STOP DEPTH
STEP.M        0.25                           : increment    - STEP LENGTH
 NULL. -999.2500:NULL Value
~CURVE INFORMATION BLOCK
#MNEM UNIT       ERCB CURVE CODE    CURVE DESCRIPTION
#-----------   ------------------   ----------------------------------
DEPT.M        00 001 00 00         : DEPTH        - DEPTH
GR  .API      00 310 00 00         : GR           - GAMMA RAY
NPHI.V/V      00 330 00 00         : PHIN         - NEUTRON POROSITY (SANDSTONE)
DPHI.V/V      00 890 00 00         : PHID         - DENSITY POROSITY (SANDSTONE)
ILD .OHMM     00 120 00 00         : RESD         - DEEP RESISTIVITY (DIL)
~PARAMETER INFORMATION
#MNEM.UNIT           DATA             DESCRIPTION OF MNEMONIC
#---------         -----------     ------------------------------
GL  .M        718.4                : gl           - GROUND LEVEL ELEVATION
EREF.M        721.67               : kb           - ELEVATION OF DEPTH REFERENCE
DATM.M        721.67               : datum        - DATUM ELEVATION
TDD .M        479                  : tdd          - TOTAL DEPTH DRILLER
RUN .         ONE                  : Run          - RUN NUMBER
ENG .         BILL                 : Engineer     - RECORDING ENGINEER
WIT .         JIM                  : Witness      - WITNESSED BY
MUD .         GEL                  : Mud_type     - MUD TYPE
MATR.         SANDSTONE            : Logunit      - NEUTRON MATRIX
TMAX.C        21                   : BHT          - MAXIMUM RECORDED TEMPERATURE
BHTD.M        479                  : BHTDEP       - MAXIMUM RECORDED TEMPERATURE
RMT .C        21                   : MDTP         - TEMPERATURE OF MUD
MUDD.KG/M     1090                 : MWT          - MUD DENSITY
NEUT.         1                    : NEUTRON      - NEUTRON TYPE
RESI.         0                    : RESIST       - RESISTIVITY TYPE
RM  .OHMM     5.7                  : RM           - RESISTIVITY OF MUD
RMC .OHMM     5.7                  : RMC          - RESISTIVITY OF MUD CAKE
RMF .OHMM     5.7                  : RMF          - RESISTIVITY OF MUD FILTRATE
SUFT.C        4                    : SUFT         - SURFACE TEMPERATURE
~A  DEPTH       GR     PHIN     PHID     RESD
  195.000  119.586    0.469    0.293    4.154
  195.250   91.598    0.432    0.304    4.235
  195.500   81.640    0.370    0.313    4.321
  195.750   71.210    0.328    0.317    4.406
  196.000   64.576    0.282    0.305    4.492
  196.250   56.992    0.247    0.304    5.305
  196.500   50.833    0.231    0.306    6.035
  196.750   44.673    0.216    0.311    7.253
  197.000   37.090    0.203    0.317    8.717
  197.250   34.255    0.196    0.336   11.274
  197.500   32.363    0.190    0.346   18.815
  197.750   31.900    0.186    0.344   53.327
  198.000   31.910    0.185    0.341   60.680
  198.250   33.343    0.187    0.337   92.442
  198.500   35.250    0.191    0.333  160.067
  198.750   37.157    0.194    0.331  226.957
  199.000   40.014    0.198    0.327  211.153
  199.250   45.243    0.205    0.321  186.061
  199.500   51.896    0.219    0.317  167.032
  199.750   59.498    0.266    0.311  208.291
  200.000   74.692    0.302    0.306  204.918
  200.250   82.770    0.332    0.296  183.890
  200.500   86.576    0.368    0.289  125.575
  200.750   93.229    0.400    0.281  114.763
  201.000   99.407    0.411    0.266   81.280
  201.250  105.585    0.421    0.249   51.580
  201.500  111.289    0.428    0.255   28.300
  201.750  113.196    0.416    0.275   25.406
  202.000  100.868    0.216    0.294   22.395
  202.250   73.354    0.172    0.309   17.369
  202.500   56.755    0.159    0.321   17.409
  202.750   44.901    0.139    0.329   17.114
  203.000   36.369    0.118    0.331   13.517
  203.250   33.533    0.116    0.328   11.082
  203.500   32.593    0.119    0.324   11.094
  203.750   34.026    0.123    0.319   19.210
  204.000   36.406    0.129    0.314   47.903
  204.250   49.228    0.158    0.306  199.196
  204.500   56.829    0.212    0.298  203.173
  204.750   67.755    0.304    0.293  248.590
  205.000   78.679    0.332    0.292  304.276
  205.250   83.433    0.379    0.293  268.221
  205.500   91.035    0.408    0.293  197.023
  205.750   96.739    0.424    0.292  114.134
  206.000  102.917    0.439    0.291   69.862
  206.250  104.354    0.451    0.290   52.262
  206.500  104.359    0.448    0.292   29.191
  206.750  101.996    0.439    0.298   18.872
  207.000   95.362    0.345    0.304   16.034
  207.250   87.778    0.310    0.311   12.440
  207.500   71.654    0.275    0.317   10.768
  207.750   65.494    0.211    0.324   10.026
  208.000   54.589    0.173    0.333   10.801
  208.250   42.261    0.127    0.339   11.430
  208.500   34.203    0.116    0.340   11.654
  208.750   30.890    0.119    0.339   11.676
  209.000   28.055    0.123    0.336   19.134
  209.250   26.641    0.127    0.335  410.861
  209.500   26.175    0.131    0.333  649.171
  209.750   26.185    0.137    0.331 1277.110
  210.000   27.143    0.144    0.330 1652.360
  210.250   27.625    0.152    0.330 1747.280
  210.500   28.585    0.157    0.329 1749.960
  210.750   28.597    0.156    0.329 1571.590
  211.000   28.604    0.154    0.330 1287.410
  211.250   28.616    0.152    0.331  878.811
  211.500   28.622    0.152    0.334  481.986
  211.750   29.106    0.154    0.334  474.000
  212.000   30.067    0.162    0.335  458.074
  212.250   30.074    0.168    0.337  410.911
  212.500   30.085    0.169    0.337  330.653
  212.750   30.569    0.166    0.339  256.639
  213.000   30.579    0.157    0.343  276.482
  213.250   31.060    0.151    0.349  303.341
  213.500   31.072    0.147    0.355  320.890
  213.750   31.079    0.146    0.357  315.453
  214.000   30.141    0.146    0.354  293.935
  214.250   29.202    0.144    0.346  288.844
  214.500   28.264    0.142    0.344  289.397
  214.750   27.324    0.141    0.344  335.493
  215.000   26.861    0.140    0.346  368.226
  215.250   26.392    0.140    0.348  368.508
  215.500   25.929    0.137    0.350  397.000
  215.750   25.938    0.131    0.348  460.061
  216.000   25.947    0.125    0.346  640.038
  216.250   25.956    0.119    0.344  798.134
  216.500   25.489    0.115    0.340  891.444
  216.750   25.026    0.119    0.332 1071.830
  217.000   31.202    0.141    0.328 1035.020
  217.250   35.956    0.167    0.328  963.681
  217.500   41.660    0.180    0.323  930.589
  217.750   57.806    0.191    0.316  866.779
  218.000   70.153    0.208    0.315  792.149
  218.250   74.907    0.225    0.315  723.944
  218.500   77.764    0.270    0.315  649.904
  218.750   77.301    0.332    0.315  504.236
  219.000   73.512    0.315    0.315  344.333
  219.250   68.301    0.285    0.317  154.525
  219.500   57.396    0.234    0.323   99.904
  219.750   46.966    0.192    0.333   69.451
  220.000   41.755    0.181    0.351   36.727
  220.250   37.020    0.183    0.358   20.899
  220.500   34.658    0.193    0.355   17.127
  220.750   38.462    0.209    0.351   16.843
  221.000   54.605    0.254    0.341   28.626
  221.250   68.378    0.283    0.318   63.983
  221.500   79.302    0.308    0.294   92.320
  221.750   88.801    0.364    0.277  119.355
  222.000  106.843    0.408    0.261  169.103
  222.250  111.123    0.427    0.247  248.391
  222.500  114.456    0.439    0.235  231.271
  222.750  116.364    0.454    0.238  160.837
  223.000  119.222    0.472    0.246   69.593
  223.250  121.602    0.493    0.273   34.212
  223.500  122.563    0.510    0.289   20.199
  223.750  121.146    0.517    0.305   19.160
  224.000  116.885    0.521    0.315   17.504
  224.250  106.454    0.522    0.332   15.157
  224.500   98.397    0.514    0.349   14.625
  224.750   89.864    0.475    0.381   13.376
  225.000   75.638    0.416    0.392   12.459
  225.250   59.985    0.275    0.408   12.243
  225.500   43.386    0.215    0.419   11.827
  225.750   37.226    0.152    0.417   12.290
  226.000   32.965    0.112    0.412   13.235
  226.250   28.229    0.111    0.393   15.060
  226.500   24.919    0.113    0.394   18.101
  226.750   24.453    0.127    0.396   48.552
  227.000   25.414    0.137    0.397  270.200
  227.250   27.798    0.133    0.393 1531.960
  227.500   28.278    0.126    0.386 1591.300
  227.750   28.287    0.121    0.375 1652.940
  228.000   27.822    0.121    0.363 1780.740
  228.250   27.356    0.126    0.351 1816.290
  228.500   26.891    0.133    0.327 1786.880
  228.750   27.850    0.148    0.316 1822.550
  229.000   29.285    0.169    0.320 1963.470
  229.250   30.718    0.176    0.330 2077.060
  229.500   33.100    0.186    0.357 2080.240
  229.750   34.058    0.196    0.380 1936.860
  230.000   35.019    0.204    0.389 1738.110
  230.250   35.498    0.212    0.398 1398.620
  230.500   35.509    0.224    0.406  840.631
  230.750   35.996    0.236    0.408  701.300
  231.000   36.005    0.247    0.412  437.335
  231.250   36.012    0.257    0.413  351.781
  231.500   36.496    0.269    0.406  227.348
  231.750   36.507    0.281    0.395  122.483
  232.000   36.991    0.296    0.382  100.335
  232.250   37.952    0.312    0.368   86.881
  232.500   38.431    0.323    0.370   79.461
  232.750   39.389    0.337    0.372   75.317
  233.000   39.876    0.346    0.374   68.859
  233.250   39.885    0.358    0.377   64.112
  233.500   39.892    0.370    0.379   57.556
  233.750   39.901    0.380    0.382   51.669
  234.000   38.961    0.386    0.378   46.385
  234.250   38.024    0.392    0.375   41.625
  234.500   37.559    0.398    0.369   37.368
  234.750   37.568    0.403    0.367   33.559
  235.000   38.052    0.405    0.362   31.234
  235.250   39.012    0.407    0.356   29.628
  235.500   39.019    0.408    0.352   28.621
  235.750   39.506    0.407    0.346   28.126
  236.000   39.515    0.407    0.345   27.191
  236.250   39.526    0.404    0.346   26.730
  236.500   39.533    0.402    0.348   26.761
  236.750   39.545    0.400    0.350   26.328
  237.000   39.550    0.396    0.350   26.348
  237.250   39.561    0.393    0.347   26.874
  237.500   40.045    0.390    0.340   27.421
  237.750   40.529    0.386    0.337   27.968
  238.000   40.536    0.385    0.332   29.062
  238.250   40.548    0.383    0.328   29.085
