~Version : LASO    vs 4.00
VERS.                2.00:   CWLS Log ASCII Standard -VERSION 2.0
WRAP.                  NO:
~Well Information Block
#MNEM.UNIT       Data                        Description of Mnemonic
#----.----      -------------------------- : -----------------------------
STRT.M            15.0000:
STOP.M           203.4000:
STEP.M             0.1000:
NULL.           -999.2500:
COMP.  MOBIL OIL CANADA LTD.     :COMPANY
WELL.  MOBIL CLARKE OV 12-34     :WELL
FLD.   CLARKE                    :FIELD
LOC.   12-34-089-08W4            :LOCATION
CTRY.  CANADA                    :COUNTRY
PROV.  ALBERTA                   :PROVINCE
SRVC.  SCHLUMBERGER              :SERVICE COMPANY
DATE.  20-FEB-81                 :LOG DATE
UWI.   AA/12-34-089-08W400       :UNIQUE WELL ID
~Parameter Information Block
#MNEM.UNIT       Data                        Description of Mnemonic
#----.----      -------------------------- : -----------------------------
RUN .                   1                 : Run Number
GL  .M           415.1000                 : Ground Level Elevation
DREF.                  KB                 : Depth Reference
EREF.M           418.1000                 : Elevation of Depth Reference
TDL .M           203.0000                 : Total Depth Logger
TDD .M           200.0000                 : Total Depth Driller
CSGL.M            18.0000                 : Casing Bottom Logger
CSGD.M            15.0000                 : Casing Bottom Driller
CSGS.MM          219.0000                 : Casing Size
CSGW.KG/M          0.0000                 : Casing Weight
BHT .DEGC         12.0000                 : Bottom Hole Temperature
BS  .MM          159.0000                 : Bit Size
DFD .           1110.0000                 : Mud Weight (Density)
DFV .             90.0000                 : Mud Viscosity
DFPH.             10.0000                 : Mud pH
RM  .OHMM          1.9600                 : Mud Resistivity
RMT .DEGC         20.0000                 : Mud Resistivity Temperature
~Curve Information Block
#MNEM.UNIT        API CODE    Curve Description
#---------    ------------    -------------------------------------------
DEPT.M                    :   DEPTH
CALI.MM       42 280  1  1:   3 DENSITY CALIPER
DPHI.V/V                  :   DPHI
DT  .US/M     60 520  0  1:   2 SONIC INTERVAL TRANSIT TIME (COMPENSATED)
GR  .GAPI     42 310  1  1:   4 GAMMA RAY
ILD .OHMM      7 120 46  1:   7 DEEP INDUCTION
ILM .OHMM      7 120 44  1:   8 MEDIUM INDUCTION
NPHI.V/V      42 890  3  1:   5 NEUTRON POROSITY (SANDSTONE)
RHOB.K/M3     42 350  1  1:   6 BULK DENSITY
SFLU.OHMM      7 220  1  1:   9 FOCUSSED RESISTIVITY
SP  .MV        7  10  1  1:   10 SPONTANEOUS POTENTIAL
~A  Depth           CALI        DPHI          DT          GR         ILD         ILM        NPHI        RHOB        SFLU          SP
# ...
173.6000        183.8750      0.1732    392.7200     98.4900      9.3461      9.1502      0.3415   2293.7000      7.4857    -35.6700
173.7000        183.8750      0.1733    392.2000     96.5250      9.3461      9.1502      0.3415   2293.7000      7.4857    -35.6700
173.8000        181.6750      0.1806    391.8800     97.8150      9.7775      9.7058      0.3331   2313.3000      8.7787    -37.3200
173.9000        181.6750      0.1915    392.2400     99.1050      9.7775      9.7058      0.3331   2313.3000      8.7787    -37.3200
174.0000        160.2000      0.2013    392.5200     98.4750     10.7604     10.6814      0.3235   2341.1001      9.8227    -38.9400
174.1000        160.2000      0.2087    393.1200     97.7850     10.7604     10.6814      0.3235   2341.1001      9.8227    -38.9400
174.2000        161.7250      0.2079    394.0400     97.0050     10.8002     10.8002      0.3242   2361.0000     13.0807    -39.8100
174.3000        161.7250      0.1936    396.4800     96.0150     10.8002     10.8002      0.3242   2361.0000     13.0807    -39.8100
174.4000        165.5500      0.1870    401.1600     95.5200     10.7209     10.5835      0.3253   2368.1001     12.7359    -38.9900
174.5000        165.5500      0.1833    403.6800     97.6200     10.7209     10.5835      0.3253   2368.1001     12.7359    -38.9900
174.6000        174.4250      0.1805    405.2800     99.5850     10.3141     10.1913      0.3310   2397.6001     11.7336    -37.6000
174.7000        174.4250      0.1775    405.7600     99.2400     10.3141     10.1913      0.3310   2397.6001     11.7336    -37.6000
174.8000        177.1500      0.1752    406.1200     98.6700     10.0700      9.9502      0.3371   2377.3000      9.0998    -35.5400
174.9000        177.1500      0.1720    406.4000     97.6350     10.0700      9.9502      0.3371   2377.3000      9.0998    -35.5400
175.0000        177.8750      0.1686    405.8800     96.4650      9.8136      9.8046      0.3491   2382.1001      8.3297    -34.8300
175.1000        177.8750      0.1649    405.4400     95.8800      9.8136      9.8046      0.3491   2382.1001      8.3297    -34.8300
175.2000        174.4500      0.1610    406.6800     98.7600      9.5814      9.6523      0.3679   2391.2000      8.3605    -34.7800
175.3000        174.4500      0.1587    407.9200    100.5450      9.5814      9.6523      0.3679   2391.2000      8.3605    -34.7800
175.4000        171.0000      0.1566    409.1600     99.4200      9.3461      9.3633      0.4007   2313.1001      8.7223    -35.0300
175.5000        171.0000      0.1546    411.6400     98.0250      9.3461      9.3633      0.4007   2313.1001      8.7223    -35.0300
175.6000        175.6500      0.1551    414.6400     94.9500      9.3289      9.3461      0.4140   2300.8999      8.1777    -35.0800
175.7000        175.6500      0.1559    417.6400     92.9400      9.3289      9.3461      0.4140   2300.8999      8.1777    -35.0800
175.8000        178.1500      0.1599    420.6400     91.6500      9.4065      9.3547      0.4221   2291.2000      8.0878    -34.9600
175.9000        178.1500      0.1661    422.7600     89.5950      9.4065      9.3547      0.4221   2291.2000      8.0878    -34.9600
176.0000        180.8000      0.1777    424.1600     87.2250      9.8953      9.5638      0.4396   2287.7000      8.4924    -34.5800
176.1000        180.8000      0.1949    423.9600     83.8650      9.8953      9.5638      0.4396   2287.7000      8.4924    -34.5800
176.2000        180.6750      0.2039    423.1600     80.2200     10.1726      9.7685      0.4460   2275.3999      8.3144    -33.2600
176.3000        180.6750      0.2087    419.6800     76.3050     10.1726      9.7685      0.4460   2275.3999      8.3144    -33.2600
176.4000        180.4250      0.2098    415.2800     70.6050     10.4191     10.0330      0.4402   2255.8000      8.4378    -32.6000
176.5000        180.4250      0.2123    409.6000     65.4750     10.4191     10.0330      0.4402   2255.8000      8.4378    -32.6000
176.6000        174.0250      0.2145    411.2000     61.3650     10.9605     10.8400      0.4398   2155.5000      9.2349    -33.1300
176.7000        174.0250      0.2165    413.3600     57.2550     10.9605     10.8400      0.4398   2155.5000      9.2349    -33.1300
176.8000        163.1000      0.2216    419.1200     53.1450     11.3404     11.4982      0.4490   2165.7000     10.8901    -40.4300
176.9000        163.1000      0.2304    416.8400     49.1550     11.3404     11.4982      0.4490   2165.7000     10.8901    -40.4300
177.0000        162.5750      0.2404    414.3200     45.8250     11.7877     12.1964      0.4541   2153.3999     10.6913    -42.6900
177.1000        162.5750      0.2489    412.8800     43.8750     11.7877     12.1964      0.4541   2153.3999     10.6913    -42.6900
177.2000        157.0000      0.2588    414.0400     43.2450     12.9250     13.6719      0.3922   2155.8999     10.1351    -48.2500
177.3000        157.0000      0.2710    415.3200     43.9500     12.9250     13.6719      0.3922   2155.8999     10.1351    -48.2500
177.4000        154.8750      0.2825    422.0800     45.2850     13.5217     14.6363      0.3677   2187.2000     14.1329    -58.8200
177.5000        154.8750      0.2935    432.0800     49.6800     13.5217     14.6363      0.3677   2187.2000     14.1329    -58.8200
177.6000        154.1250      0.3005    437.3600     54.4800     14.3824     15.8719      0.3724   2225.1001     33.6225    -56.4300
177.7000        154.1250      0.2995    439.9200     59.5650     14.3824     15.8719      0.3724   2225.1001     33.6225    -56.4300
177.8000        158.4500      0.2913    440.7600     64.6500     14.6497     15.9746      0.3834   2302.8000     39.3577    -50.0800
177.9000        158.4500      0.2782    424.0400     68.8950     14.6497     15.9746      0.3834   2302.8000     39.3577    -50.0800
178.0000        162.1000      0.2571    407.0000     73.1400     14.3163     15.2275      0.3857   2341.8999     21.2535    -40.5700
178.1000        162.1000      0.2441    400.2800     77.3850     14.3163     15.2275      0.3857   2341.8999     21.2535    -40.5700
178.2000        162.4750      0.2283    393.5600     80.4600     13.8621     14.7309      0.3482   2357.8000     20.1851    -39.4300
178.3000        162.4750      0.2145    384.8400     83.0550     13.8621     14.7309      0.3482   2357.8000     20.1851    -39.4300
178.4000        159.4000      0.2011    379.2400     85.1400     13.3484     14.0809      0.3298   2386.2000     15.3968    -38.8800
178.5000        159.4000      0.1922    376.0400     86.3100     13.3484     14.0809      0.3298   2386.2000     15.3968    -38.8800
178.6000        167.5250      0.1800    372.7600     86.1750     12.3319     12.8893      0.3158   2400.6001     16.0483    -37.5400
178.7000        167.5250      0.1700    369.0800     84.3150     12.3319     12.8893      0.3158   2400.6001     16.0483    -37.5400
178.8000        172.4750      0.1582    365.4000     80.7000     12.0069     12.3660      0.3151   2326.0000      9.5814    -34.7000
178.9000        172.4750      0.1504    361.7200     76.9200     12.0069     12.3660      0.3151   2326.0000      9.5814    -34.7000
179.0000        172.9500      0.1478    358.0000     72.4950     11.7336     12.0401      0.3100   2294.3999      9.2434    -33.2500
179.1000        172.9500      0.1496    354.8800     68.0700     11.7336     12.0401      0.3100   2294.3999      9.2434    -33.2500
179.2000        174.8250      0.1547    353.3200     62.9550     11.6582     12.1291      0.3035   2198.0000     10.9101    -34.1000
179.3000        174.8250      0.1631    352.1600     55.0650     11.6582     12.1291      0.3035   2198.0000     10.9101    -34.1000
179.4000        170.3750      0.1792    359.4800     51.1500     11.8421     12.4117      0.3080   2173.7000     13.5716    -41.3900
179.5000        170.3750      0.1951    368.6400     48.9300     11.8421     12.4117      0.3080   2173.7000     13.5716    -41.3900
179.6000        164.9250      0.2120    379.2400     46.7100     12.0734     12.6424      0.3178   2147.1001     14.3427    -46.0400
