~VERSION INFORMATION
 VERS.                 2.0:   CWLS LOG ASCII STANDARD -VERSION 2.0
 WRAP.                  NO:   ONE LINE PER DEPTH STEP
~WELL INFORMATION BLOCK
#MNEM.UNIT           DATA                    DESCRIPTION OF MNEMONIC
#---------    -------------------            -------------------------------
# Generated from Intellog Unique Number	CC_84_87/WELL/2336
NULL.         -999.25                        : NULL_VALUE
WELL.         SUN CHEECHAM                   : Well_name    - WELL              
LOC .         11-36-085-07W4                 : Location     - LOCATION          
UWI .         AA/11-36-085-07W400            : Uwi          - UNIQUE WELL ID    
ENTR.         DW                             : Entered      - ENTERED BY        
SRVC.         SCHLUMBERGER                   : Scn          - SERVICE COMPANY   
DATE.         28 MAR 80                      : Date         - LOG DATE
STRT.M        50                             : top_depth    - START DEPTH       
STOP.M        250.102                        : bot_depth    - STOP DEPTH        
STEP.M        0.3                            : increment    - STEP LENGTH       
~CURVE INFORMATION BLOCK
#MNEM UNIT       ERCB CURVE CODE    CURVE DESCRIPTION
#-----------   ------------------   ----------------------------------
DEPT.M        00 001 00 00         : DEPTH        - DEPTH                       
DPHI.V/V      00 890 00 00         : PHID         - DENSITY POROSITY (LIMESTONE)
NPHI.V/V      00 330 00 00         : PHIN         - NEUTRON POROSITY (LIMESTONE)
GR  .API      00 310 00 00         : GR           - GAMMA RAY                   
ILD .OHMM     00 120 00 00         : RESD         - DEEP RESISTIVITY (DIL)      
~PARAMETER INFORMATION       
#MNEM.UNIT           DATA             DESCRIPTION OF MNEMONIC
#---------         -----------     ------------------------------
GL  .M        487.6                : gl           - GROUND LEVEL ELEVATION      
EREF.M        489.66               : kb           - ELEVATION OF DEPTH REFERENCE
DATM.M        489.66               : datum        - DATUM ELEVATION             
TDD .M        249                  : tdd          - TOTAL DEPTH DRILLER         
RUN .         ONE                  : Run          - RUN NUMBER                  
ENG .         BILL                 : Engineer     - RECORDING ENGINEER          
WIT .         JIM                  : Witness      - WITNESSED BY                
MUD .         GEL                  : Mud_type     - MUD TYPE                    
MATR.         LIMESTONE            : Logunit      - NEUTRON MATRIX              
TMAX.C        18.5                 : BHT          - MAXIMUM RECORDED TEMPERATURE
BHTD.M        250                  : BHTDEP       - MAXIMUM RECORDED TEMPERATURE
MATR.         1                    : LOGUNIT      - NEUTRON MATRIX              
RMT .C        25                   : MDTP         - TEMPERATURE OF MUD          
NEUT.         1                    : NEUTRON      - NEUTRON TYPE                
RESI.         0                    : RESIST       - RESISTIVITY TYPE            
RMC .OHMM     0.25                 : RMC          - RESISTIVITY OF MUD CAKE     
RMF .OHMM     0.25                 : RMF          - RESISTIVITY OF MUD FILTRATE 
SUFT.C        4                    : SUFT         - SURFACE TEMPERATURE         
~A  DEPTH     PHID     PHIN       GR     RESD
# ...
  206.601    0.298    0.373   36.315   22.205
  206.901    0.305    0.373   38.126   22.565
  207.201    0.311    0.371   39.937   22.948
  207.501    0.291    0.385   42.962   28.672
  207.801    0.278    0.403   39.306   66.374
  208.101    0.304    0.414   32.612   74.047
  208.401    0.300    0.399   29.562   62.380
  208.701    0.313    0.404   31.982   32.914
  209.001    0.311    0.404   37.437   22.568
  209.301    0.296    0.398   42.892   21.665
  209.601    0.285    0.395   51.383   26.066
  209.901    0.284    0.408   49.550   59.218
  210.201    0.324    0.426   33.744   89.144
  210.501    0.338    0.447   29.480  115.488
  210.801    0.315    0.430   32.502  102.930
  211.101    0.322    0.421   34.315  108.520
  211.401    0.332    0.443   34.303  132.984
  211.701    0.321    0.444   34.898  162.903
  212.001    0.322    0.420   30.634  181.725
  212.301    0.326    0.421   30.012  184.664
  212.601    0.330    0.422   30.608  191.093
  212.901    0.341    0.425   31.205  201.616
  213.201    0.344    0.434   30.588  216.553
  213.501    0.338    0.443   29.963  215.988
  213.801    0.331    0.442   29.954  199.750
  214.101    0.330    0.421   30.551  178.053
  214.401    0.297    0.398   31.756  150.054
  214.701    0.305    0.402   35.388  121.723
  215.001    0.314    0.420   39.021  106.411
  215.301    0.304    0.415   38.398   98.489
  215.602    0.315    0.430   38.998   77.028
  215.902    0.319    0.418   40.807   66.094
  216.202    0.314    0.417   43.226   68.378
  216.502    0.315    0.447   36.533   76.348
  216.802    0.331    0.435   31.659   90.100
  217.102    0.332    0.424   29.214  128.193
  217.402    0.328    0.434   27.989  127.851
  217.702    0.325    0.439   29.801  125.031
  218.002    0.335    0.429   34.042  120.093
  218.302    0.336    0.429   39.497  113.253
  218.602    0.329    0.430   38.270   95.392
  218.902    0.325    0.421   39.475   69.202
  219.202    0.319    0.408   42.499   51.130
  219.502    0.300    0.401   46.133   44.728
  219.802    0.286    0.419   48.549   42.954
  220.102    0.282    0.429   44.894   45.311
  220.402    0.314    0.417   33.339   62.118
  220.702    0.333    0.421   30.291   88.360
  221.002    0.317    0.429   29.671  108.240
  221.302    0.309    0.439   31.482  125.421
  221.602    0.324    0.440   30.254  153.639
  221.902    0.307    0.410   30.241  181.268
  222.202    0.308    0.396   30.231  180.587
  222.502    0.314    0.406   32.040  170.269
  222.802    0.324    0.422   32.031  166.767
  223.102    0.322    0.411   32.625  166.261
  223.402    0.316    0.434   32.613  175.289
  223.702    0.318    0.449   30.779  184.953
  224.002    0.327    0.447   29.552  181.016
  224.302    0.329    0.436   30.145  152.422
  224.602    0.332    0.433   31.957  119.202
  224.902    0.335    0.432   36.199   80.237
  225.202    0.335    0.435   43.477   66.346
  225.502    0.326    0.448   53.184   60.209
  225.802    0.314    0.476   47.098   55.730
  226.102    0.312    0.470   44.654   47.842
  226.402    0.306    0.441   44.037   38.087
  226.702    0.293    0.418   43.416   32.703
  227.002    0.288    0.414   40.974   25.564
  227.302    0.306    0.422   39.142   19.988
  227.602    0.300    0.434   43.988   18.134
  227.902    0.282    0.434   45.190   18.785
  228.202    0.298    0.436   44.573   20.558
  228.502    0.315    0.418   47.599   20.894
  228.802    0.280    0.398   53.662   20.437
  229.102    0.253    0.394   57.295   21.162
  229.402    0.297    0.441   49.992   24.516
  229.702    0.325    0.461   39.044   29.475
  230.002    0.344    0.478   34.174   57.660
  230.302    0.342    0.489   29.303   69.239
  230.602    0.343    0.437   25.645   70.410
  230.902    0.347    0.401   29.280   65.148
  231.202    0.349    0.441   35.340   58.040
  231.502    0.338    0.429   38.974   57.885
  231.802    0.304    0.436   40.785   56.663
  232.102    0.310    0.423   41.379   55.454
  232.402    0.326    0.402   41.366   46.694
  232.702    0.310    0.407   40.749   40.828
  233.002    0.297    0.423   35.878   39.216
  233.302    0.287    0.427   31.613   39.864
  233.602    0.307    0.424   33.424   42.029
  233.902    0.306    0.427   42.525   43.519
  234.202    0.303    0.417   40.083   39.450
  234.502    0.304    0.399   40.678   37.940
  234.802    0.306    0.389   43.704   37.126
  235.102    0.306    0.407   39.439   37.702
  235.402    0.308    0.445   37.604   39.056
  235.702    0.313    0.457   39.416   41.177
  236.002    0.325    0.471   36.974   43.434
  236.302    0.336    0.468   33.923   46.692
  236.602    0.328    0.450   33.305   50.154
  236.902    0.299    0.429   36.937   50.953
  237.202    0.274    0.431   32.673   47.987
  237.502    0.275    0.416   31.448   47.011
  237.802    0.272    0.382   36.295   44.325
  238.102    0.262    0.366   41.142   40.995
  238.402    0.253    0.362   45.383   38.620
  238.702    0.241    0.360   44.765   38.524
  239.002    0.222    0.348   42.322   37.707
  239.302    0.180    0.315   43.524   34.899
  239.602    0.202    0.332   44.729   30.506
  239.902    0.236    0.337   36.213   26.198
  240.202    0.255    0.324   33.162   20.870
  240.502    0.247    0.328   38.011   17.895
  240.802    0.232    0.345   39.820   16.880
  241.102    0.230    0.351   37.379   16.210
  241.402    0.266    0.349   34.936   15.005
  241.702    0.278    0.349   34.924   13.118
  242.002    0.267    0.350   37.343   11.687
  242.302    0.265    0.365   39.154   11.221
  242.602    0.267    0.369   40.356   11.194
  242.902    0.271    0.360   40.953   11.592
  243.202    0.261    0.357   40.329   11.778
  243.502    0.248    0.352   40.322   10.897
  243.802    0.231    0.350   39.701    9.890
  244.102    0.207    0.354   39.687    8.648
  244.402    0.149    0.354   39.670    7.709
  244.702    0.155    0.369   39.662    7.131
  245.002    0.167    0.385   39.655    6.599
  245.302    0.222    0.390   40.249    6.458
  245.602    0.234    0.390   40.234    6.080
  245.902    0.153    0.390   40.833    6.072
  246.202    0.153    0.390   40.821    6.281
  246.502    0.149    0.390   40.810    6.748
  246.802    0.155    0.390   40.187    7.390
  247.102    0.167    0.390   40.177    8.244
  247.402    0.177    0.391   40.166    8.866
  247.702    0.167    0.391   40.156    9.889
  248.002    0.169    0.391   40.143   10.236
  248.302    0.169    0.391   40.129   10.596
  248.602    0.166    0.391   40.727   10.764
  248.902    0.163    0.391   40.106   10.938
  249.202    0.156    0.389   40.096   10.895
  249.502    0.153    0.386   40.082   11.074
  249.802    0.088    0.385   39.464   11.249
  250.102    0.088    0.386   38.846   11.435
