~VERSION INFORMATION
 VERS.                 2.0:   CWLS LOG ASCII STANDARD -VERSION 2.0
 WRAP.                  NO:   ONE LINE PER DEPTH STEP
~WELL INFORMATION BLOCK
#MNEM.UNIT           DATA                    DESCRIPTION OF MNEMONIC
#---------    -------------------            -------------------------------
# Generated from Intellog Unique Number	CN_91_93/WELL/3631
WELL.         10-18-093-06W4                 : Well_name    - WELL
LOC .         AA/10-18-093-06W4/0            : Location     - LOCATION
UWI .         AA/10-18-093-06W400            : Uwi          - UNIQUE WELL ID
ENTR.         JOETTE                         : Entered      - ENTERED BY
SRVC.         SCHLUMBERGER                   : Scn          - SERVICE COMPANY
DATE.         03/18/92                       : Date         - LOG DATE
STRT.M        65                             : top_depth    - START DEPTH
STOP.M        265                            : bot_depth    - STOP DEPTH
STEP.M        0.25                           : increment    - STEP LENGTH
 NULL. -999.2500:NULL Value
~CURVE INFORMATION BLOCK
#MNEM UNIT       ERCB CURVE CODE    CURVE DESCRIPTION
#-----------   ------------------   ----------------------------------
DEPT.M        00 001 00 00         : DEPTH        - DEPTH
ILD .OHMM     00 120 00 00         : RESD         - DEEP RESISTIVITY (DIL)
CALI.MM       00 280 01 00         : CAL          - CALIPER
GR  .API      00 310 00 00         : GR           - GAMMA RAY
NPHI.V/V      00 330 00 00         : PHIN         - NEUTRON POROSITY (SANDSTONE)
DPHI.V/V      00 890 00 00         : PHID         - DENSITY POROSITY (SANDSTONE)
~PARAMETER INFORMATION
#MNEM.UNIT           DATA             DESCRIPTION OF MNEMONIC
#---------         -----------     ------------------------------
GL  .M        547.76               : gl           - GROUND LEVEL ELEVATION
EREF.M        550.46               : kb           - ELEVATION OF DEPTH REFERENCE
DATM.M        550.46               : datum        - DATUM ELEVATION
TDD .M        266.5                : tdd          - TOTAL DEPTH DRILLER
RUN .         ONE                  : Run          - RUN NUMBER
ENG .         BILL                 : Engineer     - RECORDING ENGINEER
WIT .         JIM                  : Witness      - WITNESSED BY
MUD .         GEL                  : Mud_type     - MUD TYPE
MATR.         SANDSTONE            : Logunit      - NEUTRON MATRIX
TMAX.C        16                   : BHT          - MAXIMUM RECORDED TEMPERATURE
BHTD.M        266.5                : BHTDEP       - MAXIMUM RECORDED TEMPERATURE
RMT .C        37                   : MDTP         - TEMPERATURE OF MUD
MUDD.KG/M     9666.66              : MWT          - MUD DENSITY
NEUT.         1                    : NEUTRON      - NEUTRON TYPE
RESI.         0                    : RESIST       - RESISTIVITY TYPE
RM  .OHMM     12                   : RM           - RESISTIVITY OF MUD
RMC .OHMM     12                   : RMC          - RESISTIVITY OF MUD CAKE
RMF .OHMM     12                   : RMF          - RESISTIVITY OF MUD FILTRATE
SUFT.C        4                    : SUFT         - SURFACE TEMPERATURE
~A  DEPTH     RESD      CAL       GR     PHIN     PHID
   65.000   12.190  187.222   65.484    0.497    0.255
   65.250   12.196  184.193   72.230    0.480    0.233
   65.500   11.754  184.217   75.920    0.463    0.219
   65.750   10.910  184.235   74.099    0.450    0.246
   66.000   10.511  184.260   71.665    0.442    0.247
   66.250    9.939  185.310   72.288    0.458    0.248
   66.500    9.402  189.414   75.366    0.460    0.259
   66.750    9.229  191.472   77.213    0.451    0.267
   67.000    9.066  195.582   80.291    0.451    0.259
   67.250    8.900  197.646   81.529    0.457    0.248
   67.500    8.907  196.645   82.772    0.467    0.241
   67.750    9.081  193.609   83.391    0.467    0.242
   68.000    9.258  191.599   83.405    0.465    0.253
   68.250    9.617  190.598   79.748    0.465    0.248
   68.500   10.979  190.622   79.151    0.468    0.269
   68.750   11.843  191.672   76.721    0.468    0.273
   69.000   12.534  192.717   73.672    0.452    0.281
   69.250   13.025  194.781   68.179    0.438    0.295
   69.500   13.277  196.839   66.358    0.430    0.288
   69.750   13.288  199.929   66.984    0.427    0.281
   70.000   13.294  201.987   67.615    0.431    0.293
   70.250   13.052  206.091   67.629    0.444    0.293
   70.500   13.309  205.102   66.420    0.460    0.287
   70.750   13.567  201.046   65.210    0.470    0.294
   71.000   14.637  200.044   65.221    0.459    0.308
   71.250   16.089  199.055   65.240    0.453    0.299
   71.500   16.401  198.059   62.806    0.439    0.289
   71.750   16.722  197.070   60.985    0.432    0.289
   72.000   16.734  196.068   59.167    0.439    0.300
   72.250   16.746  194.058   58.563    0.456    0.295
   72.500   16.751  194.070   59.193    0.465    0.301
   72.750   16.448  194.095   59.204    0.464    0.306
   73.000   16.151  195.139   60.450    0.458    0.312
   73.250   15.862  195.163   60.457    0.444    0.319
   73.500   15.285  193.148   61.091    0.437    0.272
   73.750   15.009  191.138   63.557    0.436    0.264
   74.000   14.738  189.116   65.400    0.444    0.267
   74.250   14.202  188.121   67.862    0.443    0.281
   74.500   13.944  187.125   69.713    0.434    0.312
   74.750   13.952  185.116   69.119    0.437    0.329
   75.000   13.960  184.120   67.294    0.453    0.339
   75.250   14.235  183.124   64.861    0.468    0.394
   75.500   14.789  183.143   64.875    0.476    0.378
   75.750   15.656  182.153   66.114    0.487    0.378
   76.000   15.960  185.237   66.128    0.504    0.350
   76.250   16.895  186.281   66.143    0.467    0.306
   76.500   17.553  181.206   73.501    0.444    0.288
   76.750   18.238  179.184   76.579    0.451    0.284
   77.000   18.595  180.228   74.142    0.443    0.263
   77.250   18.262  185.352   71.101    0.430    0.269
   77.500   17.927  198.642   71.724    0.441    0.277
   77.750   17.275  197.646   71.738    0.416    0.272
   78.000   15.736  195.631   70.529    0.386    0.259
   78.250   14.603  199.735   77.275    0.395    0.248
   78.500   13.553  202.819   75.454    0.409    0.256
   78.750   12.346  203.869   66.901    0.403    0.283
   79.000   11.895  201.860   65.691    0.409    0.246
   79.250   11.042  200.864   65.710    0.423    0.250
   79.500   10.842  200.882   66.332    0.429    0.245
   79.750   10.648  201.926   67.578    0.417    0.239
   80.000   10.651  206.030   68.809    0.414    0.246
   80.250   10.859  208.088   71.275    0.422    0.259
   80.500   11.283  205.053   73.122    0.435    0.269
   80.750   11.721  198.958   77.421    0.448    0.273
   81.000   12.883  186.743   81.719    0.451    0.255
   81.250   14.706  189.827   86.017    0.431    0.244
   81.500   16.786  198.017   82.360    0.438    0.246
   81.750   17.767  202.121   76.258    0.453    0.271
   82.000   19.900  198.059   73.213    0.466    0.325
   82.250   21.877  188.904   70.780    0.473    0.337
   82.500   22.302  184.848   65.899    0.481    0.357
   82.750   21.494  188.952   61.014    0.485    0.307
   83.000   19.210  178.783   59.193    0.425    0.278
   83.250   17.171  176.768   59.819    0.398    0.292
   83.500   15.639  179.858   59.834    0.385    0.267
   83.750   14.792  180.896   58.624    0.404    0.255
   84.000   14.523  185.000   63.535    0.425    0.258
   84.250   15.090  196.238   80.684    0.449    0.249
   84.500   16.278  202.382   80.699    0.450    0.277
   84.750   18.928  191.187   77.042    0.442    0.310
   85.000   22.855  200.390   73.385    0.432    0.284
   85.250   27.598  184.096   69.731    0.423    0.267
   85.500   29.774  176.980   65.458    0.425    0.275
   85.750   31.515  171.905   61.801    0.422    0.279
   86.000   32.132  169.889   56.312    0.417    0.287
   86.250   32.150  167.880   52.654    0.421    0.333
   86.500   31.570  166.884   48.997    0.422    0.344
   86.750   30.422  164.869   47.784    0.407    0.339
   87.000   27.197  164.887   45.354    0.401    0.329
   87.250   23.854  162.877   46.593    0.434    0.333
   87.500   19.047  161.876   49.667    0.438    0.340
   87.750   13.587  160.886   49.678    0.429    0.330
   88.000   11.920  161.930   50.305    0.412    0.295
   88.250   10.655  165.014   55.215    0.449    0.261
   88.500    9.703  173.192   62.573    0.471    0.264
   88.750    9.006  178.316   72.991    0.480    0.258
   89.000    8.517  180.380   83.409    0.483    0.272
   89.250    7.615  186.530   91.390    0.485    0.277
   89.500    7.476  186.548   92.621    0.491    0.269
   89.750    7.341  181.473   93.863    0.496    0.248
   90.000    7.346  186.597   93.878    0.503    0.217
   90.250    7.488  177.442   93.892    0.503    0.198
   90.500    7.634  175.432   96.963    0.502    0.212
   90.750    7.784  181.576  100.650    0.500    0.225
   91.000    7.788  186.694  102.504    0.474    0.233
   91.250    7.940  195.898  101.298    0.484    0.226
   91.500    7.945  184.703   98.246    0.492    0.208
   91.750    7.951  177.600   93.976    0.496    0.193
   92.000    7.956  179.664   90.319    0.485    0.177
   92.250    7.960  178.662   87.886    0.467    0.176
   92.500    7.963  177.666   86.064    0.435    0.170
   92.750    7.969  175.651   89.139    0.446    0.205
   93.000    7.825  174.649   94.661    0.491    0.207
   93.250    7.825  174.673   95.903    0.504    0.198
   93.500    7.981  178.777   91.630    0.509    0.201
   93.750    8.449  192.061   89.816    0.492    0.197
   94.000    8.778  193.105   90.436    0.454    0.186
   94.250    8.460  180.890   90.454    0.391    0.149
   94.500    8.307  173.781   88.633    0.421    0.146
   94.750    8.007  183.999   87.420    0.444    0.231
   95.000    8.162  180.963   89.270    0.461    0.281
   95.250    8.803  170.794   75.821    0.447    0.269
   95.500   10.434  169.798   71.552    0.461    0.293
   95.750   10.638  169.817   69.731    0.465    0.283
   96.000   10.249  169.847   65.465    0.436    0.286
   96.250    9.877  168.857   68.543    0.422    0.300
   96.500    9.518  167.862   70.387    0.421    0.299
   96.750    9.172  166.860   73.465    0.433    0.283
   97.000    9.353  166.878   73.479    0.442    0.288
   97.250   10.089  165.882   69.206    0.447    0.284
   97.500   12.181  165.919   65.553    0.454    0.284
   97.750   15.566  166.951   64.340    0.447    0.304
   98.000   15.868  166.987   61.298    0.438    0.309
   98.250   16.488  167.006   61.313    0.429    0.305
   98.500   17.134  166.004   63.775    0.421    0.307
   98.750   17.142  166.034   63.178    0.411    0.298
   99.000   17.472  165.045   61.356    0.403    0.307
   99.250   17.484  165.063   59.535    0.393    0.316
   99.500   17.492  165.081   60.165    0.399    0.319
   99.750   17.502  164.098   62.628    0.423    0.321
  100.000   17.193  163.102   63.863    0.445    0.327
  100.250   17.201  163.120   65.097    0.440    0.332
  100.500   17.208  163.144   65.724    0.413    0.328
  100.750   17.875  164.189   59.619    0.410    0.318
  101.000   19.285  165.233   54.126    0.408    0.319
  101.250   20.032  163.211   53.529    0.422    0.316
