~VERSION INFORMATION
 VERS.                 2.0:   CWLS LOG ASCII STANDARD -VERSION 2.0
 WRAP.                  NO:   ONE LINE PER DEPTH STEP
~WELL INFORMATION BLOCK
#MNEM.UNIT           DATA                    DESCRIPTION OF MNEMONIC
#---------    -------------------            -------------------------------
# Generated from Intellog Unique Number	CN_94_101/WELL/5058
WELL.         16-17-101-13W4                 : Well_name    - WELL
LOC .         AA/16-17-101-13W4/0            : Location     - LOCATION
UWI .         AA/16-17-101-13W400            : Uwi          - UNIQUE WELL ID
ENTR.         TIM                            : Entered      - ENTERED BY
SRVC.         SCHLUMBERGER                   : Scn          - SERVICE COMPANY
DATE.         08/13/92                       : Date         - LOG DATE
STRT.M        320.04                         : top_depth    - START DEPTH
STOP.M        542.54                         : bot_depth    - STOP DEPTH
STEP.M        0.25                           : increment    - STEP LENGTH
NULL. -999.2500:NULL Value
~CURVE INFORMATION BLOCK
#MNEM UNIT       ERCB CURVE CODE    CURVE DESCRIPTION
#-----------   ------------------   ----------------------------------
DEPT.M        00 001 00 00         : DEPTH        - DEPTH
NPHI.V/V      00 330 00 00         : PHIN         - NEUTRON POROSITY (SANDSTONE)
ILD .OHMM     00 120 00 00         : RESD         - DEEP RESISTIVITY (DIL)
GR  .API      00 310 00 00         : GR           - GAMMA RAY
~PARAMETER INFORMATION
#MNEM.UNIT           DATA             DESCRIPTION OF MNEMONIC
#---------         -----------     ------------------------------
GL  .M        755.752              : gl           - GROUND LEVEL ELEVATION
EREF.M        759.104              : kb           - ELEVATION OF DEPTH REFERENCE
DATM.M        759.104              : datum        - DATUM ELEVATION
TDD .M        543.763              : tdd          - TOTAL DEPTH DRILLER
RUN .         ONE                  : Run          - RUN NUMBER
ENG .         BILL                 : Engineer     - RECORDING ENGINEER
WIT .         JIM                  : Witness      - WITNESSED BY
MUD .         GEL                  : Mud_type     - MUD TYPE
MATR.         SANDSTONE            : Logunit      - NEUTRON MATRIX
TMAX.C        20.5556              : BHT          - MAXIMUM RECORDED TEMPERATURE
BHTD.M        543.763              : BHTDEP       - MAXIMUM RECORDED TEMPERATURE
RMT .C        10                   : MDTP         - TEMPERATURE OF MUD
MUDD.KG/M     1090                 : MWT          - MUD DENSITY
NEUT.         1                    : NEUTRON      - NEUTRON TYPE
RESI.         0                    : RESIST       - RESISTIVITY TYPE
RM  .OHMM     9.8                  : RM           - RESISTIVITY OF MUD
RMC .OHMM     8.7                  : RMC          - RESISTIVITY OF MUD CAKE
RMF .OHMM     9.2                  : RMF          - RESISTIVITY OF MUD FILTRATE
SUFT.C        4                    : SUFT         - SURFACE TEMPERATURE
~A  DEPTH     PHIN     RESD       GR
# ...
  482.790    0.290  292.187   38.161
  483.040    0.292  321.669   37.329
  483.290    0.293  367.884   36.082
  483.540    0.293  340.908   36.911
  483.790    0.295  241.624   38.155
  484.040    0.296  232.606   38.985
  484.290    0.297  203.503   41.475
  484.540    0.298  136.197   44.380
  484.790    0.298   94.694   45.210
  485.040    0.299   79.734   45.208
  485.290    0.299   64.616   44.791
  485.540    0.299   51.376   44.790
  485.790    0.301   44.948   44.788
  486.040    0.301   38.578   44.787
  486.290    0.298   29.519   45.201
  486.540    0.295   24.384   46.030
  486.790    0.295   22.166   47.274
  487.040    0.297   20.539   48.934
  487.290    0.298   19.399   50.178
  487.540    0.295   19.039   52.252
  487.790    0.292   19.046   53.082
  488.040    0.293   18.691   53.911
  488.290    0.295   19.802   54.325
  488.540    0.301   20.193   54.323
  488.790    0.305   18.358   54.322
  489.040    0.314   16.686   53.905
  489.290    0.321   15.460   53.488
  489.540    0.325   14.054   53.071
  489.790    0.326   13.023   52.655
  490.040    0.326   12.300   52.238
  490.290    0.326   11.398   52.237
  490.540    0.326    9.973   52.650
  490.790    0.326    9.600   53.064
  491.040    0.324    8.727   53.893
  491.290    0.319    7.934   54.307
  491.540    0.320    7.493   55.967
  491.790    0.327    6.943   58.457
  492.040    0.332    6.557   60.117
  492.290    0.338    6.077   59.700
  492.540    0.343    5.850   57.206
  492.790    0.340    5.741   56.375
  493.040    0.336    5.635   58.035
  493.290    0.333    5.529   59.279
  493.540    0.334    5.531   60.108
  493.790    0.337    5.533   59.691
  494.040    0.338    5.535   59.274
  494.290    0.339    5.432   58.442
  494.540    0.338    5.434   57.610
  494.790    0.337    5.332   57.609
  495.040    0.337    5.134   58.022
  495.290    0.342    5.136   58.436
  495.540    0.345    5.040   58.849
  495.790    0.349    5.341   59.264
  496.040    0.351    5.657   59.678
  496.290    0.345    6.227   59.676
  496.540    0.339    7.990   58.429
  496.790    0.333   11.067   57.597
  497.040    0.332   13.667   58.426
  497.290    0.330   10.659   60.085
  497.540    0.324    8.976   62.160
  497.790    0.315    8.808   65.481
  498.040    0.316    8.643   68.387
  498.290    0.316    8.646   65.478
  498.540    0.318    8.817   63.400
  498.790    0.322    9.894   61.737
  499.040    0.335   11.101   60.490
  499.290    0.339   13.193   60.073
  499.540    0.333   15.090   59.657
  499.790    0.329   17.261   59.239
  500.040    0.325   18.285   58.823
  500.290    0.321   17.604   58.406
  500.540    0.323   17.278   58.405
  500.790    0.327   17.285   57.988
  501.040    0.330   17.289   57.156
  501.290    0.332   17.631   53.832
  501.540    0.332   18.323   48.431
  501.790    0.331   18.684   46.769
  502.040    0.330   16.346   45.937
  502.290    0.327   14.577   45.520
  502.540    0.323   12.277   44.688
  502.790    0.318   11.818   43.441
  503.040    0.315   10.541   42.608
  503.290    0.319    9.766   43.022
  503.540    0.320    8.710   43.435
  503.790    0.321    8.070   43.850
  504.040    0.323    8.074   44.679
  504.290    0.320    8.232   45.092
  504.540    0.319    8.557   45.922
  504.790    0.315    8.893   46.335
  505.040    0.315    7.931   46.749
  505.290    0.317    7.348   46.748
  505.540    0.321    6.430   46.746
  505.790    0.323    5.626   45.914
  506.040    0.324    5.415   45.082
  506.290    0.324    5.115   45.081
  506.540    0.323    4.740   45.079
  506.790    0.321    4.476   45.493
  507.040    0.320    3.993   45.907
  507.290    0.318    3.699   46.736
  507.540    0.314    3.363   46.734
  507.790    0.308    3.176   46.733
  508.040    0.306    2.943   45.901
  508.290    0.305    2.625   45.069
  508.540    0.307    2.386   43.822
  508.790    0.311    2.048   42.989
  509.040    0.312    1.826   42.988
  509.290    0.313    1.758   42.986
  509.540    0.313    1.568   42.985
  509.790    0.313    1.481   42.568
  510.040    0.313    1.321   42.151
  510.290    0.317    1.247   39.242
  510.540    0.318    1.112   37.995
  510.790    0.318    1.011   37.162
  511.040    0.317    0.974   36.746
  511.290    0.314    0.885   36.329
  511.540    0.313    0.868   36.328
  511.790    0.312    0.836   35.911
  512.040    0.312    0.836   35.910
  512.290    0.313    0.886   35.908
  512.540    0.314    0.995   36.322
  512.790    0.319    0.976   36.321
  513.040    0.320    0.976   36.735
  513.290    0.323    0.958   37.564
  513.540    0.325    0.940   38.808
  513.790    0.327    0.941   39.637
  514.040    0.326    0.923   40.466
  514.290    0.323    0.906   40.880
  514.540    0.320    0.906   40.878
  514.790    0.318    0.906   40.462
  515.040    0.317    0.907   40.045
  515.290    0.315    0.890   39.628
  515.540    0.315    0.890   39.211
  515.790    0.313    0.891   38.795
  516.040    0.312    0.891   38.378
  516.290    0.311    0.891   37.961
  516.540    0.311    0.891   38.374
  516.790    0.311    0.892   38.788
  517.040    0.311    0.892   40.032
  517.290    0.311    0.892   40.862
  517.540    0.312    0.893   42.106
  517.790    0.312    0.893   43.351
  518.040    0.313    0.893   44.179
  518.290    0.313    0.894   44.178
  518.540    0.313    0.894   43.761
  518.790    0.313    0.894   43.760
  519.040    0.313    0.895   43.343
  519.290    0.313    0.895   43.342
  519.540    0.314    0.895   43.340
  519.790    0.316    0.895   42.508
  520.040    0.319    0.879   41.676
  520.290    0.326    0.862   40.843
  520.540    0.329    0.863   40.427
  520.790    0.334    0.863   40.011
  521.040    0.338    0.863   39.178
  521.290    0.338    0.863   38.761
  521.540    0.334    0.864   38.760
  521.790    0.329    0.881   38.758
  522.040    0.326    0.898   38.757
  522.290    0.322    0.916   38.340
  522.540    0.320    0.934   38.338
  522.790    0.320    0.952   38.752
  523.040    0.323    0.971   39.996
  523.290    0.325    0.971   41.241
  523.540    0.323    0.972   42.901
  523.790    0.318    0.972   44.561
  524.040    0.316    0.972   45.805
  524.290    0.312    0.973   46.218
  524.540    0.311    0.973   46.633
  524.790    0.311    0.973   46.631
  525.040    0.311    0.955   46.215
  525.290    0.312    0.937   45.383
  525.540    0.313    0.920   44.135
  525.790    0.316    0.903   43.718
  526.040    0.318    0.903   43.301
  526.290    0.319    0.903   43.300
  526.540    0.323    0.939   44.544
  526.790    0.328    1.116   49.526
  527.040    0.336    1.352   72.366
  527.290    0.393    1.517   80.670
  527.540    0.418    1.702   81.499
  527.790    0.408    1.874   82.744
  528.040    0.395    1.985   85.234
  528.290    0.388    2.024   87.310
  528.540    0.388    2.145   88.139
  528.790    0.388    2.187   88.967
  529.040    0.390    2.317   89.381
  529.290    0.392    2.317   89.795
  529.540    0.402    2.275   90.209
  529.790    0.402    2.068   90.622
  530.040    0.399    1.809   90.621
  530.290    0.392    1.810   87.297
  530.540    0.384    1.742   83.974
  530.790    0.376    1.743   74.005
  531.040    0.371    1.743   70.266
  531.290    0.370    1.778   65.281
  531.540    0.371    1.745   61.957
  531.790    0.376    1.848   59.048
  532.040    0.390    2.074   61.123
  532.290    0.447    2.465   64.029
  532.540    0.478    2.766   66.519
  532.790    0.471    3.104   68.594
  533.040    0.463    3.226   64.440
  533.290    0.457    3.418   61.531
  533.540    0.433    3.419   70.251
  533.790    0.402    3.486   75.233
  534.040    0.331    3.487   81.461
  534.290    0.329    3.555   85.197
  534.540    0.334    3.626   83.534
  534.790    0.352    3.768   78.549
  535.040    0.360    3.993   70.242
  535.290    0.336    4.150   55.290
  535.540    0.295    4.482   54.458
  535.790    0.261    4.658   54.456
  536.040    0.233    5.127   54.454
  536.290    0.223    5.978   54.453
  536.540    0.213    6.456   54.036
  536.790    0.205    6.972   54.034
