~VERSION INFORMATION
 VERS.                 2.0:   CWLS LOG ASCII STANDARD -VERSION 2.0
 WRAP.                  NO:   ONE LINE PER DEPTH STEP
~WELL INFORMATION BLOCK
#MNEM.UNIT           DATA                    DESCRIPTION OF MNEMONIC
#---------    -------------------            -------------------------------
# Generated from Intellog Unique Number	CN_94_101/WELL/3305
WELL.         10-15-095-08W4                 : Well_name    - WELL
LOC .         AA/10-15-095-08W4/0            : Location     - LOCATION
UWI .         AA/10-15-095-08W400            : Uwi          - UNIQUE WELL ID
ENTR.         JOETTE                         : Entered      - ENTERED BY
SRVC.         SCHLUMBERGER                   : Scn          - SERVICE COMPANY
DATE.         07/22/92                       : Date         - LOG DATE
STRT.M        10                             : top_depth    - START DEPTH
STOP.M        110                            : bot_depth    - STOP DEPTH
STEP.M        0.25                           : increment    - STEP LENGTH
 NULL. -999.2500:NULL Value
~CURVE INFORMATION BLOCK
#MNEM UNIT       ERCB CURVE CODE    CURVE DESCRIPTION
#-----------   ------------------   ----------------------------------
DEPT.M        00 001 00 00         : DEPTH        - DEPTH
GR  .API      00 310 00 00         : GR           - GAMMA RAY
ILD .OHMM     00 120 00 00         : RESD         - DEEP RESISTIVITY (DIL)
NPHI.V/V      00 330 00 00         : PHIN         - NEUTRON POROSITY (SANDSTONE)
RHOB.KG/M3    00 350 00 00         : DENS         - BULK DENSITY
~PARAMETER INFORMATION
#MNEM.UNIT           DATA             DESCRIPTION OF MNEMONIC
#---------         -----------     ------------------------------
GL  .M        342.66               : gl           - GROUND LEVEL ELEVATION
EREF.M        342.66               : kb           - ELEVATION OF DEPTH REFERENCE
DATM.M        342.66               : datum        - DATUM ELEVATION
TDD .M        115                  : tdd          - TOTAL DEPTH DRILLER
RUN .         ONE                  : Run          - RUN NUMBER
ENG .         BILL                 : Engineer     - RECORDING ENGINEER
WIT .         JIM                  : Witness      - WITNESSED BY
MUD .         GEL                  : Mud_type     - MUD TYPE
MATR.         SANDSTONE            : Logunit      - NEUTRON MATRIX
TMAX.C        10                   : BHT          - MAXIMUM RECORDED TEMPERATURE
BHTD.M        115                  : BHTDEP       - MAXIMUM RECORDED TEMPERATURE
RMT .C        10                   : MDTP         - TEMPERATURE OF MUD
MUDD.KG/M     1090                 : MWT          - MUD DENSITY
NEUT.         1                    : NEUTRON      - NEUTRON TYPE
RESI.         0                    : RESIST       - RESISTIVITY TYPE
RM  .OHMM     13.1                 : RM           - RESISTIVITY OF MUD
RMC .OHMM     13.1                 : RMC          - RESISTIVITY OF MUD CAKE
RMF .OHMM     13.1                 : RMF          - RESISTIVITY OF MUD FILTRATE
SUFT.C        4                    : SUFT         - SURFACE TEMPERATURE
~A  DEPTH       GR     RESD     PHIN     DENS
# ...
   53.500   44.131  236.188    0.419 2086.650
   53.750   39.848  534.241    0.418 2084.900
   54.000   46.742  459.755    0.416 2087.220
   54.250   46.200  298.983    0.446 2101.740
   54.500   40.660  711.542    0.447 2126.420
   54.750   36.378 1018.590    0.404 2177.620
   55.000   47.633  540.526    0.396 2120.960
   55.250   47.076  155.857    0.408 2108.970
   55.500   43.398  432.025    0.415 2091.030
   55.750   40.358  530.673    0.455 2107.580
   56.000   49.751  382.253    0.438 2111.860
   56.250   39.880  469.537    0.411 2106.110
   56.500   39.323  888.965    0.408 2102.260
   56.750   46.216  624.268    0.456 2098.620
   57.000   43.175  306.955    0.419 2096.800
   57.250   34.531  417.392    0.445 2095.050
   57.500   38.957  429.139    0.437 2097.440
   57.750   39.020  899.424    0.422 2101.720
   58.000   40.963  325.997    0.429 2112.100
   58.250   43.494  240.867    0.414 2120.520
   58.500   42.937 1846.390    0.445 2110.640
   58.750   48.604 2711.200    0.447 2090.580
   59.000   39.339 1143.890    0.437 2082.800
   59.250   33.209 3338.070    0.428 2076.990
   59.500   34.499 2728.690    0.424 2071.100
   59.750   41.392 2177.130    0.423 2065.350
   60.000   40.214 3277.220    0.389 2063.600
   60.250   35.948 2747.910    0.399 2069.990
   60.500   36.616  569.405    0.391 2082.400
   60.750   44.752  191.231    0.393 2090.820
   61.000   51.040  455.106    0.415 2091.110
   61.250   45.516 1139.580    0.438 2085.290
   61.500   43.717  932.088    0.463 2077.510
   61.750   40.055 1809.070    0.455 2075.690
   62.000   40.103 2399.610    0.447 2078.080
   62.250   38.304 4101.580    0.433 2090.570
   62.500   58.252  315.240    0.437 2107.050
   62.750   60.799   62.048    0.416 2154.250
   63.000   60.242  216.325    0.388 2160.640
   63.250   69.635  379.274    0.401 2148.720
   63.500   76.544  352.254    0.431 2138.760
   63.750   71.641   47.356    0.450 2149.220
   64.000   71.689   23.899    0.391 2200.410
   64.250   72.994   22.196    0.375 2219.000
   64.500   66.228   27.264    0.418 2213.180
   64.750   55.100   27.328    0.467 2187.030
   65.000   61.388  427.041    0.446 2158.770
   65.250   75.111  114.028    0.541 2106.180
   65.500   66.483   21.344    0.382 2171.610
   65.750   54.129   22.523    0.471 2182.070
   66.000   50.451   31.396    0.450 2155.840
   66.250   67.295  186.659    0.415 2137.890
   66.500   71.100   45.050    0.379 2184.950
   66.750   73.026   33.286    0.401 2226.050
   67.000   68.727   18.584    0.420 2232.370
   67.250   91.796   31.784    0.432 2255.020
   67.500  104.898   21.202    0.404 2281.820
   67.750   78.869   37.216    0.463 2276.000
   68.000  100.058   20.245    0.519 2266.040
   68.250  101.364   10.750    0.471 2258.190
   68.500  106.395    7.359    0.380 2291.090
   68.750   87.195    6.493    0.423 2262.830
   69.000   71.736    6.508    0.419 2232.610
   69.250   48.811  148.889    0.453 2200.280
   69.500   50.738  115.744    0.392 2165.990
   69.750   67.581   59.915    0.396 2160.180
   70.000   83.788  174.739    0.367 2168.600
   70.250   65.846   17.316    0.351 2185.220
   70.500   69.635   33.609    0.411 2193.570
   70.750   79.012   45.728    0.481 2193.850
   71.000   63.569   28.991    0.408 2179.900
   71.250   67.963   53.511    0.420 2157.810
   71.500   56.851   37.555    0.395 2135.660
   71.750   52.553  318.692    0.424 2111.610
   72.000   49.512  667.939    0.360 2091.490
   72.250   63.251   25.832    0.356 2106.010
   72.500   59.589   37.931    0.446 2120.530
   72.750   48.461  269.259    0.429 2110.710
   73.000   38.590  657.298    0.382 2102.790
   73.250   54.813   60.391    0.379 2121.380
   73.500   63.569   33.718    0.432 2172.650
   73.750   52.457   30.530    0.443 2170.830
   74.000   32.652   63.950    0.420 2148.810
   74.250   32.700  121.075    0.393 2134.790
   74.500   29.659  121.430    0.419 2124.830
   74.750   37.794   89.667    0.404 2110.880
   75.000   26.061  297.122    0.401 2105.140
   75.250   33.576  507.563    0.396 2107.450
   75.500   29.914  913.333    0.384 2115.940
   75.750   22.527  472.784    0.357 2122.260
   76.000   25.711  209.998    0.371 2116.440
   76.250   25.759  874.181    0.359 2106.490
   76.500   25.823 1250.680    0.416 2088.540
   76.750   25.886 1836.470    0.408 2080.620
   77.000   22.225 2983.440    0.429 2080.900
   77.250   17.942 3312.370    0.441 2093.390
   77.500   25.456 1434.340    0.418 2109.940
   77.750   49.751   89.906    0.391 2132.670
   78.000   56.660   55.634    0.425 2153.290
   78.250   61.691   36.179    0.471 2149.510
   78.500   58.029   63.432    0.452 2137.660
   78.750   36.967  270.851    0.398 2150.220
   79.000   25.233  300.712    0.355 2160.530
   79.250   31.506  185.864    0.381 2177.150
   79.500   31.570  101.229    0.395 2177.440
   79.750   35.359  177.481    0.368 2169.510
   80.000   33.560  207.323    0.343 2153.530
   80.250   34.865  267.943    0.370 2135.510
   80.500   39.912  192.891    0.376 2119.600
   80.750   35.614   92.519    0.385 2105.570
   81.000   29.468   71.923    0.377 2093.580
   81.250   36.362   45.599    0.516 2142.750
   81.500   51.964  611.765    0.443 2195.980
   81.750   50.785  171.972    0.366 2220.670
   82.000   44.640   69.001    0.365 2202.650
   82.250   37.253  294.634    0.364 2180.560
   82.500   28.609  572.183    0.296 2170.750
   82.750   22.479  274.284    0.309 2183.170
   83.000   25.026  354.483    0.324 2215.990
   83.250   42.475  606.260    0.307 2226.510
   83.500   53.110   68.221    0.315 2212.490
   83.750   51.916   92.765    0.367 2153.800
   84.000   20.298  257.289    0.398 2123.500
   84.250   19.120  387.295    0.377 2123.930
   84.500   26.650  172.026    0.368 2134.240
   84.750   28.577  279.629    0.403 2148.760
   85.000   26.778  222.846    0.385 2151.150
   85.250   21.858  491.412    0.357 2141.200
   85.500   16.334  651.444    0.370 2143.580
   85.750   19.502  104.693    0.376 2164.210
   86.000   21.445  321.444    0.387 2168.560
   86.250   19.025  306.228    0.372 2162.740
   86.500   15.984  460.693    0.403 2158.960
   86.750   14.806  511.485    0.433 2165.410
   87.000   17.353  597.140    0.385 2169.770
   87.250   18.659 1101.540    0.371 2161.920
   87.500   16.860  924.166    0.366 2143.830
   87.750   15.681  795.315    0.367 2129.800
   88.000   21.333 1197.180    0.375 2123.990
   88.250   20.776 1757.910    0.354 2126.300
   88.500   18.993 1366.580    0.381 2134.790
   88.750   21.540 1335.400    0.407 2147.280
   89.000   20.362  961.354    0.403 2163.910
   89.250   19.805  331.175    0.394 2176.320
   89.500   17.385  659.702    0.377 2186.770
   89.750   16.207 1695.390    0.358 2191.120
   90.000   13.771 1534.200    0.368 2179.280
   90.250   16.939 1933.020    0.376 2163.220
   90.500   20.728 1000.620    0.376 2163.510
   90.750   19.550  381.589    0.355 2200.540
   91.000   18.993 3158.720    0.331 2202.790
   91.250   19.677 1807.960    0.377 2190.870
   91.500   17.878  824.199    0.375 2183.020
   91.750   17.321  135.786    0.295 2209.740
   92.000   24.835  565.253    0.282 2254.840
   92.250   35.470  189.836    0.379 2269.360
   92.500   41.122   88.769    0.386 2269.640
   92.750   39.960  205.958    0.395 2247.550
   93.000   37.524  112.107    0.456 2213.190
   93.250   73.631   39.614    0.390 2294.900
   93.500   41.998    3.546    0.388 2293.220
   93.750   24.676  328.490    0.494 2238.450
   94.000   30.949  198.054    0.439 2177.730
   94.250   27.287  102.462    0.416 2163.700
   94.500   26.730   29.561    0.424 2210.900
   94.750   62.821   24.165    0.420 2223.320
   95.000   73.456   43.483    0.427 2282.720
   95.250   94.645    9.975    0.393 2331.820
   95.500   94.088    4.211    0.356 2364.780
   95.750   88.564    5.306    0.428 2330.350
   96.000   78.678    3.819    0.372 2283.860
   96.250   58.252    4.815    0.446 2265.770
   96.500   39.052   17.652    0.477 2227.340
   96.750   22.352   36.997    0.489 2207.290
