~VERSION INFORMATION
 VERS.                 2.0:   CWLS LOG ASCII STANDARD -VERSION 2.0
 WRAP.                  NO:   ONE LINE PER DEPTH STEP
~WELL INFORMATION BLOCK
#MNEM.UNIT           DATA                    DESCRIPTION OF MNEMONIC
#---------    -------------------            -------------------------------
# Generated from Intellog Unique Number	CC_80_83/WELL/2433
NULL.         -999.25                        : NULL_VALUE
WELL.         ARCO ACI McMUURAY              : Well_name    - WELL              
LOC .         12-29-083-10W4                 : Location     - LOCATION          
UWI .         AA/12-29-083-10W400            : Uwi          - UNIQUE WELL ID    
ENTR.         DW                             : Entered      - ENTERED BY        
SRVC.         SCHLUMBERGER                   : Scn          - SERVICE COMPANY   
DATE.         26 JAN 74                      : Date         - LOG DATE
STRT.M        259.08                         : top_depth    - START DEPTH       
STOP.M        502.928                        : bot_depth    - STOP DEPTH        
STEP.M        0.305                          : increment    - STEP LENGTH       
~CURVE INFORMATION BLOCK
#MNEM UNIT       ERCB CURVE CODE    CURVE DESCRIPTION
#-----------   ------------------   ----------------------------------
DEPT.M        00 001 00 00         : DEPTH        - DEPTH                       
NPHI.V/V      00 330 00 00         : PHIN         - NEUTRON POROSITY (LIMESTONE)
GR  .API      00 310 00 00         : GR           - GAMMA RAY                   
DPHI.V/V      00 890 00 00         : PHID         - DENSITY POROSITY (LIMESTONE)
ILD .OHMM     00 120 00 00         : RESD         - DEEP RESISTIVITY (DLL)      
~PARAMETER INFORMATION       
#MNEM.UNIT           DATA             DESCRIPTION OF MNEMONIC
#---------         -----------     ------------------------------
GL  .M        740.359              : gl           - GROUND LEVEL ELEVATION      
EREF.M        743.407              : kb           - ELEVATION OF DEPTH REFERENCE
DATM.M        743.407              : datum        - DATUM ELEVATION             
TDD .M        505.968              : tdd          - TOTAL DEPTH DRILLER         
RUN .         ONE                  : Run          - RUN NUMBER                  
ENG .         BILL                 : Engineer     - RECORDING ENGINEER          
WIT .         JIM                  : Witness      - WITNESSED BY                
MUD .         GEL                  : Mud_type     - MUD TYPE                    
MATR.         LIMESTONE            : Logunit      - NEUTRON MATRIX              
TMAX.C        23.3333              : BHT          - MAXIMUM RECORDED TEMPERATURE
BHTD.M        505.968              : BHTDEP       - MAXIMUM RECORDED TEMPERATURE
MATR.         1                    : LOGUNIT      - NEUTRON MATRIX              
RMT .C        25                   : MDTP         - TEMPERATURE OF MUD          
NEUT.         0                    : NEUTRON      - NEUTRON TYPE                
RESI.         1                    : RESIST       - RESISTIVITY TYPE            
RMC .OHMM     0.25                 : RMC          - RESISTIVITY OF MUD CAKE     
RMF .OHMM     0.25                 : RMF          - RESISTIVITY OF MUD FILTRATE 
SUFT.C        4                    : SUFT         - SURFACE TEMPERATURE         
~A  DEPTH     PHIN       GR     PHID     RESD
# ...
  471.227    0.334   62.261    0.264    9.731
  471.532    0.339   57.802    0.254    9.541
  471.837    0.357   62.269    0.251    9.354
  472.142    0.380   65.520    0.284    9.522
  472.447    0.385   65.118    0.292   10.448
  472.751    0.362   45.239    0.294   13.307
  473.056    0.319   47.272    0.277   17.272
  473.361    0.311   54.173    0.255   16.935
  473.666    0.294   60.669    0.241   14.303
  473.971    0.291   67.977    0.239   12.774
  474.276    0.294   70.416    0.247   13.750
  474.580    0.303   54.189    0.279   15.955
  474.885    0.322   47.295    0.312   20.322
  475.190    0.337   42.835    0.328   23.577
  475.495    0.342   42.028    0.321   23.550
  475.800    0.307   43.249    0.306   21.843
  476.104    0.279   43.660    0.283   18.104
  476.409    0.273   44.881    0.265   17.423
  476.714    0.294   44.883    0.277   18.410
  477.019    0.331   42.858    0.299   20.195
  477.324    0.349   43.674    0.305   22.995
  477.628    0.364   36.780    0.319   25.227
  477.933    0.363   36.784    0.304   24.728
  478.238    0.367   43.280    0.282   22.932
  478.543    0.373   50.993    0.268   18.659
  478.848    0.338   52.215    0.260   16.052
  479.152    0.322   44.914    0.274   16.648
  479.457    0.293   38.426    0.308   19.314
  479.762    0.285   40.865    0.321   22.412
  480.067    0.298   43.303    0.305   24.581
  480.372    0.310   43.307    0.285   23.661
  480.677    0.319   43.717    0.259   20.358
  480.981    0.325   45.750    0.265   17.189
  481.286    0.326   48.594    0.289   16.238
  481.591    0.338   43.728    0.270   15.923
  481.896    0.342   44.949    0.269   16.206
  482.201    0.338   47.388    0.275   16.497
  482.505    0.346   44.551    0.283   17.113
  482.810    0.336   44.150    0.303   17.745
  483.115    0.328   43.748    0.306   18.067
  483.420    0.361   39.288    0.277   17.387
  483.725    0.340   44.567    0.257   16.734
  484.029    0.296   51.063    0.266   16.722
  484.334    0.295   53.503    0.289   17.342
  484.639    0.306   51.883    0.300   17.982
  484.944    0.315   37.279    0.283   17.969
  485.249    0.301   38.500    0.266   16.657
  485.553    0.288   40.939    0.262   16.034
  485.858    0.277   43.783    0.268   15.434
  486.163    0.289   51.903    0.273   15.133
  486.468    0.312   51.095    0.288   15.697
  486.773    0.324   49.069    0.288   16.900
  487.078    0.318   49.885    0.267   18.190
  487.382    0.315   48.265    0.261   18.869
  487.687    0.326   36.908    0.277   19.209
  487.992    0.355   38.535    0.319   19.551
  488.297    0.362   46.248    0.316   19.174
  488.602    0.349   58.425    0.272   18.111
  488.906    0.348   59.241    0.280   17.108
  489.211    0.345   56.404    0.280   16.163
  489.516    0.346   51.945    0.260   14.705
  489.821    0.341   54.789    0.230   13.134
  490.126    0.339   61.285    0.218   12.410
  490.430    0.337   52.768    0.226   11.722
  490.735    0.348   53.989    0.252   11.495
  491.040    0.348   52.370    0.265   12.146
  491.345    0.337   56.432    0.267   13.321
  491.650    0.329   56.841    0.279   13.820
  491.954    0.336   48.730    0.297   14.598
  492.259    0.337   51.574    0.290   14.316
  492.564    0.329   54.013    0.296   14.040
  492.869    0.331   56.857    0.289   13.770
  493.174    0.330   59.701    0.269   13.006
  493.479    0.325   67.414    0.263   12.285
  493.783    0.338   67.825    0.268   12.048
  494.088    0.349   61.336    0.280   12.036
  494.393    0.364   59.312    0.289   12.252
  494.698    0.359   60.533    0.288   12.471
  495.003    0.353   60.536    0.289   12.229
  495.307    0.358   55.265    0.278   11.994
  495.612    0.361   47.965    0.274   11.120
  495.917    0.354   52.432    0.253   10.505
  496.222    0.342   51.625    0.259   10.111
  496.527    0.366   52.441    0.255    9.913
  496.831    0.365   45.952    0.266   10.280
  497.136    0.354   47.578    0.255   10.661
  497.441    0.338   51.641    0.255   10.856
  497.746    0.356   52.050    0.247   10.847
  498.051    0.353   60.169    0.221   10.245
  498.355    0.344   70.317    0.220    9.499
  498.660    0.324   70.727    0.244    9.142
  498.965    0.327   68.297    0.244    8.800
  499.270    0.335   65.866    0.248    8.958
  499.575    0.332    0.541    0.246    9.118
  499.880    0.330    0.139    0.251    9.108
  500.184    0.338    1.360    0.253    9.270
  500.489    0.351    2.175    0.253    9.265
  500.794    0.354    1.368    0.243    9.255
  501.099    0.338    0.560    0.233    9.075
  501.404    0.321    1.376    0.224    9.069
  501.708    0.310    1.380    0.216    8.567
  502.013    0.298    1.789    0.195    8.246
  502.318    0.271    1.387    0.150    8.085
  502.623    0.217    1.391    0.030    8.078
  502.928    0.168    1.395    0.000    8.072
