~VERSION INFORMATION
 VERS.                 2.0:   CWLS LOG ASCII STANDARD -VERSION 2.0
 WRAP.                  NO:   ONE LINE PER DEPTH STEP
~WELL INFORMATION BLOCK
#MNEM.UNIT           DATA                    DESCRIPTION OF MNEMONIC
#---------    -------------------            -------------------------------
# Generated from Intellog Unique Number	CC_80_83/WELL/2335
NULL.         -999.25                        : NULL_VALUE
WELL.         PEX PCEJ CHARD OV              : Well_name    - WELL
LOC .         10-05-081-07W4                 : Location     - LOCATION          
UWI .         AA/10-05-081-07W4/0            : Uwi          - UNIQUE WELL ID    
ENTR.         DW                             : Entered      - ENTERED BY        
SRVC.         SCHLUMBERGER                   : Scn          - SERVICE COMPANY   
DATE.         21 JAN 80                      : Date         - LOG DATE
STRT.M        200                            : top_depth    - START DEPTH       
STOP.M        434.893                        : bot_depth    - STOP DEPTH        
STEP.M        0.3                            : increment    - STEP LENGTH       
~CURVE INFORMATION BLOCK
#MNEM UNIT       ERCB CURVE CODE    CURVE DESCRIPTION
#-----------   ------------------   ----------------------------------
DEPT.M        00 001 00 00         : DEPTH        - DEPTH                       
DPHI.V/V      00 890 00 00         : PHID         - DENSITY POROSITY (LIMESTONE)
NPHI.V/V      00 330 00 00         : PHIN         - NEUTRON POROSITY (LIMESTONE)
GR  .API      00 310 00 00         : GR           - GAMMA RAY                   
ILD .OHMM     00 120 00 00         : RESD         - DEEP RESISTIVITY (DIL)      
~PARAMETER INFORMATION       
#MNEM.UNIT           DATA             DESCRIPTION OF MNEMONIC
#---------         -----------     ------------------------------
GL  .M        604.88               : gl           - GROUND LEVEL ELEVATION      
EREF.M        608.48               : kb           - ELEVATION OF DEPTH REFERENCE
DATM.M        608.48               : datum        - DATUM ELEVATION             
TDD .M        436                  : tdd          - TOTAL DEPTH DRILLER         
RUN .         ONE                  : Run          - RUN NUMBER                  
ENG .         BILL                 : Engineer     - RECORDING ENGINEER          
WIT .         JIM                  : Witness      - WITNESSED BY                
MUD .         GEL                  : Mud_type     - MUD TYPE                    
MATR.         LIMESTONE            : Logunit      - NEUTRON MATRIX              
TMAX.C        19                   : BHT          - MAXIMUM RECORDED TEMPERATURE
BHTD.M        436                  : BHTDEP       - MAXIMUM RECORDED TEMPERATURE
MATR.         1                    : LOGUNIT      - NEUTRON MATRIX              
RMT .C        25                   : MDTP         - TEMPERATURE OF MUD          
NEUT.         1                    : NEUTRON      - NEUTRON TYPE                
RESI.         0                    : RESIST       - RESISTIVITY TYPE            
RMC .OHMM     0.25                 : RMC          - RESISTIVITY OF MUD CAKE     
RMF .OHMM     0.25                 : RMF          - RESISTIVITY OF MUD FILTRATE 
SUFT.C        15                   : SUFT         - SURFACE TEMPERATURE         
~A  DEPTH     PHID     PHIN       GR     RESD
# ...
  252.201    0.280    0.348   55.622   23.444
  252.501    0.269    0.345   61.804   23.880
  252.801    0.247    0.339   69.835   23.002
  253.101    0.258    0.333   69.227   22.159
  253.401    0.264    0.350   66.775   19.814
  253.701    0.255    0.368   72.334   17.717
  254.001    0.257    0.380   84.685   16.752
  254.301    0.269    0.407   90.249   16.137
  254.601    0.253    0.364   97.043   16.134
  254.901    0.230    0.364   90.888   16.131
  255.201    0.231    0.353   94.598   16.432
  255.501    0.238    0.354  102.013   17.053
  255.801    0.234    0.368  101.406   17.369
  256.101    0.228    0.387  100.182   17.047
  256.401    0.225    0.386  103.278   15.821
  256.701    0.222    0.375   94.654   14.412
  257.001    0.222    0.384  105.768   12.887
  257.301    0.219    0.395  128.603   10.897
  257.600    0.205    0.383  127.998    7.939
  257.900    0.192    0.376  123.691    7.648
  258.200    0.189    0.378  129.874    9.211
  258.500    0.243    0.388  133.584   11.515
  258.800    0.260    0.395  132.978   14.666
  259.100    0.275    0.384  110.782   16.704
  259.400    0.275    0.377  101.539   16.702
  259.700    0.259    0.379  104.637   15.500
  260.000    0.220    0.390  102.180   14.386
  260.300    0.209    0.377  113.295   12.864
  260.600    0.213    0.381  110.839   11.290
  260.900    0.210    0.416  109.001   10.285
  261.200    0.206    0.418  125.048    9.026
  261.500    0.204    0.404  136.163    8.695
  261.800    0.213    0.432  133.712    8.694
  262.100    0.231    0.451  131.869    9.364
  262.400    0.242    0.468  128.180   10.866
  262.700    0.241    0.452  121.403   12.377
  263.000    0.248    0.441  104.759   15.472
  263.300    0.260    0.408  106.624   17.622
  263.600    0.265    0.407  106.633   18.633
  263.900    0.245    0.401   99.241   19.699
  264.200    0.230    0.369   85.064   19.333
  264.500    0.219    0.350   86.927   18.279
  264.800    0.215    0.337   87.555   16.043
  265.100    0.234    0.381  106.072   15.170
  265.400    0.227    0.414  127.056   13.564
  265.700    0.231    0.430  137.554   11.905
  266.000    0.245    0.441  120.293   10.645
  266.300    0.232    0.443  125.239    9.879
  266.600    0.242    0.415  123.401    9.516
  266.900    0.225    0.420  117.860    9.693
  267.200    0.215    0.415  114.788   10.441
  267.500    0.228    0.398  106.778   11.673
  267.800    0.284    0.381   97.537   11.890
  268.100    0.278    0.414   91.379   11.454
  268.400    0.273    0.431  104.961   10.242
  268.700    0.272    0.407  111.145    8.989
  269.000    0.280    0.391  103.134    9.157
  269.300    0.306    0.379  100.677   11.662
  269.600    0.337    0.420   91.436   15.416
  269.900    0.386    0.436   73.557   19.272
  270.200    0.272    0.431   72.955   20.759
  270.500    0.284    0.390   75.430   22.358
  270.800    0.289    0.397   75.442   22.355
  271.100    0.296    0.388   78.539   21.940
  271.400    0.297    0.385   74.234   20.360
  271.700    0.298    0.390   71.777   19.252
  272.000    0.301    0.381   71.786   18.545
  272.300    0.303    0.382   70.567   17.865
  272.600    0.304    0.375   71.811   17.208
  272.900    0.302    0.387   74.904   16.889
  273.200    0.299    0.370   71.834   17.526
  273.500    0.299    0.392   69.991   17.523
  273.800    0.298    0.395   75.556   17.521
  274.100    0.301    0.393   75.566   17.517
  274.400    0.302    0.387   81.746   17.192
  274.700    0.298    0.377   78.059   15.955
  275.000    0.294    0.372   83.618   14.535
  275.300    0.305    0.399   89.182   12.521
  275.600    0.303    0.407   86.728   11.839
  275.900    0.291    0.418   85.502   12.517
  276.200    0.287    0.412   87.983   13.235
  276.500    0.290    0.379   75.040   14.795
  276.800    0.302    0.389   82.453   15.072
  277.100    0.304    0.394   82.463   14.517
  277.400    0.297    0.400   76.925   13.985
  277.700    0.292    0.402   76.320   13.472
  278.000    0.289    0.389   76.332   13.723
  278.300    0.291    0.382   73.255   13.978
  278.600    0.292    0.385   66.482   14.778
  278.900    0.292    0.396   63.409   15.336
  279.200    0.289    0.406   69.593   15.915
  279.500    0.288    0.396   73.302   16.212
  279.800    0.294    0.372   69.613   15.910
  280.100    0.299    0.385   65.304   15.908
  280.400    0.303    0.376   60.382   15.613
  280.700    0.301    0.368   71.496   15.901
  281.000    0.300    0.372   70.889   15.899
  281.300    0.293    0.394   66.583   15.896
  281.600    0.288    0.399   78.932   15.894
  281.900    0.288    0.405   84.495   15.892
  282.199    0.302    0.416   78.953   15.890
  282.499    0.316    0.442   71.562   15.886
  282.799    0.319    0.434   63.555   15.591
  283.099    0.310    0.409   57.400   15.300
  283.399    0.306    0.424   59.258   15.017
  283.699    0.306    0.435   63.588   13.936
  283.999    0.307    0.430   64.834   13.176
  284.299    0.306    0.404   62.995   12.932
  284.599    0.307    0.398   62.389   12.929
  284.899    0.307    0.386   64.867   12.928
  285.199    0.312    0.387   63.027   13.416
  285.499    0.316    0.381   59.954   13.922
  285.799    0.318    0.371   68.604   14.449
  286.099    0.303    0.371   64.911   15.562
  286.399    0.311    0.381   70.477   15.852
  286.699    0.314    0.378   65.550   15.850
  286.999    0.312    0.398   58.161   15.847
  287.299    0.303    0.420   58.171   15.845
  287.599    0.301    0.425   54.482   15.550
  287.899    0.302    0.409   55.728   15.260
  288.199    0.307    0.400   60.671   14.429
  288.499    0.314    0.393   69.319   12.902
  288.799    0.315    0.425   64.397   10.709
  289.099    0.302    0.448   76.743    8.098
  289.399    0.286    0.442   89.092    6.721
  289.699    0.284    0.444   95.273    5.476
  289.999    0.274    0.462   94.669    5.082
  290.299    0.255    0.472   90.980    5.577
  290.599    0.255    0.460   90.988    6.472
  290.899    0.267    0.453   95.935    7.941
  291.199    0.271    0.462   89.162   10.113
  291.499    0.267    0.423   95.958   11.736
  291.799    0.274    0.416   91.033   12.179
  292.099    0.287    0.403   90.428   11.515
  292.399    0.290    0.410   81.185   10.296
  292.699    0.263    0.414  103.404    9.379
  292.999    0.257    0.412   94.781    8.705
  293.299    0.258    0.424   88.005    8.543
  293.599    0.257    0.455   96.036    8.865
  293.899    0.255    0.473  107.769    9.374
  294.199    0.253    0.464  109.014    9.728
  294.499    0.245    0.427   99.155   10.095
  294.799    0.244    0.438   91.145    9.545
  295.099    0.244    0.428  102.261    8.858
  295.399    0.238    0.432  105.974    7.353
  295.699    0.233    0.432  109.068    4.791
  295.999    0.237    0.447  108.463    3.556
  296.299    0.243    0.470  120.195    3.064
  296.599    0.247    0.483  119.592    3.006
  296.899    0.243    0.503  117.132    3.621
  297.199    0.243    0.498  120.230    4.787
  297.499    0.244    0.523  119.622    5.555
  297.799    0.249    0.538  114.083    6.943
  298.099    0.253    0.512  104.223    7.479
  298.399    0.258    0.499   96.214    7.205
  298.699    0.261    0.463   99.927    6.563
  298.999    0.262    0.452  107.958    6.205
  299.299    0.264    0.492  103.034    5.978
  299.599    0.261    0.501  103.665    5.652
  299.899    0.262    0.525  103.673    5.445
  300.199    0.268    0.547  114.172    5.245
  300.499    0.270    0.554  120.968    5.342
  300.799    0.282    0.537  111.727    5.442
  301.099    0.274    0.526  106.186    4.958
  301.399    0.255    0.509  127.790    4.351
  301.699    0.270    0.541  125.333    4.038
  301.999    0.277    0.539  119.175    4.113
  302.299    0.251    0.559  129.058    4.599
  302.599    0.254    0.508  130.300    4.773
  302.899    0.271    0.497  114.274    4.772
  303.199    0.278    0.517  104.415    4.511
  303.499    0.254    0.543  111.829    4.346
  303.799    0.252    0.560  119.242    4.265
  304.099    0.232    0.548  126.655    4.264
