~VERSION INFORMATION
 VERS.                 2.0:   CWLS LOG ASCII STANDARD -VERSION 2.0
 WRAP.                  NO:   ONE LINE PER DEPTH STEP
~WELL INFORMATION BLOCK
#MNEM.UNIT           DATA                    DESCRIPTION OF MNEMONIC
#---------    -------------------            -------------------------------
# Generated from Intellog Unique Number	CC_84_87/WELL/2339
NULL.         -999.25                        : NULL_VALUE
WELL.         ARCO ACI MCMURRAY              : Well_name    - WELL
LOC .         12-08-084-08W4                 : Location     - LOCATION          
UWI .         AA/12-08-084-08W4/0            : Uwi          - UNIQUE WELL ID    
ENTR.         JHS                            : Entered      - ENTERED BY        
SRVC.         WELEX                          : Scn          - SERVICE COMPANY   
DATE.         22 JAN 76                      : Date         - LOG DATE
STRT.M        274.32                         : top_depth    - START DEPTH       
STOP.M        487.687                        : bot_depth    - STOP DEPTH        
STEP.M        0.305                          : increment    - STEP LENGTH       
~CURVE INFORMATION BLOCK
#MNEM UNIT       ERCB CURVE CODE    CURVE DESCRIPTION
#-----------   ------------------   ----------------------------------
DEPT.M        00 001 00 00         : DEPTH        - DEPTH                       
DPHI.V/V      00 890 00 00         : PHID         - DENSITY POROSITY (LIMESTONE)
GR  .API      00 310 00 00         : GR           - GAMMA RAY                   
ILD .OHMM     00 120 00 00         : RESD         - DEEP RESISTIVITY (DIL)      
~PARAMETER INFORMATION       
#MNEM.UNIT           DATA             DESCRIPTION OF MNEMONIC
#---------         -----------     ------------------------------
GL  .M        726.948              : gl           - GROUND LEVEL ELEVATION      
EREF.M        729.691              : kb           - ELEVATION OF DEPTH REFERENCE
DATM.M        729.691              : datum        - DATUM ELEVATION             
TDD .M        495.3                : tdd          - TOTAL DEPTH DRILLER         
RUN .         ONE                  : Run          - RUN NUMBER                  
ENG .         BILL                 : Engineer     - RECORDING ENGINEER          
WIT .         JIM                  : Witness      - WITNESSED BY                
MUD .         GEL                  : Mud_type     - MUD TYPE                    
MATR.         LIMESTONE            : Logunit      - NEUTRON MATRIX              
TMAX.C        20                   : BHT          - MAXIMUM RECORDED TEMPERATURE
BHTD.M        495.3                : BHTDEP       - MAXIMUM RECORDED TEMPERATURE
MATR.         1                    : LOGUNIT      - NEUTRON MATRIX              
RMT .C        25                   : MDTP         - TEMPERATURE OF MUD          
NEUT.         1                    : NEUTRON      - NEUTRON TYPE                
RESI.         0                    : RESIST       - RESISTIVITY TYPE            
RMC .OHMM     0.25                 : RMC          - RESISTIVITY OF MUD CAKE     
RMF .OHMM     0.25                 : RMF          - RESISTIVITY OF MUD FILTRATE 
SUFT.C        15                   : SUFT         - SURFACE TEMPERATURE         
~A  DEPTH     PHID       GR     RESD
  274.320    0.299   62.381   18.486
  274.625    0.280   70.004   16.813
  274.930    0.259   77.628   15.379
  275.234    0.243   84.299   10.758
  275.539    0.242   83.352   10.918
  275.844    0.255   73.356   11.715
  276.149    0.262   64.790   12.752
  276.454    0.271   60.985   13.629
  276.758    0.283   57.181   14.346
  277.063    0.285   58.616   14.904
  277.368    0.284   60.048   15.463
  277.673    0.278   60.528   14.507
  277.978    0.267   63.867   13.392
  278.283    0.257   74.347   12.516
  278.587    0.247   83.875   12.357
  278.892    0.237   79.595   11.800
  279.197    0.244   84.837   11.322
  279.502    0.263  102.938   11.004
  279.807    0.271  101.513   10.367
  280.111    0.286   97.232   10.766
  280.416    0.306   89.142   14.033
  280.721    0.292   70.099   16.822
  281.026    0.272   63.438   18.257
  281.331    0.273   65.823   18.815
  281.635    0.290   76.304   18.417
  281.940    0.285   74.880   14.513
  282.245    0.271   69.171   16.028
  282.550    0.257   69.176   16.347
  282.855    0.241   69.656   15.072
  283.159    0.284   62.042   19.854
  283.464    0.306   59.190   27.307
  283.769    0.300   55.861   26.515
  284.074    0.293   59.199   22.536
  284.379    0.308   59.680   21.743
  284.684    0.309   56.828   25.732
  284.988    0.290   56.833   22.549
  285.293    0.264   59.694   19.379
  285.598    0.275   68.747   18.662
  285.903    0.300   71.609   19.380
  286.208    0.284   68.756   22.567
  286.512    0.294   61.142   24.962
  286.817    0.303   55.432   28.154
  287.122    0.303   45.914   31.346
  287.427    0.298   56.394   33.741
  287.732    0.293   65.923   32.948
  288.036    0.296   63.071   31.359
  288.341    0.294   58.790   28.973
  288.646    0.299   62.604   24.994
  288.951    0.300   65.466   21.811
  289.256    0.305   68.328   20.223
  289.560    0.311   74.047   21.023
  289.865    0.319   72.147   22.622
  290.170    0.315   65.961   24.220
  290.475    0.306   61.680   25.022
  290.780    0.298   63.590   24.229
  291.085    0.287   67.881   21.046
  291.389    0.280   71.219   19.468
  291.694    0.269   72.652   18.034
  291.999    0.264   75.514   16.361
  292.304    0.248   74.090   13.493
  292.609    0.236   78.856   10.784
  292.913    0.245   95.051    8.872
  293.218    0.269   99.341    8.156
  293.523    0.270   97.442    8.315
  293.828    0.269   91.256    8.954
  294.133    0.245   88.879    9.034
  294.437    0.175   89.361    8.556
  294.742    0.150   96.984    6.644
  295.047    0.178  104.608    5.370
  295.352    0.201  110.327    4.653
  295.657    0.215  112.237    4.335
  295.961    0.232  110.813    4.494
  296.266    0.263  107.008    5.212
  296.571    0.293   86.061    6.965
  296.876    0.304   72.732    9.914
  297.181    0.302   57.499   22.731
  297.486    0.305   56.552   25.923
  297.790    0.322   55.604   25.927
  298.095    0.328   57.038   22.745
  298.400    0.312   54.185   21.155
  298.705    0.306   52.286   19.797
  299.010    0.308   51.813   17.328
  299.314    0.299   48.961   17.169
  299.619    0.302   48.014   17.966
  299.924    0.318   48.019   17.249
  300.229    0.296   45.643   19.481
  300.534    0.296   45.171   19.242
  300.838    0.287   43.272   19.561
  301.143    0.286   42.324   21.196
  301.448    0.289   42.328   19.323
  301.753    0.289   44.714   19.722
  302.058    0.290   46.147   20.414
  302.362    0.294   44.247   22.012
  302.667    0.299   39.490   24.407
  302.972    0.307   38.066   26.004
  303.277    0.306   33.785   27.603
  303.582    0.305   26.171   27.608
  303.887    0.311   23.319   26.815
  304.191    0.305   29.038   25.227
  304.496    0.305   36.185   23.637
  304.801    0.309   37.619   24.439
  305.106    0.313   36.194   26.037
  305.411    0.319   31.438   26.839
  305.715    0.315   27.157   26.843
  306.020    0.306   28.590   25.253
  306.325    0.290   36.690   22.867
  306.630    0.274   43.837   19.729
  306.935    0.275   50.985   18.455
  307.239    0.286   51.942   17.340
  307.544    0.299   50.043   18.137
  307.849    0.311   47.666   19.253
  308.154    0.308   43.861   19.971
  308.459    0.306   39.104   24.493
  308.763    0.311   36.252   25.294
  309.068    0.293   47.209   20.517
  309.373    0.281   63.404   18.220
  309.678    0.279   73.884   13.598
  309.983    0.268   84.842   11.846
  310.288    0.258   87.704   11.448
  310.592    0.262   90.089   11.289
  310.897    0.273   87.713   11.210
  311.202    0.266   84.384   11.131
  311.507    0.253   82.484   11.052
  311.812    0.247   80.585   11.450
  312.116    0.242   78.208   12.088
  312.421    0.238   79.165   12.806
  312.726    0.232   74.408   12.567
  313.031    0.252   70.604   10.177
  313.336    0.242   86.799    7.389
  313.640    0.222   88.708    7.230
  313.945    0.224   85.380    7.470
  314.250    0.226   84.909    7.629
  314.555    0.221   82.532    7.391
  314.860    0.210   84.918    6.833
  315.164    0.209   93.494    6.356
  315.469    0.204   94.927    5.958
  315.774    0.205  101.599    5.719
  316.079    0.199  109.222    5.560
  316.384    0.191  108.275    5.401
  316.689    0.186  112.089    5.482
  316.993    0.192  111.617    5.721
  317.298    0.197  105.908    6.518
  317.603    0.210   98.294    7.395
  317.908    0.209   95.917    8.272
  318.213    0.211   92.113    8.591
  318.517    0.217   89.261    8.512
  318.822    0.227   88.313    8.035
  319.127    0.230   92.604    7.716
  319.432    0.236  100.227    7.239
  319.737    0.246  107.851    7.080
  320.041    0.258  104.998    7.319
  320.346    0.270   97.860    7.718
  320.651    0.280   95.485    8.356
  320.956    0.267   92.632    9.233
  321.261    0.272   85.018    9.871
  321.565    0.279   82.166    9.792
  321.870    0.286   78.360    9.394
  322.175    0.273   76.462    9.394
  322.480    0.272   75.990    9.554
  322.785    0.286   71.709   10.032
  323.090    0.303   60.761   11.228
  323.394    0.320   48.385   13.858
  323.699    0.332   43.628   16.169
  324.004    0.327   41.253   18.241
  324.309    0.316   40.780   18.879
  324.614    0.321   43.642   17.366
  324.918    0.328   47.456   17.526
  325.223    0.320   45.080   18.084
  325.528    0.316   41.275   17.766
  325.833    0.319   40.804   18.005
  326.138    0.317   41.285   18.563
  326.442    0.325   42.719   18.086
  326.747    0.326   44.151   18.086
  327.052    0.325   47.490   18.405
  327.357    0.310   47.970   18.406
  327.662    0.295   46.546   18.167
  327.966    0.286   48.933   18.407
  328.271    0.298   54.651   18.248
  328.576    0.307   59.895   17.133
  328.881    0.307   56.566   16.336
  329.186    0.309   50.380   15.699
  329.491    0.311   46.099   15.302
  329.795    0.307   42.294   15.382
  330.100    0.308   45.632   15.701
  330.405    0.314   46.114   16.100
  330.710    0.323   43.737   16.578
  331.015    0.326   39.932   16.818
  331.319    0.328   37.556   16.977
  331.624    0.320   39.466   16.978
  331.929    0.323   41.375   16.739
  332.234    0.328   40.904   16.580
  332.539    0.328   37.100   16.820
  332.843    0.333   35.199   17.537
  333.148    0.335   33.776   17.697
  333.453    0.329   37.113   17.379
  333.758    0.328   40.928   16.901
  334.063    0.330   39.980   16.982
  334.367    0.326   41.413   17.221
  334.672    0.326   41.418   16.903
  334.977    0.330   38.566   16.983
  335.282    0.335   39.046   17.780
  335.587    0.330   39.051   17.621
  335.892    0.329   40.009   16.825
  336.196    0.335   39.061   16.985
  336.501    0.336   37.162   17.145
  336.806    0.339   38.118   17.464
  337.111    0.345   40.027   17.305
  337.416    0.347   39.557   17.465
  337.720    0.342   40.989   16.907
  338.025    0.339   43.376   16.987
  338.330    0.337   44.809   16.908
  338.635    0.333   45.289   16.670
  338.940    0.325   45.294   16.909
  339.244    0.323   46.252   16.591
  339.549    0.321   47.684   16.751
  339.854    0.319   48.166   16.193
  340.159    0.325   50.075   15.795
