~Version Information Block
VERS .                 2.00:  CWLS LOG ASCII STANDARD - VERSION 2.00
WRAP .                   NO:  One line per depth step
~Well Information Block
#MNEM.UNIT        Data Type   Information
#---------- ----------------  -----------
STRT .M                9.14         :  START DEPTH
STOP .M              111.74         :  STOP DEPTH
STEP .M                 0.3         :  STEP
NULL .              -999.25         :  NULL VALUE
COMP .  PACIFIC PETROLEUMS LTD.     :  COMPANY
WELL .  BAYSEL ASHLAND STPBNK CH #6 :  WELL
FLD  .                              :  FIELD
LOC  . 13-16-091-09W4               :  LOCATION
PROV . ALBERTA                      :  PROVINCE
SRVC . SCHLUMBERGER                 :  SERVICE COMPANY
DATE . 20 FEB 73                    :  LOG DATE
UWI  . AA/13-16-091-09W400          :  UNIQUE WELL ID
~Curve Information Block
#MNEM.UNIT         API CODE   Curve Description
#---------- ----------------  -----------------
DEPTH.M                    :  Transferred from LOGMATE/ESP.
GR   .API                  :  Loaded from 920407.092229
PHID .FRAC                 :  Loaded from 920407.092229
RESD .OHMM                 :  Loaded from 920407.092229
~Parameter Information Block
#MNEM.UNIT            Value   Description
#---------- ----------------  -----------
PROJECT.             MOS_91_9:
SET  .                  RAW:
~A        DEPTH             GR           PHID           RESD
# ...
        48.7400        48.2100         0.2930        42.4300
        49.0400        53.2500         0.2828        26.6300
        49.3400        57.5400         0.2637        12.6100
        49.6400        62.2300         0.2358        14.3900
        49.9400        67.9800         0.2298        15.4800
        50.2400        68.3000         0.2390        13.7700
        50.5400        67.1200         0.2546        12.6300
        50.8400        66.6900         0.2661        10.3100
        51.1400        67.6000         0.2616         9.4800
        51.4400        71.8900         0.2520         8.6500
        51.7400        73.5100         0.2433        11.5200
        52.0400        70.9500         0.2139        10.8000
        52.3400        69.6900         0.2047         8.6800
        52.6400        67.1400         0.2425         6.8800
        52.9400        69.1500         0.2706         7.1900
        53.2400        67.6900         0.2717         8.3600
        53.5400        65.5300         0.2523         7.4800
        53.8400        64.1500         0.2243         6.0900
        54.1400        69.1600         0.2439         5.0700
        54.4400        73.2900         0.2558         5.8500
        54.7400        75.9700         0.2607         8.7900
        55.0400        76.8000         0.2489         7.9200
        55.3400        71.9200         0.2410         7.0900
        55.6400        66.6900         0.2328         9.5000
        55.9400        62.6400         0.2502         8.6700
        56.2400        64.4100         0.2602         7.6900
        56.5400        67.1300         0.2505        21.8200
        56.8400        61.9400         0.2136        24.4100
        57.1400        55.1300         0.1869        20.3100
        57.4400        55.3700         0.1951        14.8800
        57.7400        61.3500         0.2521        11.6900
        58.0400        59.1100         0.2631        11.1700
        58.3400        57.1500         0.2771        12.8900
        58.6400        53.5700         0.2848        16.2800
        58.9400        55.5400         0.2993        15.7200
        59.2400        57.0300         0.2834        17.0100
        59.5400        53.0600         0.2683        34.3300
        59.8400        51.7600         0.2790        29.8900
        60.1400        52.4000         0.2774        21.3000
        60.4400        56.4200         0.2652        27.2300
        60.7400        53.0300         0.2840        24.1500
        61.0400        50.7100         0.2918        21.3100
        61.3400        48.6300         0.2648        21.1800
        61.6400        49.7300         0.2628        23.9800
        61.9400        51.7400         0.2698        23.8300
        62.2400        50.5300         0.2792        33.9400
        62.5400        49.2700         0.2564        34.8000
        62.8400        47.7700         0.2745        13.7900
        63.1400        46.6300         0.2935        17.3500
        63.4400        50.0600         0.3170        28.2600
        63.7400        55.3000         0.2948        38.0000
        64.0400        52.5900         0.2942        30.0200
        64.3400        52.2700         0.3123        18.4600
        64.6400        53.3000         0.2971        17.4900
        64.9400        49.6800         0.2819        13.1600
        65.2400        57.3600         0.2773         9.1000
        65.5400        64.4100         0.2638        23.7900
        65.8400        68.5500         0.2358        40.2000
        66.1400        64.0200         0.2604        24.2900
        66.4400        54.6900         0.2911        33.9700
        66.7400        43.6300         0.3081        49.6200
        67.0400        44.1500         0.3167        88.7700
        67.3400        36.9800         0.3377       364.4300
        67.6400        32.8500         0.3431        25.4800
        67.9400        38.8000         0.3436       178.0400
        68.2400        41.1300         0.3412       300.8100
        68.5400        37.0000         0.3457        57.8600
        68.8400        35.5800         0.3405        26.8500
        69.1400        38.4600         0.3248        25.3800
        69.4400        48.0700         0.3031        30.9300
        69.7400        51.1000         0.2992        28.5000
        70.0400        52.7200         0.3020        20.4000
        70.3400        49.5700         0.3006        47.6100
        70.6400        54.3400         0.2879        48.8000
        70.9400        51.7800         0.2852        14.7700
        71.2400        48.3600         0.2963        15.2400
        71.5400        41.0000         0.3002        30.0000
        71.8400        56.5100         0.3192        88.3000
        72.1400        53.4000         0.3534        89.7200
        72.4400        50.4100         0.3714        20.0000
        72.7400        42.8200         0.3452        28.8400
        73.0400        35.6500         0.3320       112.5400
        73.3400        43.8900         0.3357       183.7400
        73.6400        39.9900         0.3543       226.6400
        73.9400        35.3900         0.3696       193.3800
        74.2400        28.4600         0.3486       198.3400
        74.5400        27.2800         0.3389       185.1100
        74.8400        32.2100         0.3458        55.8000
        75.1400        33.3500         0.3526        43.5200
        75.4400        33.1900         0.3438        55.1600
        75.7400        39.8900         0.3281       120.6600
        76.0400        39.8100         0.3248       167.6100
        76.3400        39.5000         0.3373       135.4900
        76.6400        36.5900         0.3438        95.9300
        76.9400        32.0300         0.3508       215.6700
        77.2400        30.7300         0.3673       289.9300
        77.5400        28.1700         0.3699       325.1900
        77.8400        25.1800         0.3464       336.9100
        78.1400        21.3300         0.3318       342.8900
        78.4400        22.9800         0.3287       343.8900
        78.7400        24.2100         0.3253       382.9600
        79.0400        20.1200         0.3159       417.9400
        79.3400        18.4200         0.3125       230.4600
        79.6400        20.2000         0.3196       166.3600
        79.9400        22.6400         0.3345       248.7300
        80.2400        25.9500         0.3415       321.5300
        80.5400        23.8300         0.3526       243.6200
        80.8400        21.9800         0.3570       294.6900
        81.1400        23.3600         0.3615        87.1000
        81.4400        24.7000         0.3558       111.7700
        81.7400        23.1300         0.3526       158.8300
        82.0400        25.1800         0.3395         8.3800
        82.3400        43.2900         0.2785        10.1500
        82.6400        51.4000         0.2621       146.5600
        82.9400        57.6700         0.2533       185.0900
        83.2400        51.2900         0.3429       245.3100
        83.5400        42.0400         0.3586      1072.1200
        83.8400        28.4200         0.3572       974.4000
        84.1400        25.5100         0.3429        14.5800
        84.4400        26.7300         0.2782         8.0100
        84.7400        47.5200         0.2586         8.5400
        85.0400        56.2300         0.2610        16.0100
        85.3400        48.5100         0.2798        74.0100
        85.6400        36.5500         0.3102        84.2300
        85.9400        32.1400         0.3870        78.0300
        86.2400        29.3500         0.4114        89.4300
        86.5400        30.4900         0.3851       101.5300
        86.8400        31.6000         0.3920        32.6600
        87.1400        40.3000         0.3572        26.3100
        87.4400        42.5500         0.3332        33.9600
        87.7400        39.7500         0.3510        36.9900
        88.0400        31.7300         0.3776        22.9300
