~VERSION INFORMATION
 VERS.                 2.0:   CWLS LOG ASCII STANDARD -VERSION 2.0
 WRAP.                  NO:   ONE LINE PER DEPTH STEP
~WELL INFORMATION BLOCK
#MNEM.UNIT           DATA                    DESCRIPTION OF MNEMONIC
#---------    -------------------            -------------------------------
# Generated from Intellog Unique Number	CC_88_90/WELL/2296
WELL.         10-26-089-16W4                 : Well_name    - WELL
LOC .         AA/10-26-089-16W4/0            : Location     - LOCATION
UWI .         AA/10-26-089-16W400            : Uwi          - UNIQUE WELL ID
ENTR.         DW                             : Entered      - ENTERED BY
SRVC.         SCHLUMBERGER                   : Scn          - SERVICE COMPANY
STRT.M        75                             : top_depth    - START DEPTH
STOP.M        224.75                         : bot_depth    - STOP DEPTH
STEP.M        0.25                           : increment    - STEP LENGTH
 NULL. -999.2500:NULL Value
~CURVE INFORMATION BLOCK
#MNEM UNIT       ERCB CURVE CODE    CURVE DESCRIPTION
#-----------   ------------------   ----------------------------------
DEPT.M        00 001 00 00         : DEPTH        - DEPTH
GR  .API      00 310 00 00         : GR           - GAMMA RAY
DPHI.V/V      00 890 00 00         : PHID         - DENSITY POROSITY (SANDSTONE)
NPHI.V/V      00 330 00 00         : PHIN         - NEUTRON POROSITY (SANDSTONE)
ILD .OHMM     00 120 00 00         : RESD         - DEEP RESISTIVITY (DIL)
~PARAMETER INFORMATION
#MNEM.UNIT           DATA             DESCRIPTION OF MNEMONIC
#---------         -----------     ------------------------------
GL  .M        480.8                : gl           - GROUND LEVEL ELEVATION
EREF.M        484.09               : kb           - ELEVATION OF DEPTH REFERENCE
DATM.M        484.09               : datum        - DATUM ELEVATION
TDD .M        232                  : tdd          - TOTAL DEPTH DRILLER
RUN .         ONE                  : Run          - RUN NUMBER
ENG .         BILL                 : Engineer     - RECORDING ENGINEER
WIT .         JIM                  : Witness      - WITNESSED BY
MUD .         GEL                  : Mud_type     - MUD TYPE
MATR.         SANDSTONE            : Logunit      - NEUTRON MATRIX
TMAX.C        25                   : BHT          - MAXIMUM RECORDED TEMPERATURE
BHTD.M        232                  : BHTDEP       - MAXIMUM RECORDED TEMPERATURE
MATR.         1                    : LOGUNIT      - NEUTRON MATRIX
RMT .C        25                   : MDTP         - TEMPERATURE OF MUD
NEUT.         1                    : NEUTRON      - NEUTRON TYPE
RESI.         0                    : RESIST       - RESISTIVITY TYPE
RMC .OHMM     0.25                 : RMC          - RESISTIVITY OF MUD CAKE
RMF .OHMM     0.25                 : RMF          - RESISTIVITY OF MUD FILTRATE
SUFT.C        15                   : SUFT         - SURFACE TEMPERATURE
~A  DEPTH       GR     PHID     PHIN     RESD
# ...
  162.000   98.471    0.120    0.421   10.174
  162.250  106.275    0.189    0.479    9.215
  162.500  107.263    0.208    0.461    7.865
  162.750  106.018    0.206    0.441    7.314
  163.000  105.833    0.209    0.453    7.488
  163.250  106.077    0.200    0.438    7.894
  163.500  107.762    0.175    0.411    8.262
  163.750  109.601    0.161    0.417    8.480
  164.000  107.987    0.180    0.444    9.262
  164.250  104.285    0.180    0.462    9.975
  164.500  101.161    0.141    0.436   10.777
  164.750  100.551    0.097    0.379   12.108
  165.000  103.440    0.080    0.355   13.261
  165.250  106.608    0.110    0.380   13.762
  165.500  103.394    0.154    0.402   13.630
  165.750  100.710    0.163    0.399   13.408
  166.000  102.828    0.139    0.381   13.099
  166.250  106.675    0.131    0.381   12.351
  166.500  109.627    0.157    0.422   11.406
  166.750  109.678    0.179    0.455   10.876
  167.000  104.310    0.184    0.460   10.323
  167.250   98.553    0.193    0.418   10.203
  167.500   96.039    0.200    0.388   10.501
  167.750   95.296    0.175    0.410   11.529
  168.000   93.603    0.109    0.415   13.518
  168.250   89.617    0.068    0.372   14.072
  168.500   86.179    0.149    0.367   13.774
  168.750   93.480    0.206    0.382   13.030
  169.000  101.250    0.198    0.388   12.301
  169.250   99.213    0.188    0.395   11.699
  169.500   97.307    0.174    0.412   10.985
  169.750   96.762    0.180    0.441   10.965
  170.000   96.429    0.190    0.460   10.787
  170.250   97.546    0.201    0.449    9.330
  170.500   94.016    0.205    0.454    7.872
  170.750   83.462    0.202    0.491    7.683
  171.000   72.053    0.219    0.486    8.422
  171.250   57.821    0.259    0.418   10.707
  171.500   48.788    0.270    0.394   12.932
  171.750   44.187    0.255    0.383   16.582
  172.000   41.678    0.250    0.378   24.933
  172.250   42.124    0.265    0.400   35.269
  172.500   45.448    0.275    0.417   43.702
  172.750   49.539    0.253    0.418   56.135
  173.000   52.864    0.262    0.408   61.076
  173.250   48.297    0.267    0.400   57.653
  173.500   45.188    0.256    0.413   51.291
  173.750   50.952    0.256    0.428   45.199
  174.000   55.333    0.257    0.410   40.578
  174.250   57.669    0.245    0.398   38.390
  174.500   57.265    0.232    0.392   39.157
  174.750   55.445    0.229    0.389   40.750
  175.000   53.145    0.235    0.395   45.681
  175.250   51.515    0.249    0.407   54.583
  175.500   51.648    0.270    0.413   62.667
  175.750   51.191    0.271    0.415   70.411
  176.000   50.329    0.239    0.401   74.043
  176.250   48.834    0.200    0.389   74.113
  176.500   49.261    0.164    0.368   71.541
  176.750   53.164    0.153    0.346   62.510
  177.000   57.199    0.199    0.364   46.387
  177.250   58.840    0.238    0.398   35.118
  177.500   60.030    0.259    0.419   29.291
  177.750   60.209    0.252    0.434   25.837
  178.000   60.852    0.237    0.448   21.348
  178.250   62.261    0.235    0.432   16.174
  178.500   60.931    0.234    0.382   13.548
  178.750   57.343    0.238    0.392   12.463
  179.000   54.499    0.251    0.430   14.160
  179.250   54.779    0.261    0.452   17.486
  179.500   59.848    0.276    0.465   19.505
  179.750   66.088    0.269    0.462   19.864
  180.000   66.492    0.221    0.431   20.155
  180.250   63.818    0.230    0.434   18.379
  180.500   68.413    0.236    0.420   13.812
  180.750   72.654    0.194    0.406    8.764
  181.000   81.791    0.153    0.429    6.052
  181.250   96.220    0.172    0.469    5.458
  181.500   99.204    0.224    0.490    4.610
  181.750   98.664    0.245    0.515    3.628
  182.000   98.823    0.259    0.536    3.071
  182.250   99.998    0.238    0.541    2.932
  182.500  101.857    0.222    0.550    2.915
  182.750  102.909    0.237    0.553    2.945
  183.000  102.907    0.224    0.522    3.154
  183.250  105.632    0.204    0.501    3.459
  183.500  105.005    0.182    0.490    3.911
  183.750   98.378    0.153    0.479    4.705
  184.000   94.666    0.142    0.457    5.073
  184.250   98.115    0.169    0.433    4.868
  184.500  100.447    0.208    0.444    5.160
  184.750   98.924    0.230    0.504    5.799
  185.000   92.320    0.232    0.567    7.083
  185.250   83.206    0.229    0.530    8.532
  185.500   74.090    0.232    0.446   10.628
  185.750   67.443    0.237    0.415   12.871
  186.000   65.886    0.238    0.413   13.552
  186.250   68.228    0.224    0.405   14.133
  186.500   72.216    0.200    0.402   15.489
  186.750   75.975    0.191    0.397   16.770
  187.000   73.619    0.219    0.395   18.572
  187.250   66.759    0.266    0.406   21.573
  187.500   64.054    0.283    0.415   26.263
  187.750   60.471    0.263    0.411   35.525
  188.000   57.459    0.249    0.422   45.876
  188.250   55.610    0.264    0.439   55.238
  188.500   52.832    0.288    0.433   47.072
  188.750   53.272    0.290    0.412   21.749
  189.000   62.773    0.267    0.410    7.289
  189.250   72.930    0.234    0.424    5.247
  189.500   84.025    0.219    0.451    5.186
  189.750   87.534    0.227    0.492    4.905
  190.000   87.326    0.222    0.518    5.497
  190.250   82.667    0.209    0.508    6.773
  190.500   65.960    0.235    0.471    8.764
  190.750   61.770    0.250    0.402   12.017
  191.000   70.333    0.245    0.400   16.095
  191.250   76.278    0.241    0.433   19.678
  191.500   74.511    0.238    0.448   22.444
  191.750   67.901    0.247    0.437   29.541
  192.000   59.149    0.278    0.412   42.985
  192.250   55.865    0.278    0.409   49.432
  192.500   53.501    0.266    0.364   51.488
  192.750   56.170    0.247    0.330   48.409
  193.000   63.020    0.193    0.326   42.422
  193.250   67.816    0.153    0.328   37.517
  193.500   69.009    0.197    0.342   33.663
  193.750   67.173    0.214    0.352   32.227
  194.000   64.206    0.218    0.362   35.047
  194.250   65.733    0.238    0.388   42.883
  194.500   64.994    0.259    0.398   48.592
  194.750   59.833    0.266    0.378   49.370
  195.000   61.588    0.256    0.379   50.088
  195.250   66.696    0.241    0.398   46.359
  195.500   71.404    0.259    0.412   43.736
  195.750   73.829    0.260    0.399   41.639
  196.000   73.537    0.224    0.383   38.788
  196.250   71.756    0.199    0.377   36.743
  196.500   70.870    0.193    0.364   36.997
  196.750   72.612    0.169    0.377   39.968
  197.000   77.027    0.189    0.403   42.341
  197.250   81.114    0.232    0.385   37.213
  197.500   84.696    0.243    0.354   29.065
  197.750   83.060    0.228    0.362   24.627
  198.000   70.927    0.218    0.389   21.794
  198.250   61.859    0.206    0.407   20.459
  198.500   60.573    0.234    0.423   18.924
  198.750   61.246    0.274    0.462   18.042
  199.000   64.001    0.272    0.472   18.940
  199.250   70.219    0.230    0.417   19.775
  199.500   75.187    0.192    0.364   18.384
  199.750   79.523    0.155    0.343   16.853
  200.000   87.564    0.124    0.330   14.090
  200.250   98.456    0.122    0.366   12.307
  200.500  105.265    0.128    0.411   11.498
  200.750  105.158    0.127    0.413   10.466
  201.000  102.996    0.142    0.411   10.032
  201.250  101.622    0.138    0.408    9.682
  201.500  103.721    0.135    0.401    9.780
  201.750  105.664    0.137    0.393    9.815
  202.000  104.779    0.149    0.389   10.004
  202.250   99.626    0.152    0.396   10.478
  202.500   90.679    0.129    0.407   10.819
  202.750   86.018    0.114    0.390   12.051
  203.000   86.437    0.059    0.368   13.505
  203.250   92.364    0.074    0.342   14.958
  203.500   98.929    0.108    0.340   14.790
  203.750  101.367    0.086    0.371   13.052
  204.000   99.320    0.105    0.392   12.830
  204.250   91.392    0.155    0.411   14.497
  204.500   87.049    0.186    0.410   16.868
  204.750   80.046    0.215    0.404   21.527
  205.000   75.572    0.246    0.399   25.418
  205.250   79.896    0.252    0.381   25.066
