~Version : LASO    vs 4.00
VERS.                2.00:   CWLS Log ASCII Standard -VERSION 2.0
WRAP.                  NO:
~Well Information Block
#MNEM.UNIT       Data                        Description of Mnemonic
#----.----      -------------------------- : -----------------------------
STRT.M             3.0000:
STOP.M           202.0000:
STEP.M             0.1250:
NULL.           -999.2500:
COMP.  MOBILOIL CANADA             :COMPANY
WELL.  MOBIL CLARKE OV 10-26       :WELL
FLD.   CLARKE                      :FIELD
LOC.   10-26-090-07W4              :LOCATION
CTRY.  CANADA                      :COUNTRY
PROV.  ALBERTA                     :PROVINCE
SRVC.  DRESSER ATLAS               :SERVICE COMPANY
DATE.  31-JAN-81                   :LOG DATE
UWI.   AA/10-26-090-07W400         :UNIQUE WELL ID
~Parameter Information Block
#MNEM.UNIT       Data                        Description of Mnemonic
#----.----      -------------------------- : -----------------------------
RUN .                   1                 : Run Number
GL  .M           456.0000                 : Ground Level Elevation
DREF.                  KB                 : Depth Reference
EREF.M           456.0000                 : Elevation of Depth Reference
TDL .M           201.0000                 : Total Depth Logger
TDD .M           203.0000                 : Total Depth Driller
CSGL.M            13.0000                 : Casing Bottom Logger
CSGD.M            12.0000                 : Casing Bottom Driller
CSGS.MM          219.0000                 : Casing Size
CSGW.KG/M          0.0000                 : Casing Weight
BHT .DEGC         18.0000                 : Bottom Hole Temperature
BS  .MM          171.4000                 : Bit Size
DFD .              9.7000                 : Mud Weight (Density)
DFV .             85.0000                 : Mud Viscosity
RM  .OHMM          4.0000                 : Mud Resistivity
RMT .DEGC         18.0000                 : Mud Resistivity Temperature
RMF .OHMM          6.2000                 : Mud Filtrate Resistivity
RMFT.DEGC         12.0000                 : RMF Temperature
RMC .OHMM         11.6000                 : Mud Cake Resistivity
RMCT.DEGC         12.0000                 : RMC Temperature
~Curve Information Block
#MNEM.UNIT        API CODE    Curve Description
#---------    ------------    -------------------------------------------
DEPT.M                    :   DEPTH
CALI.MM       42 280  1  1:   3 DENSITY CALIPER
DPHI.V/V                  :   DPHI
DT  .US/M     60 520 42  1:   2 SONIC INTERVAL TRANSIT TIME (COMPENSATED)
GR  .GAPI     42 310  1  1:   4 GAMMA RAY
LLD .Ohmm                 :   LLD
NPHI.V/V      42 890  3  1:   5 NEUTRON POROSITY (SANDSTONE)
RHOB.K/M3     42 350  1  1:   6 BULK DENSITY
~A  Depth           CALI        DPHI          DT          GR         LLD        NPHI        RHOB
# ...
169.0000        160.4000      0.2823    395.6000     68.0100    193.5714      0.3713   2203.6001
169.1250        161.3250      0.2805    402.9600     71.8800    202.0221      0.3728   2212.2000
169.2500        164.0750      0.2792    414.4800     73.9050    210.6351      0.3893   2204.8000
169.3750        167.1500      0.2749    419.4000     72.9900    217.1456      0.3972   2195.1001
169.5000        166.8500      0.2711    421.0800     67.6350    220.5823      0.3961   2176.1001
169.6250        166.8500      0.2683    418.4000     58.0650    223.8405      0.3908   2157.1001
169.7500        167.1500      0.2695    412.0400     51.2400    227.9375      0.3803   2160.8000
169.8750        168.6750      0.2732    409.5600     49.3950    232.1909      0.3773   2161.3999
170.0000        165.3000      0.2792    409.0800     49.5750    238.3029      0.3841   2165.7000
170.1250        158.8750      0.2844    408.1200     56.7750    243.7408      0.3901   2171.8000
170.2500        159.4750      0.2922    417.9200     67.0950    253.0715      0.3991   2170.6001
170.3750        161.3250      0.2939    420.8400     80.7300    264.3082      0.4028   2170.6001
170.5000        165.0000      0.2919    419.1200     89.2050    272.5587      0.4013   2170.0000
170.6250        164.0750      0.2906    415.9600    103.0200    279.2960      0.3998   2174.2000
170.7500        161.3250      0.2903    411.2800    126.2400    281.2144      0.3998   2172.3999
170.8750        160.7000      0.2921    414.9600    147.0600    278.6286      0.3919   2162.0000
171.0000        163.4750      0.2924    416.4400    157.7550    273.4890      0.3871   2158.3000
171.1250        168.3750      0.2915    415.2000    146.1450    264.5037      0.3889   2158.3000
171.2500        173.5750      0.2894    416.2000    118.8750    252.6127      0.4051   2155.8999
171.3750        176.0250      0.2924    419.6400     92.7000    259.9236      0.4088   2148.5000
171.5000        176.9500      0.2965    423.0400     79.8000    268.2970      0.4091   2132.0000
171.6250        175.4250      0.3002    426.0000     68.0100    279.7066      0.4036   2126.5000
171.7500        167.7500      0.3043    425.5200     60.6450    287.6845      0.4013   2136.8999
171.8750        159.1750      0.3099    426.0000     55.1100    306.6405      0.3987   2154.7000
172.0000        156.7250      0.3135    421.0800     59.3550    317.2521      0.3938   2170.0000
172.1250        158.2500      0.3140    418.1600     65.9850    324.3528      0.3927   2176.7000
172.2500        158.8750      0.3120    415.2000     70.9650    316.7979      0.3968   2173.0000
172.3750        158.2500      0.3065    408.8400     68.0100    299.4080      0.3874   2168.1001
172.5000        158.8750      0.2993    404.4400     61.0050    286.8832      0.3818   2160.8000
172.6250        159.4750      0.2928    405.9200     56.7750    274.4398      0.3829   2154.0000
172.7500        159.8000      0.2898    411.5200     53.8200    259.6190      0.3908   2145.5000
172.8750        160.4000      0.2900    406.6400     51.0600    243.6287      0.3908   2130.2000
173.0000        161.0250      0.2911    403.9600     46.2600    218.6012      0.3848   2111.8000
173.1250        161.3250      0.2941    402.4800     40.7400    200.7449      0.3837   2108.8000
173.2500        162.8500      0.2983    403.6800     37.6050    185.9286      0.3848   2106.8999
173.3750        162.8500      0.3067    405.4000     38.3400    176.1020      0.3848   2106.8999
173.5000        163.1500      0.3131    403.6800     38.5200    170.8590      0.3811   2106.8999
173.6250        162.8500      0.3209    404.6800     43.5000    169.5626      0.3706   2103.3000
173.7500        161.3250      0.3227    408.6000     50.1300    171.4248      0.3597   2103.3000
173.8750        160.1000      0.3229    411.2800     60.6450    178.5086      0.3586   2119.2000
174.0000        159.1750      0.3239    416.9200     70.2150    190.5629      0.3616   2148.5000
174.1250        159.1750      0.3259    417.6800     77.7750    226.1645      0.3706   2181.6001
174.2500        161.0250      0.3263    415.2000     78.5100    268.2546      0.3747   2190.8000
174.3750        161.0250      0.3263    414.2400     72.2550    372.9095      0.3679   2180.3999
174.5000        158.8750      0.3254    408.8400     63.2250    420.3748      0.3563   2167.5000
174.6250        155.5000      0.3205    403.4400     54.0000    512.7512      0.3545   2151.0000
174.7500        157.3500      0.3067    394.1200     49.0350    530.9728      0.3631   2135.7000
174.8750        156.4250      0.2935    391.4400     46.8150    545.0165      0.3608   2131.3999
175.0000        155.8000      0.2870    397.0800     39.8100    556.2857      0.3620   2129.0000
175.1250        156.1250      0.2886    399.2800     34.8450    565.1265      0.3668   2121.0000
175.2500        157.6500      0.2907    396.3600     32.0700    572.7038      0.3668   2101.3999
175.3750        157.9500      0.2929    395.8400     34.4700    587.7026      0.3777   2097.1001
175.5000        158.2500      0.2985    397.3200     35.0250    598.2231      0.3803   2103.3000
175.6250        158.8750      0.3059    404.4400     32.6250    607.0573      0.3766   2106.3000
175.7500        158.5750      0.3094    419.4000     31.7100    615.6990      0.3571   2106.8999
175.8750        157.6500      0.3128    419.1200     30.7800    626.9504      0.3537   2113.7000
176.0000        157.3500      0.3202    414.0000     31.1550    626.4913      0.3488   2117.8999
176.1250        157.3500      0.3184    408.1200     30.2400    607.3410      0.3440   2116.7000
176.2500        159.1750      0.3180    390.4800     31.5300    592.8168      0.3436   2105.7000
176.3750        159.4750      0.3188    386.2800     34.1100    584.2446      0.3473   2097.7000
176.5000        158.8750      0.3180    380.9200     34.2900    575.5263      0.3500   2092.2000
176.6250        161.0250      0.3159    381.6400     34.1100    563.6210      0.3443   2100.8000
176.7500        165.6250      0.3145    397.8000     33.9150    557.7245      0.3328   2120.3999
176.8750        165.0000      0.3158    401.2400     33.7350    556.6680      0.3357   2122.2000
177.0000        165.0000      0.3178    410.0800     31.5300    555.7409      0.3406   2122.2000
177.1250        165.6250      0.3192    417.1600     32.8200    556.8102      0.3425   2124.7000
177.2500        168.0750      0.3189    411.5200     34.6500    562.7299      0.3425   2130.2000
177.3750        167.4500      0.3186    406.4000     38.5200    570.8323      0.3417   2133.8000
177.5000        165.3000      0.3161    395.6000     44.7900    581.2446      0.3406   2138.7000
177.6250        158.2500      0.3136    385.5600     47.1900    590.0908      0.3443   2157.7000
177.7500        156.7250      0.3111    379.4400     41.6550    599.7541      0.3533   2179.1001
177.8750        156.7250      0.3051    379.4400     34.8450    604.2598      0.3571   2188.8999
178.0000        157.0250      0.3001    382.3600     30.4200    611.0882      0.3578   2195.7000
178.1250        164.0750      0.2951    385.0800     28.3950    617.5937      0.3522   2203.6001
178.2500        165.3000      0.2913    382.3600     28.2000    621.4386      0.3488   2203.0000
178.3750        165.3000      0.2864    379.2000     31.3350    619.4074      0.3500   2193.2000
178.5000        164.0750      0.2790    382.8800     37.0500    618.3125      0.3485   2182.2000
178.6250        161.0250      0.2751    386.2800     39.2550    621.7392      0.3526   2176.1001
178.7500        160.4000      0.2736    389.4800     41.1000    624.9852      0.3428   2173.0000
178.8750        161.3250      0.2746    384.5600     38.7150    631.0100      0.3473   2171.2000
179.0000        161.6250      0.2777    387.7600     35.2050    639.3735      0.3432   2169.3000
179.1250        161.3250      0.2801    377.2400     33.1800    650.0813      0.3335   2171.2000
179.2500        160.1000      0.2843    364.4800     37.7850    661.3967      0.3271   2169.3000
