~VERSION INFORMATION
 VERS.                 2.0:   CWLS LOG ASCII STANDARD -VERSION 2.0
 WRAP.                  NO:   ONE LINE PER DEPTH STEP
~WELL INFORMATION BLOCK
#MNEM.UNIT           DATA                    DESCRIPTION OF MNEMONIC
#---------    -------------------            -------------------------------
# Generated from Intellog Unique Number	CN_94_101/WELL/5022
WELL.         11-26-099-15W4                 : Well_name    - WELL
LOC .         AA/11-26-099-15W4/0            : Location     - LOCATION
UWI .         AA/11-26-099-15W400            : Uwi          - UNIQUE WELL ID
ENTR.         TIM                            : Entered      - ENTERED BY
SRVC.         SCHLUMBERGER                   : Scn          - SERVICE COMPANY
DATE.         08/13/92                       : Date         - LOG DATE
STRT.M        275                            : top_depth    - START DEPTH
STOP.M        485                            : bot_depth    - STOP DEPTH
STEP.M        0.25                           : increment    - STEP LENGTH
 NULL. -999.2500:NULL Value
~CURVE INFORMATION BLOCK
#MNEM UNIT       ERCB CURVE CODE    CURVE DESCRIPTION
#-----------   ------------------   ----------------------------------
DEPT.M        00 001 00 00         : DEPTH        - DEPTH
GR  .API      00 310 00 00         : GR           - GAMMA RAY
ILD .OHMM     00 120 00 00         : RESD         - DEEP RESISTIVITY (DIL)
NPHI.V/V      00 330 00 00         : PHIN         - NEUTRON POROSITY (SANDSTONE)
DPHI.V/V      00 890 00 00         : PHID         - DENSITY POROSITY (SANDSTONE)
~PARAMETER INFORMATION
#MNEM.UNIT           DATA             DESCRIPTION OF MNEMONIC
#---------         -----------     ------------------------------
GL  .M        724.5                : gl           - GROUND LEVEL ELEVATION
EREF.M        727.9                : kb           - ELEVATION OF DEPTH REFERENCE
DATM.M        727.9                : datum        - DATUM ELEVATION
TDD .M        488                  : tdd          - TOTAL DEPTH DRILLER
RUN .         ONE                  : Run          - RUN NUMBER
ENG .         BILL                 : Engineer     - RECORDING ENGINEER
WIT .         JIM                  : Witness      - WITNESSED BY
MUD .         GEL                  : Mud_type     - MUD TYPE
MATR.         SANDSTONE            : Logunit      - NEUTRON MATRIX
TMAX.C        28                   : BHT          - MAXIMUM RECORDED TEMPERATURE
BHTD.M        488                  : BHTDEP       - MAXIMUM RECORDED TEMPERATURE
RMT .C        10                   : MDTP         - TEMPERATURE OF MUD
MUDD.KG/M     1140                 : MWT          - MUD DENSITY
NEUT.         1                    : NEUTRON      - NEUTRON TYPE
RESI.         0                    : RESIST       - RESISTIVITY TYPE
RM  .OHMM     1.08                 : RM           - RESISTIVITY OF MUD
RMC .OHMM     1.08                 : RMC          - RESISTIVITY OF MUD CAKE
RMF .OHMM     1.08                 : RMF          - RESISTIVITY OF MUD FILTRATE
SUFT.C        4                    : SUFT         - SURFACE TEMPERATURE
~A  DEPTH       GR     RESD     PHIN     PHID
# ...
  318.500  131.545    7.273    0.513    0.278
  318.750  130.305    7.269    0.507    0.278
  319.000  130.295    7.264    0.513    0.275
  319.250  133.333    7.262    0.520    0.273
  319.500  135.765    7.259    0.540    0.275
  319.750  135.755    7.055    0.543    0.279
  320.000  134.519    7.051    0.532    0.280
  320.250  132.671    7.048    0.514    0.283
  320.500  130.209    6.845    0.506    0.283
  320.750  127.750    6.841    0.505    0.280
  321.000  125.902    6.838    0.532    0.271
  321.250  124.666    6.834    0.543    0.269
  321.500  124.038    6.830    0.514    0.269
  321.750  124.025    7.022    0.492    0.269
  322.000  124.623    7.019    0.498    0.267
  322.250  126.444    7.017    0.507    0.259
  322.500  127.042    7.012    0.518    0.254
  322.750  127.644    7.009    0.535    0.254
  323.000  130.685    6.806    0.569    0.260
  323.250  131.286    6.602    0.567    0.264
  323.500  130.661    6.600    0.513    0.266
  323.750  129.422    6.397    0.510    0.270
  324.000  127.574    6.195    0.509    0.273
  324.250  126.335    6.191    0.509    0.278
  324.500  125.713    6.386    0.510    0.286
  324.750  125.089    6.383    0.511    0.290
  325.000  124.461    6.577    0.518    0.282
  325.250  124.451    6.772    0.529    0.278
  325.500  125.654    6.966    0.556    0.277
  325.750  126.258    7.161    0.570    0.277
  326.000  128.688    7.158    0.580    0.281
  326.250  130.505    6.953    0.566    0.293
  326.500  129.884    6.950    0.545    0.290
  326.750  129.871    6.748    0.530    0.290
  327.000  129.246    6.547    0.532    0.294
  327.250  128.003    6.543    0.568    0.294
  327.500  127.997    6.538    0.574    0.295
  327.750  129.196    6.535    0.567    0.295
  328.000  129.801    6.729    0.553    0.293
  328.250  131.014    6.725    0.526    0.286
  328.500  134.055    5.927    0.507    0.272
  328.750  137.714    5.128    0.507    0.272
  329.000  146.872    4.528    0.555    0.274
  329.250  154.808    4.524    0.568    0.272
  329.500  159.072    4.720    0.569    0.266
  329.750  159.663    4.914    0.538    0.265
  330.000  159.042    5.108    0.531    0.262
  330.250  157.809    5.104    0.523    0.259
  330.500  155.961    5.101    0.517    0.260
  330.750  154.114    5.095    0.517    0.263
  331.000  149.817    5.092    0.546    0.269
  331.250  147.361    5.090    0.557    0.273
  331.500  143.068    5.086    0.570    0.275
  331.750  138.156    4.882    0.569    0.277
  332.000  135.085    4.880    0.537    0.270
  332.250  131.407    4.478    0.521    0.265
  332.500  127.725    4.475    0.516    0.258
  332.750  124.654    4.470    0.527    0.259
  333.000  128.310    4.465    0.543    0.270
  333.250  140.522    4.461    0.568    0.292
  333.500  142.347    4.458    0.566    0.296
  333.750  141.719    4.852    0.541    0.286
  334.000  138.645    5.246    0.549    0.281
  334.250  134.966    5.638    0.560    0.275
  334.500  130.673    6.231    0.573    0.272
  334.750  127.602    6.624    0.520    0.273
  335.000  125.143    7.018    0.493    0.274
  335.250  121.451    7.411    0.488    0.274
  335.500  121.444    7.805    0.460    0.275
  335.750  121.434    7.998    0.453    0.276
  336.000  125.090    7.995    0.448    0.284
  336.250  130.576    7.993    0.440    0.295
  336.500  138.512    7.391    0.429    0.302
  336.750  150.117    7.190    0.427    0.295
  337.000  162.941    6.589    0.454    0.268
  337.250  164.758    6.189    0.472    0.262
  337.500  165.363    5.786    0.498    0.256
  337.750  164.732    5.585    0.502    0.248
  338.000  163.496    5.380    0.530    0.249
  338.250  162.266    5.377    0.552    0.253
  338.500  159.189    5.573    0.564    0.257
  338.750  157.956    5.569    0.578    0.263
  339.000  156.723    5.566    0.575    0.266
  339.250  154.869    5.560    0.571    0.266
  339.500  154.859    5.360    0.570    0.265
  339.750  154.839    5.156    0.567    0.266
  340.000  154.829    4.955    0.575    0.262
  340.250  154.208    4.751    0.585    0.259
  340.500  152.353    5.143    0.590    0.260
  340.750  151.124    5.339    0.589    0.261
  341.000  149.273    5.733    0.583    0.264
  341.250  146.814    6.126    0.577    0.265
  341.500  144.355    6.122    0.564    0.268
  341.750  141.896    5.720    0.521    0.270
  342.000  140.045    5.520    0.515    0.264
  342.250  139.420    5.117    0.542    0.265
  342.500  140.015    5.115    0.550    0.269
  342.750  140.005    5.506    0.557    0.272
  343.000  140.603    5.701    0.563    0.276
  343.250  140.593    5.897    0.562    0.279
  343.500  139.962    6.091    0.568    0.281
  343.750  139.337    6.285    0.576    0.282
  344.000  139.327    6.283    0.578    0.283
  344.250  143.594    6.279    0.571    0.282
  344.500  160.702    6.275    0.562    0.272
  344.750  166.803    6.272    0.557    0.259
  345.000  172.286    5.869    0.559    0.251
  345.250  173.502    5.866    0.555    0.250
  345.500  174.101    5.464    0.553    0.240
  345.750  173.476    5.461    0.551    0.228
  346.000  172.240    5.259    0.545    0.227
  346.250  169.777    5.255    0.541    0.226
  346.500  166.707    5.251    0.535    0.210
  346.750  161.802    5.246    0.538    0.214
  347.000  158.120    5.045    0.545    0.228
  347.250  159.329    4.841    0.551    0.247
  347.500  158.705    4.838    0.558    0.259
  347.750  153.800    4.634    0.562    0.269
  348.000  148.280    4.431    0.567    0.276
  348.250  151.324    4.229    0.576    0.287
  348.500  153.145    4.028    0.585    0.295
  348.750  153.129    4.022    0.596    0.304
  349.000  153.119    3.820    0.606    0.310
  349.250  153.105    3.818    0.612    0.307
  349.500  153.092    3.812    0.614    0.292
  349.750  153.079    3.809    0.611    0.288
  350.000  151.843    3.805    0.607    0.288
  350.250  149.992    3.802    0.605    0.288
  350.500  146.310    3.798    0.605    0.290
  350.750  142.628    3.992    0.602    0.290
  351.000  137.723    4.188    0.587    0.290
  351.250  135.257    4.580    0.571    0.290
  351.500  134.639    5.371    0.531    0.292
  351.750  133.403    5.964    0.508    0.292
  352.000  130.326    6.755    0.506    0.305
  352.250  129.707    7.744    0.500    0.326
  352.500  125.414    8.534    0.471    0.340
  352.750  119.286    8.930    0.452    0.341
  353.000  114.378    9.323    0.447    0.314
  353.250  111.307    8.921    0.475    0.281
  353.500  111.902    8.123    0.481    0.279
  353.750  113.115    7.523    0.489    0.277
  354.000  116.159    6.724    0.494    0.272
  354.250  121.646    6.125    0.495    0.274
  354.500  124.690    6.119    0.493    0.301
  354.750  127.122    6.911    0.487    0.304
  355.000  129.558    7.503    0.490    0.279
  355.250  130.153    7.500    0.498    0.279
  355.500  128.917    7.098    0.493    0.275
  355.750  128.289    6.697    0.483    0.272
  356.000  129.499    6.296    0.486    0.269
  356.250  130.708    5.895    0.488    0.267
  356.500  131.310    5.492    0.484    0.267
  356.750  132.519    5.490    0.481    0.272
  357.000  133.114    5.882    0.486    0.276
  357.250  131.267    6.476    0.488    0.273
  357.500  127.581    7.465    0.494    0.273
  357.750  124.517    9.051    0.481    0.300
  358.000  109.826   10.835    0.457    0.314
  358.250   95.749   10.830    0.446    0.322
  358.500   89.618   10.627    0.453    0.318
  358.750   85.324   10.624    0.475    0.289
  359.000   84.703   11.216    0.480    0.254
  359.250   88.355   11.610    0.485    0.234
  359.500   98.740   11.408    0.487    0.258
  359.750  102.392    9.020    0.488    0.312
  360.000  107.882    6.831    0.487    0.320
  360.250  115.206    4.640    0.490    0.320
  360.500  123.142    4.040    0.518    0.312
  360.750  129.855    4.036    0.548    0.307
  361.000  137.179    4.231    0.571    0.303
  361.250  142.057    4.425    0.576    0.302
  361.500  142.041    4.422    0.566    0.299
  361.750  141.413    4.616    0.553    0.296
