~VERSION INFORMATION
 VERS.                 2.0:   CWLS LOG ASCII STANDARD -VERSION 2.0
 WRAP.                  NO:   ONE LINE PER DEPTH STEP
~WELL INFORMATION BLOCK
#MNEM.UNIT           DATA                    DESCRIPTION OF MNEMONIC
#---------    -------------------            -------------------------------
# Generated from Intellog Unique Number	CC_80_83/WELL/2438
NULL.         -999.25                        : NULL_VALUE
WELL.         GULF RESDELN                   : Well_name    - WELL              
LOC .         14-36-082-07W4                 : Location     - LOCATION          
UWI .         AA/14-36-082-07W4/0            : Uwi          - UNIQUE WELL ID    
ENTR.         DW                             : Entered      - ENTERED BY        
SRVC.         SCHLUMBERGER                   : Scn          - SERVICE COMPANY   
DATE.         01 MAR 81                      : Date         - LOG DATE
STRT.M        160                            : top_depth    - START DEPTH       
STOP.M        419.794                        : bot_depth    - STOP DEPTH        
STEP.M        0.3                            : increment    - STEP LENGTH       
~CURVE INFORMATION BLOCK
#MNEM UNIT       ERCB CURVE CODE    CURVE DESCRIPTION
#-----------   ------------------   ----------------------------------
DEPT.M        00 001 00 00         : DEPTH        - DEPTH                       
DPHI.V/V      00 890 00 00         : PHID         - DENSITY POROSITY (LIMESTONE)
NPHI.V/V      00 330 00 00         : PHIN         - NEUTRON POROSITY (LIMESTONE)
GR  .API      00 310 00 00         : GR           - GAMMA RAY                   
ILD .OHMM     00 120 00 00         : RESD         - DEEP RESISTIVITY (DIL)      
~PARAMETER INFORMATION       
#MNEM.UNIT           DATA             DESCRIPTION OF MNEMONIC
#---------         -----------     ------------------------------
GL  .M        627.75               : gl           - GROUND LEVEL ELEVATION      
EREF.M        631.5                : kb           - ELEVATION OF DEPTH REFERENCE
DATM.M        631.5                : datum        - DATUM ELEVATION             
TDD .M        461                  : tdd          - TOTAL DEPTH DRILLER         
RUN .         ONE                  : Run          - RUN NUMBER                  
ENG .         BILL                 : Engineer     - RECORDING ENGINEER          
WIT .         JIM                  : Witness      - WITNESSED BY                
MUD .         GEL                  : Mud_type     - MUD TYPE                    
MATR.         LIMESTONE            : Logunit      - NEUTRON MATRIX              
TMAX.C        17.8                 : BHT          - MAXIMUM RECORDED TEMPERATURE
BHTD.M        461                  : BHTDEP       - MAXIMUM RECORDED TEMPERATURE
MATR.         1                    : LOGUNIT      - NEUTRON MATRIX              
RMT .C        25                   : MDTP         - TEMPERATURE OF MUD          
NEUT.         1                    : NEUTRON      - NEUTRON TYPE                
RESI.         0                    : RESIST       - RESISTIVITY TYPE            
RMC .OHMM     0.25                 : RMC          - RESISTIVITY OF MUD CAKE     
RMF .OHMM     0.25                 : RMF          - RESISTIVITY OF MUD FILTRATE 
SUFT.C        4                    : SUFT         - SURFACE TEMPERATURE         
~A  DEPTH     PHID     PHIN       GR     RESD
  160.000    0.255    0.481  102.538    3.720
  160.300    0.252    0.487  102.528    3.445
  160.600    0.242    0.503  101.288    3.379
  160.900    0.247    0.523  101.896    3.645
  161.200    0.268    0.533  103.739    3.574
  161.500    0.267    0.517  105.579    3.374
  161.800    0.255    0.528  105.570    3.308
  162.100    0.253    0.537  104.947    3.307
  162.400    0.266    0.539  104.940    3.305
  162.700    0.270    0.531  104.315    3.304
  163.000    0.267    0.527  103.693    3.239
  163.300    0.264    0.503  101.834    3.300
  163.600    0.270    0.505   99.361    3.299
  163.900    0.278    0.536   97.505    3.174
  164.200    0.286    0.563   96.879    3.172
  164.500    0.276    0.568   99.338    3.111
  164.800    0.281    0.572  101.796    3.169
  165.100    0.284    0.513   99.939    3.229
  165.400    0.276    0.510   98.699    3.417
  165.700    0.264    0.518   98.073    3.415
  166.000    0.254    0.536  102.997    3.413
  166.300    0.251    0.549  102.990    3.284
  166.600    0.282    0.546  101.133    3.100
  166.900    0.297    0.532   96.194    2.927
  167.200    0.295    0.541   99.883    2.763
  167.500    0.287    0.562   98.644    2.659
  167.800    0.295    0.567   93.088    2.657
  168.100    0.304    0.546   94.930    2.707
  168.400    0.295    0.550   89.373    2.811
  168.700    0.243    0.489   80.118    2.863
  169.000    0.210    0.504   82.577    2.807
  169.300    0.230    0.543   91.198    2.807
  169.600    0.284    0.563   93.040    2.650
  169.900    0.301    0.532   96.732    2.501
  170.200    0.286    0.516   98.573    2.500
  170.500    0.262    0.517   96.716    2.645
  170.800    0.265    0.561   94.243    2.800
  171.100    0.298    0.531   91.769    2.798
  171.400    0.286    0.525   90.529    2.693
  171.700    0.306    0.539   94.835    2.542
  172.000    0.295    0.562   97.293    2.445
  172.300    0.279    0.575   95.436    2.444
  172.600    0.304    0.575   94.811    2.490
  172.900    0.284    0.519   94.805    2.537
  173.200    0.273    0.510   96.644    2.736
  173.500    0.273    0.505   96.637    2.896
  173.800    0.273    0.503   95.397    3.123
  174.100    0.277    0.505   94.773    3.243
  174.400    0.262    0.488   94.765    3.303
  174.700    0.247    0.468   98.457    3.496
  175.000    0.232    0.452   91.052    3.843
  175.300    0.202    0.448   86.729    3.990
  175.600    0.180    0.454   87.952    4.143
  175.900    0.208    0.488   92.877    3.987
  176.200    0.227    0.517   94.719    3.763
  176.500    0.238    0.535   94.711    3.553
  176.800    0.233    0.539   95.937    3.551
  177.100    0.250    0.477   97.161    3.687
  177.400    0.248    0.456   98.387    3.828
  177.700    0.250    0.445   97.762    3.974
  178.000    0.255    0.443  103.302    3.973
  178.300    0.250    0.509  102.678    3.971
  178.600    0.251    0.524   86.642    3.894
  178.900    0.253    0.525   79.237    4.200
  179.200    0.245    0.445   76.762    4.983
  179.500    0.241    0.439   81.687    5.478
  179.800    0.243    0.427   85.996    6.022
  180.100    0.210    0.424   86.604    6.253
  180.400    0.203    0.424   86.596    6.132
  180.700    0.235    0.441   90.902    5.467
  181.000    0.234    0.463   92.744    4.186
  181.300    0.240    0.495   92.737    3.804
  181.600    0.254    0.502   88.414    3.950
  181.900    0.271    0.469   84.091    7.124
  182.200    0.321    0.406   81.001    9.474
  182.500    0.319    0.409   81.610    9.836
  182.800    0.302    0.415   90.849    9.646
  183.100    0.271    0.433   93.924    9.827
  183.400    0.249    0.447   93.300   11.222
  183.700    0.285    0.445   90.826   13.569
  184.000    0.328    0.410   85.886   16.406
  184.300    0.346    0.368   76.015   17.697
  184.600    0.326    0.372   79.089   18.728
  184.900    0.298    0.379   84.014   19.445
  185.200    0.310    0.369   84.005   20.579
  185.500    0.321    0.368   81.531   20.568
  185.800    0.321    0.364   78.442   19.050
  186.100    0.297    0.379   75.351   17.983
  186.400    0.269    0.369   68.563   17.974
  186.700    0.279    0.371   56.843   18.662
  187.000    0.276    0.405   55.602   19.751
  187.300    0.276    0.403   42.032   22.131
  187.600    0.300    0.374   37.707   23.872
  187.900    0.302    0.365   38.933   24.317
  188.200    0.306    0.372   41.392   24.772
  188.500    0.310    0.371   44.466   23.387
  188.800    0.317    0.365   50.623   20.851
  189.100    0.299    0.371   54.931   18.948
  189.400    0.293    0.385   59.239   17.887
  189.700    0.291    0.393   61.079   17.541
  190.000    0.295    0.412   64.771   16.876
  190.300    0.296    0.401   70.311   16.550
  190.600    0.267    0.393   77.084   15.925
  190.900    0.260    0.382   83.857   14.749
  191.200    0.247    0.393   85.083   13.924
  191.500    0.247    0.402   86.305   13.397
  191.800    0.257    0.400   88.148   12.890
  192.100    0.246    0.400   92.456   12.401
  192.400    0.251    0.408  100.463   12.163
  192.700    0.256    0.423  105.387   11.928
  193.000    0.253    0.431  105.380   11.047
  193.300    0.249    0.442  103.523   10.232
  193.600    0.238    0.454  104.748    9.844
  193.900    0.239    0.463  106.589   10.028
  194.200    0.244    0.416   99.800   10.816
  194.500    0.252    0.406   88.080   11.666
  194.800    0.271    0.413   80.058   12.348
  195.100    0.293    0.425   77.584   13.067
  195.400    0.286    0.437   84.974   13.061
  195.700    0.283    0.469   86.816   13.054
  196.000    0.307    0.535   78.177   14.351
  196.300    0.411    0.427   73.853   16.704
  196.600    0.338    0.407   73.228   19.444
  196.900    0.346    0.407   67.057   21.375
  197.200    0.340    0.412   70.748   21.774
  197.500    0.333    0.421   75.056   21.762
  197.800    0.327    0.438   75.664   20.942
  198.100    0.324    0.429   71.957   19.766
  198.400    0.314    0.421   71.333   19.759
  198.700    0.302    0.414   70.094   20.128
  199.000    0.291    0.414   62.688   21.299
  199.300    0.282    0.427   60.830   22.117
  199.600    0.263    0.419   65.137   22.104
  199.900    0.244    0.430   71.910   21.267
  200.200    0.280    0.415   80.533   20.076
  200.500    0.306    0.399   87.922   18.245
  200.800    0.267    0.393   91.615   16.582
  201.100    0.266    0.390   95.922   14.506
  201.400    0.216    0.420   99.613   10.897
  201.700    0.218    0.454   98.372    9.715
  202.000    0.228    0.459   98.981   10.281
  202.300    0.285    0.443  103.289   11.967
  202.600    0.288    0.431  110.062   13.929
  202.900    0.291    0.430  106.355   15.906
  203.200    0.312    0.415   99.567   17.158
  203.500    0.338    0.415   85.997   18.506
  203.800    0.312    0.431   76.741   17.142
  204.100    0.296    0.423   68.720   16.810
  204.400    0.303    0.419   56.383   18.831
  204.700    0.327    0.423   55.142   19.933
  205.000    0.340    0.418   56.982   21.498
  205.300    0.346    0.412   56.975   20.684
  205.600    0.342    0.409   55.736   20.284
  205.900    0.348    0.410   53.878   19.894
  206.200    0.357    0.409   53.254   19.507
  206.500    0.346    0.408   56.945   18.415
  206.800    0.327    0.391   63.717   17.055
  207.100    0.300    0.367   68.642   15.501
  207.400    0.242    0.362   72.949   14.085
  207.700    0.255    0.376   77.873   13.296
  208.000    0.255    0.386   81.564   12.317
  208.300    0.255    0.389   82.173   11.626
  208.600    0.248    0.402   82.165   11.620
  208.900    0.233    0.421   80.924   11.614
  209.201    0.263    0.433   81.533   12.292
  209.501    0.269    0.407   80.292   13.008
  209.801    0.280    0.416   80.285   13.764
  210.101    0.295    0.424   71.645   13.246
  210.401    0.298    0.427   68.556   12.268
  210.701    0.289    0.434   68.549   11.149
  211.001    0.284    0.442   68.541   10.725
  211.301    0.289    0.434   65.448   10.721
  211.601    0.284    0.428   64.825   10.922
  211.901    0.282    0.437   65.434   11.340
