~VERSION INFORMATION
 VERS.                 2.0:   CWLS LOG ASCII STANDARD -VERSION 2.0
 WRAP.                  NO:   ONE LINE PER DEPTH STEP
~WELL INFORMATION BLOCK
#MNEM.UNIT           DATA                    DESCRIPTION OF MNEMONIC
#---------    -------------------            -------------------------------
# Generated from Intellog Unique Number	CC_84_87/WELL/2350
NULL.         -999.25                        : NULL_VALUE
WELL.         SUNCOR CHEECHAM                : Well_name    - WELL              
LOC .         15-06-085-06W4                 : Location     - LOCATION          
UWI .         00/15-06-085-06W400            : Uwi          - UNIQUE WELL ID    
ENTR.         DW                             : Entered      - ENTERED BY        
SRVC.         SCHLUMBERGER                   : Scn          - SERVICE COMPANY   
DATE.         04 MAR 81                      : Date         - LOG DATE
STRT.M        91                             : top_depth    - START DEPTH       
STOP.M        324.999                        : bot_depth    - STOP DEPTH        
STEP.M        0.3                            : increment    - STEP LENGTH       
~CURVE INFORMATION BLOCK
#MNEM UNIT       ERCB CURVE CODE    CURVE DESCRIPTION
#-----------   ------------------   ----------------------------------
DEPT.M        00 001 00 00         : DEPTH        - DEPTH                       
DPHI.V/V      00 890 00 00         : PHID         - DENSITY POROSITY (LIMESTONE)
NPHI.V/V      00 330 00 00         : PHIN         - NEUTRON POROSITY (LIMESTONE)
GR  .API      00 310 00 00         : GR           - GAMMA RAY                   
ILD .OHMM     00 120 00 00         : RESD         - DEEP RESISTIVITY (DIL)      
~PARAMETER INFORMATION       
#MNEM.UNIT           DATA             DESCRIPTION OF MNEMONIC
#---------         -----------     ------------------------------
GL  .M        504.5                : gl           - GROUND LEVEL ELEVATION      
EREF.M        507.7                : kb           - ELEVATION OF DEPTH REFERENCE
DATM.M        507.7                : datum        - DATUM ELEVATION             
TDD .M        353                  : tdd          - TOTAL DEPTH DRILLER         
RUN .         ONE                  : Run          - RUN NUMBER                  
ENG .         BILL                 : Engineer     - RECORDING ENGINEER          
WIT .         JIM                  : Witness      - WITNESSED BY                
MUD .         GEL                  : Mud_type     - MUD TYPE                    
MATR.         LIMESTONE            : Logunit      - NEUTRON MATRIX              
TMAX.C        25                   : BHT          - MAXIMUM RECORDED TEMPERATURE
BHTD.M        353                  : BHTDEP       - MAXIMUM RECORDED TEMPERATURE
MATR.         1                    : LOGUNIT      - NEUTRON MATRIX              
RMT .C        25                   : MDTP         - TEMPERATURE OF MUD          
NEUT.         1                    : NEUTRON      - NEUTRON TYPE                
RESI.         0                    : RESIST       - RESISTIVITY TYPE            
RMC .OHMM     0.25                 : RMC          - RESISTIVITY OF MUD CAKE     
RMF .OHMM     0.25                 : RMF          - RESISTIVITY OF MUD FILTRATE 
SUFT.C        4                    : SUFT         - SURFACE TEMPERATURE         
~A  DEPTH     PHID     PHIN       GR     RESD
# ...
  195.401    0.283    0.570   93.675    2.533
  195.701    0.304    0.568   91.770    2.950
  196.001    0.336    0.583   90.481    3.502
  196.301    0.297    0.590   92.301    3.779
  196.601    0.267    0.592   92.873    4.156
  196.901    0.261    0.527   90.965    4.399
  197.201    0.270    0.495   89.070    4.567
  197.501    0.275    0.480   90.883    4.743
  197.801    0.225    0.464   90.841    4.832
  198.101    0.248    0.461   92.047    5.017
  198.401    0.224    0.496   95.727    5.211
  198.701    0.230    0.471   95.688    5.307
  199.001    0.248    0.489   98.749    5.305
  199.301    0.254    0.511   98.085    5.403
  199.601    0.249    0.488   93.694    5.719
  199.901    0.244    0.479   93.651    6.053
  200.201    0.233    0.477  103.540    6.408
  200.501    0.201    0.483  105.363    6.914
  200.801    0.198    0.487  101.595    7.179
  201.101    0.215    0.442   97.200    7.314
  201.401    0.221    0.437   98.405    7.171
  201.701    0.205    0.433   95.873    7.168
  202.001    0.151    0.438   98.933    6.894
  202.301    0.144    0.410  101.372    6.505
  202.601    0.210    0.411   98.229    6.258
  202.901    0.239    0.452   95.703    5.906
  203.201    0.242    0.473   95.038    5.573
  203.501    0.235    0.465   96.857    5.361
  203.801    0.220    0.453  102.407    5.257
  204.101    0.217    0.490  108.571    5.154
  204.401    0.227    0.470  109.152    5.250
  204.701    0.221    0.475  108.484    5.348
  205.001    0.225    0.484   98.505    5.449
  205.301    0.242    0.479   90.385    5.767
  205.601    0.260    0.476   92.208    6.105
  205.901    0.244    0.460   94.022    6.713
  206.201    0.231    0.428   97.708    6.839
  206.501    0.216    0.432   97.665    6.836
  206.801    0.228    0.445   99.482    6.328
  207.101    0.229    0.464  101.310    5.639
  207.401    0.231    0.460  106.235    4.929
  207.701    0.235    0.478   97.498    4.741
  208.001    0.238    0.513  104.288    4.738
  208.301    0.234    0.520  104.240    4.920
  208.601    0.222    0.506  100.471    5.208
  208.901    0.228    0.504   96.080    5.728
  209.201    0.231    0.512   95.419    6.299
  209.501    0.236    0.522   92.268    6.797
  209.801    0.258    0.518   87.256    7.057
  210.101    0.271    0.503   86.587    6.409
  210.401    0.272    0.476   90.274    5.191
  210.701    0.257    0.438   90.222    3.969
  211.001    0.265    0.436   91.430    3.537
  211.301    0.292    0.444   94.487    3.402
  211.601    0.331    0.512   98.796    3.670
  211.901    0.270    0.551  101.240    4.275
  212.201    0.258    0.555  101.819    5.692
  212.501    0.232    0.515  100.531    6.504
  212.801    0.230    0.500   99.246    7.016
  213.101    0.254    0.495   88.025    7.426
  213.401    0.261    0.472   83.626    7.713
  213.701    0.232    0.448   84.829    7.708
  214.001    0.183    0.451   86.642    7.414
  214.301    0.195    0.441   87.847    6.997
  214.601    0.226    0.458   85.322    6.861
  214.901    0.257    0.468   87.762    6.857
  215.201    0.267    0.465   87.099    7.120
  215.501    0.241    0.457   78.980    8.136
  215.801    0.214    0.461   74.590    9.476
  216.101    0.089    0.476   73.304    9.839
  216.401    0.117    0.446   73.882    9.648
  216.701    0.232    0.375   80.671    8.763
  217.001    0.257    0.408   89.324    7.515
  217.301    0.229    0.456   91.139    6.957
  217.601    0.222    0.430   93.586    6.442
  217.901    0.226    0.435   99.756    6.437
  218.201    0.222    0.462   96.601    6.814
  218.501    0.236    0.494   95.314    7.493
  218.801    0.225    0.491   97.138    7.781
  219.101    0.210    0.462   98.959    7.629
  219.401    0.186    0.433   98.913    6.297
  219.701    0.194    0.430   97.009    4.635
  220.001    0.227    0.440   89.507    3.100
  220.301    0.246    0.466   86.364    2.558
  220.601    0.289    0.505   81.353    2.557
  220.901    0.301    0.551   76.341    2.758
  221.201    0.286    0.592   74.422    3.152
  221.501    0.298    0.589   74.392    3.601
  221.801    0.269    0.596   74.344    4.038
  222.101    0.263    0.584   78.647    4.613
  222.401    0.277    0.505   82.957    4.977
  222.701    0.232    0.500   89.126    5.268
  223.001    0.241    0.507   89.705    5.793
  223.301    0.215    0.483   85.308    5.680
  223.601    0.251    0.462   83.406    5.160
  223.901    0.280    0.465   83.982    4.259
  224.201    0.297    0.471   89.531    3.868
  224.501    0.325    0.492   94.457    3.720
  224.801    0.259    0.482   95.037    3.791
  225.101    0.254    0.474   91.887    3.936
  225.401    0.255    0.494   89.978    3.933
  225.701    0.238    0.502   93.659    3.931
  226.001    0.235    0.453   96.095    3.782
  226.301    0.239    0.460   95.436    3.708
  226.601    0.284    0.496   93.532    3.635
  226.901    0.262    0.533   96.595    3.565
  227.201    0.272    0.514  100.277    3.429
  227.501    0.256    0.492  102.091    3.298
  227.801    0.250    0.508  100.806    3.234
  228.101    0.257    0.542   99.521    3.232
  228.401    0.226    0.552   99.487    3.356
  228.701    0.210    0.507   95.091    3.691
  229.001    0.220    0.507   91.323    4.059
  229.301    0.214    0.526   89.419    4.379
  229.601    0.229    0.512   93.100    4.548
  229.901    0.254    0.519   96.783    4.722
  230.201    0.225    0.506   97.364    4.811
  230.501    0.239    0.490   92.352    4.901
  230.801    0.227    0.471   77.397    5.187
  231.101    0.227    0.467   69.897    5.596
  231.401    0.261    0.455   67.993    6.038
  231.701    0.236    0.427   71.055    6.515
  232.001    0.243    0.426   73.497    6.636
  232.301    0.246    0.417   72.200    6.632
  232.601    0.159    0.402   72.793    6.380
  232.901    0.176    0.388   76.475    5.906
  233.201    0.246    0.407   78.919    5.469
  233.501    0.231    0.416   80.731    5.260
  233.801    0.229    0.397   86.285    5.257
  234.101    0.224    0.416   85.622    5.356
  234.401    0.231    0.459   76.260    6.004
  234.701    0.266    0.465   66.275    7.127
  235.001    0.270    0.420   64.983    7.691
  235.301    0.279    0.420   65.568    7.540
  235.601    0.289    0.442   68.014    8.615
  235.901    0.267    0.439   65.480   10.229
  236.201    0.090    0.433   64.812   10.222
  236.501    0.171    0.356   66.639    9.284
  236.801    0.213    0.369   76.534    7.812
  237.101    0.251    0.409   87.676    6.700
  237.401    0.224    0.440   93.221    6.696
  237.701    0.227    0.452   91.313    7.505
  238.001    0.239    0.453   73.877    7.794
  238.301    0.241    0.440   77.563    7.641
  238.602    0.239    0.395   84.972    7.492
  238.902    0.203    0.394   82.443    7.931
  239.202    0.212    0.423   72.464    8.889
  239.502    0.217    0.439   68.069    9.777
  239.802    0.224    0.394   64.304   10.349
  240.102    0.238    0.388   62.393    9.766
  240.402    0.253    0.397   65.458    9.041
  240.702    0.249    0.374   77.839    8.697
  241.002    0.272    0.379   83.384    9.204
  241.302    0.250    0.407   81.479    9.559
  241.602    0.267    0.437   68.392    9.737
  241.902    0.219    0.426   67.098    9.014
  242.202    0.244    0.396   69.545    8.507
  242.502    0.235    0.375   77.579    7.877
  242.802    0.214    0.384   86.234    7.576
  243.102    0.194    0.387   80.595    7.717
  243.402    0.220    0.389   77.446    7.863
  243.702    0.256    0.426   73.674    8.484
  244.002    0.239    0.461   70.528    9.329
  244.302    0.232    0.413   68.004    9.875
  244.602    0.218    0.400   62.987   10.255
  244.902    0.228    0.379   64.181   10.853
  245.202    0.222    0.353   65.384   10.642
  245.502    0.210    0.361   62.236   11.263
  245.802    0.246    0.371   57.224   11.475
  246.102    0.258    0.371   59.046   11.917
  246.402    0.231    0.367   62.111   12.140
  246.702    0.216    0.370   60.822   12.605
  247.002    0.239    0.390   66.367   11.450
  247.302    0.270    0.395   70.055    9.633
