~VERSION INFORMATION
 VERS.                 2.0:   CWLS LOG ASCII STANDARD -VERSION 2.0
 WRAP.                  NO:   ONE LINE PER DEPTH STEP
~WELL INFORMATION BLOCK
#MNEM.UNIT           DATA                    DESCRIPTION OF MNEMONIC
#---------    -------------------            -------------------------------
# Generated from Intellog Unique Number	CN_94_101/WELL/5029
WELL.         12-12-099-15W4                 : Well_name    - WELL
LOC .         AA/12-12-099-15W4/0            : Location     - LOCATION
UWI .         AA/12-12-099-15W400            : Uwi          - UNIQUE WELL ID
ENTR.         TIM                            : Entered      - ENTERED BY
SRVC.         SCHLUMBERGER                   : Scn          - SERVICE COMPANY
DATE.         08/13/92                       : Date         - LOG DATE
STRT.M        295                            : top_depth    - START DEPTH
STOP.M        495                            : bot_depth    - STOP DEPTH
STEP.M        0.25                           : increment    - STEP LENGTH
 NULL. -999.2500:NULL Value
~CURVE INFORMATION BLOCK
#MNEM UNIT       ERCB CURVE CODE    CURVE DESCRIPTION
#-----------   ------------------   ----------------------------------
DEPT.M        00 001 00 00         : DEPTH        - DEPTH
GR  .API      00 310 00 00         : GR           - GAMMA RAY
ILD .OHMM     00 120 00 00         : RESD         - DEEP RESISTIVITY (DIL)
NPHI.V/V      00 330 00 00         : PHIN         - NEUTRON POROSITY (SANDSTONE)
DPHI.V/V      00 890 00 00         : PHID         - DENSITY POROSITY (SANDSTONE)
~PARAMETER INFORMATION
#MNEM.UNIT           DATA             DESCRIPTION OF MNEMONIC
#---------         -----------     ------------------------------
GL  .M        740.9                : gl           - GROUND LEVEL ELEVATION
EREF.M        744.35               : kb           - ELEVATION OF DEPTH REFERENCE
DATM.M        744.35               : datum        - DATUM ELEVATION
TDD .M        497.5                : tdd          - TOTAL DEPTH DRILLER
RUN .         ONE                  : Run          - RUN NUMBER
ENG .         BILL                 : Engineer     - RECORDING ENGINEER
WIT .         JIM                  : Witness      - WITNESSED BY
MUD .         GEL                  : Mud_type     - MUD TYPE
MATR.         SANDSTONE            : Logunit      - NEUTRON MATRIX
TMAX.C        25                   : BHT          - MAXIMUM RECORDED TEMPERATURE
BHTD.M        497.5                : BHTDEP       - MAXIMUM RECORDED TEMPERATURE
RMT .C        10                   : MDTP         - TEMPERATURE OF MUD
MUDD.KG/M     1100                 : MWT          - MUD DENSITY
NEUT.         1                    : NEUTRON      - NEUTRON TYPE
RESI.         0                    : RESIST       - RESISTIVITY TYPE
RM  .OHMM     0.52                 : RM           - RESISTIVITY OF MUD
RMC .OHMM     0.72                 : RMC          - RESISTIVITY OF MUD CAKE
RMF .OHMM     0.72                 : RMF          - RESISTIVITY OF MUD FILTRATE
SUFT.C        4                    : SUFT         - SURFACE TEMPERATURE
~A  DEPTH       GR     RESD     PHIN     PHID
  295.000  102.222    5.251    0.530    0.218
  295.250  100.436    5.150    0.532    0.222
  295.500  102.782    5.051    0.539    0.231
  295.750  104.528    4.953    0.550    0.246
  296.000  102.147    4.857    0.585    0.268
  296.250  100.956    4.762    0.593    0.282
  296.500  100.339    4.850    0.559    0.277
  296.750  100.912    4.848    0.527    0.271
  297.000  101.490    5.129    0.533    0.268
  297.250  102.063    5.126    0.547    0.273
  297.500  102.045    4.932    0.561    0.275
  297.750  101.437    4.837    0.572    0.280
  298.000  102.010    4.654    0.577    0.285
  298.250  102.575    4.652    0.550    0.289
  298.500  102.561    4.828    0.543    0.290
  298.750  101.957    4.919    0.535    0.289
  299.000  100.749    5.107    0.524    0.284
  299.250   99.558    5.201    0.530    0.278
  299.500   97.760    5.101    0.524    0.275
  299.750   96.569    4.636    0.501    0.269
  300.000   94.774    4.377    0.504    0.268
  300.250   93.579    4.131    0.511    0.268
  300.500   91.789    4.130    0.520    0.268
  300.750   87.044    4.715    0.505    0.263
  301.000   81.109    5.919    0.480    0.248
  301.250   80.501    7.019    0.449    0.213
  301.500   81.074    6.883    0.448    0.190
  301.750   85.197    5.906    0.476    0.222
  302.000   88.724    5.685    0.479    0.257
  302.250   91.070    5.575    0.493    0.274
  302.500   91.639    5.466    0.494    0.281
  302.750   92.217    5.062    0.489    0.289
  303.000   93.372    4.872    0.518    0.291
  303.250   94.541    4.513    0.569    0.292
  303.500   95.114    4.342    0.592    0.293
  303.750   95.101    4.178    0.597    0.296
  304.000   91.538    4.019    0.563    0.301
  304.250   89.148    3.942    0.546    0.303
  304.500   89.725    3.722    0.528    0.312
  304.750   90.303    3.581    0.535    0.316
  305.000   90.876    3.445    0.561    0.320
  305.250   90.854    3.315    0.565    0.330
  305.500   89.659    3.441    0.575    0.341
  305.750   84.915    3.929    0.532    0.342
  306.000   77.802    4.933    0.478    0.337
  306.250   77.784    6.076    0.455    0.325
  306.500   81.903    7.068    0.437    0.290
  306.750   86.022    7.064    0.455    0.281
  307.000   87.776    6.544    0.459    0.311
  307.250   90.118    5.835    0.467    0.319
  307.500   91.868    5.204    0.478    0.329
  307.750   91.860    4.729    0.521    0.295
  308.000   88.888    4.465    0.499    0.275
  308.250   87.688    4.135    0.483    0.272
  308.500   90.030    3.980    0.499    0.277
  308.750   91.198    3.828    0.510    0.288
  309.000   91.181    3.754    0.524    0.297
  309.250   89.977    3.825    0.522    0.297
  309.500   87.001    4.046    0.517    0.291
  309.750   85.805    4.201    0.522    0.288
  310.000   89.333    4.530    0.550    0.283
  310.250   93.452    4.442    0.554    0.283
  310.500   95.211    4.273    0.578    0.287
  310.750   95.189    4.192    0.573    0.291
  311.000   93.403    4.351    0.529    0.298
  311.250   89.249    4.967    0.513    0.322
  311.500   79.182    5.890    0.497    0.324
  311.750   79.156    6.724    0.484    0.296
  312.000   80.920    7.251    0.465    0.262
  312.250   83.848    7.110    0.458    0.255
  312.500   84.430    6.713    0.463    0.240
  312.750   85.003    5.763    0.469    0.239
  313.000   85.572    5.043    0.476    0.280
  313.250   84.368    4.329    0.486    0.305
  313.500   83.768    3.860    0.519    0.301
  313.750   83.751    3.576    0.544    0.294
  314.000   87.869    3.313    0.556    0.293
  314.250   86.670    3.068    0.551    0.293
  314.500   83.107    3.125    0.543    0.295
  314.750   81.317    3.370    0.535    0.301
  315.000   83.072    3.499    0.530    0.309
  315.250   86.008    3.772    0.536    0.303
  315.500   87.763    3.844    0.544    0.302
  315.750   88.928    3.841    0.543    0.300
  316.000   88.910    3.912    0.545    0.302
  316.250   88.888    3.985    0.552    0.308
  316.500   89.457    4.137    0.545    0.312
  316.750   89.448    4.295    0.539    0.317
  317.000   90.603    4.293    0.539    0.314
  317.250   90.586    4.290    0.541    0.312
  317.500   90.564    4.206    0.541    0.308
  317.750   89.964    4.125    0.538    0.304
  318.000   88.764    4.122    0.532    0.299
  318.250   87.561    4.200    0.530    0.296
  318.500   86.952    4.361    0.522    0.296
  318.750   85.753    4.526    0.527    0.306
  319.000   84.553    4.698    0.542    0.321
  319.250   83.359    4.787    0.557    0.320
  319.500   79.791    4.876    0.558    0.317
  319.750   78.001    5.062    0.514    0.310
  320.000   80.347    5.156    0.458    0.297
  320.250   83.288    4.867    0.459    0.275
  320.500   88.579    4.684    0.473    0.243
  320.750   90.343    4.506    0.486    0.217
  321.000   92.689    4.504    0.503    0.271
  321.250   93.262    4.765    0.505    0.296
  321.500   92.058    4.946    0.499    0.303
  321.750   90.864    5.234    0.500    0.299
  322.000   89.069    5.537    0.510    0.296
  322.250   87.870    5.641    0.515    0.299
  322.500   86.670    5.428    0.507    0.308
  322.750   84.871    5.026    0.505    0.304
  323.000   84.271    4.838    0.514    0.299
  323.250   83.658    4.566    0.520    0.299
  323.500   83.046    4.479    0.514    0.307
  323.750   83.037    4.228    0.509    0.319
  324.000   83.610    3.991    0.503    0.328
  324.250   85.361    4.143    0.513    0.335
  324.500   87.111    4.731    0.521    0.348
  324.750   87.693    5.504    0.526    0.353
  325.000   87.085    6.780    0.515    0.358
  325.250   82.927    8.511    0.493    0.359
  325.500   78.773   11.312    0.467    0.359
  325.750   83.487   11.967    0.435    0.367
  326.000   89.378   11.962    0.397    0.377
  326.250   94.083   11.952    0.402    0.379
  326.500   92.297   12.178    0.428    0.369
  326.750   88.143   12.405    0.434    0.352
  327.000   79.849   12.876    0.427    0.330
  327.250   72.145   13.116    0.422    0.324
  327.500   70.941   12.862    0.428    0.320
  327.750   70.342   11.468    0.430    0.316
  328.000   70.324    8.619    0.433    0.307
  328.250   74.434    7.985    0.434    0.317
  328.500   76.788    7.121    0.437    0.337
  328.750   80.316    6.113    0.443    0.339
  329.000   83.839    5.661    0.449    0.314
  329.250   87.958    5.448    0.461    0.305
  329.500   89.709    5.446    0.512    0.294
  329.750   89.700    5.546    0.519    0.285
  330.000   89.091    5.757    0.515    0.288
  330.250   89.073    5.866    0.508    0.293
  330.500   89.047    6.088    0.498    0.303
  330.750   89.038    6.203    0.502    0.313
  331.000   87.839    6.318    0.499    0.306
  331.250   84.276    6.435    0.495    0.296
  331.500   83.667    6.431    0.488    0.287
  331.750   86.600    6.428    0.483    0.287
  332.000   85.396    6.424    0.485    0.290
  332.250   84.796    6.420    0.491    0.291
  332.500   84.770    6.415    0.496    0.290
  332.750   85.343    6.293    0.495    0.287
  333.000   85.916    6.289    0.491    0.292
  333.250   86.490    6.166    0.495    0.302
  333.500   84.699    6.164    0.500    0.311
  333.750   84.095    5.929    0.500    0.317
  334.000   82.896    5.928    0.500    0.322
  334.250   83.469    5.813    0.501    0.315
  334.500   84.633    5.699    0.505    0.301
  334.750   84.611    5.590    0.505    0.296
  335.000   84.598    5.586    0.499    0.301
  335.250   85.158    5.583    0.495    0.312
  335.500   85.154    5.581    0.501    0.316
  335.750   86.318    5.684    0.506    0.314
  336.000   86.891    5.681    0.505    0.309
  336.250   86.873    5.261    0.504    0.306
  336.500   87.447    4.782    0.508    0.304
  336.750   87.420    4.264    0.515    0.302
  337.000   87.407    4.103    0.525    0.295
  337.250   87.980    4.101    0.525    0.294
  337.500   89.144    4.178    0.523    0.293
  337.750   89.722    4.254    0.529    0.296
  338.000   90.877    4.253    0.543    0.299
  338.250   90.860    4.251    0.548    0.302
