~VERSION INFORMATION
 VERS.                 2.0:   CWLS LOG ASCII STANDARD -VERSION 2.0
 WRAP.                  NO:   ONE LINE PER DEPTH STEP
~WELL INFORMATION BLOCK
#MNEM.UNIT           DATA                    DESCRIPTION OF MNEMONIC
#---------    -------------------            -------------------------------
# Generated from Intellog Unique Number	CN_91_93/WELL/2715
WELL.         10-13-091-12W4                 : Well_name    - WELL
LOC .         AA/10-13-091-12W4/0            : Location     - LOCATION
UWI .         AA/10-13-091-12W400            : Uwi          - UNIQUE WELL ID
ENTR.         JOETTE                         : Entered      - ENTERED BY
SRVC.         SCHLUMBERGER                   : Scn          - SERVICE COMPANY
DATE.         02/09/92                       : Date         - LOG DATE
STRT.M        40                             : top_depth    - START DEPTH
STOP.M        184                            : bot_depth    - STOP DEPTH
STEP.M        0.25                           : increment    - STEP LENGTH
 NULL. -999.2500:NULL Value
~CURVE INFORMATION BLOCK
#MNEM UNIT       ERCB CURVE CODE    CURVE DESCRIPTION
#-----------   ------------------   ----------------------------------
DEPT.M        00 001 00 00         : DEPTH        - DEPTH
GR  .API      00 310 00 00         : GR           - GAMMA RAY
DPHI.V/V      00 890 00 00         : PHID         - DENSITY POROSITY (SANDSTONE)
ILD .OHMM     00 120 00 00         : RESD         - DEEP RESISTIVITY (DIL)
~PARAMETER INFORMATION
#MNEM.UNIT           DATA             DESCRIPTION OF MNEMONIC
#---------         -----------     ------------------------------
GL  .M        451.4                : gl           - GROUND LEVEL ELEVATION
EREF.M        451.4                : kb           - ELEVATION OF DEPTH REFERENCE
DATM.M        451.4                : datum        - DATUM ELEVATION
TDD .M        224                  : tdd          - TOTAL DEPTH DRILLER
RUN .         ONE                  : Run          - RUN NUMBER
ENG .         BILL                 : Engineer     - RECORDING ENGINEER
WIT .         JIM                  : Witness      - WITNESSED BY
MUD .         GEL                  : Mud_type     - MUD TYPE
MATR.         SANDSTONE            : Logunit      - NEUTRON MATRIX
TMAX.C        10                   : BHT          - MAXIMUM RECORDED TEMPERATURE
BHTD.M        224                  : BHTDEP       - MAXIMUM RECORDED TEMPERATURE
RMT .C        18.9                 : MDTP         - TEMPERATURE OF MUD
MUDD.KG/M     9666.66              : MWT          - MUD DENSITY
NEUT.         1                    : NEUTRON      - NEUTRON TYPE
RESI.         0                    : RESIST       - RESISTIVITY TYPE
RM  .OHMM     9.5                  : RM           - RESISTIVITY OF MUD
RMC .OHMM     9.5                  : RMC          - RESISTIVITY OF MUD CAKE
RMF .OHMM     9.5                  : RMF          - RESISTIVITY OF MUD FILTRATE
SUFT.C        4                    : SUFT         - SURFACE TEMPERATURE
~A  DEPTH       GR     PHID     RESD
   40.000   52.308    0.090    1.000
   40.250   44.109    0.080    8.000
   40.500   43.516    0.069    7.954
   40.750   49.609    0.083    7.962
   41.000   46.583    0.058    7.914
   41.250   46.903    0.198    7.923
   41.500   54.820    0.253    8.101
   41.750   59.090    0.304    8.515
   42.000   62.754    0.333    9.668
   42.250   51.819    0.353   24.037
   42.500   64.909    0.380   27.295
   42.750   67.659    0.348   27.325
   43.000   62.806    0.355   27.558
   43.250   66.469    0.358   27.968
   43.500   58.273    0.350   28.589
   43.750   73.794    0.373   29.636
   44.000   85.363    0.378   32.717
   44.250   54.054    0.328   40.403
   44.500   38.253    0.231  210.959
   44.750   44.654    0.094  335.174
   45.000   56.529    0.083  258.977
   45.250   47.417    0.104  195.945
   45.500   51.994    0.159  197.535
   45.750   58.087    0.268  196.370
   46.000   60.230    0.365  183.278
   46.250   57.507    0.373   57.414
   46.500   52.348    0.353   27.374
   46.750   69.696    0.354   27.793
   47.000   74.575    0.373   27.817
   47.250   65.771    0.384   27.653
   47.500   69.127    0.359   27.301
   47.750   65.189    0.360   26.948
   48.000   75.541    0.364   26.232
   48.250   66.737    0.376   25.893
   48.500   63.099    0.366   25.383
   48.750   66.761    0.372   25.230
   49.000   75.898    0.357   25.432
   49.250   66.787    0.369   25.641
   49.500   71.971    0.372   25.307
   49.750   68.032    0.386   24.637
   50.000   63.179    0.391   24.152
   50.250   49.507    0.369   24.173
   50.500   61.078    0.386   23.865
   50.750   70.213    0.374   23.395
   51.000   77.221    0.377   23.582
   51.250   77.234    0.381   24.106
   51.500   67.516    0.392   24.644
   51.750   74.220    0.364   24.160
   52.000   73.929    0.375   22.550
   52.250   63.602    0.385   21.495
   52.500   65.441    0.381   22.129
   52.750   74.577    0.388   22.620
   53.000   66.683    0.393   22.487
   53.250   78.558    0.375   22.196
   53.500   70.664    0.385   21.761
   53.750   63.076    0.388   21.633
   54.000   63.695    0.353   21.056
   54.250   74.050    0.334   18.977
   54.500   68.588    0.353   16.631
   54.750   68.298    0.376   19.555
   55.000   68.920    0.391   20.416
   55.250   67.107    0.389   20.742
   55.500   73.204    0.386   21.039
   55.750   75.345    0.400   21.659
   56.000   69.885    0.378   22.459
   56.250   67.769    0.379   23.607
   56.500   66.566    0.386   22.978
   56.750   57.456    0.377   21.005
   57.000   62.335    0.357   18.278
   57.250   55.050    0.336   13.829
   57.500   73.614    0.361   12.729
   57.750   83.661    0.379   19.258
   58.000   75.769    0.375   20.529
   58.250   74.566    0.377   20.529
   58.500   76.405    0.374   21.015
   58.750   69.423    0.381   21.332
   59.000   75.214    0.384   21.350
   59.250   74.315    0.386   21.387
   59.500   74.327    0.387   21.399
   59.750   80.727    0.370   21.570
   60.000   77.700    0.381   22.204
   60.250   68.286    0.386   23.181
   60.500   81.071    0.366   24.204
   60.750   70.441    0.384   23.890
   61.000   70.759    0.393   22.612
   61.250   87.498    0.393   22.324
   61.500   93.898    0.385   22.823
   61.750   82.658    0.377   22.845
   62.000   76.895    0.386   21.776
   62.250   68.392    0.383   21.345
   62.500   68.405    0.383   21.071
   62.750   64.467    0.379   19.806
   63.000   80.293    0.382   19.828
   63.250   75.745    0.398   19.847
   63.500   75.757    0.375   18.267
   63.750   87.631    0.345   17.293
   64.000   88.557    0.331   17.067
   64.250   80.662    0.351   16.269
   64.500   79.764    0.378   14.358
   64.750   98.936    0.389    4.858
   65.000   91.347    0.393    5.673
   65.250   91.359    0.390    5.719
   65.500  100.496    0.375    4.977
   65.750  116.627    0.358    3.900
   66.000  116.032    0.369    3.442
   66.250  126.385    0.363    3.351
   66.500  112.713    0.363    3.171
   66.750  122.154    0.370    3.197
   67.000  129.163    0.345    3.200
   67.250  133.434    0.342    3.159
   67.500  141.657    0.328    3.638
   67.750  136.196    0.324    3.278
   68.000  136.819    0.317    3.147
   68.250  131.662    0.325    2.700
   68.500  133.197    0.315    3.809
   68.750  136.250    0.302    3.606
   69.000  138.087    0.323    3.160
   69.250  129.588    0.317    4.304
   69.500  126.862    0.323    4.462
   69.750  119.273    0.314    4.467
   70.000  134.187    0.299    4.599
   70.250  132.985    0.321    4.668
   70.500  139.080    0.313    4.576
   70.750  126.929    0.328    4.879
   71.000  120.252    0.325    4.953
   71.250  136.383    0.327    4.855
   71.500  134.571    0.322    4.860
   71.750  126.982    0.317    4.865
   72.000  127.909    0.329    4.804
   72.250  131.265    0.330    4.774
   72.500  129.759    0.328    4.551
   72.750  133.727    0.344    4.430
   73.000  127.353    0.338    4.312
   73.250  111.248    0.348    3.997
   73.500  127.683    0.329    3.783
   73.750  124.352    0.339    3.581
   74.000  124.668    0.350    3.661
   74.250  123.161    0.344    3.849
   74.500  112.836    0.338    3.617
   74.750  103.117    0.315    3.724
   75.000  111.645    0.268    5.754
   75.250  115.308    0.277    7.357
   75.500  105.895    0.331    8.067
   75.750  101.347    0.314    6.546
   76.000  100.752    0.328    5.777
   76.250  111.104    0.313    5.989
   76.500  102.603    0.317    8.997
   76.750  102.008    0.325    7.775
   77.000   93.506    0.307    7.057
   77.250  105.988    0.292    6.681
   77.500  110.259    0.259    6.279
   77.750  104.493    0.268    5.902
   78.000  107.244    0.309    8.095
   78.250  113.948    0.305    7.245
   78.500  124.605    0.329    8.055
   78.750  105.763    0.331    6.770
   79.000  107.601    0.291    6.274
   79.250   98.186    0.285    7.969
   79.500  100.937    0.314    9.636
   79.750   96.085    0.299   10.419
   80.000  101.877    0.292    9.325
   80.250  115.271    0.308    8.059
   80.500  109.201    0.300    7.212
   80.750  122.899    0.289    7.426
   81.000  113.486    0.320    7.127
   81.250  121.406    0.331    6.606
   81.500  131.149    0.318    5.286
   81.750  122.346    0.312    4.569
   82.000  121.142    0.324    4.670
   82.250  137.577    0.304    4.742
   82.500  129.986    0.319    4.985
   82.750  126.352    0.336    5.943
   83.000  103.861    0.363    6.249
   83.250   85.021    0.322    5.035
   83.500   77.125    0.170    8.885
   83.750   87.478    0.128    7.417
   84.000  106.954    0.272   14.635
   84.250  113.659    0.316   12.559
   84.500  106.677    0.329    7.233
   84.750  111.558    0.341    5.952
   85.000  114.306    0.349    4.898
   85.250   92.728    0.315    4.903
   85.500   87.875    0.238    4.874
   85.750   87.889    0.248    5.573
   86.000  111.926    0.286    8.141
   86.250  118.630    0.303    6.606
   86.500  110.737    0.326    5.830
   86.750  103.451    0.317    5.110
   87.000  101.640    0.330    4.939
   87.250   98.613    0.318    6.142
   87.500   85.549    0.284    8.425
   87.750   77.656    0.167    8.552
   88.000   97.438    0.144    6.562
   88.250  124.516    0.230   12.332
   88.500  127.875    0.307   10.364
   88.750  122.108    0.333    5.299
   89.000  121.819    0.363    4.361
   89.250  122.744    0.362    3.012
   89.500  137.658    0.366    3.080
   89.750  140.105    0.336    2.795
   90.000  130.690    0.340    2.918
   90.250  135.265    0.289    3.047
   90.500  131.934    0.310    2.864
   90.750  117.045    0.311    3.229
   91.000  116.146    0.297    3.232
   91.250  119.811    0.317    5.703
   91.500  118.301    0.309    5.751
   91.750  127.438    0.284    5.797
   92.000  129.884    0.283    6.722
   92.250  122.599    0.281    8.184
   92.500  125.045    0.283    8.250
   92.750  121.713    0.279    7.700
   93.000  120.510    0.267    7.290
   93.250  108.359    0.280    8.814
   93.500  111.717    0.282    9.011
   93.750  113.252    0.298   10.898
   94.000  123.301    0.276    8.599
