~VERSION INFORMATION
 VERS.                 2.0:   CWLS LOG ASCII STANDARD -VERSION 2.0
 WRAP.                  NO:   ONE LINE PER DEPTH STEP
~WELL INFORMATION BLOCK
#MNEM.UNIT           DATA                    DESCRIPTION OF MNEMONIC
#---------    -------------------            -------------------------------
# Generated from Intellog Unique Number	CW_79_81/WELL/2480
WELL.         11-02-081-22W4                 : Well_name    - WELL
LOC .         AA/11-02-081-22W4/0            : Location     - LOCATION
UWI .         AA/11-02-081-22W4/0            : Uwi          - UNIQUE WELL ID
ENTR.         MAX                            : Entered      - ENTERED BY
SRVC.         SCHLUMBERGER                   : Scn          - SERVICE COMPANY
STRT.M        190                            : top_depth    - START DEPTH
STOP.M        430                            : bot_depth    - STOP DEPTH
STEP.M        0.25                           : increment    - STEP LENGTH
 NULL. -999.2500:NULL Value
~CURVE INFORMATION BLOCK
#MNEM UNIT       ERCB CURVE CODE    CURVE DESCRIPTION
#-----------   ------------------   ----------------------------------
DEPT.M        00 001 00 00         : DEPTH        - DEPTH
ILD .OHMM     00 120 00 00         : RESD         - DEEP RESISTIVITY (DIL)
NPHI.V/V      00 330 00 00         : PHIN         - NEUTRON POROSITY (SANDSTONE)
DPHI.V/V      00 890 00 00         : PHID         - DENSITY POROSITY (SANDSTONE)
GR  .API      00 310 00 00         : GR           - GAMMA RAY
CALI.MM       00 280 01 00         : CAL          - CALIPER
~PARAMETER INFORMATION
#MNEM.UNIT           DATA             DESCRIPTION OF MNEMONIC
#---------         -----------     ------------------------------
GL  .M        607                  : gl           - GROUND LEVEL ELEVATION
EREF.M        610.7                : kb           - ELEVATION OF DEPTH REFERENCE
DATM.M        607                  : datum        - DATUM ELEVATION
TDD .M        435                  : tdd          - TOTAL DEPTH DRILLER
RUN .         ONE                  : Run          - RUN NUMBER
ENG .         BILL                 : Engineer     - RECORDING ENGINEER
WIT .         JIM                  : Witness      - WITNESSED BY
MUD .         GEL                  : Mud_type     - MUD TYPE
MATR.         SANDSTONE            : Logunit      - NEUTRON MATRIX
TMAX.C        29                   : BHT          - MAXIMUM RECORDED TEMPERATURE
BHTD.M        435                  : BHTDEP       - MAXIMUM RECORDED TEMPERATURE
MATR.         1                    : LOGUNIT      - NEUTRON MATRIX
RMT .C        20                   : MDTP         - TEMPERATURE OF MUD
NEUT.         1                    : NEUTRON      - NEUTRON TYPE
RESI.         0                    : RESIST       - RESISTIVITY TYPE
RMC .OHMM     1.22                 : RMC          - RESISTIVITY OF MUD CAKE
RMF .OHMM     2.93                 : RMF          - RESISTIVITY OF MUD FILTRATE
SUFT.C        -20                  : SUFT         - SURFACE TEMPERATURE
~A  DEPTH     RESD     PHIN     PHID       GR      CAL
  190.000    5.731    0.416    0.247  110.048  205.489
  190.250    6.800    0.419    0.223  106.405  205.516
  190.500    7.295    0.416    0.180  102.701  205.538
  190.750    7.459    0.406    0.176   99.436  205.559
  191.000    7.333    0.397    0.217   98.512  205.384
  191.250    6.639    0.415    0.252  104.168  204.228
  191.500    5.677    0.448    0.266  112.474  202.220
  191.750    4.859    0.471    0.269  113.191  201.070
  192.000    4.715    0.502    0.264  112.854  200.802
  192.250    4.767    0.518    0.257  112.751  200.826
  192.500    4.756    0.510    0.255  113.527  201.044
  192.750    4.644    0.492    0.261  113.865  202.015
  193.000    5.374    0.512    0.268  107.294  202.850
  193.250    7.642    0.491    0.284   82.254  201.705
  193.500   11.136    0.471    0.299   61.429  200.850
  193.750   15.667    0.422    0.304   44.584  200.481
  194.000   21.022    0.359    0.298   31.955  200.598
  194.250   34.025    0.338    0.290   23.660  200.935
  194.500   34.023    0.324    0.303   20.748  200.553
  194.750   27.197    0.316    0.343   22.165  200.186
  195.000   22.726    0.336    0.365   28.325  200.991
  195.250   18.508    0.368    0.366   34.895  201.601
  195.500   15.289    0.398    0.352   38.947  201.429
  195.750   13.543    0.399    0.330   39.551  200.674
  196.000   12.284    0.365    0.327   42.492  200.698
  196.250   10.998    0.373    0.325   46.018  200.719
  196.500   10.138    0.387    0.316   48.667  200.745
  196.750    9.317    0.390    0.306   50.905  201.161
  197.000    8.395    0.379    0.297   53.726  201.866
  197.250    7.300    0.378    0.296   60.026  202.280
  197.500    6.925    0.399    0.301   66.871  202.307
  197.750    7.284    0.404    0.303   63.371  202.328
  198.000    7.259    0.412    0.301   61.982  201.474
  198.250    6.810    0.418    0.299   62.582  199.936
  198.500    5.935    0.418    0.298   65.404  198.885
  198.750    4.607    0.421    0.294   72.649  200.798
  199.000    3.939    0.469    0.287   80.713  202.446
  199.250    4.607    0.491    0.288   76.981  203.640
  199.500    5.076    0.464    0.293   73.951  203.956
  199.750    5.345    0.433    0.298   72.677  203.589
  200.000    5.393    0.411    0.301   74.504  202.637
  200.250    4.962    0.386    0.302   81.956  201.513
  200.500    4.274    0.433    0.304   86.359  203.567
  200.750    3.365    0.485    0.298   96.441  207.885
  201.000    2.920    0.495    0.286  102.483  210.152
  201.250    2.792    0.506    0.285  103.434  210.369
  201.500    2.833    0.522    0.294  101.458  208.343
  201.750    2.808    0.511    0.297  102.140  203.202
  202.000    2.787    0.500    0.283  103.128  200.782
  202.250    2.746    0.507    0.283  103.846  201.198
  202.500    2.796    0.507    0.285  103.683  201.321
  202.750    2.939    0.499    0.287  102.877  201.343
  203.000    3.253    0.489    0.283  101.192  201.364
  203.250    4.127    0.484    0.255   96.077  201.231
  203.500    4.851    0.471    0.216   86.824  200.440
  203.750    5.793    0.422    0.240   73.960  199.295
  204.000    7.175    0.407    0.272   65.837  199.902
  204.250    9.114    0.392    0.288   59.295  200.509
  204.500   11.366    0.375    0.289   53.514  199.947
  204.750   12.656    0.378    0.309   49.092  197.550
  205.000   12.947    0.377    0.316   44.471  197.170
  205.250   12.666    0.381    0.310   47.530  198.364
  205.500   12.051    0.382    0.304   49.184  198.678
  205.750   11.541    0.383    0.303   48.495  198.700
  206.000   11.252    0.383    0.311   45.697  198.626
  206.250   11.072    0.377    0.326   42.495  198.345
  206.500   10.988    0.369    0.317   43.975  198.776
  206.750   10.210    0.392    0.300   47.499  199.582
  207.000    9.437    0.405    0.292   52.782  199.803
  207.250    8.878    0.408    0.289   55.137  199.825
  207.500    8.499    0.403    0.289   55.033  199.845
  207.750    8.113    0.389    0.287   59.362  199.956
  208.000    7.990    0.363    0.281   65.717  200.384
  208.250    8.587    0.381    0.291   61.751  200.795
  208.500    9.573    0.395    0.306   55.852  200.919
  208.750   11.152    0.404    0.315   50.129  200.747
  209.000   13.252    0.406    0.316   45.636  200.474
  209.250   14.735    0.390    0.321   42.326  200.503
  209.500   14.959    0.368    0.328   42.097  200.532
  209.750   14.211    0.382    0.327   44.686  200.553
  210.000   13.202    0.392    0.325   48.680  200.574
  210.250   11.665    0.402    0.319   53.377  200.791
  210.500   10.059    0.416    0.310   57.781  201.400
  210.750    8.694    0.436    0.294   61.096  202.843
  211.000    7.770    0.422    0.288   63.548  204.089
  211.250    7.167    0.400    0.277   69.417  204.108
  211.500    6.992    0.393    0.273   68.260  203.544
  211.750    6.915    0.394    0.277   64.644  202.788
  212.000    6.777    0.396    0.287   62.434  202.521
  212.250    6.454    0.399    0.285   65.523  203.965
  212.500    6.077    0.401    0.275   69.194  205.204
  212.750    5.646    0.405    0.275   73.423  207.961
  213.000    5.071    0.411    0.276   77.826  209.544
  213.250    4.549    0.422    0.276   81.237  209.567
  213.500    4.168    0.438    0.275   83.360  208.519
  213.750    3.950    0.460    0.272   85.268  207.359
  214.000    3.891    0.475    0.271   87.721  205.346
  214.250    4.211    0.473    0.269   82.583  203.421
  214.500    4.632    0.452    0.266   77.094  203.542
  214.750    4.901    0.428    0.263   73.479  207.466
  215.000    4.918    0.415    0.261   73.786  212.853
  215.250    4.837    0.422    0.257   80.331  211.808
  215.500    4.623    0.432    0.256   82.538  204.516
  215.750    4.392    0.422    0.253   87.002  204.149
  216.000    4.103    0.435    0.252   88.654  204.954
  216.250    3.800    0.460    0.254   88.434  204.782
  216.500    3.536    0.482    0.261   87.453  203.926
  216.750    3.336    0.491    0.274   86.952  205.938
  217.000    3.212    0.498    0.295   86.721  210.029
  217.250    3.143    0.509    0.291   86.501  212.392
  217.500    3.091    0.520    0.286   86.984  213.290
  217.750    3.047    0.529    0.281   86.999  213.509
  218.000    3.002    0.520    0.277   86.778  213.436
  218.250    2.950    0.465    0.277   88.550  212.504
  218.500    2.905    0.454    0.282   91.493  209.681
  218.750    2.948    0.456    0.285   92.677  209.314
  219.000    2.958    0.471    0.286   93.334  209.536
  219.250    2.937    0.502    0.288   94.050  209.560
  219.500    2.873    0.535    0.297   95.001  209.093
  219.750    2.734    0.535    0.316   96.101  208.176
  220.000    2.652    0.540    0.319   96.846  207.387
  220.250    2.576    0.529    0.307   98.265  204.289
  220.500    2.501    0.532    0.302  101.263  204.115
  220.750    2.439    0.537    0.296  104.907  205.114
  221.000    2.395    0.541    0.290  107.205  206.017
  221.250    2.377    0.551    0.286  103.845  206.045
  221.500    2.377    0.561    0.287   97.518  206.069
  221.750    2.377    0.561    0.283   96.127  206.097
  222.000    2.364    0.560    0.283   95.088  206.119
  222.250    2.338    0.555    0.286   94.633  206.139
  222.500    2.321    0.543    0.291   94.353  206.744
  222.750    2.362    0.536    0.297   92.417  209.195
  223.000    2.398    0.557    0.307   88.529  209.629
  223.250    2.433    0.533    0.303   89.952  208.086
  223.500    2.482    0.523    0.293   92.248  208.303
  223.750    2.546    0.525    0.284   94.017  208.912
  224.000    2.616    0.533    0.275   95.085  210.107
  224.250    2.682    0.529    0.264   97.042  213.733
  224.500    2.723    0.525    0.261   99.740  214.161
  224.750    2.742    0.528    0.255  101.157  212.231
  225.000    2.747    0.532    0.253   99.591  209.132
  225.250    2.777    0.524    0.257   98.903  206.229
  225.500    2.818    0.507    0.263  100.264  204.498
  225.750    2.780    0.500    0.269  102.446  204.685
  226.000    2.697    0.500    0.278  103.926  205.520
  226.250    2.717    0.513    0.278  102.999  208.275
