~VERSION INFORMATION
 VERS.                 2.0:   CWLS LOG ASCII STANDARD -VERSION 2.0
 WRAP.                  NO:   ONE LINE PER DEPTH STEP
~WELL INFORMATION BLOCK
#MNEM.UNIT           DATA                    DESCRIPTION OF MNEMONIC
#---------    -------------------            -------------------------------
# Generated from Intellog Unique Number	CX_WELLS/WELL/1170
WELL.         10-11-088-16W4                 : Well_name    - WELL
LOC .         AA/10-11-088-16W4/0            : Location     - LOCATION
UWI .         AA/10-11-088-16W400            : Uwi          - UNIQUE WELL ID
ENTR.         DW                             : Entered      - ENTERED BY
SRVC.         SCHLUMBERGER                   : Scn          - SERVICE COMPANY
STRT.M        75                             : top_depth    - START DEPTH
STOP.M        275                            : bot_depth    - STOP DEPTH
STEP.M        0.25                           : increment    - STEP LENGTH
 NULL. -999.2500:NULL Value
~CURVE INFORMATION BLOCK
#MNEM UNIT       ERCB CURVE CODE    CURVE DESCRIPTION
#-----------   ------------------   ----------------------------------
DEPT.M        00 001 00 00         : DEPTH        - DEPTH
GR  .API      00 310 00 00         : GR           - GAMMA RAY
NPHI.V/V      00 330 00 00         : PHIN         - NEUTRON POROSITY (SANDSTONE)
DPHI.V/V      00 890 00 00         : PHID         - DENSITY POROSITY (SANDSTONE)
ILD .OHMM     00 120 00 00         : RESD         - DEEP RESISTIVITY (DIL)
~PARAMETER INFORMATION
#MNEM.UNIT           DATA             DESCRIPTION OF MNEMONIC
#---------         -----------     ------------------------------
GL  .M        537.9                : gl           - GROUND LEVEL ELEVATION
EREF.M        540.9                : kb           - ELEVATION OF DEPTH REFERENCE
DATM.M        540.9                : datum        - DATUM ELEVATION
TDD .M        283.7                : tdd          - TOTAL DEPTH DRILLER
RUN .         ONE                  : Run          - RUN NUMBER
ENG .         BILL                 : Engineer     - RECORDING ENGINEER
WIT .         JIM                  : Witness      - WITNESSED BY
MUD .         GEL                  : Mud_type     - MUD TYPE
MATR.         SANDSTONE            : Logunit      - NEUTRON MATRIX
TMAX.C        25                   : BHT          - MAXIMUM RECORDED TEMPERATURE
BHTD.M        283.7                : BHTDEP       - MAXIMUM RECORDED TEMPERATURE
MATR.         1                    : LOGUNIT      - NEUTRON MATRIX
RMT .C        25                   : MDTP         - TEMPERATURE OF MUD
NEUT.         1                    : NEUTRON      - NEUTRON TYPE
RESI.         0                    : RESIST       - RESISTIVITY TYPE
RMC .OHMM     0.25                 : RMC          - RESISTIVITY OF MUD CAKE
RMF .OHMM     0.25                 : RMF          - RESISTIVITY OF MUD FILTRATE
SUFT.C        15                   : SUFT         - SURFACE TEMPERATURE
~A  DEPTH       GR     PHIN     PHID     RESD
# ...
  162.000  111.658    0.569    0.185    6.874
  162.250  114.062    0.549    0.199    6.172
  162.500  116.465    0.502    0.179    5.643
  162.750  117.661    0.529    0.160    5.160
  163.000  120.651    0.540    0.187    4.896
  163.250  120.707    0.544    0.203    4.731
  163.500  121.338    0.539    0.198    4.652
  163.750  121.372    0.531    0.198    4.493
  164.000  120.830    0.523    0.204    4.338
  164.250  114.419    0.484    0.212    4.118
  164.500  106.836    0.446    0.218    4.277
  164.750   99.252    0.444    0.218    4.782
  165.000   94.613    0.444    0.222    5.548
  165.250   92.299    0.438    0.223    6.434
  165.500   90.584    0.431    0.220    8.027
  165.750   88.868    0.427    0.219   11.805
  166.000   87.739    0.425    0.220   12.730
  166.250   87.197    0.425    0.226   13.734
  166.500   87.242    0.432    0.225   14.001
  166.750   89.047    0.434    0.208   13.773
  167.000   92.612    0.433    0.215   13.303
  167.250   96.200    0.433    0.259   13.087
  167.500   96.832    0.431    0.274   13.111
  167.750   96.877    0.431    0.283   13.142
  168.000   96.346    0.438    0.269   13.185
  168.250   95.781    0.444    0.263   13.203
  168.500   94.663    0.443    0.264   13.215
  168.750   93.523    0.436    0.268   13.240
  169.000   92.981    0.425    0.269   14.019
  169.250   92.462    0.426    0.261   14.568
  169.500   91.897    0.428    0.232   15.418
  169.750   89.019    0.427    0.227   15.725
  170.000   87.303    0.423    0.233   17.278
  170.250   88.522    0.421    0.239   17.629
  170.500   89.740    0.445    0.222   18.320
  170.750   91.545    0.453    0.202   18.346
  171.000   93.362    0.442    0.185   18.380
  171.250   95.753    0.443    0.195   16.203
  171.500   99.895    0.449    0.212   12.799
  171.750  106.405    0.444    0.220   11.491
  172.000  107.624    0.439    0.225   10.701
  172.250  107.082    0.441    0.229    9.612
  172.500  107.126    0.451    0.225    9.451
  172.750  106.009    0.460    0.223    9.297
  173.000  104.304    0.466    0.224    9.150
  173.250  103.740    0.472    0.226    9.005
  173.500  101.448    0.481    0.230    8.850
  173.750   98.548    0.488    0.239    8.556
  174.000   91.562    0.445    0.242    8.564
  174.250   90.444    0.445    0.238    8.272
  174.500   90.467    0.454    0.232    8.138
  174.750   90.511    0.459    0.240    7.864
  175.000   91.165    0.447    0.232    7.596
  175.250   90.036    0.447    0.230    7.472
  175.500   87.734    0.447    0.234    7.489
  175.750   84.844    0.447    0.235    7.645
  176.000   86.063    0.448    0.252    7.653
  176.250   88.455    0.448    0.270    7.667
  176.500   89.673    0.443    0.288    7.975
  176.750   88.544    0.439    0.298    8.592
  177.000   85.655    0.438    0.300    9.968
  177.250   85.113    0.445    0.303   11.139
  177.500   86.907    0.471    0.297   11.789
  177.750   92.255    0.479    0.285   12.476
  178.000   94.636    0.499    0.251   12.051
  178.250   95.854    0.510    0.228   10.242
  178.500   95.910    0.511    0.220    8.244
  178.750   96.542    0.465    0.216    7.534
  179.000   96.575    0.442    0.202    6.896
  179.250   98.403    0.448    0.204    6.902
  179.500   99.023    0.456    0.210    6.793
  179.750  100.241    0.462    0.217    6.685
  180.000  100.873    0.462    0.226    6.692
  180.250   99.755    0.463    0.240    6.463
  180.500   96.279    0.466    0.233    6.130
  180.750   92.792    0.476    0.225    6.030
  181.000   88.740    0.506    0.146    6.872
  181.250   85.839    0.363    0.095    7.270
  181.500   84.710    0.359    0.094    8.282
  181.750   90.037    0.371    0.137    9.259
  182.000   95.960    0.420    0.166    9.452
  182.250   98.939    0.460    0.197    8.638
  182.500  103.103    0.458    0.213    8.193
  182.750  107.244    0.450    0.217    8.059
  183.000  111.408    0.466    0.227    7.508
  183.250  112.626    0.523    0.253    6.738
  183.500  112.682    0.560    0.265    5.620
  183.750  112.727    0.536    0.250    4.280
  184.000  111.598    0.496    0.236    3.444
  184.250  109.882    0.482    0.224    3.782
  184.500  107.568    0.469    0.217    4.306
  184.750  104.114    0.457    0.219    4.814
  185.000  104.137    0.451    0.219    5.686
  185.250  104.193    0.446    0.217    6.474
  185.500  104.237    0.446    0.215    7.242
  185.750  104.271    0.452    0.210    7.805
  186.000  104.316    0.455    0.207    7.968
  186.250  104.981    0.462    0.206    7.990
  186.500  105.590    0.467    0.202    8.002
  186.750  106.808    0.465    0.200    8.013
  187.000  110.961    0.460    0.199    8.024
  187.250  116.873    0.458    0.197    8.046
  187.500  121.037    0.453    0.199    8.058
  187.750  121.669    0.451    0.203    8.373
  188.000  115.258    0.447    0.210    9.200
  188.250  108.848    0.445    0.216    9.556
  188.500  108.306    0.417    0.210    9.926
  188.750  110.122    0.419    0.214   11.302
  189.000  110.156    0.424    0.224   12.419
  189.250  108.451    0.427    0.240   12.448
  189.500  105.551    0.427    0.250   12.459
  189.750  102.075    0.428    0.248   12.719
  190.000   99.197    0.434    0.236   12.736
  190.250   97.470    0.440    0.237   12.766
  190.500   94.580    0.433    0.247   12.790
  190.750   91.104    0.427    0.254   12.814
  191.000   85.879    0.430    0.242   13.075
  191.250   82.990    0.427    0.191   13.347
  191.500   81.274    0.411    0.152   13.625
  191.750   81.905    0.413    0.198   13.644
  192.000   83.112    0.420    0.244   13.179
  192.250   84.918    0.425    0.235   12.723
  192.500   86.147    0.431    0.224   11.848
  192.750   89.724    0.436    0.234   11.034
  193.000   93.278    0.436    0.236   10.854
  193.250   98.029    0.431    0.195   11.498
  193.500  100.409    0.427    0.176   11.721
  193.750  103.399    0.430    0.190   12.186
  194.000  101.695    0.434    0.211   12.669
  194.250  100.577    0.438    0.227   12.921
  194.500  100.013    0.433    0.235   13.190
  194.750   98.297    0.426    0.243   13.208
  195.000   95.408    0.412    0.239   13.233
  195.250   91.931    0.393    0.215   13.264
  195.500   90.802    0.375    0.177   13.289
  195.750   90.858    0.372    0.150   13.559
  196.000   91.490    0.401    0.151   14.090
  196.250   92.708    0.424    0.154   13.867
  196.500   94.513    0.439    0.148   13.642
  196.750   98.677    0.425    0.129   13.176
  197.000  101.080    0.402    0.109   13.195
  197.250  101.689    0.382    0.138   12.980
  197.500  101.756    0.410    0.172   12.322
  197.750  100.605    0.428    0.200   11.896
  198.000   98.303    0.435    0.209   11.485
  198.250   97.760    0.446    0.202   11.093
  198.500   97.805    0.456    0.190   11.741
  198.750   96.688    0.465    0.171   13.381
  199.000   93.798    0.462    0.131   14.416
  199.250   91.496    0.443    0.090   15.825
  199.500   93.888    0.304    0.105   15.855
  199.750  102.746    0.391    0.169   15.884
  200.000  106.300    0.433    0.230   14.792
  200.250  108.692    0.442    0.214   12.120
  200.500  108.770    0.436    0.200   11.082
  200.750  108.793    0.429    0.199   10.325
  201.000  109.424    0.440    0.191    9.973
  201.250  108.882    0.454    0.189    9.810
  201.500  108.362    0.453    0.177    9.646
  201.750  109.558    0.456    0.135    9.489
  202.000  112.537    0.462    0.167    9.343
  202.250  113.755    0.465    0.187    9.020
  202.500  113.224    0.475    0.191    8.878
  202.750  111.509    0.478    0.197    9.063
  203.000  108.044    0.483    0.205    9.075
  203.250  105.730    0.477    0.213    9.097
  203.500  102.265    0.461    0.222    9.105
  203.750  100.561    0.448    0.216    9.122
  204.000  100.583    0.442    0.197    9.152
  204.250  100.628    0.436    0.185    9.329
  204.500  107.714    0.434    0.192    9.874
  204.750  109.530    0.426    0.202   11.882
  205.000  108.988    0.428    0.209   11.904
  205.250  107.859    0.434    0.215   11.932
