~VERSION INFORMATION
 VERS.                 2.0:   CWLS LOG ASCII STANDARD -VERSION 2.0
 WRAP.                  NO:   ONE LINE PER DEPTH STEP
~WELL INFORMATION BLOCK
#MNEM.UNIT           DATA                    DESCRIPTION OF MNEMONIC
#---------    -------------------            -------------------------------
# Generated from Intellog Unique Number	CN_94_101/WELL/5017
WELL.         11-13-100-13W4                 : Well_name    - WELL
LOC .         AA/11-13-100-13W4/0            : Location     - LOCATION
UWI .         AA/11-13-100-13W400            : Uwi          - UNIQUE WELL ID
ENTR.         TIM                            : Entered      - ENTERED BY
SRVC.         SCHLUMBERGER                   : Scn          - SERVICE COMPANY
DATE.         08/13/92                       : Date         - LOG DATE
STRT.M        345                            : top_depth    - START DEPTH
STOP.M        600                            : bot_depth    - STOP DEPTH
STEP.M        0.25                           : increment    - STEP LENGTH
 NULL. -999.2500:NULL Value
~CURVE INFORMATION BLOCK
#MNEM UNIT       ERCB CURVE CODE    CURVE DESCRIPTION
#-----------   ------------------   ----------------------------------
DEPT.M        00 001 00 00         : DEPTH        - DEPTH
GR  .API      00 310 00 00         : GR           - GAMMA RAY
ILD .OHMM     00 120 00 00         : RESD         - DEEP RESISTIVITY (DIL)
NPHI.V/V      00 330 00 00         : PHIN         - NEUTRON POROSITY (SANDSTONE)
DPHI.V/V      00 890 00 00         : PHID         - DENSITY POROSITY (SANDSTONE)
~PARAMETER INFORMATION
#MNEM.UNIT           DATA             DESCRIPTION OF MNEMONIC
#---------         -----------     ------------------------------
GL  .M        791                  : gl           - GROUND LEVEL ELEVATION
EREF.M        794.8                : kb           - ELEVATION OF DEPTH REFERENCE
DATM.M        794.8                : datum        - DATUM ELEVATION
TDD .M        606                  : tdd          - TOTAL DEPTH DRILLER
RUN .         ONE                  : Run          - RUN NUMBER
ENG .         BILL                 : Engineer     - RECORDING ENGINEER
WIT .         JIM                  : Witness      - WITNESSED BY
MUD .         GEL                  : Mud_type     - MUD TYPE
MATR.         SANDSTONE            : Logunit      - NEUTRON MATRIX
TMAX.C        28                   : BHT          - MAXIMUM RECORDED TEMPERATURE
BHTD.M        606                  : BHTDEP       - MAXIMUM RECORDED TEMPERATURE
RMT .C        4                    : MDTP         - TEMPERATURE OF MUD
MUDD.KG/M     1090                 : MWT          - MUD DENSITY
NEUT.         1                    : NEUTRON      - NEUTRON TYPE
RESI.         0                    : RESIST       - RESISTIVITY TYPE
RM  .OHMM     0.24                 : RM           - RESISTIVITY OF MUD
RMC .OHMM     0.24                 : RMC          - RESISTIVITY OF MUD CAKE
RMF .OHMM     0.24                 : RMF          - RESISTIVITY OF MUD FILTRATE
SUFT.C        4                    : SUFT         - SURFACE TEMPERATURE
~A  DEPTH       GR     RESD     PHIN     PHID
# ...
  388.500   67.537   10.329    0.360    0.299
  388.750   66.904    9.754    0.399    0.316
  389.000   66.252    9.208    0.428    0.335
  389.250   65.613    9.205    0.407    0.354
  389.500   64.362    9.193    0.402    0.356
  389.750   63.730    9.190    0.398    0.355
  390.000   61.248    9.358    0.399    0.354
  390.250   59.997    9.529    0.401    0.351
  390.500   59.970    9.699    0.403    0.350
  390.750   62.392    9.692    0.407    0.351
  391.000   66.038    9.687    0.412    0.355
  391.250   66.018    9.320    0.419    0.363
  391.500   64.761    9.140    0.422    0.364
  391.750   64.128    8.963    0.427    0.362
  392.000   64.102    8.958    0.429    0.354
  392.250   65.299    8.784    0.430    0.349
  392.500   68.333    8.776    0.435    0.344
  392.750   70.742    8.607    0.437    0.329
  393.000   71.341    8.281    0.435    0.323
  393.250   70.090    7.970    0.429    0.328
  393.500   68.220    7.667    0.425    0.336
  393.750   67.588    7.662    0.428    0.342
  394.000   66.942    7.950    0.433    0.342
  394.250   66.922    7.946    0.437    0.338
  394.500   68.113    8.088    0.439    0.337
  394.750   68.692    7.784    0.440    0.340
  395.000   68.671    7.491    0.440    0.347
  395.250   68.033    7.345    0.441    0.350
  395.500   66.775    7.067    0.442    0.347
  395.750   66.143    7.063    0.445    0.341
  396.000   65.504    7.055    0.445    0.335
  396.250   66.089    7.051    0.446    0.327
  396.500   69.110    7.047    0.449    0.322
  396.750   70.314    7.039    0.453    0.320
  397.000   72.729    7.035    0.458    0.324
  397.250   73.315    7.164    0.463    0.333
  397.500   72.689    7.294    0.467    0.340
  397.750   70.214    7.571    0.436    0.356
  398.000   65.290    8.006    0.423    0.363
  398.250   58.529    8.959    0.416    0.368
  398.500   54.211    9.836    0.414    0.368
  398.750   52.967   10.401    0.413    0.367
  399.000   49.879   10.593    0.411    0.369
  399.250   43.717   10.585    0.412    0.369
  399.500   41.249   10.576    0.412    0.369
  399.750   39.386   10.771    0.413    0.367
  400.000   41.189   10.761    0.423    0.366
  400.250   43.617   10.958    0.423    0.366
  400.500   46.039   11.158    0.414    0.368
  400.750   49.060   11.150    0.417    0.370
  401.000   49.046   10.935    0.423    0.369
  401.250   48.394   10.521    0.433    0.369
  401.500   48.381    9.933    0.437    0.367
  401.750   48.354    9.558    0.420    0.368
  402.000   50.164    9.553    0.422    0.368
  402.250   52.586    9.727    0.427    0.367
  402.500   53.783    9.903    0.432    0.368
  402.750   54.362   10.875    0.434    0.372
  403.000   54.329   11.719    0.428    0.374
  403.250   53.703   11.931    0.424    0.377
  403.500   52.445   11.924    0.421    0.377
  403.750   50.582   11.693    0.420    0.377
  404.000   51.780   11.463    0.420    0.373
  404.250   54.202   11.243    0.419    0.370
  404.500   56.011   11.027    0.415    0.368
  404.750   55.379   10.607    0.411    0.366
  405.000   52.904   10.208    0.412    0.366
  405.250   51.646   10.010    0.410    0.367
  405.500   53.456   10.002    0.408    0.369
  405.750   56.490    9.997    0.409    0.368
  406.000   59.524    9.618    0.412    0.361
  406.250   61.939    9.431    0.416    0.356
  406.500   62.538    9.248    0.418    0.355
  406.750   63.123    8.897    0.422    0.353
  407.000   63.702    8.892    0.425    0.348
  407.250   64.900    9.053    0.425    0.345
  407.500   64.873    9.219    0.422    0.348
  407.750   64.840    9.389    0.419    0.353
  408.000   63.589    9.743    0.414    0.362
  408.250   61.732   10.301    0.409    0.363
  408.500   56.795   10.893    0.405    0.353
  408.750   54.938   11.094    0.405    0.348
  409.000   54.918   11.512    0.405    0.346
  409.250   56.116   11.943    0.404    0.346
  409.500   56.694   12.393    0.402    0.348
  409.750   54.838   12.858    0.401    0.351
  410.000   52.975   13.098    0.403    0.353
  410.250   51.105   13.591    0.405    0.358
  410.500   50.466   13.579    0.409    0.362
  410.750   50.439   13.318    0.408    0.367
  411.000   50.412   13.054    0.404    0.369
  411.250   49.155   12.803    0.405    0.374
  411.500   48.523   12.796    0.409    0.379
  411.750   46.646   12.545    0.412    0.380
  412.000   46.020   12.072    0.414    0.382
  412.250   45.994   11.618    0.421    0.378
  412.500   47.185   10.969    0.428    0.379
  412.750   48.994   10.555    0.422    0.379
  413.000   50.797   10.350    0.415    0.378
  413.250   50.172    9.408    0.419    0.377
  413.500   48.921    9.055    0.422    0.371
  413.750   48.282    8.714    0.427    0.367
  414.000   51.316    7.923    0.434    0.359
  414.250   55.574    7.625    0.438    0.349
  414.500   59.833    7.064    0.440    0.342
  414.750   62.867    7.058    0.444    0.332
  415.000   65.888    7.188    0.445    0.327
  415.250   67.098    7.460    0.440    0.332
  415.500   68.908    7.742    0.432    0.341
  415.750   69.494    8.499    0.420    0.348
  416.000   66.399    9.331    0.407    0.357
  416.250   63.931   10.249    0.402    0.365
  416.500   59.612   11.046    0.399    0.367
  416.750   57.137   11.901    0.402    0.366
  417.000   54.668   11.454    0.411    0.354
  417.250   50.968   10.415    0.436    0.347
  417.500   49.718    9.293    0.443    0.346
  417.750   59.485    7.834    0.457    0.346
  418.000   68.641    7.259    0.466    0.345
  418.250   70.451    7.119    0.469    0.339
  418.500   66.139    7.249    0.463    0.341
  418.750   61.820    7.382    0.458    0.352
  419.000   59.957    7.805    0.450    0.360
  419.250   59.930    7.949    0.446    0.355
  419.500   59.904    8.565    0.440    0.349
  419.750   59.864    9.230    0.434    0.354
  420.000   59.843    9.397    0.423    0.363
  420.250   59.211    9.571    0.419    0.372
  420.500   56.736    9.744    0.421    0.381
  420.750   51.812   10.109    0.424    0.386
  421.000   47.500   10.494    0.427    0.389
  421.250   45.025   11.095    0.427    0.387
  421.500   44.386   11.513    0.428    0.381
  421.750   44.346   11.949    0.427    0.375
  422.000   44.332   12.399    0.424    0.369
  422.250   43.687   12.390    0.422    0.366
  422.500   43.660   12.381    0.421    0.365
  422.750   46.082   12.138    0.423    0.368
  423.000   50.347   11.464    0.426    0.370
  423.250   52.762    9.665    0.431    0.373
  423.500   52.729    8.956    0.436    0.375
  423.750   52.715    8.947    0.436    0.382
  424.000   52.689    9.461    0.429    0.386
  424.250   53.261    9.820    0.422    0.391
  424.500   53.241   10.384    0.413    0.393
  424.750   52.602   10.978    0.406    0.396
  425.000   50.739   11.181    0.416    0.401
  425.250   50.712   11.381    0.434    0.402
  425.500   53.127   11.375    0.442    0.402
  425.750   54.325   11.366    0.439    0.396
  426.000   52.455   11.358    0.438    0.391
  426.250   51.211   11.784    0.437    0.389
  426.500   50.572   11.777    0.433    0.384
  426.750   49.933   11.548    0.432    0.377
  427.000   50.518   10.112    0.432    0.376
  427.250   52.335    8.529    0.465    0.371
  427.500   54.144    6.544    0.480    0.347
  427.750   57.791    5.116    0.503    0.335
  428.000   68.783    4.480    0.525    0.327
  428.250   87.121    3.923    0.547    0.316
  428.500   93.834    3.500    0.548    0.310
  428.750   97.480    3.182    0.548    0.301
  429.000   99.902    3.063    0.550    0.296
  429.250  100.488    2.947    0.551    0.289
  429.500  101.053    2.944    0.546    0.282
  429.750  101.040    3.055    0.540    0.286
  430.000  101.013    3.355    0.528    0.290
  430.250   99.150    3.549    0.502    0.296
  430.500   96.674    4.202    0.491    0.299
  430.750   92.975    4.976    0.489    0.301
  431.000   88.663    5.567    0.493    0.305
  431.250   83.739    5.563    0.506    0.298
  431.500   80.645    5.253    0.514    0.290
  431.750   81.224    4.688    0.512    0.286
