~VERSION INFORMATION
 VERS.                 2.0:   CWLS LOG ASCII STANDARD -VERSION 2.0
 WRAP.                  NO:   ONE LINE PER DEPTH STEP
~WELL INFORMATION BLOCK
#MNEM.UNIT           DATA                    DESCRIPTION OF MNEMONIC
#---------    -------------------            -------------------------------
# Generated from Intellog Unique Number	CN_94_101/WELL/1163
WELL.         14-20-094-08W4                 : Well_name    - WELL
LOC .         AA/14-20-094-08W4/0            : Location     - LOCATION
UWI .         AA/14-20-094-08W400            : Uwi          - UNIQUE WELL ID
ENTR.         JOETTE                         : Entered      - ENTERED BY
SRVC.         SCHLUMBERGER                   : Scn          - SERVICE COMPANY
DATE.         04/22/92                       : Date         - LOG DATE
STRT.M        15                             : top_depth    - START DEPTH
STOP.M        110                            : bot_depth    - STOP DEPTH
STEP.M        0.25                           : increment    - STEP LENGTH
 NULL. -999.2500:NULL Value
~CURVE INFORMATION BLOCK
#MNEM UNIT       ERCB CURVE CODE    CURVE DESCRIPTION
#-----------   ------------------   ----------------------------------
DEPT.M        00 001 00 00         : DEPTH        - DEPTH
GR  .API      00 310 00 00         : GR           - GAMMA RAY
ILD .OHMM     00 120 00 00         : RESD         - DEEP RESISTIVITY (DIL)
DPHI.V/V      00 890 00 00         : PHID         - DENSITY POROSITY (SANDSTONE)
NPHI.V/V      00 330 00 00         : PHIN         - NEUTRON POROSITY (SANDSTONE)
CALI.MM       00 280 01 00         : CAL          - CALIPER
~PARAMETER INFORMATION
#MNEM.UNIT           DATA             DESCRIPTION OF MNEMONIC
#---------         -----------     ------------------------------
GL  .M        357.19               : gl           - GROUND LEVEL ELEVATION
EREF.M        357.19               : kb           - ELEVATION OF DEPTH REFERENCE
DATM.M        357.19               : datum        - DATUM ELEVATION
TDD .M        112.3                : tdd          - TOTAL DEPTH DRILLER
RUN .         ONE                  : Run          - RUN NUMBER
ENG .         BILL                 : Engineer     - RECORDING ENGINEER
WIT .         JIM                  : Witness      - WITNESSED BY
MUD .         GEL                  : Mud_type     - MUD TYPE
MATR.         SANDSTONE            : Logunit      - NEUTRON MATRIX
TMAX.C        7                    : BHT          - MAXIMUM RECORDED TEMPERATURE
BHTD.M        112.3                : BHTDEP       - MAXIMUM RECORDED TEMPERATURE
RMT .C        7                    : MDTP         - TEMPERATURE OF MUD
MUDD.KG/M     1050                 : MWT          - MUD DENSITY
NEUT.         1                    : NEUTRON      - NEUTRON TYPE
RESI.         0                    : RESIST       - RESISTIVITY TYPE
RM  .OHMM     14.7                 : RM           - RESISTIVITY OF MUD
RMC .OHMM     14.7                 : RMC          - RESISTIVITY OF MUD CAKE
RMF .OHMM     14.7                 : RMF          - RESISTIVITY OF MUD FILTRATE
SUFT.C        4                    : SUFT         - SURFACE TEMPERATURE
~A  DEPTH       GR     RESD     PHID     PHIN      CAL
# ...
   51.500   93.108   34.965    0.300    0.459  128.321
   51.750  100.907   37.049    0.282    0.479  130.552
   52.000  100.954   35.443    0.270    0.439  131.786
   52.250  106.962   34.849    0.279    0.412  131.815
   52.500   92.680   33.642    0.281    0.383  131.653
   52.750   83.177   45.391    0.248    0.370  131.683
   53.000   67.105   52.280    0.244    0.434  133.112
   53.250   78.786   48.627    0.272    0.471  134.146
   53.500   88.374   42.381    0.264    0.412  134.180
   53.750   85.439   27.175    0.246    0.451  134.417
   54.000   86.972   35.327    0.245    0.488  135.443
   54.250   87.313   40.689    0.271    0.470  139.070
   54.500  111.822   15.501    0.280    0.464  139.303
   54.750   96.948   22.320    0.251    0.409  135.747
   55.000   85.948   36.956    0.247    0.413  134.784
   55.250   81.814   54.718    0.251    0.481  136.014
   55.500  110.802   29.127    0.251    0.435  138.648
   55.750  114.424   20.311    0.265    0.430  135.288
   56.000   94.772   22.331    0.280    0.421  132.933
   56.250   84.971   34.637    0.290    0.395  130.969
   56.500   73.970   42.587    0.289    0.380  130.408
   56.750   74.017   48.147    0.295    0.388  128.643
   57.000   71.971   49.615    0.293    0.391  126.484
   57.250   71.119   55.575    0.291    0.401  130.903
   57.500   63.996   53.153    0.283    0.394  129.745
   57.750   67.027   60.669    0.278    0.384  132.574
   58.000   84.674   60.223    0.277    0.404  131.810
   58.250   93.969   31.761    0.281    0.448  131.843
   58.500   92.222   32.135    0.285    0.420  131.873
   58.750   88.386   34.034    0.277    0.418  128.916
   59.000   86.936   61.267    0.274    0.397  131.346
   59.250   72.361   43.919    0.252    0.367  132.974
   59.500   62.256   56.044    0.195    0.345  131.612
   59.750   59.309   76.341    0.221    0.394  132.244
   60.000   73.377   74.384    0.275    0.411  132.680
   60.250   71.331   56.906    0.292    0.400  136.701
   60.500   84.504   47.775    0.279    0.404  135.543
   60.750   81.569   45.270    0.265    0.360  135.772
   61.000   83.102   52.142    0.258    0.409  135.207
   61.250   90.006   35.706    0.258    0.412  133.853
   61.500   89.451   37.112    0.280    0.375  130.888
   61.750   90.095   40.427    0.266    0.387  129.929
   62.000   73.129   45.716    0.271    0.423  129.161
   62.250   85.103   38.748    0.339    0.425  130.793
   62.500   74.108   35.699    0.297    0.373  127.637
   62.750   61.323   58.019    0.278    0.411  131.259
   63.000   68.226   45.230    0.242    0.403  131.093
   63.250   59.915   53.568    0.217    0.425  130.537
   63.500   72.487   62.872    0.219    0.427  130.965
   63.750   79.693   37.765    0.246    0.442  134.392
   64.000   90.181   48.191    0.269    0.419  130.040
   64.250   97.383   30.051    0.289    0.402  130.073
   64.500   80.123   41.692    0.304    0.412  129.106
   64.750   66.438   49.851    0.302    0.412  128.541
   65.000   55.145   59.055    0.297    0.460  117.605
   65.250   51.905   64.930    0.304    0.412  127.217
   65.500   57.615   63.266    0.305    0.385  125.659
   65.750   64.817   82.246    0.300    0.480  124.293
   66.000   63.666  108.925    0.312    0.443  123.529
   66.250   62.520   59.636    0.321    0.427  124.958
   66.500   58.082  102.456    0.320    0.420  122.001
   66.750   52.456  367.051    0.324    0.409  120.440
   67.000   56.387  129.779    0.322    0.373  130.047
   67.250   60.302  195.762    0.309    0.383  125.495
   67.500   64.520  269.084    0.298    0.458  129.317
   67.750   63.071  132.975    0.304    0.443  128.960
   68.000   68.488   68.855    0.304    0.481  127.793
   68.250   58.681   93.769    0.314    0.399  126.830
   68.500   49.177   70.416    0.314    0.381  121.875
   68.750   38.182  177.167    0.321    0.409  121.514
   69.000   36.136  138.081    0.314    0.462  124.737
   69.250   48.707  210.330    0.321    0.415  123.176
   69.500   58.002  256.086    0.315    0.486  117.228
   69.750   57.447  326.782    0.327    0.447  119.260
   70.000   50.335  175.617    0.322    0.415  124.676
   70.250   51.272  151.606    0.320    0.434  130.496
   70.500   54.292  121.530    0.307    0.446  127.535
   70.750   46.877   93.842    0.310    0.407  123.182
   71.000   40.356  183.669    0.293    0.403  120.424
   71.250   54.722  118.868    0.276    0.424  125.048
   71.500   59.836   82.907    0.258    0.453  128.072
   71.750   61.673   74.283    0.259    0.429  133.493
   72.000   81.409   63.533    0.287    0.444  133.526
   72.250   66.232  100.417    0.314    0.423  127.977
   72.500   59.115   60.881    0.310    0.415  118.038
   72.750   54.986  106.582    0.299    0.408  123.259
   73.000   46.968  141.157    0.296    0.423  134.263
   73.250   58.048   70.424    0.311    0.405  124.523
   73.500   63.167   65.488    0.295    0.402  127.352
   73.750   51.868   85.930    0.279    0.386  136.560
   74.000   63.554   54.602    0.273    0.382  130.409
   74.250   60.907   68.376    0.263    0.415  137.026
   74.500   63.932   56.900    0.282    0.479  130.879
   74.750   78.000   42.324    0.272    0.390  133.513
   75.000   63.126   79.075    0.263    0.422  133.937
   75.250   76.598   52.137    0.268    0.408  134.573
   75.500   84.694   39.152    0.276    0.406  133.011
   75.750   74.296   39.963    0.269    0.427  126.461
   76.000   63.295   73.289    0.265    0.443  131.483
   76.250   59.757   97.086    0.291    0.421  134.906
   76.500   74.124   39.840    0.308    0.439  134.142
   76.750   58.052   55.260    0.289    0.360  134.977
   77.000   41.389   82.584    0.273    0.394  134.018
   77.250   59.036  123.449    0.280    0.423  134.048
   77.500   69.823   58.793    0.293    0.354  133.483
   77.750   61.805   62.850    0.283    0.389  130.526
   78.000   62.742   43.815    0.301    0.429  126.772
   78.250   62.199   97.671    0.315    0.409  126.406
   78.500   56.861   62.627    0.301    0.440  128.641
   78.750   55.113   72.150    0.288    0.457  129.672
   79.000   58.442   74.332    0.287    0.420  129.900
   79.250   58.186   50.395    0.308    0.423  130.333
   79.500   62.404   40.024    0.314    0.370  131.371
   79.750   46.636   60.373    0.294    0.407  132.398
   80.000   41.905  208.393    0.272    0.473  133.827
   80.250   67.010   57.331    0.284    0.466  134.861
   80.500   64.075   51.846    0.290    0.384  134.895
   80.750   61.725   54.416    0.296    0.353  134.937
   81.000   30.733  174.375    0.321    0.322  135.759
   81.250   24.809  233.098    0.326    0.326  136.790
   81.500   28.431 1134.790    0.324    0.323  136.828
   81.750   31.163 1169.390    0.300    0.368  135.461
   82.000   24.940  511.998    0.290    0.404  132.309
   82.250   39.605  114.810    0.318    0.358  131.940
   82.500   64.715   74.286    0.328    0.363  133.772
   82.750   31.331  408.186    0.332    0.365  133.610
   83.000   17.950 1027.000    0.338    0.397  134.042
   83.250   22.770 1019.700    0.327    0.372  135.069
   83.500   22.514  260.365    0.315    0.393  138.296
   83.750   22.854  256.060    0.323    0.392  137.732
   84.000   19.610  754.516    0.328    0.388  134.580
   84.250   17.862 1320.900    0.305    0.372  132.819
   84.500   25.964  879.045    0.312    0.344  131.054
   84.750   36.750  168.229    0.284    0.318  131.091
   85.000   42.162  244.500    0.268    0.403  132.317
   85.250   63.991   37.091    0.259    0.397  133.352
   85.500   88.201   51.940    0.279    0.422  132.388
   85.750   74.521   74.808    0.292    0.395  131.629
   86.000   59.941   95.459    0.317    0.454  133.652
   86.250   64.756   62.924    0.338    0.443  133.897
   86.500   44.210  227.532    0.327    0.454  133.324
   86.750   43.954  120.027    0.326    0.426  134.554
   87.000   35.047  267.560    0.323    0.419  135.385
   87.250   38.370  725.142    0.329    0.395  135.622
   87.500   41.699  637.894    0.306    0.419  135.655
   87.750   38.763  169.046    0.318    0.383  136.690
