~VERSION INFORMATION
 VERS.                 2.0:   CWLS LOG ASCII STANDARD -VERSION 2.0
 WRAP.                  NO:   ONE LINE PER DEPTH STEP
~WELL INFORMATION BLOCK
#MNEM.UNIT           DATA                    DESCRIPTION OF MNEMONIC
#---------    -------------------            -------------------------------
# Generated from Intellog Unique Number	CC_88_90/WELL/2305
WELL.         11-24-090-09W4                 : Well_name    - WELL
LOC .         AA/11-24-090-09W4/0            : Location     - LOCATION
UWI .         AA/11-24-090-09W400            : Uwi          - UNIQUE WELL ID
ENTR.         DW                             : Entered      - ENTERED BY
SRVC.         SCHLUMBERGER                   : Scn          - SERVICE COMPANY
STRT.M        9.144                          : top_depth    - START DEPTH
STOP.M        166.894                        : bot_depth    - STOP DEPTH
STEP.M        0.25                           : increment    - STEP LENGTH
 NULL. -999.2500:NULL Value
~CURVE INFORMATION BLOCK
#MNEM UNIT       ERCB CURVE CODE    CURVE DESCRIPTION
#-----------   ------------------   ----------------------------------
DEPT.M        00 001 00 00         : DEPTH        - DEPTH
GR  .API      00 310 00 00         : GR           - GAMMA RAY
DPHI.V/V      00 890 00 00         : PHID         - DENSITY POROSITY (SANDSTONE)
SNP.V/V       00 330 00 00          : SNP          - SIDEWALL NEUTRON POROSITY (SANDSTONE)
ILD .OHMM     00 120 00 00         : RESD         - DEEP RESISTIVITY (DIL)
~PARAMETER INFORMATION
#MNEM.UNIT           DATA             DESCRIPTION OF MNEMONIC
#---------         -----------     ------------------------------
GL  .M        403.311              : gl           - GROUND LEVEL ELEVATION
EREF.M        404.531              : kb           - ELEVATION OF DEPTH REFERENCE
DATM.M        404.531              : datum        - DATUM ELEVATION
TDD .M        170.078              : tdd          - TOTAL DEPTH DRILLER
RUN .         ONE                  : Run          - RUN NUMBER
ENG .         BILL                 : Engineer     - RECORDING ENGINEER
WIT .         JIM                  : Witness      - WITNESSED BY
MUD .         GEL                  : Mud_type     - MUD TYPE
MATR.         SANDSTONE            : Logunit      - NEUTRON MATRIX
TMAX.C        25                   : BHT          - MAXIMUM RECORDED TEMPERATURE
BHTD.M        170.078              : BHTDEP       - MAXIMUM RECORDED TEMPERATURE
MATR.         1                    : LOGUNIT      - NEUTRON MATRIX
RMT .C        25                   : MDTP         - TEMPERATURE OF MUD
NEUT.         0                    : NEUTRON      - NEUTRON TYPE
RESI.         0                    : RESIST       - RESISTIVITY TYPE
RMC .OHMM     0.25                 : RMC          - RESISTIVITY OF MUD CAKE
RMF .OHMM     0.25                 : RMF          - RESISTIVITY OF MUD FILTRATE
SUFT.C        15                   : SUFT         - SURFACE TEMPERATURE
~A  DEPTH       GR     PHID     SNP     RESD
# ...
   96.144   93.855    0.218    0.319    6.391
   96.394   93.595    0.192    0.296    6.341
   96.644   96.309    0.153    0.303    6.371
   96.894   98.037    0.214    0.368    7.055
   97.144   96.784    0.235    0.383    8.434
   97.394   92.906    0.232    0.355    6.183
   97.644   89.879    0.223    0.330    2.755
   97.894   87.698    0.207    0.324    1.757
   98.144   81.996    0.202    0.329    1.684
   98.394   75.053    0.201    0.362    1.810
   98.644   78.337    0.231    0.417    1.999
   98.894   82.749    0.293    0.479    2.116
   99.144   86.108    0.329    0.510    2.255
   99.394   92.033    0.306    0.491    2.459
   99.644   92.254    0.289    0.467    2.796
   99.894   88.317    0.303    0.447    4.115
  100.144   86.027    0.280    0.434    4.467
  100.394   88.315    0.243    0.421    3.573
  100.644   90.166    0.225    0.409    3.265
  100.894   85.782    0.217    0.402    4.464
  101.144   79.716    0.234    0.401    5.819
  101.394   75.763    0.231    0.420    7.126
  101.644   76.544    0.234    0.403    7.604
  101.894   80.640    0.236    0.359    7.372
  102.144   83.671    0.210    0.335    6.443
  102.394   84.832    0.188    0.324    4.266
  102.644   89.904    0.186    0.330    2.878
  102.894   93.771    0.221    0.356    3.040
  103.144   94.226    0.254    0.386    3.463
  103.394   94.681    0.252    0.413    3.367
  103.644   97.222    0.240    0.433    3.494
  103.894   96.446    0.252    0.427    4.036
  104.144   84.769    0.258    0.415    3.372
  104.394   85.757    0.263    0.407    2.920
  104.644   93.399    0.264    0.416    3.248
  104.894   93.156    0.260    0.432    3.477
  105.144   96.087    0.261    0.423    3.348
  105.394   98.785    0.243    0.414    3.122
  105.644   98.687    0.233    0.412    3.159
  105.894   96.723    0.244    0.422    3.429
  106.144   92.695    0.256    0.428    4.036
  106.394   88.951    0.250    0.420    4.680
  106.644   90.581    0.244    0.421    4.288
  106.894   87.872    0.239    0.403    3.507
  107.144   85.900    0.223    0.409    3.872
  107.394   87.254    0.220    0.415    4.189
  107.644   87.493    0.237    0.391    3.878
  107.894   84.595    0.237    0.371    4.634
  108.144   82.055    0.217    0.363    6.519
  108.394   81.001    0.213    0.353   11.306
  108.644   77.921    0.219    0.330   13.139
  108.894   72.951    0.221    0.302   11.796
  109.144   68.273    0.225    0.283   14.977
  109.394   64.979    0.239    0.272   23.047
  109.644   71.422    0.255    0.271   22.344
  109.894   78.740    0.259    0.270   13.839
  110.144   80.703    0.240    0.263    8.744
  110.394   80.618    0.184    0.264   11.233
  110.644   85.713    0.142    0.287   14.784
  110.894   98.609    0.223    0.313   14.487
  111.144  104.980    0.274    0.297    9.329
  111.394  102.103    0.289    0.278    6.871
  111.644   96.913    0.305    0.283    9.436
  111.894   87.691    0.304    0.305   14.186
  112.144   71.452    0.276    0.343   19.021
  112.394   74.034    0.245    0.335   17.767
  112.644   78.308    0.248    0.318   19.046
  112.894   76.354    0.259    0.303   22.126
  113.144   74.596    0.265    0.292   21.058
  113.394   76.042    0.283    0.294   16.655
  113.644   78.906    0.285    0.290   13.867
  113.894   78.731    0.262    0.291   13.893
  114.144   78.509    0.239    0.286   15.408
  114.394   79.497    0.215    0.283   15.563
  114.644   80.566    0.200    0.290   13.955
  114.894   80.543    0.220    0.292   12.570
  115.144   74.834    0.233    0.297   10.993
  115.394   70.384    0.236    0.308   17.139
  115.644   68.876    0.241    0.316   22.410
  115.894   68.027    0.242    0.315   19.713
  116.144   67.893    0.241    0.311   16.406
  116.394   68.745    0.250    0.310   18.677
  116.644   67.309    0.253    0.294   19.480
  116.894   71.756    0.243    0.279   18.099
  117.144   78.027    0.223    0.273   16.331
  117.394   77.259    0.209    0.276   14.641
  117.644   73.869    0.212    0.287   13.380
  117.894   76.153    0.218    0.283   13.451
  118.144   78.344    0.220    0.275   14.100
  118.394   76.026    0.223    0.271   14.601
  118.644   71.137    0.233    0.276   14.583
  118.894   68.067    0.243    0.289   15.413
  119.144   68.995    0.231    0.298   18.195
  119.394   72.629    0.194    0.273   16.800
  119.644   74.845    0.155    0.246   14.527
  119.894   72.679    0.128    0.245   14.819
  120.144   69.412    0.128    0.273   15.786
  120.394   69.747    0.162    0.302   15.182
  120.644   70.085    0.189    0.285   15.440
  120.894   70.699    0.212    0.278   15.137
  121.144   72.338    0.217    0.273   15.834
  121.394   70.906    0.212    0.264   16.663
  121.644   67.215    0.216    0.272   15.579
  121.894   69.762    0.221    0.293   14.624
  122.144   72.305    0.219    0.300   14.954
  122.394   74.188    0.224    0.304   15.308
  122.644   74.055    0.225    0.310   14.806
  122.894   74.247    0.211    0.305   13.823
  123.144   78.204    0.199    0.286   13.021
  123.394   80.028    0.194    0.281   12.560
  123.644   80.248    0.198    0.290   12.893
  123.894   80.044    0.207    0.290   13.816
  124.144   83.173    0.209    0.290   12.601
  124.394   88.094    0.200    0.305   10.634
  124.644   85.475    0.188    0.307   13.486
  124.894   77.040    0.209    0.297   16.136
  125.144   74.816    0.230    0.294   15.240
  125.394   78.425    0.218    0.307   13.118
  125.644   83.711    0.198    0.313   12.111
  125.894   88.627    0.198    0.288   11.594
  126.144   88.811    0.189    0.272   10.895
  126.394   91.479    0.188    0.294   10.229
  126.644   95.777    0.190    0.328    8.927
  126.894   91.663    0.204    0.324    8.719
  127.144   84.817    0.219    0.298   10.206
  127.394   90.287    0.204    0.307   10.417
  127.644   88.840    0.197    0.310    9.202
  127.894   79.778    0.188    0.304    9.866
  128.144   70.177    0.182    0.304   10.933
  128.394   59.451    0.178    0.313   12.634
  128.644   47.659    0.185    0.324   15.763
  128.894   43.738    0.230    0.330   16.860
  129.144   41.325    0.264    0.336   24.484
  129.394   42.012    0.286    0.349   61.398
  129.644   44.875    0.300    0.351   77.459
  129.894   43.786    0.308    0.340   50.514
  130.144   38.242    0.317    0.341   33.253
  130.394   37.524    0.322    0.337   19.846
  130.644   39.003    0.311    0.316   13.277
  130.894   49.767    0.295    0.308   11.363
  131.144   67.875    0.285    0.328    9.791
  131.394   78.267    0.281    0.342    9.588
  131.644   75.582    0.276    0.315   13.193
  131.894   73.898    0.270    0.309   15.843
  132.144   73.538    0.247    0.319   14.604
  132.394   70.446    0.233    0.315   13.858
  132.644   65.740    0.238    0.311   16.098
  132.894   65.860    0.233    0.331   18.061
  133.144   74.526    0.227    0.341   18.430
  133.394   78.979    0.222    0.321   15.630
  133.644   73.947    0.220    0.307   16.090
  133.894   62.923    0.227    0.313   19.155
  134.144   55.506    0.240    0.316   19.823
  134.394   58.914    0.249    0.315   19.530
  134.644   62.900    0.258    0.319   18.096
  134.894   67.903    0.284    0.326   18.996
  135.144   73.522    0.270    0.320   18.540
  135.394   77.399    0.220    0.307   14.893
  135.644   76.891    0.206    0.304   12.852
  135.894   68.808    0.210    0.296   14.514
  136.144   59.963    0.221    0.303   19.753
  136.394   54.774    0.236    0.320   30.085
  136.644   52.825    0.252    0.329   37.161
  136.894   57.792    0.244    0.319   31.651
  137.144   70.499    0.192    0.302   20.838
  137.394   70.680    0.166    0.296   21.640
  137.644   68.768    0.221    0.305   25.058
  137.894   63.016    0.237    0.319   28.662
  138.144   66.688    0.225    0.326   28.570
  138.394   88.365    0.270    0.322   20.340
  138.644   94.246    0.249    0.313   14.671
  138.894   97.298    0.222    0.308   14.778
  139.144   86.987    0.205    0.323   14.949
  139.394   69.982    0.213    0.328   16.334
