~VERSION INFORMATION
 VERS.                 2.0:   CWLS LOG ASCII STANDARD -VERSION 2.0
 WRAP.                  NO:   ONE LINE PER DEPTH STEP
~WELL INFORMATION BLOCK
#MNEM.UNIT           DATA                    DESCRIPTION OF MNEMONIC
#---------    -------------------            -------------------------------
# Generated from Intellog Unique Number	CS_73_76/WELL/3242
WELL.         10-26-076-06W4                 : Well_name    - WELL
LOC .         AA/10-26-076-06W4/0            : Location     - LOCATION
UWI .         AA/10-26-076-06W4/0            : Uwi          - UNIQUE WELL ID
ENTR.         SP                             : Entered      - ENTERED BY
SRVC.         SCHLUMBERGER                   : Scn          - SERVICE COMPANY
STRT.M        145                            : top_depth    - START DEPTH
STOP.M        385                            : bot_depth    - STOP DEPTH
STEP.M        0.25                           : increment    - STEP LENGTH
 NULL. -999.2500:NULL Value
~CURVE INFORMATION BLOCK
#MNEM UNIT       ERCB CURVE CODE    CURVE DESCRIPTION
#-----------   ------------------   ----------------------------------
DEPT.M        00 001 00 00         : DEPTH        - DEPTH
ILD .OHMM     00 120 00 00         : RESD         - DEEP RESISTIVITY (DIL)
DPHI.V/V      00 890 00 00         : PHID         - DENSITY POROSITY (LIMESTONE)
NPHI.V/V      00 330 00 00         : PHIN         - NEUTRON POROSITY (LIMESTONE)
GR  .API      00 310 00 00         : GR           - GAMMA RAY
~PARAMETER INFORMATION
#MNEM.UNIT           DATA             DESCRIPTION OF MNEMONIC
#---------         -----------     ------------------------------
GL  .M        557                  : gl           - GROUND LEVEL ELEVATION
EREF.M        560.67               : kb           - ELEVATION OF DEPTH REFERENCE
DATM.M        557                  : datum        - DATUM ELEVATION
TDD .M        385                  : tdd          - TOTAL DEPTH DRILLER
RUN .         ONE                  : Run          - RUN NUMBER
ENG .         BILL                 : Engineer     - RECORDING ENGINEER
WIT .         JIM                  : Witness      - WITNESSED BY
MUD .         GEL                  : Mud_type     - MUD TYPE
MATR.         LIMESTONE            : Logunit      - NEUTRON MATRIX
TMAX.C        21                   : BHT          - MAXIMUM RECORDED TEMPERATURE
BHTD.M        385                  : BHTDEP       - MAXIMUM RECORDED TEMPERATURE
MATR.         1                    : LOGUNIT      - NEUTRON MATRIX
RMT .C        25                   : MDTP         - TEMPERATURE OF MUD
NEUT.         1                    : NEUTRON      - NEUTRON TYPE
RESI.         0                    : RESIST       - RESISTIVITY TYPE
RMC .OHMM     0.25                 : RMC          - RESISTIVITY OF MUD CAKE
RMF .OHMM     0.25                 : RMF          - RESISTIVITY OF MUD FILTRATE
SUFT.C        15                   : SUFT         - SURFACE TEMPERATURE
~A  DEPTH     RESD     PHID     PHIN       GR
  145.000    2.800    0.306    0.541   90.855
  145.250    2.854    0.307    0.569   90.249
  145.500    2.909    0.308    0.611   89.645
  145.750    2.965    0.305    0.620   89.652
  146.000    3.022    0.303    0.601   90.878
  146.250    3.080    0.289    0.596   93.323
  146.500    3.081    0.275    0.586   93.328
  146.750    3.141    0.272    0.568   89.675
  147.000    3.201    0.280    0.556   88.463
  147.250    3.262    0.287    0.552   88.468
  147.500    3.324    0.293    0.548   87.863
  147.750    3.388    0.299    0.547   87.260
  148.000    3.453    0.295    0.537   85.438
  148.250    3.520    0.282    0.544   84.834
  148.500    3.521    0.271    0.538   83.620
  148.750    3.589    0.270    0.537   83.626
  149.000    3.590    0.268    0.548   86.681
  149.250    3.659    0.268    0.559   89.124
  149.500    3.660    0.266    0.544   92.789
  149.750    3.662    0.260    0.538   95.233
  150.000    3.595    0.256    0.550   94.630
  150.250    3.596    0.250    0.560   93.416
  150.500    3.597    0.247    0.548   93.422
  150.750    3.598    0.253    0.533   95.257
  151.000    3.599    0.262    0.532   97.702
  151.250    3.668    0.269    0.540   97.708
  151.500    3.881    0.279    0.519   96.496
  151.750    4.031    0.269    0.505   97.110
  152.000    4.108    0.247    0.523   97.726
  152.250    4.109    0.225    0.540   94.684
  152.500    4.268    0.241    0.517   91.031
  152.750    4.432    0.263    0.518   89.207
  153.000    4.603    0.267    0.518   90.434
  153.250    4.604    0.258    0.520   91.049
  153.500    4.520    0.251    0.535   91.053
  153.750    4.522    0.264    0.555   91.669
  154.000    4.608    0.268    0.563   92.285
  154.250    4.786    0.262    0.542   92.901
  154.500    5.458    0.241    0.528   91.687
  154.750    5.774    0.216    0.517   80.717
  155.000    6.585    0.198    0.491   58.163
  155.250    8.402    0.123    0.293   40.486
  155.500   12.452    0.098    0.284   31.955
  155.750   18.804    0.119    0.311   33.790
  156.000   24.907    0.162    0.346   30.748
  156.250   22.690    0.263    0.368   27.095
  156.500   14.214    0.295    0.385   30.759
  156.750   10.151    0.326    0.413   45.400
  157.000    7.387    0.320    0.424   56.990
  157.250    5.902    0.267    0.445   77.118
  157.500    5.083    0.255    0.472   99.075
  157.750    4.545    0.240    0.466   96.641
  158.000    4.900    0.226    0.479   96.647
  158.250    6.251    0.233    0.495   99.092
  158.500    9.093    0.242    0.509   95.440
  158.750   12.044    0.246    0.499   70.446
  159.000   14.803    0.230    0.462   69.843
  159.250   16.882    0.223    0.413   71.069
  159.500   16.887    0.238    0.424   73.513
  159.750   15.098    0.248    0.434   75.349
  160.000   14.279    0.238    0.408   78.404
  160.250   14.282    0.232    0.386   82.067
  160.500   15.689    0.239    0.398   86.950
  160.750   17.560    0.251    0.421   86.348
  161.000   18.931    0.265    0.442   83.914
  161.250   19.661    0.273    0.416   87.578
  161.500   19.667    0.276    0.427   92.463
  161.750   18.949    0.278    0.446   92.469
  162.000   17.921    0.284    0.414   92.473
  162.250   16.946    0.266    0.420   96.749
  162.500   15.438    0.242    0.443   99.803
  162.750   14.599    0.228    0.448  102.250
  163.000   14.069    0.217    0.446  103.474
  163.250   14.338    0.203    0.416  105.308
  163.500   15.172    0.204    0.415  106.533
  163.750   16.356    0.218    0.427  103.490
  164.000   17.305    0.236    0.444   71.789
  164.250   19.011    0.264    0.451   60.819
  164.500   19.015    0.293    0.452   55.337
  164.750   20.122    0.317    0.431   59.612
  165.000   20.896    0.299    0.418   63.886
  165.250   22.109    0.274    0.421   67.551
  165.500   23.835    0.275    0.420   60.851
  165.750   26.182    0.291    0.418   54.758
  166.000   27.704    0.316    0.417   47.447
  166.250   27.712    0.341    0.394   53.551
  166.500   23.866    0.330    0.399   56.605
  166.750   19.797    0.319    0.405   63.928
  167.000   16.733    0.323    0.423   72.470
  167.250   14.410    0.318    0.427   84.671
  167.500   11.954    0.304    0.421   90.774
  167.750   10.688    0.250    0.422   95.659
  168.000    9.556    0.227    0.432   99.323
  168.250    8.705    0.231    0.465  101.768
  168.500    8.079    0.236    0.450  102.383
  168.750    7.932    0.242    0.441  101.781
  169.000    8.084    0.233    0.449  100.567
  169.250    9.571    0.232    0.478   98.743
  169.500   12.442    0.240    0.486   95.089
  169.750   19.143    0.249    0.471   82.900
  170.000   25.356    0.274    0.459   73.760
  170.250   34.223    0.303    0.428   53.644
  170.500   39.027    0.323    0.390   42.675
  170.750   39.042    0.331    0.392   39.631
  171.000   38.328    0.321    0.383   38.420
  171.250   36.251    0.318    0.372   38.424
  171.500   34.925    0.321    0.381   40.869
  171.750   31.815    0.336    0.392   45.755
  172.000   28.982    0.348    0.419   48.807
  172.250   25.431    0.359    0.426   55.522
  172.500   22.736    0.351    0.415   61.624
  172.750   19.216    0.328    0.400   71.385
  173.000   15.070    0.295    0.393   84.197
  173.250   10.763    0.271    0.404   94.568
  173.500    8.929    0.246    0.424  104.941
  173.750    7.983    0.190    0.432  110.433
  174.000    7.137    0.144    0.448  111.658
  174.250    6.749    0.170    0.464  106.787
  174.500    6.264    0.154    0.446  103.744
  174.750    5.707    0.147    0.448  110.457
  175.000    5.498    0.177    0.464  117.171
  175.250    5.103    0.212    0.486  114.738
  175.500    4.826    0.217    0.506  111.085
  175.750    4.564    0.218    0.532  109.872
  176.000    4.398    0.218    0.513  108.658
  176.250    4.567    0.212    0.508  109.273
  176.500    4.742    0.208    0.508  111.717
  176.750    5.721    0.210    0.496  113.553
  177.000    7.164    0.218    0.518  103.194
  177.250    9.669    0.234    0.538   88.565
  177.500   12.570    0.270    0.475   66.619
  177.750   15.163    0.289    0.406   57.479
  178.000   16.044    0.275    0.361   66.632
  178.250   17.623    0.251    0.383   73.956
  178.500   16.667    0.251    0.427   73.961
  178.750   15.762    0.267    0.432   67.259
  179.000   15.765    0.282    0.421   67.876
  179.250   16.069    0.268    0.406   68.491
  179.500   16.381    0.258    0.403   69.716
  179.750   16.385    0.259    0.413   72.773
  180.000   16.390    0.266    0.406   74.607
  180.250   16.394    0.275    0.382   76.440
  180.500   16.096    0.263    0.389   77.057
  180.750   15.801    0.248    0.417   75.843
  181.000   15.230    0.255    0.418   78.287
  181.250   15.234    0.248    0.397   81.343
  181.500   14.957    0.240    0.385   80.131
  181.750   14.961    0.232    0.381   79.525
  182.000   14.966    0.234    0.386   78.313
  182.250   14.970    0.237    0.399   77.707
  182.500   14.973    0.239    0.401   77.713
  182.750   14.976    0.240    0.418   81.378
  183.000   14.704    0.242    0.422   81.993
  183.250   14.709    0.253    0.433   79.561
  183.500   14.712    0.261    0.437   77.737
  183.750   14.720    0.256    0.426   76.524
  184.000   14.450    0.251    0.418   75.309
  184.250   14.454    0.254    0.405   74.096
  184.500   14.190    0.249    0.394   73.492
  184.750   14.198    0.235    0.392   75.327
  185.000   14.203    0.238    0.391   76.553
  185.250   14.206    0.238    0.392   75.340
  185.500   14.209    0.234    0.393   77.785
  185.750   14.481    0.236    0.394   79.620
  186.000   15.614    0.235    0.398   79.625
  186.250   16.833    0.236    0.419   77.192
  186.500   18.146    0.244    0.427   74.149
  186.750   21.085    0.257    0.431   68.057
  187.000   24.502    0.268    0.409   60.746
  187.250   25.922    0.274    0.340   55.875
  187.500   27.947    0.262    0.349   53.441
  187.750   29.570    0.274    0.403   52.227
  188.000   30.139    0.293    0.396   53.454
  188.250   30.150    0.272    0.385   55.901
