~VERSION INFORMATION
 VERS.                 2.0:   CWLS LOG ASCII STANDARD -VERSION 2.0
 WRAP.                  NO:   ONE LINE PER DEPTH STEP
~WELL INFORMATION BLOCK
#MNEM.UNIT           DATA                    DESCRIPTION OF MNEMONIC
#---------    -------------------            -------------------------------
# Generated from Intellog Unique Number	CC_84_87/WELL/2345
NULL.         -999.25                        : NULL_VALUE
WELL.         ARCO ACI MCMURRAY              : Well_name    - WELL
LOC .         13-26-084-11W4                 : Location     - LOCATION          
UWI .         AA/13-26-084-11W400            : Uwi          - UNIQUE WELL ID    
ENTR.         JHS                            : Entered      - ENTERED BY        
SRVC.         SCHLUMBERGER                   : Scn          - SERVICE COMPANY   
DATE.         17 JAN 74                      : Date         - LOG DATE
STRT.M        76.2                           : top_depth    - START DEPTH       
STOP.M        317.906                        : bot_depth    - STOP DEPTH        
STEP.M        0.3048                         : increment    - STEP LENGTH       
~CURVE INFORMATION BLOCK
#MNEM UNIT       ERCB CURVE CODE    CURVE DESCRIPTION
#-----------   ------------------   ----------------------------------
DEPT.M        00 001 00 00         : DEPTH        - DEPTH                       
NPHI.V/V      00 330 00 00         : PHIN         - NEUTRON POROSITY (LIMESTONE)
GR  .API      00 310 00 00         : GR           - GAMMA RAY                   
ILD .OHMM     00 120 00 00         : RESD         - DEEP RESISTIVITY (DIL)      
~PARAMETER INFORMATION       
#MNEM.UNIT           DATA             DESCRIPTION OF MNEMONIC
#---------         -----------     ------------------------------
GL  .M        566.318              : gl           - GROUND LEVEL ELEVATION      
EREF.M        567.995              : kb           - ELEVATION OF DEPTH REFERENCE
DATM.M        567.995              : datum        - DATUM ELEVATION             
TDD .M        317.906              : tdd          - TOTAL DEPTH DRILLER         
RUN .         ONE                  : Run          - RUN NUMBER                  
ENG .         BILL                 : Engineer     - RECORDING ENGINEER          
WIT .         JIM                  : Witness      - WITNESSED BY                
MUD .         GEL                  : Mud_type     - MUD TYPE                    
MATR.         LIMESTONE            : Logunit      - NEUTRON MATRIX              
TMAX.C        60                   : BHT          - MAXIMUM RECORDED TEMPERATURE
BHTD.M        317.906              : BHTDEP       - MAXIMUM RECORDED TEMPERATURE
MATR.         1                    : LOGUNIT      - NEUTRON MATRIX              
RMT .C        25                   : MDTP         - TEMPERATURE OF MUD          
NEUT.         1                    : NEUTRON      - NEUTRON TYPE                
RESI.         0                    : RESIST       - RESISTIVITY TYPE            
RMC .OHMM     0.25                 : RMC          - RESISTIVITY OF MUD CAKE     
RMF .OHMM     0.25                 : RMF          - RESISTIVITY OF MUD FILTRATE 
SUFT.C        15                   : SUFT         - SURFACE TEMPERATURE         
~A  DEPTH     PHIN       GR     RESD
# ...
  274.623    0.289   72.124   11.849
  274.928    0.289   72.136   12.288
  275.233    0.284   63.780   13.215
  275.538    0.272   64.189   13.704
  275.843    0.273   75.755   14.211
  276.147    0.299   87.320   15.008
  276.452    0.296   96.096   15.563
  276.757    0.296  105.270   16.140
  277.062    0.310  113.251   17.357
  277.367    0.284   82.184   18.330
  277.671    0.292   86.578   19.712
  277.976    0.292   81.011   21.984
  278.281    0.291   85.406   24.076
  278.586    0.303   58.324   25.425
  278.891    0.306   57.141   25.892
  279.195    0.285   61.932   25.892
  279.500    0.292   79.872   25.425
  279.805    0.292   78.289   24.967
  280.110    0.317   63.957   23.642
  280.415    0.298   54.406   21.984
  280.720    0.290   62.783   19.009
  281.024    0.290   67.577   18.000
  281.329    0.287   64.400   18.330
  281.634    0.293   66.403   20.817
  281.939    0.289   76.375   23.216
  282.244    0.293   81.166   23.216
  282.548    0.312   95.918   22.387
  282.853    0.302   66.845   21.984
  283.158    0.294   55.303   23.642
  283.463    0.297   59.696   27.844
  283.768    0.301   57.715   38.623
  284.072    0.315   56.133   55.557
  284.377    0.325   57.339   64.253
  284.682    0.308   55.359   59.747
  284.987    0.307   69.313   52.608
  285.292    0.291   70.522   53.573
  285.596    0.311   67.742   60.843
  285.901    0.304   59.386   94.121
  286.206    0.315   63.381  137.871
  286.511    0.320   53.033  209.437
  286.816    0.324   56.630  255.797
  287.121    0.320   67.000  233.572
  287.425    0.323   56.652  229.365
  287.730    0.316   41.125  246.664
  288.035    0.317   32.770  237.857
  288.340    0.304   36.765  209.437
  288.645    0.316   48.728  242.220
  288.949    0.315   52.724  233.572
  289.254    0.306   49.946  148.270
  289.559    0.320   38.801  119.211
  289.864    0.322   32.039  137.871
  290.169    0.316   23.285  187.795
  290.473    0.317   28.476  348.422
  290.778    0.314   34.064  410.353
  291.083    0.310   28.896  348.422
  291.388    0.309   24.126  402.961
  291.693    0.306   27.325  367.951
  291.997    0.309   24.546  361.322
  292.302    0.315   22.565  285.275
  292.607    0.307   26.959  221.175
  292.912    0.333   30.158  181.090
  293.217    0.355   22.997  156.580
  293.522    0.368   28.585  140.400
  293.826    0.373   34.175  174.625
  294.131    0.326   29.006  275.089
  294.436    0.322   25.034  466.038
  294.741    0.310   23.850  579.639
  295.046    0.294   22.664  558.944
  295.350    0.296   17.895  441.303
  295.655    0.308   23.086  323.986
  295.960    0.307   27.081  246.664
  296.265    0.311   25.099  225.233
  296.570    0.309   25.112  221.175
  296.874    0.332   31.497  213.279
  297.179    0.336   27.125  187.795
  297.484    0.327   27.136  130.554
  297.789    0.336   31.531  121.398
  298.094    0.339   30.346  125.893
  298.398    0.327   25.975  145.599
  298.703    0.317   21.603  177.828
  299.008    0.327   16.035  184.412
  299.313    0.318   14.055  177.828
  299.618    0.307   18.448  156.580
  299.923    0.335   27.623  145.599
  300.227    0.347   27.634  148.270
  300.532    0.331   28.044  153.760
  300.837    0.335   25.665  165.356
  301.142    0.341   33.245  191.240
  301.447    0.320   21.702  209.437
  301.751    0.330   23.307  213.279
  302.056    0.314   31.684  187.795
  302.361    0.321   32.492  135.388
  302.666    0.330   21.348  112.884
  302.971    0.349   22.554  108.853
  303.275    0.336   21.768  108.853
  303.580    0.345   24.568  119.211
  303.885    0.339   20.597  148.270
  304.190    0.327   19.809  177.828
  304.495    0.325   25.797  213.279
  304.799    0.326   26.606  229.365
  305.104    0.330   23.031  194.748
  305.409    0.304   20.651  148.270
  305.714    0.326   22.654  121.398
  306.019    0.322   19.876  106.893
  306.324    0.317   20.285  103.076
  306.628    0.327   24.678   99.396
  306.933    0.340   31.462   89.125
  307.238    0.328   21.115   72.972
  307.543    0.320   21.126   48.037
  307.848    0.322   24.722   32.794
  308.152    0.324   20.749   20.817
  308.457    0.286   28.730   18.000
  308.762    0.297   28.740   18.666
  309.067    0.298   19.588   21.588
  309.372    0.285   22.785   26.850
  309.676    0.310   26.781   36.573
  309.981    0.294   32.768   36.573
  310.286    0.303   20.827   37.244
  310.591    0.301   20.041   40.787
  310.896    0.327   25.232   48.919
  311.200    0.316   26.439   57.614
  311.505    0.300   29.637   66.632
  311.810    0.314   31.242   64.253
  312.115    0.324   38.822   59.747
  312.420    0.316   55.567   64.253
  312.725    0.314   59.563   71.658
  313.029    0.314   64.354   74.311
  313.334    0.319   37.671   71.658
  313.639    0.318   34.495   65.432
  313.944    0.299   52.435   59.747
  314.249    0.286   45.275   59.747
  314.553    0.301   42.895   65.432
  314.858    0.314   38.125   69.099
  315.163    0.311   40.129   58.671
  315.468    0.302   43.326   32.794
  315.773    0.324   40.549   19.712
  316.077    0.296   38.567   15.849
  316.382    0.275   36.984   14.211
  316.687    0.261   40.981   13.215
  316.992    0.247   43.780   14.211
  317.297    0.181   36.621   16.140
  317.601    0.139   37.826   17.675
  317.906    0.130   47.001   18.000
