~VERSION INFORMATION
 VERS.                 2.0:   CWLS LOG ASCII STANDARD -VERSION 2.0
 WRAP.                  NO:   ONE LINE PER DEPTH STEP
~WELL INFORMATION BLOCK
#MNEM.UNIT           DATA                    DESCRIPTION OF MNEMONIC
#---------    -------------------            -------------------------------
# Generated from Intellog Unique Number	CN_94_101/WELL/5005
WELL.         10-18-098-10W4                 : Well_name    - WELL
LOC .         AA/10-18-098-10W4/0            : Location     - LOCATION
UWI .         AA/10-18-098-10W400            : Uwi          - UNIQUE WELL ID
ENTR.         TIM                            : Entered      - ENTERED BY
SRVC.         SCHLUMBERGER                   : Scn          - SERVICE COMPANY
DATE.         08/11/92                       : Date         - LOG DATE
STRT.M        0                              : top_depth    - START DEPTH
STOP.M        80                             : bot_depth    - STOP DEPTH
STEP.M        0.25                           : increment    - STEP LENGTH
 NULL. -999.2500:NULL Value
~CURVE INFORMATION BLOCK
#MNEM UNIT       ERCB CURVE CODE    CURVE DESCRIPTION
#-----------   ------------------   ----------------------------------
DEPT.M        00 001 00 00         : DEPTH        - DEPTH
GR  .API      00 310 00 00         : GR           - GAMMA RAY
ILD .OHMM     00 120 00 00         : RESD         - DEEP RESISTIVITY (DIL)
NPHI.V/V      00 330 00 00         : PHIN         - NEUTRON POROSITY (SANDSTONE)
DPHI.V/V      00 890 00 00         : PHID         - DENSITY POROSITY (SANDSTONE)
~PARAMETER INFORMATION
#MNEM.UNIT           DATA             DESCRIPTION OF MNEMONIC
#---------         -----------     ------------------------------
GL  .M        275.76               : gl           - GROUND LEVEL ELEVATION
EREF.M        275.76               : kb           - ELEVATION OF DEPTH REFERENCE
DATM.M        275.76               : datum        - DATUM ELEVATION
TDD .M        81                   : tdd          - TOTAL DEPTH DRILLER
RUN .         ONE                  : Run          - RUN NUMBER
ENG .         BILL                 : Engineer     - RECORDING ENGINEER
WIT .         JIM                  : Witness      - WITNESSED BY
MUD .         GEL                  : Mud_type     - MUD TYPE
MATR.         SANDSTONE            : Logunit      - NEUTRON MATRIX
TMAX.C        10                   : BHT          - MAXIMUM RECORDED TEMPERATURE
BHTD.M        81                   : BHTDEP       - MAXIMUM RECORDED TEMPERATURE
RMT .C        10                   : MDTP         - TEMPERATURE OF MUD
MUDD.KG/M     1090                 : MWT          - MUD DENSITY
NEUT.         1                    : NEUTRON      - NEUTRON TYPE
RESI.         0                    : RESIST       - RESISTIVITY TYPE
RM  .OHMM     13.1                 : RM           - RESISTIVITY OF MUD
RMC .OHMM     13.1                 : RMC          - RESISTIVITY OF MUD CAKE
RMF .OHMM     13.1                 : RMF          - RESISTIVITY OF MUD FILTRATE
SUFT.C        4                    : SUFT         - SURFACE TEMPERATURE
~A  DEPTH       GR     RESD     PHIN     PHID
# ...
   43.500   59.031  313.789    0.498    0.387
   43.750   59.630  283.945    0.503    0.380
   44.000   60.842  242.723    0.489    0.365
   44.250   63.276  187.814    0.459    0.347
   44.500   76.078  143.274    0.463    0.352
   44.750   99.250  103.240    0.473    0.351
   45.000  111.442   82.191    0.483    0.324
   45.250  102.284  135.201    0.492    0.285
   45.500   76.657  245.711    0.538    0.312
   45.750   66.890  326.497    0.568    0.353
   46.000   59.560  360.514    0.478    0.358
   46.250   58.945  350.340    0.448    0.351
   46.500   63.207  299.454    0.464    0.349
   46.750   67.469  238.401    0.440    0.343
   47.000   72.951  184.470    0.426    0.340
   47.250   79.653  164.567    0.437    0.347
   47.500   82.696  153.214    0.462    0.349
   47.750   68.654  136.672    0.473    0.355
   48.000   72.309  127.254    0.488    0.365
   48.250   77.181  129.035    0.482    0.368
   48.500   77.171  142.502    0.488    0.357
   48.750   74.724  157.362    0.497    0.347
   49.000   71.666  168.924    0.521    0.337
   49.250   68.610  171.288    0.528    0.340
   49.500   64.333  168.812    0.534    0.348
   49.750   64.323  178.595    0.544    0.368
   50.000   69.807  227.434    0.556    0.377
   50.250   70.409  244.145    0.564    0.387
   50.500   66.132  281.386    0.577    0.395
   50.750   61.242  353.213    0.553    0.397
   51.000   61.235  363.258    0.540    0.400
   51.250   59.397  343.045    0.518    0.400
   51.500   57.560  333.309    0.515    0.395
   51.750   56.942  333.199    0.517    0.393
   52.000   57.540  352.597    0.509    0.372
   52.250   57.537  352.480    0.496    0.385
   52.500   56.919  347.384    0.496    0.379
   52.750   57.521  347.240    0.490    0.368
   53.000   58.122  342.220    0.471    0.371
   53.250   56.284  337.244    0.457    0.365
   53.500   56.888  337.189    0.441    0.349
   53.750   58.100  332.314    0.435    0.339
   54.000   58.091  327.510    0.422    0.327
   54.250   56.863  318.162    0.405    0.315
   54.500   56.246  318.056    0.393    0.304
   54.750   56.850  318.003    0.419    0.316
   55.000   58.672  322.427    0.468    0.335
   55.250   61.100  331.624    0.486    0.348
   55.500   61.093  345.944    0.501    0.381
   55.750   59.865  345.887    0.516    0.398
   56.000   58.638  355.724    0.513    0.397
   56.250   56.800  360.702    0.508    0.377
   56.500   55.574  370.992    0.505    0.355
   56.750   55.565  376.183    0.495    0.360
   57.000   55.557  376.027    0.488    0.365
   57.250   57.989  370.591    0.466    0.356
   57.500   57.981  360.103    0.459    0.353
   57.750   56.754  354.868    0.455    0.350
   58.000   55.528  370.222    0.458    0.357
   58.250   54.300  391.808    0.447    0.367
   58.500   52.461  426.517    0.449    0.358
   58.750   51.843  438.757    0.453    0.363
   59.000   52.444  451.273    0.461    0.358
   59.250   51.824  457.588    0.455    0.351
   59.500   50.600  444.602    0.447    0.357
   59.750   49.373  425.880    0.449    0.360
   60.000   49.975  402.149    0.456    0.354
   60.250   54.845  396.368    0.462    0.354
   60.500   57.887  379.677    0.458    0.359
   60.750   61.540  374.157    0.447    0.354
   61.000   62.754  368.749    0.450    0.346
   61.250   62.136  363.418    0.451    0.341
   61.500   61.517  353.103    0.451    0.335
   61.750   61.509  333.456    0.451    0.331
   62.000   63.331  319.414    0.446    0.329
   62.250   65.155  284.951    0.439    0.320
   62.500   64.538  217.374    0.427    0.315
   62.750   63.918  156.649    0.414    0.319
   63.000   63.910  128.311    0.405    0.323
   63.250   65.733   91.152    0.388    0.327
   63.500   66.945   50.845    0.379    0.321
   63.750   99.876   24.952    0.384    0.243
   64.000  117.556   16.509    0.383    0.238
   64.250  116.329   16.740    0.352    0.240
   64.500  118.151   16.734    0.296    0.245
   64.750  121.195   16.729    0.301    0.251
   65.000  132.167   15.575    0.312    0.264
   65.250  135.815   15.132    0.326    0.292
   65.500  135.810   14.290    0.351    0.295
   65.750  135.190   13.689    0.357    0.284
   66.000  134.576   13.300    0.350    0.286
   66.250  132.129   12.740    0.342    0.283
   66.500  127.851   11.528    0.352    0.293
   66.750  118.084   10.285    0.382    0.320
   67.000  106.486    8.791    0.410    0.390
   67.250  102.819    8.664    0.434    0.416
   67.500  113.181    9.168    0.477    0.444
   67.750  119.273    9.565    0.514    0.400
   68.000  128.411    9.699    0.567    0.320
   68.250  129.625   10.410    0.582    0.305
   68.500  129.006   11.016    0.587    0.300
   68.750  131.438   11.825    0.587    0.313
   69.000  133.872   12.874    0.587    0.311
   69.250  138.134   13.241    0.585    0.304
   69.500  137.515   13.618    0.583    0.280
   69.750  135.069   14.208    0.584    0.220
   70.000  128.352   14.613    0.585    0.212
   70.250  120.414   14.817    0.584    0.144
   70.500  113.695   15.024    0.579    0.190
   70.750  111.249   15.021    0.579    0.232
   71.000  104.532   14.595    0.581    0.164
   71.250  106.354   14.590    0.582    0.249
   71.500  108.784   14.794    0.581    0.295
   71.750  113.046   14.788    0.582    0.295
   72.000  111.209   14.368    0.586    0.294
   72.250  106.931   13.960    0.588    0.295
   72.500  108.142   13.956    0.588    0.291
   72.750  112.406   13.560    0.588    0.255
   73.000  117.888   13.364    0.583    0.219
   73.250  125.200   13.169    0.577    0.133
   73.500  135.562   13.164    0.572    0.188
   73.750  146.534   13.162    0.561    0.112
   74.000  116.637   13.346    0.544    0.061
   74.250  110.530   13.727    0.543    0.044
   74.500  113.572   15.158    0.550    0.042
   74.750  119.052   16.505    0.555    0.041
   75.000  121.484   19.295    0.561    0.031
   75.250  115.989   20.418    0.560    0.014
   75.500   98.290   20.412    0.517    0.013
   75.750  106.212   20.115    0.474    0.010
   76.000  109.862   20.108    0.380    0.008
   76.250  106.195   19.816    0.287    0.010
   76.500  104.969   19.812    0.339    0.016
   76.750  109.839   19.806    0.359    0.029
   77.000  114.713   20.371    0.314    0.047
   77.250  111.046   22.179    0.295    0.072
   77.500  105.548   24.845    0.427    0.080
   77.750   99.441   29.884    0.397    0.031
   78.000   96.991   34.442    0.348    0.014
   78.250  100.035   32.523    0.297    0.022
   78.500  103.687   30.716    0.288    0.031
   78.750  110.390   30.272    0.313    0.043
   79.000  110.382   29.413    0.318    0.051
   79.250  108.540   29.400    0.316    0.044
   79.500  106.703   29.388    0.314    0.030
   79.750  104.255   29.378    0.318    0.015
   80.000  103.637   28.954    0.329    0.010
