~VERSION INFORMATION
 VERS.                 2.0:   CWLS LOG ASCII STANDARD -VERSION 2.0
 WRAP.                  NO:   ONE LINE PER DEPTH STEP
~WELL INFORMATION BLOCK
#MNEM.UNIT           DATA                    DESCRIPTION OF MNEMONIC
#---------    -------------------            -------------------------------
# Generated from Intellog Unique Number	CX_WELLS/WELL/3697
WELL.         HANGINGSTONE OV 11-6           : Well_name    - WELL
LOC .         AA/11-06-085-11W4/0            : Location     - LOCATION
UWI .         AA/11-06-085-11W400            : Uwi          - UNIQUE WELL ID
ENTR.         T                              : Entered      - ENTERED BY
SRVC.         SCHLUMBERGER                   : Scn          - SERVICE COMPANY
STRT.M        95                             : top_depth    - START DEPTH
STOP.M        285                            : bot_depth    - STOP DEPTH
STEP.M        0.25                           : increment    - STEP LENGTH
 NULL. -999.2500:NULL Value
~CURVE INFORMATION BLOCK
#MNEM UNIT       ERCB CURVE CODE    CURVE DESCRIPTION
#-----------   ------------------   ----------------------------------
DEPT.M        00 001 00 00         : DEPTH        - DEPTH
GR  .API      00 310 00 00         : GR           - GAMMA RAY
NPHI.V/V      00 330 00 00         : PHIN         - NEUTRON POROSITY (SANDSTONE)
DPHI.V/V      00 890 00 00         : PHID         - DENSITY POROSITY (SANDSTONE)
ILD .OHMM     00 120 00 00         : RESD         - DEEP RESISTIVITY (OTHER)
~PARAMETER INFORMATION
#MNEM.UNIT           DATA             DESCRIPTION OF MNEMONIC
#---------         -----------     ------------------------------
GL  .M        532                  : gl           - GROUND LEVEL ELEVATION
EREF.M        537.2                : kb           - ELEVATION OF DEPTH REFERENCE
DATM.M        537.2                : datum        - DATUM ELEVATION
TDD .M        292                  : tdd          - TOTAL DEPTH DRILLER
RUN .         ONE                  : Run          - RUN NUMBER
ENG .         BILL                 : Engineer     - RECORDING ENGINEER
WIT .         JIM                  : Witness      - WITNESSED BY
MUD .         GEL                  : Mud_type     - MUD TYPE
MATR.         SANDSTONE            : Logunit      - NEUTRON MATRIX
TMAX.C        20                   : BHT          - MAXIMUM RECORDED TEMPERATURE
BHTD.M        292                  : BHTDEP       - MAXIMUM RECORDED TEMPERATURE
MATR.         1                    : LOGUNIT      - NEUTRON MATRIX
RMT .C        25                   : MDTP         - TEMPERATURE OF MUD
NEUT.         1                    : NEUTRON      - NEUTRON TYPE
RESI.         3.4                  : RESIST       - RESISTIVITY TYPE
RMC .OHMM     2.9                  : RMC          - RESISTIVITY OF MUD CAKE
RMF .OHMM     2.07                 : RMF          - RESISTIVITY OF MUD FILTRATE
SUFT.C        4                    : SUFT         - SURFACE TEMPERATURE
~A  DEPTH       GR     PHIN     PHID     RESD
# ...
  225.500   87.153    0.426    0.287    7.543
  225.750   89.653    0.417    0.245    7.547
  226.000   93.385    0.416    0.231    7.273
  226.250   98.968    0.413    0.233    6.751
  226.500   98.393    0.417    0.270    6.756
  226.750   97.193    0.459    0.281    7.018
  227.000  105.242    0.462    0.275    7.717
  227.250  113.292    0.441    0.271    8.016
  227.500  121.341    0.434    0.269    8.175
  227.750  123.841    0.430    0.263    7.306
  228.000  118.941    0.432    0.258    6.290
  228.250  114.657    0.434    0.256    5.314
  228.500  111.607    0.435    0.256    4.751
  228.750  111.648    0.433    0.259    4.665
  229.000  112.298    0.436    0.259    4.581
  229.250  113.564    0.441    0.256    4.584
  229.500  114.830    0.446    0.255    4.501
  229.750  114.255    0.457    0.257    4.504
  230.000  112.438    0.466    0.258    4.507
  230.250  111.854    0.461    0.257    4.509
  230.500  114.345    0.458    0.260    4.429
  230.750  114.378    0.450    0.266    4.432
  231.000  115.028    0.448    0.267    4.434
  231.250  116.294    0.446    0.267    4.436
  231.500  115.102    0.444    0.261    4.439
  231.750  115.135    0.439    0.252    4.443
  232.000  115.777    0.406    0.251    4.445
  232.250  118.901    0.402    0.215    4.619
  232.500  115.226    0.402    0.255    4.799
  232.750   99.226    0.406    0.262    5.080
  233.000   89.392    0.452    0.279    6.021
  233.250   91.275    0.460    0.287    6.743
  233.500   93.775    0.428    0.266    7.696
  233.750   92.574    0.403    0.265    8.621
  234.000   86.441    0.403    0.264   10.608
  234.250   81.549    0.406    0.267   12.107
  234.500   86.507    0.413    0.272   11.028
  234.750   89.006    0.395    0.275    9.674
  235.000   82.873    0.389    0.275    8.648
  235.250   75.514    0.389    0.273    9.506
  235.500   72.464    0.388    0.270   10.450
  235.750   73.122    0.388    0.263   11.274
  236.000   74.371    0.388    0.258   11.711
  236.250   76.879    0.386    0.260   17.396
  236.500   78.146    0.385    0.264   18.416
  236.750   77.562    0.395    0.269   19.131
  237.000   76.353    0.407    0.272   19.879
  237.250   74.544    0.403    0.273   19.889
  237.500   74.578    0.400    0.268   18.121
  237.750   74.602    0.390    0.259   17.461
  238.000   75.268    0.382    0.252   16.514
  238.250   77.768    0.374    0.249   16.521
  238.500   80.876    0.365    0.244   17.165
  238.750   85.226    0.361    0.233   17.507
  239.000   89.575    0.367    0.212   17.845
  239.250  100.091    0.367    0.224   17.202
  239.500  110.616    0.360    0.239   16.887
  239.750  116.824    0.355    0.244   16.583
  240.000  118.698    0.361    0.241   15.983
  240.250  114.415    0.368    0.238   15.996
  240.500  117.531    0.373    0.238   16.003
  240.750  119.414    0.375    0.239   16.320
  241.000  116.980    0.370    0.239   16.327
  241.250  116.397    0.368    0.240   16.653
  241.500  117.046    0.367    0.242   16.658
  241.750  118.321    0.368    0.246   16.671
  242.000  118.962    0.371    0.250   16.678
  242.250  120.853    0.375    0.247   17.008
  242.500  123.353    0.377    0.246   17.019
  242.750  126.478    0.377    0.247   17.350
  243.000  126.510    0.376    0.259   17.690
  243.250  123.452    0.376    0.284   17.690
  243.500  118.552    0.386    0.295   20.987
  243.750  105.010    0.392    0.306   19.470
  244.000   97.643    0.383    0.297   20.234
  244.250   86.576    0.373    0.281   21.016
  244.500   77.359    0.375    0.269   22.682
  244.750   73.692    0.376    0.260   24.465
  245.000   72.492    0.381    0.256   27.918
  245.250   73.758    0.379    0.257   31.271
  245.500   81.808    0.366    0.256   33.734
  245.750  106.515    0.366    0.256   34.401
  246.000  103.465    0.377    0.261   34.428
  246.250  107.198    0.383    0.279   34.444
  246.500  107.231    0.393    0.289   34.460
  246.750  103.572    0.400    0.290   34.492
  247.000  100.514    0.404    0.293   34.502
  247.250   96.230    0.401    0.295   34.524
  247.500   93.188    0.394    0.299   33.271
  247.750   90.746    0.394    0.304   33.291
  248.000   86.462    0.393    0.309   33.944
  248.250   83.412    0.395    0.315   38.754
  248.500   79.753    0.396    0.321   41.022
  248.750   77.311    0.397    0.326   44.253
  249.000   76.728    0.398    0.328   49.575
  249.250   76.144    0.398    0.330   54.494
  249.500   72.477    0.392    0.285   55.571
  249.750   67.577    0.391    0.281   55.597
  250.000   66.376    0.389    0.279   54.587
  250.250   78.126    0.383    0.272   52.622
  250.500   81.250    0.378    0.179   50.704
  250.750   77.583    0.357    0.230   48.856
  251.000   76.992    0.365    0.262   47.083
  251.250   75.791    0.369    0.280   48.006
  251.500   70.891    0.372    0.279   52.778
  251.750   65.991    0.373    0.279   59.116
  252.000   75.898    0.375    0.283   70.056
  252.250   87.031    0.384    0.290   70.111
  252.500   86.456    0.395    0.306   67.555
  252.750   84.014    0.397    0.319   63.901
  253.000   79.730    0.392    0.311   61.572
  253.250   72.363    0.391    0.305   61.629
  253.500   68.696    0.391    0.297   61.648
  253.750   69.963    0.393    0.294   61.687
  254.000   74.929    0.395    0.291   69.094
  254.250   83.595    0.396    0.295   85.032
  254.500   84.870    0.398    0.305   90.007
  254.750   81.819    0.401    0.319   91.772
  255.000   76.911    0.401    0.318   88.441
  255.250   66.460    0.398    0.314   83.656
  255.500   58.485    0.398    0.314   79.131
  255.750   56.668    0.398    0.317   83.760
  256.000   56.701    0.397    0.317  105.021
  256.250   59.809    0.397    0.314  124.457
  256.500   61.700    0.399    0.312  142.049
  256.750   62.350    0.400    0.308  156.145
  257.000   64.233    0.388    0.302  159.207
  257.250   65.499    0.389    0.304  150.570
  257.500   68.616    0.394    0.310  145.105
  257.750   72.965    0.396    0.311  142.491
  258.000   78.556    0.391    0.311  134.761
  258.250   77.981    0.389    0.311  125.078
  258.500   77.381    0.384    0.315  120.537
  258.750   74.339    0.380    0.314  116.180
  259.000   71.905    0.379    0.306  114.070
  259.250   70.088    0.374    0.297  112.015
  259.500   71.346    0.428    0.296  112.119
  259.750   75.704    0.409    0.302  112.154
  260.000   76.970    0.398    0.307  110.151
  260.250   76.995    0.392    0.310  106.136
  260.500   76.428    0.392    0.312   89.686
  260.750   76.461    0.396    0.313   78.677
  261.000   76.494    0.403    0.317   70.318
  261.250   76.527    0.402    0.320   62.857
  261.500   77.168    0.398    0.320   66.555
  261.750   75.351    0.400    0.320   75.963
  262.000   71.684    0.408    0.320   83.501
  262.250   69.250    0.410    0.321   97.112
  262.500   67.433    0.407    0.323  110.855
  262.750   66.866    0.398    0.323  115.156
  263.000   67.499    0.382    0.319  131.453
  263.250   70.007    0.386    0.315  139.166
  263.500   71.898    0.396    0.321  150.127
  263.750   71.915    0.406    0.328  153.047
  264.000   73.181    0.407    0.338  159.009
  264.250   73.214    0.407    0.346  159.132
  264.500   71.397    0.406    0.349  156.242
  264.750   67.114    0.406    0.345  142.336
  265.000   64.063    0.404    0.342  132.129
  265.250   62.246    0.403    0.337  139.881
  265.500   60.429    0.409    0.334  150.922
  265.750   58.612    0.417    0.337  156.752
  266.000   58.029    0.419    0.339  156.850
  266.250   58.062    0.414    0.340  154.049
  266.500   59.336    0.412    0.339  145.692
  266.750   63.694    0.409    0.336  143.046
  267.000   66.185    0.408    0.333  135.328
  267.250   66.235    0.408    0.329  135.370
  267.500   65.635    0.408    0.325  130.456
  267.750   65.051    0.406    0.324  123.379
  268.000   65.709    0.404    0.324  112.398
  268.250   68.200    0.404    0.326  102.363
  268.500   71.933    0.404    0.326   89.798
  268.750   76.899    0.402    0.329   84.940
