~VERSION INFORMATION
 VERS.                 2.0:   CWLS LOG ASCII STANDARD -VERSION 2.0
 WRAP.                  NO:   ONE LINE PER DEPTH STEP
~WELL INFORMATION BLOCK
#MNEM.UNIT           DATA                    DESCRIPTION OF MNEMONIC
#---------    -------------------            -------------------------------
# Generated from Intellog Unique Number	CN_91_93/WELL/2758
WELL.         10-01-093-10W4                 : Well_name    - WELL
LOC .         AA/10-01-093-10W4/0            : Location     - LOCATION
UWI .         AA/10-01-093-10W400            : Uwi          - UNIQUE WELL ID
ENTR.         JO                             : Entered      - ENTERED BY
SRVC.         SCHLUMBERGER                   : Scn          - SERVICE COMPANY
DATE.         03/23/92                       : Date         - LOG DATE
STRT.M        0                              : top_depth    - START DEPTH
STOP.M        70                             : bot_depth    - STOP DEPTH
STEP.M        0.25                           : increment    - STEP LENGTH
 NULL. -999.2500:NULL Value
~CURVE INFORMATION BLOCK
#MNEM UNIT       ERCB CURVE CODE    CURVE DESCRIPTION
#-----------   ------------------   ----------------------------------
DEPT.M        00 001 00 00         : DEPTH        - DEPTH
CALI.MM       00 280 01 00         : CAL          - CALIPER
GR  .API      00 310 00 00         : GR           - GAMMA RAY
NPHI.V/V      00 330 00 00         : PHIN         - NEUTRON POROSITY (SANDSTONE)
DPHI.V/V      00 890 00 00         : PHID         - DENSITY POROSITY (SANDSTONE)
ILD .OHMM     00 120 00 00         : RESD         - DEEP RESISTIVITY (DIL)
~PARAMETER INFORMATION
#MNEM.UNIT           DATA             DESCRIPTION OF MNEMONIC
#---------         -----------     ------------------------------
GL  .M        319.38               : gl           - GROUND LEVEL ELEVATION
EREF.M        319.38               : kb           - ELEVATION OF DEPTH REFERENCE
DATM.M        319.38               : datum        - DATUM ELEVATION
TDD .M        72.54                : tdd          - TOTAL DEPTH DRILLER
RUN .         ONE                  : Run          - RUN NUMBER
ENG .         BILL                 : Engineer     - RECORDING ENGINEER
WIT .         JIM                  : Witness      - WITNESSED BY
MUD .         GEL                  : Mud_type     - MUD TYPE
MATR.         SANDSTONE            : Logunit      - NEUTRON MATRIX
TMAX.C        4                    : BHT          - MAXIMUM RECORDED TEMPERATURE
BHTD.M        72.54                : BHTDEP       - MAXIMUM RECORDED TEMPERATURE
RMT .C        6.6                  : MDTP         - TEMPERATURE OF MUD
MUDD.KG/M     1000                 : MWT          - MUD DENSITY
NEUT.         1                    : NEUTRON      - NEUTRON TYPE
RESI.         0                    : RESIST       - RESISTIVITY TYPE
RM  .OHMM     25.5                 : RM           - RESISTIVITY OF MUD
RMC .OHMM     25.5                 : RMC          - RESISTIVITY OF MUD CAKE
RMF .OHMM     25.5                 : RMF          - RESISTIVITY OF MUD FILTRATE
SUFT.C        4                    : SUFT         - SURFACE TEMPERATURE
~A  DEPTH      CAL       GR     PHIN     PHID     RESD
    0.000  100.688   20.568    0.400    0.312    0.000
    0.250  100.697   22.695    0.406    0.314    0.000
    0.500  100.501   46.296    0.407    0.315    0.000
    0.750  100.510   40.260    0.407    0.316    0.000
    1.000  100.115   44.808    0.405    0.318    0.000
    1.250   99.920   46.029    0.398    0.318    0.000
    1.500   99.920   44.529    0.402    0.314    0.000
    1.750   99.936   42.726    0.400    0.310    0.000
    2.000   99.943   56.347    0.426    0.307    0.000
    2.250   99.943   56.359    0.456    0.312    0.000
    2.500  100.162   68.772    0.468    0.318    0.000
    2.750  100.574   61.223    0.474    0.323    0.000
    3.000  100.580   58.513    0.472    0.327    0.000
    3.250  100.790   79.090    0.457    0.328    0.000
    3.500  101.202   83.941    0.438    0.323    0.000
    3.750  101.410   68.226    0.441    0.324    0.000
    4.000  101.620   55.536    0.439    0.328    0.000
    4.250  101.627   60.689    0.407    0.325    0.000
    4.500  102.039   52.233    0.408    0.318    0.000
    4.750  102.047   42.868    0.434    0.318    0.000
    5.000  101.048   52.559    0.432    0.325    0.000
    5.250   98.836   48.638    0.423    0.325    0.000
    5.500  101.870   45.928    0.415    0.324    0.000
    5.750  102.280   38.984    0.427    0.321    0.000
    6.000  102.691   31.436    0.448    0.315   10.000
    6.250  103.102   27.818    0.526    0.315   10.000
    6.500  104.724   54.748    0.599    0.274   10.000
    6.750  107.755   54.154    0.596    0.188   10.000
    7.000  111.593   52.049    0.578    0.198   10.000
    7.250  115.836   52.666    0.609    0.221   10.000
    7.500  118.464   43.604    0.622    0.224   10.000
    7.750  121.095   47.851    0.617    0.236   10.000
    8.000  123.118   53.005    0.617    0.237   10.000
    8.250  124.739   55.136    0.626    0.237   10.000
    8.500  125.958   54.844    0.628    0.237   10.000
    8.750  126.166   53.342    0.626    0.238   15.000
    9.000  126.376   56.076    0.627    0.239   15.000
    9.250  128.604   49.736    0.631    0.241   15.000
    9.500  129.820   44.910    0.635    0.241   15.000
    9.750  131.441   50.970    0.636    0.242   15.000
   10.000  133.062   68.522    0.638    0.242   15.000
   10.250  136.899   60.974    0.641    0.242   15.000
   10.500  137.714   77.619    0.648    0.242   15.000
   10.750  139.133   90.635    0.664    0.242   15.000
   11.000  141.158   72.199    0.674    0.245   15.000
   11.250  142.374   88.239    0.675    0.249   15.000
   11.500  143.189   69.198    0.654    0.252   30.000
   11.750  143.600   53.182    0.618    0.224   40.000
   12.000  143.811   62.871    0.306    0.181   50.000
   12.250  143.817   78.912    0.284    0.184   50.000
   12.500  143.817   92.230    0.409    0.204   50.000
   12.750  144.036  102.828    0.453    0.253   50.000
   13.000  144.446   80.762    0.427    0.291   99.070
   13.250  144.656   80.169    0.445    0.282   98.180
   13.500  144.865   84.112    0.401    0.280   77.000
   13.750  144.873   82.007    0.429    0.266   77.029
   14.000  145.083   80.204    0.438    0.245   77.776
   14.250  145.091   94.734    0.402    0.245   59.866
   14.500  144.897   71.459    0.396    0.255   48.289
   14.750  144.704   84.776    0.381    0.255   44.404
   15.000  144.307   82.973    0.421    0.254   37.182
   15.250  143.711   93.572    0.447    0.250   37.194
   15.500  142.511   81.787    0.448    0.232   36.176
   15.750  141.912   90.571    0.418    0.232   31.155
   16.000  140.509   90.885    0.404    0.244   30.304
   16.250  138.704   82.730    0.396    0.250   34.557
   16.500  137.501   67.016    0.422    0.266   36.912
   16.750  136.298   83.056    0.396    0.272   33.622
   17.000  134.291   79.741    0.422    0.274   33.322
   17.250  133.290   75.822    0.463    0.286   30.928
   17.500  132.289   62.224    0.434    0.278   48.937
   17.750  131.493   58.911    0.398    0.269  157.709
   18.000  129.684   66.482    0.402    0.275  141.002
   18.250  128.887   77.684    0.419    0.278   45.879
   18.500  128.893   67.715    0.426    0.275   57.993
   18.750  127.490   74.381    0.415    0.259   54.333
   19.000  125.886   88.608    0.416    0.271   42.215
   19.250  123.879   78.941    0.411    0.279   80.552
   19.500  122.676   76.533    0.415    0.263  111.809
   19.750  121.273   87.131    0.427    0.254   41.474
   20.000  120.072   85.933    0.404    0.221   52.426
   20.250  118.868   75.661    0.425    0.230   33.152
   20.500  117.265   67.508    0.431    0.257   57.071
   20.750  116.264   75.685    0.377    0.250   62.691
   21.000  115.464   62.088    0.397    0.271   60.978
   21.250  113.861   47.886    0.423    0.291   84.635
   21.500  113.666   49.107    0.380    0.284  347.880
   21.750  113.271   38.536    0.385    0.279  270.292
   22.000  112.877   45.804    0.389    0.286  305.362
   22.250  112.681   64.264    0.379    0.274  228.548
   22.500  113.698   82.725    0.372    0.224   37.555
   22.750  113.706  103.302    0.377    0.184   24.654
   23.000  112.100  106.943    0.384    0.170   23.316
   23.250  111.301  117.842    0.371    0.174   20.652
   23.500  110.705  111.503    0.369    0.179   18.466
   23.750  109.707  112.422    0.361    0.169   18.299
   24.000  108.906  113.341    0.390    0.199   18.478
   24.250  107.906  109.724    0.420    0.192   17.150
   24.500  108.117  103.385    0.394    0.180   18.316
   24.750  108.929  106.725    0.370    0.182   18.152
   25.000  108.132   98.571    0.386    0.177   18.501
   25.250  106.728   97.372    0.412    0.203   30.392
   25.500  107.139  103.735    0.395    0.195   18.687
   25.750  107.954  109.797    0.397    0.194   17.345
   26.000  107.961  114.343    0.411    0.189   18.876
   26.250  109.179   98.630    0.405    0.182   16.876
   26.500  108.985  109.528    0.431    0.204   16.725
   26.750  107.785   98.352    0.392    0.200   15.669
   27.000  107.387   85.358    0.405    0.194   17.051
   27.250  106.992   77.809    0.392    0.187   18.212
   27.500  107.001   85.382    0.412    0.206   35.077
   27.750  107.009   90.837    0.420    0.213   23.030
   28.000  107.419   91.454    0.430    0.219   23.916
   28.250  107.628   91.466    0.409    0.222   21.786
   28.500  107.436   83.917    0.394    0.206   23.708
   28.750  106.840   79.997    0.389    0.216   27.547
   29.000  107.048   84.848    0.416    0.234   31.415
   29.250  106.249   83.650    0.435    0.242   38.249
   29.500  106.862   71.565    0.386    0.224   38.261
   29.750  106.668  102.726    0.411    0.223   50.680
   30.000  106.273   93.665    0.420    0.238   29.738
   30.250  106.886   68.878    0.399    0.242   32.362
   30.500  107.097   72.217    0.415    0.248   88.120
   30.750  107.911   87.653    0.386    0.239   66.570
   31.000  108.119   72.241    0.370    0.232   49.823
   31.250  108.128   69.228    0.369    0.244   78.103
   31.500  108.135   77.407    0.376    0.255   61.830
   31.750  107.942   81.954    0.411    0.259   46.710
   32.000  107.747   69.265    0.391    0.257   63.040
   32.250  107.755   64.437    0.421    0.258   51.326
   32.500  107.765   81.687    0.433    0.255   59.084
   32.750  107.570   73.231    0.408    0.242   43.398
   33.000  107.578   82.618    0.422    0.224   69.968
   33.250  107.585   80.815    0.363    0.214   50.441
   33.500  107.392   81.432    0.400    0.241   36.706
   33.750  107.399   80.538    0.429    0.254   41.861
   34.000  107.206   86.294    0.413    0.258   58.648
   34.250  107.012   95.076    0.405    0.254   47.750
   34.500  107.019   90.249    0.423    0.246   40.742
   34.750  106.827   92.681    0.376    0.214   61.521
   35.000  107.036   86.342    0.404    0.205   51.998
   35.250  107.446   80.608    0.452    0.199   35.774
   35.500  107.051   74.873    0.420    0.205   37.501
   35.750  107.464  100.289    0.387    0.201   60.460
   36.000  108.681   93.345    0.388    0.173   45.248
   36.250  111.913   91.845    0.386    0.183   43.194
