~VERSION INFORMATION
 VERS.                 2.0:   CWLS LOG ASCII STANDARD -VERSION 2.0
 WRAP.                  NO:   ONE LINE PER DEPTH STEP
~WELL INFORMATION BLOCK
#MNEM.UNIT           DATA                    DESCRIPTION OF MNEMONIC
#---------    -------------------            -------------------------------
# Generated from Intellog Unique Number	CN_94_101/WELL/5048
WELL.         15-19-098-12W4                 : Well_name    - WELL
LOC .         AA/15-19-098-12W4/0            : Location     - LOCATION
UWI .         AA/15-19-098-12W400            : Uwi          - UNIQUE WELL ID
ENTR.         T                              : Entered      - ENTERED BY
SRVC.         SCHLUMBERGER                   : Scn          - SERVICE COMPANY
DATE.         08/14/92                       : Date         - LOG DATE
STRT.M        195                            : top_depth    - START DEPTH
STOP.M        470                            : bot_depth    - STOP DEPTH
STEP.M        0.25                           : increment    - STEP LENGTH
 NULL. -999.2500:NULL Value
~CURVE INFORMATION BLOCK
#MNEM UNIT       ERCB CURVE CODE    CURVE DESCRIPTION
#-----------   ------------------   ----------------------------------
DEPT.M        00 001 00 00         : DEPTH        - DEPTH
GR  .API      00 310 00 00         : GR           - GAMMA RAY
NPHI.V/V      00 330 00 00         : PHIN         - NEUTRON POROSITY (SANDSTONE)
DPHI.V/V      00 890 00 00         : PHID         - DENSITY POROSITY (SANDSTONE)
ILD .OHMM     00 120 00 00         : RESD         - DEEP RESISTIVITY (DIL)
~PARAMETER INFORMATION
#MNEM.UNIT           DATA             DESCRIPTION OF MNEMONIC
#---------         -----------     ------------------------------
GL  .M        718.4                : gl           - GROUND LEVEL ELEVATION
EREF.M        721.67               : kb           - ELEVATION OF DEPTH REFERENCE
DATM.M        721.67               : datum        - DATUM ELEVATION
TDD .M        479                  : tdd          - TOTAL DEPTH DRILLER
RUN .         ONE                  : Run          - RUN NUMBER
ENG .         BILL                 : Engineer     - RECORDING ENGINEER
WIT .         JIM                  : Witness      - WITNESSED BY
MUD .         GEL                  : Mud_type     - MUD TYPE
MATR.         SANDSTONE            : Logunit      - NEUTRON MATRIX
TMAX.C        21                   : BHT          - MAXIMUM RECORDED TEMPERATURE
BHTD.M        479                  : BHTDEP       - MAXIMUM RECORDED TEMPERATURE
RMT .C        21                   : MDTP         - TEMPERATURE OF MUD
MUDD.KG/M     1090                 : MWT          - MUD DENSITY
NEUT.         1                    : NEUTRON      - NEUTRON TYPE
RESI.         0                    : RESIST       - RESISTIVITY TYPE
RM  .OHMM     5.7                  : RM           - RESISTIVITY OF MUD
RMC .OHMM     5.7                  : RMC          - RESISTIVITY OF MUD CAKE
RMF .OHMM     5.7                  : RMF          - RESISTIVITY OF MUD FILTRATE
SUFT.C        4                    : SUFT         - SURFACE TEMPERATURE
~A  DEPTH       GR     PHIN     PHID     RESD
# ...
  238.500   40.559    0.383    0.326   29.677
  238.750   41.990    0.383    0.328   29.722
  239.000   46.270    0.383    0.334   29.768
  239.250   49.601    0.382    0.339   29.825
  239.500   50.559    0.380    0.339   28.800
  239.750   51.045    0.376    0.334   28.323
  240.000   51.055    0.375    0.332   27.865
  240.250   49.168    0.375    0.325   27.393
  240.500   46.328    0.377    0.322   27.445
  240.750   43.490    0.378    0.323   27.477
  241.000   43.497    0.381    0.325   28.014
  241.250   43.983    0.387    0.328   28.068
  241.500   43.990    0.389    0.329   28.628
  241.750   43.999    0.391    0.330   28.672
  242.000   43.534    0.390    0.330   28.705
  242.250   42.597    0.385    0.330   28.760
  242.500   42.129    0.382    0.331   28.815
  242.750   39.773    0.382    0.332   28.837
  243.000   39.303    0.383    0.332   28.892
  243.250   37.893    0.384    0.332   28.948
  243.500   37.426    0.385    0.331   28.468
  243.750   36.958    0.388    0.331   27.986
  244.000   36.021    0.386    0.330   27.543
  244.250   35.553    0.379    0.329   27.076
  244.500   34.618    0.368    0.326   26.157
  244.750   34.151    0.347    0.321   26.177
  245.000   33.683    0.332    0.319   25.753
  245.250   32.743    0.323    0.313   25.792
  245.500   31.803    0.319    0.306   25.822
  245.750   32.287    0.318    0.307   26.842
  246.000   36.093    0.322    0.308   27.368
  246.250   42.271    0.327    0.309   28.962
  246.500   50.824    0.336    0.309   28.984
  246.750   59.849    0.344    0.309   29.040
  247.000   66.977    0.355    0.309   28.548
  247.250   71.734    0.366    0.308   28.096
  247.500   74.113    0.375    0.307   28.150
  247.750   76.972    0.384    0.304   27.663
  248.000   78.405    0.391    0.301   27.215
  248.250   79.366    0.398    0.297   26.753
  248.500   80.322    0.402    0.294   25.835
  248.750   81.278    0.403    0.293   24.073
  249.000   83.662    0.404    0.291   23.237
  249.250   86.993    0.406    0.291   22.430
  249.500   90.799    0.409    0.290   21.269
  249.750   96.502    0.413    0.290   20.924
  250.000  104.106    0.421    0.290   20.964
  250.250  103.167    0.428    0.292   20.988
  250.500  100.801    0.436    0.293   21.013
  250.750   96.539    0.447    0.298   21.432
  251.000   92.278    0.459    0.299   21.473
  251.250   89.440    0.469    0.297   21.498
  251.500   88.975    0.484    0.285   21.539
  251.750   95.153    0.497    0.265   21.564
  252.000  107.026    0.509    0.230   21.206
  252.250  116.053    0.520    0.218   20.863
  252.500  121.282    0.526    0.204   20.509
  252.750  122.241    0.525    0.200   19.805
  253.000  121.776    0.518    0.206   18.787
  253.250  119.412    0.512    0.216   18.468
  253.500  116.100    0.508    0.219   16.885
  253.750  114.685    0.503    0.212   14.097
  254.000  114.223    0.500    0.206   12.422
  254.250  115.181    0.495    0.205   10.558
  254.500  117.563    0.491    0.210    8.652
  254.750  118.993    0.486    0.211    7.489
  255.000  122.327    0.485    0.212    7.368
  255.250  122.813    0.485    0.213    7.653
  255.500  122.818    0.489    0.212    7.662
  255.750  122.357    0.493    0.211    7.538
  256.000  122.366    0.498    0.208    7.413
  256.250  122.376    0.504    0.206    7.421
  256.500  122.385    0.506    0.201    7.298
  256.750  122.394    0.511    0.193    7.310
  257.000  120.978    0.512    0.180    7.596
  257.250  118.140    0.508    0.174    7.890
  257.500  114.353    0.492    0.171    7.902
  257.750  110.091    0.488    0.172    7.768
  258.000  107.730    0.482    0.177    7.645
  258.250  108.214    0.480    0.182    7.657
  258.500  109.172    0.481    0.184    7.807
  258.750  109.182    0.482    0.183    8.258
  259.000  109.193    0.486    0.181    9.064
  259.250  109.198    0.489    0.179    9.241
  259.500  109.207    0.493    0.178    9.426
  259.750  109.219    0.494    0.178    9.614
  260.000  109.228    0.495    0.178    9.633
  260.250  110.186    0.495    0.178    9.473
  260.500  112.096    0.495    0.179    9.320
  260.750  113.527    0.496    0.180    9.327
  261.000  114.960    0.499    0.185    9.517
  261.250  115.446    0.500    0.188   10.067
  261.500  115.455    0.503    0.196   10.649
  261.750  115.464    0.506    0.202   11.066
  262.000  115.476    0.509    0.205   11.079
  262.250  115.483    0.512    0.205   11.100
  262.500  115.018    0.513    0.206   11.113
  262.750  113.606    0.513    0.206   10.739
  263.000  113.136    0.511    0.205   10.748
  263.250  110.777    0.507    0.204   10.383
  263.500  109.833    0.503    0.201   10.207
  263.750  108.895    0.496    0.201    9.860
  264.000  108.432    0.489    0.200    9.518
  264.250  107.963    0.482    0.199    9.198
  264.500  107.972    0.475    0.199    9.042
  264.750  108.460    0.471    0.198    8.577
  265.000  109.419    0.468    0.198    8.432
  265.250  109.426    0.469    0.198    8.289
  265.500  109.912    0.473    0.198    8.302
  265.750  109.919    0.479    0.198    8.470
  266.000  109.454    0.485    0.197    8.802
  266.250  108.516    0.491    0.196    8.812
  266.500  107.579    0.492    0.195    9.157
  266.750  107.583    0.492    0.193    9.343
  267.000  108.069    0.491    0.190    9.350
  267.250  108.079    0.491    0.189    9.541
  267.500  108.086    0.492    0.188    9.552
  267.750  107.623    0.493    0.186    9.574
  268.000  107.632    0.496    0.185    9.585
  268.250  107.165    0.497    0.185    9.599
  268.500  107.176    0.495    0.185    9.610
  268.750  108.137    0.491    0.186    9.629
  269.000  109.570    0.488    0.190    9.640
  269.250  110.528    0.485    0.195    9.654
  269.500  111.014    0.486    0.204    9.669
  269.750  111.496    0.492    0.214    9.691
  270.000  111.505    0.499    0.216    9.889
  270.250  110.563    0.506    0.216    9.900
  270.500  108.674    0.505    0.216   10.105
  270.750  105.836    0.499    0.221   10.303
  271.000  102.528    0.496    0.227   10.311
  271.250  101.584    0.499    0.234   10.521
  271.500  102.068    0.504    0.237   10.533
  271.750  108.721    0.508    0.241   10.949
  272.000  115.373    0.519    0.241   11.164
  272.250  118.230    0.525    0.234   11.387
  272.500  117.292    0.532    0.224   11.400
  272.750  114.931    0.535    0.211   11.211
  273.000  112.566    0.520    0.206   10.630
  273.250  109.256    0.503    0.210    9.201
  273.500  106.892    0.488    0.219    7.679
  273.750  105.003    0.489    0.227    6.293
  274.000  107.385    0.494    0.236    5.969
  274.250  111.189    0.500    0.243    6.201
  274.500  116.418    0.518    0.251    6.683
  274.750  120.223    0.522    0.257    7.064
  275.000  125.927    0.527    0.258    7.610
  275.250  125.938    0.534    0.236    8.056
  275.500  124.047    0.543    0.229    8.066
  275.750  121.209    0.545    0.222    7.932
  276.000  117.897    0.545    0.213    7.391
  276.250  112.689    0.543    0.202    7.132
  276.500  109.849    0.540    0.196    6.287
  276.750  105.115    0.534    0.212    5.441
  277.000  100.853    0.527    0.222    4.623
  277.250   97.064    0.520    0.226    3.931
  277.500   93.277    0.514    0.238    3.866
  277.750   88.069    0.502    0.260    3.872
  278.000   83.808    0.487    0.271    3.876
  278.250   79.548    0.463    0.279    4.026
  278.500   77.183    0.432    0.290    4.500
  278.750   75.296    0.398    0.290    5.215
  279.000   74.831    0.370    0.279    6.044
  279.250   73.889    0.363    0.266    7.132
  279.500   72.951    0.363    0.259    8.421
  279.750   72.009    0.363    0.262   10.121
  280.000   71.546    0.365    0.268   11.728
  280.250   71.081    0.371    0.280   15.163
  280.500   71.088    0.380    0.293   20.347
  280.750   71.572    0.389    0.305   21.135
  281.000   73.005    0.401    0.318   24.933
  281.250   75.389    0.412    0.329   54.723
  281.500   77.769    0.421    0.333   35.380
  281.750   83.947    0.425    0.329   28.993
