~VERSION INFORMATION
 VERS.                 2.0:   CWLS LOG ASCII STANDARD -VERSION 2.0
 WRAP.                  NO:   ONE LINE PER DEPTH STEP
~WELL INFORMATION BLOCK
#MNEM.UNIT           DATA                    DESCRIPTION OF MNEMONIC
#---------    -------------------            -------------------------------
# Generated from Intellog Unique Number	CC_88_90/WELL/3151
WELL.         MUSKY OIL OPERATIONS LTD.      : Well_name    - WELL
LOC .         AA/11-12-089-09W4/0            : Location     - LOCATION
UWI .         AA/11-12-089-09W400            : Uwi          - UNIQUE WELL ID
ENTR.         JOETTE                         : Entered      - ENTERED BY
SRVC.         SCHLUMBERGER                   : Scn          - SERVICE COMPANY
DATE.         03/02/92                       : Date         - LOG DATE
STRT.M        13.716                         : top_depth    - START DEPTH
STOP.M        114.716                        : bot_depth    - STOP DEPTH
STEP.M        0.25                           : increment    - STEP LENGTH
 NULL. -999.2500:NULL Value
~CURVE INFORMATION BLOCK
#MNEM UNIT       ERCB CURVE CODE    CURVE DESCRIPTION
#-----------   ------------------   ----------------------------------
DEPT.M        00 001 00 00         : DEPTH        - DEPTH
GR  .API      00 310 00 00         : GR           - GAMMA RAY
CALI.MM       00 280 01 00         : CAL          - CALIPER
DPHI.V/V      00 890 00 00         : PHID         - DENSITY POROSITY (SANDSTONE)
ILD .OHMM     00 120 00 00         : RESD         - DEEP RESISTIVITY (DIL)
~PARAMETER INFORMATION
#MNEM.UNIT           DATA             DESCRIPTION OF MNEMONIC
#---------         -----------     ------------------------------
GL  .M        361.036              : gl           - GROUND LEVEL ELEVATION
EREF.M        362.102              : kb           - ELEVATION OF DEPTH REFERENCE
DATM.M        362.102              : datum        - DATUM ELEVATION
TDD .M        129.54               : tdd          - TOTAL DEPTH DRILLER
RUN .         ONE                  : Run          - RUN NUMBER
ENG .         BILL                 : Engineer     - RECORDING ENGINEER
WIT .         JIM                  : Witness      - WITNESSED BY
MUD .         GEL                  : Mud_type     - MUD TYPE
MATR.         SANDSTONE            : Logunit      - NEUTRON MATRIX
TMAX.C        -6.66667             : BHT          - MAXIMUM RECORDED TEMPERATURE
BHTD.M        129.54               : BHTDEP       - MAXIMUM RECORDED TEMPERATURE
RMT .C        8.33333              : MDTP         - TEMPERATURE OF MUD
MUDD.KG/M     10000                : MWT          - MUD DENSITY
NEUT.         1                    : NEUTRON      - NEUTRON TYPE
RESI.         0                    : RESIST       - RESISTIVITY TYPE
RM  .OHMM     4                    : RM           - RESISTIVITY OF MUD
RMC .OHMM     4                    : RMC          - RESISTIVITY OF MUD CAKE
RMF .OHMM     4                    : RMF          - RESISTIVITY OF MUD FILTRATE
SUFT.C        4                    : SUFT         - SURFACE TEMPERATURE
~A  DEPTH       GR      CAL     PHID     RESD
# ...
   57.216  102.567  160.532    0.223   12.910
   57.466  110.560  161.494    0.213    8.457
   57.716  116.708  165.418    0.223    6.072
   57.966  103.806  167.384    0.235    6.648
   58.216   81.685  169.328    0.245    7.415
   58.466   82.302  170.283    0.251    7.272
   58.716  101.972  170.255    0.262    7.821
   58.966  102.590  171.230    0.269    7.395
   59.216   88.457  172.171    0.274    6.380
   59.466   79.857  172.149    0.273    6.987
   59.716   83.548  172.121    0.266    6.726
   59.966   81.093  172.093    0.257    6.600
   60.216   77.408  172.072    0.251    6.475
   60.466   94.619  172.036    0.257    6.960
   60.716  107.528  172.991    0.262    7.349
   60.966  105.073  172.970    0.262    7.758
   61.216   96.472  173.938    0.260    8.814
   61.466  105.079  174.893    0.258    8.644
   61.716  108.770  175.854    0.256    8.175
   61.966   95.867  177.792    0.256    7.180
   62.216   91.568  177.778    0.253    7.173
   62.466   87.884  177.742    0.243    8.456
   62.716   89.116  176.724    0.232    9.966
   62.966   77.443  173.719    0.208   12.188
   63.216   80.519  171.718    0.204   17.904
   63.466  111.865  169.716    0.197   28.305
   63.716  114.941  166.704    0.161   22.276
   63.966  114.329  166.683    0.175   17.531
   64.216  111.260  165.657    0.207   21.035
   64.466   84.836  165.629    0.266   19.533
   64.716   81.767  165.601    0.258   18.812
   64.966   84.843  166.562    0.258   20.222
   65.216   89.148  166.541    0.257   21.748
   65.466  103.900  165.523    0.251   19.109
   65.716  130.330  165.495    0.255   15.039
   65.966  124.188  164.469    0.267   12.052
   66.216  111.899  164.441    0.282   17.382
   66.466  104.529  164.413    0.285   18.354
   66.716  105.146  164.384    0.276   20.852
   66.966   91.013  165.346    0.243    9.287
   67.216   85.486  165.318    0.235   13.896
   67.466   83.031  165.282    0.232   14.141
   67.716   82.420  166.244    0.213   12.886
   67.966   84.881  166.208    0.210   11.963
   68.216   82.425  167.184    0.223   12.866
   68.466   80.585  168.139    0.247   16.929
   68.716   91.650  169.100    0.258   19.952
   68.966  115.622  171.045    0.252   20.679
   69.216  122.385  173.004    0.229   24.367
   69.466  116.857  173.965    0.219   21.025
   69.716  121.162  174.920    0.220   15.950
   69.966  121.780  174.884    0.214   19.147
   70.216  121.783  174.863    0.208   17.452
   70.466  108.880  174.835    0.215   14.512
   70.716   92.905  173.817    0.220   14.236
   70.966   83.075  171.801    0.223   13.958
   71.216  100.286  170.776    0.211   12.043
   71.466  124.257  169.772    0.205   19.756
   71.716  124.875  168.739    0.204   13.421
   71.966  116.889  167.728    0.214   10.371
   72.216  111.361  167.707    0.233   22.814
   72.466   97.229  166.674    0.248   17.308
   72.716   84.940  166.653    0.244   16.366
   72.966   64.663  166.611    0.244   25.872
   73.216   41.313  166.597    0.249   17.581
   73.466   43.774  167.544    0.251   14.887
   73.716   40.705  167.523    0.249   22.687
   73.966   33.333  168.492    0.252   26.744
   74.216   35.179  169.446    0.252   21.437
   74.466   59.151  170.415    0.236   19.184
   74.716   99.101  171.369    0.239   24.333
   74.966  105.250  172.331    0.248   16.230
   75.216  108.326  172.296    0.267   42.908
   75.466   84.361  173.257    0.286   30.247
   75.716   68.385  174.219    0.290   26.093
   75.966   48.722  175.181    0.301  590.920
   76.216   46.267  175.152    0.327 1023.980
   76.466   60.406  175.117    0.289 1101.010
   76.716   65.940  175.103    0.276  805.155
   76.966   57.953  174.084    0.281  114.891
   77.216   45.050  173.066    0.314   99.111
   77.466   45.668  170.061    0.306  266.874
   77.716   51.203  167.055    0.299  209.984
   77.966   58.581  166.044    0.292  357.335
   78.216   58.584  166.009    0.288   90.096
   78.466   54.900  167.968    0.298   95.111
   78.716   57.975  170.902    0.307  174.145
   78.966   63.510  174.827    0.299  495.460
   79.216   61.669  176.785    0.288  994.143
   79.466   61.673  177.754    0.284  842.191
   79.716   55.530  178.708    0.282  176.735
   79.966   62.908  178.659    0.273   49.749
   80.216   75.817  178.638    0.268   96.245
   80.466   83.809  177.634    0.270  189.688
   80.716   83.198  177.598    0.278  353.746
   80.966   78.284  177.570    0.278  179.123
   81.216   67.840  176.544    0.261  169.412
   81.466   57.396  176.523    0.235   36.210
   81.716   47.566  173.525    0.213   21.245
   81.966   35.892  165.570    0.216   25.975
   82.216   32.823  161.582    0.228   19.347
   82.466   35.284  161.553    0.242   24.994
   82.716   38.360  163.512    0.259   34.748
   82.966   37.134  166.440    0.322   60.214
   83.216   40.210  168.405    0.305   60.160
   83.466   46.359  173.327    0.287   60.106
   83.716   38.987  178.241    0.271   79.069
   83.966   43.907  176.233    0.272   43.117
   84.216   48.826  170.265    0.272   63.338
   84.466   48.830  163.307    0.271   58.801
   84.716   46.989  166.248    0.280   39.948
   84.966   46.377  171.170    0.290   45.384
   85.216   46.381  173.107    0.292   80.102
   85.466   42.697  173.093    0.275   53.429
   85.716   48.231  172.061    0.252   46.101
   85.966   48.849  172.047    0.236   39.037
   86.216   36.560  170.038    0.218   38.301
   86.466   29.189  169.006    0.199   35.558
   86.716   25.505  168.977    0.206   21.244
   86.966   21.820  168.949    0.190   15.536
   87.216   31.042  170.901    0.217   14.690
   87.466   48.867  171.855    0.220   15.795
   87.716   44.568  171.841    0.209   14.935
   87.966   42.728  171.813    0.187   12.884
   88.216   45.190  171.785    0.203   13.111
   88.466   47.651  171.756    0.204   13.099
   88.716   71.622  171.721    0.198   13.828
   88.966   87.604  171.685    0.199   13.810
   89.216   92.523  171.657    0.203   14.316
   89.466   94.370  172.619    0.224   14.304
   89.716   77.780  172.583    0.235   14.291
   89.966   71.638  172.569    0.237   16.536
   90.216   86.391  172.541    0.230   16.522
   90.466   96.841  172.505    0.226   16.206
   90.716   96.230  172.477    0.235   13.981
   90.966   95.618  172.449    0.244   12.743
   91.216   82.716  172.413    0.233   16.767
   91.466   72.272  172.378    0.225   17.375
   91.716   64.285  172.357    0.235   15.549
   91.966   64.903  172.336    0.245   17.348
   92.216   82.728  165.363    0.240   20.069
   92.466   82.117  164.352    0.237   22.800
   92.716   75.360  163.341    0.244   21.559
   92.966   75.363  161.318    0.247   21.545
   93.216   77.210  160.307    0.240   24.026
   93.466   71.068  159.282    0.241   21.501
   93.716   69.227  157.274    0.250   18.548
   93.966   66.772  156.248    0.265   19.581
   94.216   63.702  156.227    0.255   28.240
   94.466   46.498  157.189    0.253   25.741
   94.716   45.886  158.150    0.259   23.462
   94.966   55.722  160.095    0.270   32.026
   95.216   73.548  162.054    0.274   35.723
   95.466   83.999  163.001    0.251   30.256
   95.716   79.700  164.960    0.252   40.548
   95.966   66.797  166.918    0.279   37.644
   96.216   48.978  167.880    0.278   30.175
   96.466   71.105  168.842    0.270   32.444
   96.716   95.691  168.799    0.264   39.668
   96.966  123.964  168.785    0.277   31.219
   97.216  115.978  169.747    0.272   85.600
   97.466  115.981  169.718    0.269   28.957
   97.716  124.588  168.693    0.273   30.012
   97.966  120.904  168.658    0.265   30.527
   98.216   92.637  168.622    0.254   33.432
   98.466   76.047  168.608    0.256   30.480
   98.716   47.780  168.573    0.264   26.780
   98.966   63.762  168.537    0.266   27.757
   99.216  106.785  168.523    0.271   28.769
   99.466  104.330  168.488    0.259   32.082
   99.716  106.176  168.452    0.243   29.243
   99.966   93.888  168.424    0.230   25.232
  100.216   61.934  168.396    0.187   22.575
  100.466   44.115  169.357    0.171   20.958
