~Version : LASO    vs 4.00 
VERS.                2.00:   CWLS Log ASCII Standard -VERSION 2.0
WRAP.                  NO:
~Well Information Block
#MNEM.UNIT       Data                        Description of Mnemonic
#----.----      -------------------------- : -----------------------------
STRT.M             1.0000:
STOP.M           202.5000:
STEP.M             0.1000:
NULL.           -999.2500:
COMP.  MOBIL OIL CANADA                    :COMPANY
WELL.  MOBIL 90 CLARKE CREEK 16-31         :WELL
FLD.   CLARKE CREEK                        :FIELD
LOC.   16-31-089-07W4                      :LOCATION
CTRY.  CANADA                              :COUNTRY
PROV.  ALBERTA                             :PROVINCE
SRVC.  BRITISH PLASTERBOARD                :SERVICE COMPANY
DATE.  22-JAN-90                           :LOG DATE
UWI.   AA/16-31-089-07W400                 :UNIQUE WELL ID
~Parameter Information Block
#MNEM.UNIT       Data                        Description of Mnemonic
#----.----      -------------------------- : -----------------------------
RUN .                   1                 : Run Number
GL  .M           453.6000                 : Ground Level Elevation
DREF.                  GD                 : Depth Reference
EREF.M           453.6000                 : Elevation of Depth Reference
TDL .M           204.5000                 : Total Depth Logger
TDD .M           204.5000                 : Total Depth Driller
~Curve Information Block
#MNEM.UNIT        API CODE    Curve Description
#---------    ------------    -------------------------------------------
DEPT.M                    :   DEPTH
CALI.mm                   :   CALI
DPHI.V/V                  :   DPHI
DT  .US/M     60 520  0  1:   2 SONIC INTERVAL TRANSIT TIME (COMPENSATED)
GR  .API                  :   GR
ILD .Ohmm                 :   ILD
NPHI.V/V                  :   NPHI
RHOB.K/M3     45 350  1  1:   3 BULK DENSITY
~A  Depth           CALI        DPHI          DT          GR         ILD        NPHI        RHOB
# ...
125.5000        152.0572      0.3780    529.4800    105.2010      7.7976      0.6000   1108.1000
125.6000        151.4307      0.3751    529.1600    100.3349      8.0313      0.6000   1102.1000
125.7000        150.5028      0.3721    528.4400     95.5140      8.3873      0.5367   1133.8000
125.8000        148.9769      0.3691    526.8000     92.3430      8.7341      0.5047   1135.7000
125.9000        148.8379      0.3662    525.1600     95.4041      9.2699      0.5109   1099.8000
126.0000        149.1158      0.3637    523.5600     98.4452      9.7722      0.5296   1081.9000
126.1000        149.5735      0.3611    515.4800    101.8354      9.9997      0.5525   1146.1000
126.2000        150.6981      0.3586    512.2000    105.4422      9.8928      0.5446   1134.1000
126.3000        151.4979      0.3562    510.2400    107.1598      9.8823      0.4811   1114.1000
126.4000        152.2701      0.3539    521.1600    104.8176      9.8992      0.4817   1069.1000
126.5000        152.8410      0.3514    524.9200     98.9017      9.9166      0.4957   1070.2000
126.6000        153.2298      0.3489    516.8800     98.0498     10.0934      0.5374   1086.0000
126.7000        153.2565      0.3464    507.9200     97.9703     10.2916      0.5829   1122.1000
126.8000        153.2579      0.3424    498.2400    100.9295     10.7393      0.5945   1166.1001
126.9000        150.9005      0.3385    488.4000    104.5189     11.1560      0.5768   1205.0000
127.0000        147.4953      0.3346    478.5600    104.6808     11.7815      0.5454   1242.4000
127.1000        144.9207      0.3309    463.7200    104.1615     12.6593      0.4862   1268.3000
127.2000        143.4931      0.3267    450.8800    103.5830     13.6305      0.4648   1306.7000
127.3000        144.9103      0.3212    456.4000     99.4741     14.4110      0.4581   1275.4000
127.4000        145.7400      0.3075    453.8400     97.2896     14.7161      0.4541   1217.9000
127.5000        146.5166      0.3023    461.2000     99.5977     14.2855      0.4732   1240.4000
127.6000        146.6578      0.2908    473.4800    101.3594     13.3925      0.5238   1252.9000
127.7000        146.6869      0.2845    485.7600    102.0782     12.2773      0.5585   1101.2000
127.8000        146.3331      0.2878    498.7200    102.6778     11.4479      0.5710   1092.1000
127.9000        146.2921      0.2883    507.9200    100.4249     11.2168      0.5452   1089.5000
128.0000        146.0126      0.2885    513.5200     96.3194     11.2057      0.5259   1090.0000
128.1000        145.8756      0.2874    506.5200     91.5415     11.7403      0.4916   1090.4000
128.2000        145.8705      0.2810    498.7600     92.2889     12.5591      0.4632   1110.1000
128.3000        145.8684      0.2801    491.0400     92.8857     13.2897      0.4415   1155.6000
128.4000        145.8665      0.2823    483.8800     92.4870     13.8249      0.4305   1178.0000
128.5000        145.5342      0.2835    476.7200     92.4087     14.8373      0.4387   1192.6001
128.6000        144.6533      0.2914    468.5200     92.9440     15.7178      0.4745   1207.2000
128.7000        144.2527      0.2965    471.4800     93.5173     16.2539      0.4841   1235.5000
128.8000        143.8606      0.2940    467.5200     94.0937     16.5881      0.4734   1225.9000
128.9000        142.0432      0.2838    463.1200     95.1489     16.6393      0.4590   1217.7000
129.0000        141.4713      0.2713    462.7200     94.8447     16.4182      0.4417   1249.9000
129.1000        141.3778      0.2629    477.0800     94.8281     16.3933      0.4290   1216.3000
129.2000        141.7428      0.2381    452.4800     94.8208     17.3260      0.4145   1193.9000
129.3000        141.7578      0.2179    409.4800     94.3149     19.9818      0.4046   1575.2000
129.4000        142.1090      0.1909    384.1200     91.7765     22.0216      0.3963   1556.3000
129.5000        142.1545      0.1631    384.2400     88.7579     21.9797      0.3850   1431.4000
129.6000        142.1628      0.1395    411.4800     86.3719     20.0377      0.3620   1180.2000
129.7000        142.1610      0.1365    452.0800     84.0014     16.8526      0.3508   1163.2000
129.8000        141.7912      0.2284    482.9200     84.8483     14.8491      0.3749   1126.5000
129.9000        141.7541      0.2546    490.6800     87.9179     12.5542      0.4480   1091.7000
130.0000        141.7474      0.2734    499.7600     92.0942     11.0379      0.4974   1160.4000
130.1000        141.4225      0.2986    509.6800     97.6104     10.4123      0.5276   1209.4000
130.2000        141.3549      0.3197    517.0000    103.6589     10.0643      0.5464   1217.7000
130.3000        140.9653      0.3270    521.7200    109.6295     10.1842      0.5733   1058.0000
130.4000        140.5740      0.3290    511.8400    112.1827     10.0396      0.5789   1050.1000
130.5000        140.1825      0.3254    513.2000    108.8705     10.0522      0.5845   1102.0000
130.6000        139.4638      0.3210    502.8400    105.3278     10.2062      0.6000   1104.9000
130.7000        139.2871      0.3131    495.3200    100.7261     10.4349      0.6000   1085.9000
130.8000        139.2794      0.3041    494.2000     96.9596     10.4820      0.6000   1147.9000
130.9000        139.2757      0.2938    498.8400     92.4055     10.3276      0.5828   1190.1001
131.0000        138.9337      0.2835    505.4800     93.2496      9.6610      0.5714   1180.7000
131.1000        138.8768      0.2827    512.2000     92.9632      9.3053      0.5654   1169.3000
131.2000        138.8614      0.2899    517.0400     90.8283      9.1266      0.5627   1198.5000
131.3000        138.8589      0.3023    526.6800     93.9668      9.0967      0.5583   1093.9000
131.4000        138.5680      0.3133    534.9200    100.3422      9.3698      0.5164    985.4000
131.5000        138.4845      0.3219    536.3200    107.9515      9.9517      0.4884    934.5000
131.6000        138.4522      0.3327    537.6800    115.9173     10.3644      0.4811    926.5000
131.7000        138.4427      0.3542    522.8800    117.3076     10.7693      0.5102   1007.6000
131.8000        138.4405      0.3530    508.0800    114.7237     11.0846      0.5719   1089.9000
131.9000        138.1501      0.3415    501.8000    112.8605     11.3105      0.5805   1063.5000
132.0000        138.0485      0.3295    498.9600    112.5929     11.1647      0.5890   1034.1000
132.1000        138.0301      0.3239    498.5200    113.4930     10.8211      0.5976   1031.9000
132.2000        138.0250      0.3245    510.4800    113.7335     10.3688      0.5767   1103.3000
132.3000        138.0223      0.3267    506.0400    112.1102     10.0198      0.5394   1084.0000
132.4000        138.0202      0.3270    503.2400    108.7374      9.6842      0.5448   1053.7000
132.5000        138.0183      0.3295    505.2800    105.1817      9.2149      0.5708   1087.3000
132.6000        138.0164      0.3307    506.5200    102.6368      8.9608      0.5604   1139.6000
132.7000        138.0145      0.3308    505.2400    102.6958      8.8161      0.5684   1198.2000
132.8000        138.0126      0.3255    503.6400     98.5465      8.8219      0.5841   1263.1001
132.9000        138.0108      0.3169    505.3600     98.9699      8.9796      0.5786   1204.1001
133.0000        138.0089      0.3079    515.2800    101.1075      9.2985      0.5592   1145.1000
133.1000        138.0070      0.2998    514.4400    100.9289      9.3862      0.5451   1121.3000
133.2000        138.0051      0.2989    513.0800     98.3997      9.7407      0.5503   1126.4000
133.3000        138.0032      0.2978    506.6800     99.5532     10.1855      0.5551   1147.8000
133.4000        138.0013      0.2964    494.0400    102.3255     10.8619      0.5635   1180.5000
133.5000        137.9994      0.2952    494.5200    105.6649     11.5025      0.5429   1157.7000
133.6000        138.3153      0.2940    490.8000    108.1677     12.3407      0.5560   1223.7000
133.7000        138.3814      0.2898    484.0000    112.1126     12.8274      0.5573   1273.9000
