~VERSION INFORMATION
 VERS.                 2.0:   CWLS LOG ASCII STANDARD -VERSION 2.0
 WRAP.                  NO:   ONE LINE PER DEPTH STEP
~WELL INFORMATION BLOCK
#MNEM.UNIT           DATA                    DESCRIPTION OF MNEMONIC
#---------    -------------------            -------------------------------
# Generated from Intellog Unique Number	CN_91_93/WELL/2636
WELL.         10-08-091-17W4                 : Well_name    - WELL
LOC .         AA/10-08-091-17W4/0            : Location     - LOCATION
UWI .         AA/10-08-091-17W400            : Uwi          - UNIQUE WELL ID
ENTR.         JOETTE                         : Entered      - ENTERED BY
SRVC.         SCHLUMBERGER                   : Scn          - SERVICE COMPANY
DATE.         02/05/92                       : Date         - LOG DATE
STRT.M        100                            : top_depth    - START DEPTH
STOP.M        240                            : bot_depth    - STOP DEPTH
STEP.M        0.25                           : increment    - STEP LENGTH
 NULL. -999.2500:NULL Value
~CURVE INFORMATION BLOCK
#MNEM UNIT       ERCB CURVE CODE    CURVE DESCRIPTION
#-----------   ------------------   ----------------------------------
DEPT.M        00 001 00 00         : DEPTH        - DEPTH
GR  .API      00 310 00 00         : GR           - GAMMA RAY
CALI.MM       00 280 01 00         : CAL          - CALIPER
NPHI.V/V      00 330 00 00         : PHIN         - NEUTRON POROSITY (SANDSTONE)
DPHI.V/V      00 890 00 00         : PHID         - DENSITY POROSITY (SANDSTONE)
ILD .OHMM     00 120 00 00         : RESD         - DEEP RESISTIVITY (DIL)
~PARAMETER INFORMATION
#MNEM.UNIT           DATA             DESCRIPTION OF MNEMONIC
#---------         -----------     ------------------------------
GL  .M        505.57               : gl           - GROUND LEVEL ELEVATION
EREF.M        509.22               : kb           - ELEVATION OF DEPTH REFERENCE
DATM.M        509.22               : datum        - DATUM ELEVATION
TDD .M        246                  : tdd          - TOTAL DEPTH DRILLER
RUN .         ONE                  : Run          - RUN NUMBER
ENG .         BILL                 : Engineer     - RECORDING ENGINEER
WIT .         JIM                  : Witness      - WITNESSED BY
MUD .         GEL                  : Mud_type     - MUD TYPE
MATR.         SANDSTONE            : Logunit      - NEUTRON MATRIX
TMAX.C        25                   : BHT          - MAXIMUM RECORDED TEMPERATURE
BHTD.M        246                  : BHTDEP       - MAXIMUM RECORDED TEMPERATURE
RMT .C        24                   : MDTP         - TEMPERATURE OF MUD
MUDD.KG/M     1150                 : MWT          - MUD DENSITY
NEUT.         1                    : NEUTRON      - NEUTRON TYPE
RESI.         0                    : RESIST       - RESISTIVITY TYPE
RM  .OHMM     9.7                  : RM           - RESISTIVITY OF MUD
RMC .OHMM     2.6                  : RMC          - RESISTIVITY OF MUD CAKE
RMF .OHMM     13.4                 : RMF          - RESISTIVITY OF MUD FILTRATE
SUFT.C        4                    : SUFT         - SURFACE TEMPERATURE
~A  DEPTH       GR      CAL     PHIN     PHID     RESD
# ...
  136.500  117.967  251.246    0.565    0.207    7.417
  136.750  117.400  249.815    0.546    0.191    7.102
  137.000  113.885  246.417    0.532    0.213    7.055
  137.250  110.075  241.548    0.546    0.203    7.070
  137.500  111.873  236.181    0.556    0.206    7.158
  137.750  103.045  229.825    0.562    0.222    7.241
  138.000   88.015  224.459    0.572    0.220    7.749
  138.250   82.732  219.590    0.539    0.210    8.285
  138.500   82.471  215.694    0.490    0.182    9.453
  138.750   83.970  209.847    0.477    0.188   13.474
  139.000   87.240  205.950    0.471    0.255   15.947
  139.250   89.337  202.552    0.475    0.277   20.522
  139.500   92.906  200.629    0.446    0.273   25.453
  139.750  100.902  200.679    0.441    0.260   25.517
  140.000   97.092  201.216    0.463    0.256   24.662
  140.250   90.924  201.256    0.470    0.255   24.962
  140.500   86.815  201.306    0.465    0.260   27.950
  140.750   80.647  201.346    0.428    0.235   32.806
  141.000   82.740  201.430    0.405    0.120   36.406
  141.250   85.716  201.447    0.337    0.144   40.790
  141.500   90.173  201.984    0.347    0.193   44.016
  141.750   96.989  203.996    0.374    0.256   46.228
  142.000  103.805  208.966    0.406    0.256   43.860
  142.250  107.384  213.439    0.444    0.226   40.066
  142.500  106.817  217.414    0.437    0.210   32.181
  142.750  105.073  222.876    0.446    0.209   28.079
  143.000  103.034  226.851    0.450    0.195   23.619
  143.250  100.995  231.329    0.449    0.196   21.006
  143.500   98.657  235.801    0.447    0.219   20.497
  143.750   96.028  241.263    0.445    0.211   20.536
  144.000   91.037  242.286    0.453    0.195   20.972
  144.250   87.817  238.401    0.453    0.168   22.019
  144.500   90.205  238.446    0.416    0.099   23.333
  144.750   97.618  240.957    0.403    0.108   25.420
  145.000  101.479  243.948    0.410    0.154   26.945
  145.250   98.849  249.410    0.425    0.224   25.794
  145.500   93.859  252.904    0.442    0.228   25.622
  145.750   91.524  253.938    0.410    0.230   27.420
  146.000   92.437  254.961    0.385    0.221   29.316
  146.250   91.585  256.482    0.387    0.212   31.354
  146.500   88.660  259.479    0.403    0.215   29.729
  146.750   87.503  261.978    0.408    0.223   29.824
  147.000   89.596  264.494    0.405    0.208   31.896
  147.250   88.738  265.523    0.401    0.187   35.397
  147.500   88.473  266.054    0.390    0.176   38.209
  147.750   89.090  266.104    0.384    0.192   39.382
  148.000   89.409  266.144    0.390    0.244   39.131
  148.250   92.096  266.681    0.397    0.234   35.429
  148.500   94.484  267.726    0.403    0.219   32.989
  148.750   94.223  267.760    0.409    0.221   31.590
  149.000   93.653  266.335    0.415    0.242   31.590
  149.250   92.207  264.904    0.415    0.235   30.892
  149.500   91.640  263.467    0.412    0.237   28.746
  149.750   94.032  261.058    0.403    0.255   27.773
  150.000   93.767  259.130    0.399    0.226   27.334
  150.250   90.544  258.722    0.408    0.218   27.160
  150.500   88.210  257.274    0.417    0.188   29.048
  150.750   90.605  257.274    0.404    0.118   31.940
  151.000   93.580  256.861    0.396    0.168   32.931
  151.250   97.444  252.490    0.407    0.195   32.410
  151.500  101.898  249.074    0.408    0.222   30.467
  151.750  105.766  244.697    0.409    0.244   29.418
  152.000  106.095  245.726    0.427    0.223   27.140
  152.250  105.233  247.733    0.425    0.219   23.916
  152.500   99.353  243.848    0.424    0.191   21.447
  152.750   98.793  238.482    0.413    0.175   21.902
  153.000   96.459  233.613    0.410    0.158   22.799
  153.250   93.236  233.613    0.462    0.196   23.283
  153.500   88.835  230.768    0.468    0.212   27.820
  153.750   84.435  229.315    0.351    0.151   32.936
  154.000   87.413  229.399    0.315    0.076   39.017
  154.250   92.458  229.421    0.327    0.151   46.206
  154.500  100.458  229.947    0.419    0.169   45.475
  154.750  104.322  230.976    0.471    0.206   34.534
  155.000  109.075  232.989    0.566    0.243    9.060
  155.250  108.223  235.013    0.585    0.219    8.751
  155.500  105.889  237.020    0.539    0.217    9.631
  155.750  104.138  238.541    0.470    0.211   10.389
  156.000  100.331  238.094    0.416    0.178   11.967
  156.250   97.994  236.176    0.401    0.133   15.119
  156.500  100.382  236.227    0.398    0.089   19.820
  156.750  103.659  239.704    0.465    0.110   21.401
  157.000  105.749  243.685    0.498    0.147   22.058
  157.250  108.140  243.685    0.512    0.180   18.378
  157.500  109.650  245.754    0.519    0.182   16.345
  157.750  110.264  248.745    0.510    0.201   17.320
  158.000  107.336  249.282    0.491    0.208   18.518
  158.250  102.640  248.835    0.409    0.149   20.563
  158.500   90.861  246.912    0.388    0.145   23.461
  158.750   92.659  244.989    0.403    0.156   28.042
  159.000   95.637  244.989    0.421    0.205   29.991
  159.250   97.734  244.106    0.432    0.214   31.498
  159.500   97.764  241.686    0.445    0.207   31.278
  159.750   96.319  241.686    0.444    0.210   31.079
  160.000   93.981  240.792    0.449    0.220   30.861
  160.250   91.348  240.792    0.449    0.213   31.819
  160.500   87.541  237.953    0.440    0.213   34.357
  160.750   84.321  234.531    0.433    0.220   37.074
  161.000   80.514  230.646    0.436    0.210   41.169
  161.250   78.468  226.756    0.420    0.218   43.211
  161.500   74.953  222.865    0.398    0.214   48.863
  161.750   73.213  219.467    0.392    0.194   56.285
  162.000   74.125  218.030    0.407    0.187   62.463
  162.250   75.333  216.118    0.415    0.197   59.814
  162.500   77.433  215.191    0.414    0.208   45.859
  162.750   78.047  215.191    0.430    0.257   40.027
  163.000   75.712  214.777    0.433    0.270   45.654
  163.250   75.447  213.833    0.438    0.270   55.603
  163.500   75.763  213.392    0.446    0.267   57.292
  163.750   77.269  213.436    0.461    0.300   54.845
  164.000   79.365  214.471    0.476    0.322   47.885
  164.250   82.636  216.478    0.486    0.305   39.883
  164.500   87.684  218.988    0.511    0.278   29.752
  164.750   88.888  215.584    0.601    0.268   26.690
  165.000   86.557  209.731    0.551    0.275   25.315
  165.250   83.928  205.841    0.525    0.268   26.343
  165.500   78.048  205.394    0.519    0.221   29.234
  165.750   75.422  205.444    0.478    0.194   35.277
  166.000   76.928  205.517    0.358    0.153   48.416
  166.250   77.549  205.529    0.334    0.146   65.252
  166.500   76.392  205.574    0.341    0.159   72.460
  166.750   74.648  206.110    0.344    0.134   67.469
  167.000   74.681  206.161    0.304    0.096   72.805
  167.250   75.882  206.698    0.294    0.077  143.390
  167.500   77.680  207.727    0.289    0.081  143.845
  167.750   79.773  209.745    0.298    0.088  144.164
  168.000   83.047  211.260    0.326    0.160  157.008
  168.250   88.978  214.257    0.361    0.205  130.855
  168.500   97.568  217.745    0.400    0.222   33.073
  168.750  100.251  221.737    0.434    0.168   22.281
  169.000   99.691  224.242    0.456    0.147   19.269
  169.250   97.357  226.752    0.463    0.144   18.790
  169.500   97.387  228.262    0.438    0.125   18.831
  169.750  100.956  228.832    0.411    0.093   19.416
  170.000  103.636  230.823    0.435    0.139   20.778
  170.250  102.781  232.835    0.440    0.165   22.422
  170.500  101.923  234.848    0.435    0.237   24.661
  170.750  102.540  234.401    0.435    0.217   26.375
  171.000  103.161  232.478    0.435    0.212   26.442
  171.250  103.483  229.566    0.436    0.215   24.842
  171.500  103.513  226.167    0.439    0.186   23.788
  171.750  103.241  224.244    0.436    0.171   23.637
  172.000  101.789  224.301    0.423    0.180   23.689
  172.250  103.000  224.351    0.413    0.164   24.192
  172.500  105.097  224.888    0.410    0.128   24.943
  172.750  104.530  225.414    0.426    0.150   25.464
