~VERSION INFORMATION
 VERS.                 2.0:   CWLS LOG ASCII STANDARD -VERSION 2.0
 WRAP.                  NO:   ONE LINE PER DEPTH STEP
~WELL INFORMATION BLOCK
#MNEM.UNIT           DATA                    DESCRIPTION OF MNEMONIC
#---------    -------------------            -------------------------------
# Generated from Intellog Unique Number	CC_88_90/WELL/3146
WELL.         PETRO-CANADA                   : Well_name    - WELL
LOC .         AA/10-11-089-15W4/0            : Location     - LOCATION
UWI .         AA/10-11-089-15W400            : Uwi          - UNIQUE WELL ID
ENTR.         JOETTE                         : Entered      - ENTERED BY
SRVC.         SCHLUMBERGER                   : Scn          - SERVICE COMPANY
DATE.         03/04/92                       : Date         - LOG DATE
STRT.M        75.000                         : top_depth    - START DEPTH
STOP.M        176.000                        : bot_depth    - STOP DEPTH
STEP.M        0.25                           : increment    - STEP LENGTH
 NULL. -999.2500:NULL Value
~CURVE INFORMATION BLOCK
#MNEM UNIT       ERCB CURVE CODE    CURVE DESCRIPTION
#-----------   ------------------   ----------------------------------
DEPT.M        00 001 00 00         : DEPTH        - DEPTH
GR  .API      00 310 00 00         : GR           - GAMMA RAY
CALI.MM       00 280 01 00         : CAL          - CALIPER
NPHI.V/V      00 330 00 00         : PHIN         - NEUTRON POROSITY (SANDSTONE)
DPHI.V/V      00 890 00 00         : PHID         - DENSITY POROSITY (SANDSTONE)
ILD .OHMM     00 120 00 00         : RESD         - DEEP RESISTIVITY (DIL)
~PARAMETER INFORMATION
#MNEM.UNIT           DATA             DESCRIPTION OF MNEMONIC
#---------         -----------     ------------------------------
GL  .M        497.5                : gl           - GROUND LEVEL ELEVATION
EREF.M        500.5                : kb           - ELEVATION OF DEPTH REFERENCE
DATM.M        500.5                : datum        - DATUM ELEVATION
TDD .M        237                  : tdd          - TOTAL DEPTH DRILLER
RUN .         ONE                  : Run          - RUN NUMBER
ENG .         BILL                 : Engineer     - RECORDING ENGINEER
WIT .         JIM                  : Witness      - WITNESSED BY
MUD .         GEL                  : Mud_type     - MUD TYPE
MATR.         SANDSTONE            : Logunit      - NEUTRON MATRIX
TMAX.C        60                   : BHT          - MAXIMUM RECORDED TEMPERATURE
BHTD.M        237                  : BHTDEP       - MAXIMUM RECORDED TEMPERATURE
RMT .C        20.6                 : MDTP         - TEMPERATURE OF MUD
MUDD.KG/M     9666.66              : MWT          - MUD DENSITY
NEUT.         1                    : NEUTRON      - NEUTRON TYPE
RESI.         0                    : RESIST       - RESISTIVITY TYPE
RM  .OHMM     8.2                  : RM           - RESISTIVITY OF MUD
RMC .OHMM     10.9                 : RMC          - RESISTIVITY OF MUD CAKE
RMF .OHMM     10.9                 : RMF          - RESISTIVITY OF MUD FILTRATE
SUFT.C        4                    : SUFT         - SURFACE TEMPERATURE
~A  DEPTH       GR      CAL     PHIN     PHID     RESD
# ...
  148.000   25.505  179.527    0.409    0.250   12.662
  148.250   21.820  179.416    0.410    0.235   12.192
  148.500   31.042  180.408    0.409    0.213   11.098
  148.750   48.867  180.319    0.405    0.208   10.294
  149.000   44.568  181.245    0.408    0.201   10.668
  149.250   42.728  181.156    0.416    0.200   11.268
  149.500   45.190  182.104    0.422    0.201   12.347
  149.750   47.651  183.030    0.415    0.169   13.281
  150.000   71.622  184.000    0.383    0.145   13.763
  150.250   87.604  183.911    0.386    0.177   13.248
  150.500   92.523  183.778    0.400    0.215   12.514
  150.750   94.370  183.734    0.417    0.232   12.504
  151.000   77.780  182.586    0.419    0.243   12.261
  151.250   71.638  182.497    0.419    0.251   13.435
  151.500   86.391  182.409    0.422    0.248   15.001
  151.750   96.841  182.320    0.404    0.217   16.741
  152.000   96.230  182.254    0.340    0.194   16.119
  152.250   95.618  183.201    0.339    0.220   12.893
  152.500   82.716  183.113    0.372    0.245    9.932
  152.750   72.272  183.024    0.421    0.210    9.918
  153.000   64.285  183.927    0.415    0.162   10.478
  153.250   64.903  185.934    0.371    0.123   11.485
  153.500   82.728  182.736    0.321    0.071   12.817
  153.750   82.117  184.698    0.340    0.137   12.330
  154.000   75.360  190.806    0.356    0.122   11.654
  154.250   75.363  192.812    0.399    0.141   11.221
  154.500   77.210  196.870    0.421    0.182   10.795
  154.750   71.068  194.708    0.431    0.211   10.591
  155.000   69.227  193.583    0.423    0.203   10.573
  155.250   66.772  195.567    0.417    0.224   10.561
  155.500   63.702  196.515    0.430    0.218   10.555
  155.750   46.498  198.499    0.460    0.226   10.350
  156.000   45.886  198.411    0.462    0.228    9.960
  156.250   55.722  199.381    0.441    0.216    9.587
  156.500   73.548  200.306    0.431    0.207    9.231
  156.750   83.999  201.254    0.440    0.213    8.403
  157.000   79.700  201.165    0.450    0.223    8.239
  157.250   66.797  202.135    0.460    0.220    8.225
  157.500   48.978  203.061    0.478    0.209    8.221
  157.750   71.105  201.936    0.505    0.191    8.212
  158.000   95.691  200.833    0.465    0.161    8.353
  158.250  123.964  201.758    0.438    0.184    8.659
  158.500  115.978  202.684    0.438    0.233    8.652
  158.750  115.981  203.654    0.440    0.225    8.325
  159.000  124.588  203.543    0.445    0.226    8.016
  159.250  120.904  203.454    0.458    0.237    7.716
  159.500   92.637  203.366    0.458    0.220    8.145
  159.750   76.047  203.277    0.462    0.207    8.928
  160.000   47.780  204.225    0.455    0.206    9.963
  160.250   63.762  204.158    0.431    0.195   10.520
  160.500  106.785  204.025    0.427    0.190   10.124
  160.750  104.330  205.017    0.431    0.215    9.930
  161.000  106.176  204.929    0.439    0.234    9.205
  161.250   93.888  206.891    0.448    0.210    9.029
  161.500   61.934  207.839    0.449    0.208    9.021
  161.750   44.115  207.750    0.446    0.225    9.698
  162.000   65.014  203.515    0.441    0.229   10.056
  162.250   74.235  200.273    0.435    0.215   10.616
  162.500   83.457  200.228    0.425    0.207   11.010
  162.750  113.573  202.213    0.417    0.225   11.412
  163.000   96.984  205.233    0.417    0.236   11.613
  163.250   55.196  208.232    0.412    0.236   11.600
  163.500   39.221  211.253    0.401    0.238   11.580
  163.750   52.744  212.201    0.395    0.234   11.567
  164.000   66.882  213.148    0.409    0.221   11.561
  164.250   77.948  215.133    0.430    0.230   11.548
  164.500   87.169  216.103    0.421    0.208   11.535
  164.750   83.485  217.006    0.419    0.188   11.522
  165.000   75.499  217.998    0.406    0.198   11.721
  165.250   73.044  221.019    0.391    0.208   11.711
  165.500   77.349  223.003    0.406    0.217   11.474
  165.750   74.894  224.988    0.418    0.219   11.464
  166.000   76.126  226.950    0.416    0.208   11.458
  166.250   67.525  226.861    0.419    0.224   11.659
  166.500   63.841  226.795    0.414    0.206   11.429
  166.750   65.688  225.625    0.408    0.212   10.799
  167.000   59.545  225.581    0.419    0.216    9.653
  167.250   54.632  223.397    0.428    0.209    8.470
  167.500   60.781  222.294    0.426    0.227    7.569
  167.750   63.242  219.074    0.430    0.220    7.152
  168.000   58.944  216.912    0.441    0.217    6.884
  168.250   62.020  213.691    0.481    0.214    6.626
  168.500   70.627  211.508    0.512    0.206    6.499
  168.750   73.703  210.427    0.509    0.194    6.490
  169.000   74.935  209.302    0.483    0.182    6.727
  169.250   74.324  208.176    0.469    0.195    7.102
  169.500   71.869  206.015    0.448    0.210    7.497
  169.750   63.883  205.926    0.493    0.222    7.631
  170.000   63.885  205.815    0.481    0.228    7.622
  170.250   66.347  206.785    0.479    0.222    7.476
  170.500   67.579  208.725    0.458    0.176    7.331
  170.750   76.187  209.695    0.427    0.096    7.188
  171.000   71.887  205.416    0.448    0.196    7.048
  171.250   69.432  204.313    0.481    0.217    6.909
  171.500   66.362  203.210    0.483    0.224    6.902
  171.750   66.980  203.121    0.461    0.235    7.288
  172.000   68.213  203.033    0.452    0.242    7.556
  172.250   65.757  203.958    0.459    0.214    7.979
  172.500   67.605  204.906    0.453    0.215    8.580
  172.750   76.212  205.854    0.442    0.211    8.728
  173.000   74.371  206.802    0.423    0.208    8.887
  173.250   70.072  206.713    0.422    0.204    9.381
  173.500   72.534  206.624    0.425    0.187   10.094
  173.750   71.308  205.499    0.382    0.153   11.264
  174.000   67.623  204.374    0.369    0.100   11.679
  174.250   65.168  203.249    0.385    0.171   10.827
  174.500   74.390  200.050    0.386    0.205   10.623
  174.750   71.935  197.889    0.381    0.223   10.222
  175.000   59.032  205.033    0.385    0.221    9.837
  175.250   39.369  208.054    0.390    0.206    9.645
  175.500   20.320  207.966    0.395    0.189    9.458
  175.750   21.553  206.862    0.403    0.172    9.450
  176.000   25.243  205.715    0.414    0.181    9.439
