~VERSION INFORMATION
 VERS.                 2.0:   CWLS LOG ASCII STANDARD -VERSION 2.0
 WRAP.                  NO:   ONE LINE PER DEPTH STEP
~WELL INFORMATION BLOCK
#MNEM.UNIT           DATA                    DESCRIPTION OF MNEMONIC
#---------    -------------------            -------------------------------
# Generated from Intellog Unique Number	CN_94_101/WELL/3636
WELL.         10-27-096-13W4                 : Well_name    - WELL
LOC .         AA/10-27-096-13W4/0            : Location     - LOCATION
UWI .         AA/10-27-096-13W400            : Uwi          - UNIQUE WELL ID
ENTR.         J                              : Entered      - ENTERED BY
SRVC.         SCHLUMBERGER                   : Scn          - SERVICE COMPANY
DATE.         08/05/92                       : Date         - LOG DATE
STRT.F        100                            : top_depth    - START DEPTH
STOP.F        799.639                        : bot_depth    - STOP DEPTH
STEP.F        0.82                           : increment    - STEP LENGTH
 NULL. -999.2500:NULL Value
~CURVE INFORMATION BLOCK
#MNEM UNIT       ERCB CURVE CODE    CURVE DESCRIPTION
#-----------   ------------------   ----------------------------------
DEPT.F        00 001 00 00         : DEPTH        - DEPTH
ILD .OHMM     00 120 00 00         : RESD         - DEEP RESISTIVITY (DIL)
GR  .API      00 310 00 00         : GR           - GAMMA RAY
NPHI.V/V      00 330 00 00         : PHIN         - NEUTRON POROSITY (SANDSTONE)
~PARAMETER INFORMATION
#MNEM.UNIT           DATA             DESCRIPTION OF MNEMONIC
#---------         -----------     ------------------------------
GL  .M        430.012              : gl           - GROUND LEVEL ELEVATION
EREF.M        431.536              : kb           - ELEVATION OF DEPTH REFERENCE
DATM.M        431.536              : datum        - DATUM ELEVATION
TDD .M        248.107              : tdd          - TOTAL DEPTH DRILLER
RUN .         ONE                  : Run          - RUN NUMBER
ENG .         BILL                 : Engineer     - RECORDING ENGINEER
WIT .         JIM                  : Witness      - WITNESSED BY
MUD .         GEL                  : Mud_type     - MUD TYPE
MATR.         SANDSTONE            : Logunit      - NEUTRON MATRIX
TMAX.F        40                   : BHT          - MAXIMUM RECORDED TEMPERATURE
BHTD.F        814                  : BHTDEP       - MAXIMUM RECORDED TEMPERATURE
RMT .F        40                   : MDTP         - TEMPERATURE OF MUD
MUDD.LB/G     11.2                 : MWT          - MUD DENSITY
NEUT.         1                    : NEUTRON      - NEUTRON TYPE
RESI.         0                    : RESIST       - RESISTIVITY TYPE
RM  .OHMM     7.7                  : RM           - RESISTIVITY OF MUD
RMC .OHMM     7.7                  : RMC          - RESISTIVITY OF MUD CAKE
RMF .OHMM     7.7                  : RMF          - RESISTIVITY OF MUD FILTRATE
SUFT.F        39.2                 : SUFT         - SURFACE TEMPERATURE
~A  DEPTH     RESD       GR     PHIN
# ...
  277.986    4.670   79.265    0.529
  278.806    4.849   79.299    0.515
  279.626    5.530   81.370    0.519
  280.446    6.186   84.256    0.501
  281.266    6.920   85.104    0.458
  282.087    7.744   81.885    0.472
  282.907    7.615   79.465    0.472
  283.727    7.492   79.099    0.465
  284.547    7.501   77.918    0.478
  285.367    7.517   76.720    0.466
  286.188    7.666   80.421    0.431
  287.008    7.967   80.047    0.431
  287.828    8.283   75.597    0.427
  288.648    8.604   71.962    0.425
  289.469    9.111   70.373    0.451
  290.289    8.483   75.289    0.466
  291.109    7.066   76.961    0.428
  291.929    7.759   70.473    0.406
  292.749    9.516   66.422    0.401
  293.570   11.893   61.972    0.393
  294.390   14.586   58.338    0.385
  295.210   16.025   57.157    0.401
  296.030   11.525   57.597    0.437
  296.850    8.135   66.597    0.456
  297.671    6.415   70.722    0.463
  298.491    8.017   72.785    0.466
  299.311    8.643   75.264    0.488
  300.131    7.476   74.482    0.478
  300.951    7.083   75.338    0.461
  301.772    8.220   70.473    0.449
  302.592   10.086   66.430    0.450
  303.412    9.385   66.463    0.455
  304.232    7.678   68.551    0.448
  305.052    8.279   69.408    0.438
  305.873    9.790   69.424    0.444
  306.693   10.952   69.882    0.456
  307.513   10.191   70.306    0.467
  308.333    9.141   71.171    0.480
  309.154    8.053   71.612    0.493
  309.974    7.916   72.052    0.474
  310.794    8.386   73.308    0.469
  311.614    8.560   76.602    0.451
  312.434    8.571   76.228    0.449
  313.255    8.432   76.669    0.473
  314.075    8.285   77.933    0.464
  314.895    8.154   77.966    0.452
  315.715    7.873   79.214    0.454
  316.535    7.323   78.041    0.463
  317.356    8.344   80.511    0.465
  318.176    4.901   83.397    0.480
  318.996    5.483   86.691    0.490
  319.816    7.794   90.001    0.423
  320.636    6.738   88.396    0.391
  321.457    5.217   83.946    0.383
  322.277    5.322   79.496    0.402
  323.097    6.649   90.941    0.419
  323.917    7.041   95.066    0.451
  324.738    6.090   93.461    0.458
  325.558    5.169   89.826    0.478
  326.378    4.808   87.414    0.461
  327.198    4.816   91.115    0.473
  328.018    4.913   94.418    0.493
  328.839    4.329   94.043    0.482
  329.659    4.026   90.824    0.481
  330.479    5.032   89.227    0.468
  331.299    6.171   90.891    0.463
  332.119    6.780   91.739    0.461
  332.940    6.671   90.541    0.471
  333.760    7.061   87.722    0.478
  334.580    7.073   86.125    0.451
  335.400    7.213   86.981    0.420
  336.220    8.850   84.162    0.406
  337.041   10.661   81.342    0.406
  337.861   11.079   79.346    0.404
  338.681   12.393   79.379    0.407
  339.501   13.869   80.227    0.402
  340.322   13.390   78.622    0.395
  341.142   13.661   77.025    0.393
  341.962   14.197   77.873    0.398
  342.782   16.176   76.284    0.402
  343.602   18.439   74.280    0.396
  344.423   16.230   71.876    0.400
  345.243   13.041   69.872    0.412
  346.063   12.131   70.312    0.431
  346.883   12.612   71.560    0.434
  347.703   13.112   76.076    0.464
  348.524   12.659   75.710    0.437
  349.344   11.999   73.298    0.417
  350.164   11.800   74.962    0.415
  350.984   11.830   73.772    0.445
  351.804   11.840   73.814    0.458
  352.625   12.085   76.692    0.466
  353.445   12.330   79.994    0.381
  354.265   12.575   77.989    0.394
  355.085   13.073   75.577    0.395
  355.906   13.095   73.173    0.411
  356.726   12.418   74.828    0.400
  357.546   11.345   76.084    0.401
  358.366   10.361   76.542    0.397
  359.186   10.771   76.575    0.385
  360.007   12.506   74.978    0.379
  360.827   14.508   72.557    0.374
  361.647   13.013   69.738    0.379
  362.467   13.040   67.326    0.373
  363.287   14.060   66.544    0.372
  364.108   12.160   70.245    0.382
  364.928   11.105   74.770    0.391
  365.748    9.085   75.210    0.393
  366.568    7.297   76.059    0.401
  367.388    7.586   78.945    0.412
  368.209    8.483   77.755    0.398
  369.029   10.601   75.759    0.389
  369.849   12.764   75.393    0.390
  370.669   12.786   77.472    0.398
  371.490   10.654   78.313    0.399
  372.310   10.677   79.161    0.398
  373.130   10.694   80.417    0.412
  373.950   10.141   80.043    0.426
  374.770    9.433   79.261    0.429
  375.591    9.628   79.701    0.448
  376.411   10.006   80.550    0.475
  377.231   10.023   80.184    0.477
  378.051   11.007   78.986    0.464
  378.871   13.750   76.981    0.453
  379.692   17.828   75.792    0.440
  380.512   15.132   74.212    0.402
  381.332    6.742   73.430    0.379
  382.152    4.423   74.278    0.394
  382.972    3.361   76.341    0.411
  383.793    3.973   78.819    0.458
  384.613    5.248   81.306    0.523
  385.433    6.555   80.117    0.500
  386.253    8.982   78.121    0.490
  387.073    9.334   78.969    0.477
  387.894    9.524   79.809    0.441
  388.714    9.897   79.035    0.427
  389.534    3.806   78.661    0.466
  390.354    3.057   80.732    0.500
  391.175    2.846   84.841    0.550
  391.995    3.244   86.105    0.555
  392.815    3.627   88.592    0.567
  393.635    4.790   86.987    0.473
  394.455    7.327   80.083    0.440
  395.276    9.500   75.633    0.422
  396.096   11.867   76.091    0.409
  396.916   14.294   74.494    0.395
  397.736   10.864   72.888    0.433
  398.556    9.053   76.590    0.471
  399.377   10.315   80.291    0.435
  400.197   11.122   84.816    0.417
  401.017   11.778   84.849    0.406
  401.837   14.444   83.260    0.413
  402.657   17.392   82.877    0.403
  403.478   16.191   82.104    0.393
  404.298   12.530   82.129    0.385
  405.118   14.027   82.170    0.380
  405.938   14.842   81.796    0.370
  406.759   14.068   81.422    0.377
  407.579   13.335   80.240    0.385
  408.399   14.390   80.274    0.388
  409.219   13.887   83.967    0.392
  410.039   12.687   86.046    0.383
  410.860   13.933   83.235    0.371
  411.680   16.478   80.814    0.372
  412.500   18.096   77.188    0.377
  413.320   17.471   75.998    0.375
  414.140   16.567   76.031    0.385
  414.961   16.595   77.279    0.382
  415.781   16.022   79.766    0.378
  416.601   14.371   79.392    0.386
  417.421   14.395   82.286    0.391
  418.241   14.687   84.756    0.401
  419.062   14.186   82.752    0.414
  419.882   14.473   80.348    0.407
  420.702   13.973   79.965    0.395
  421.522   14.522   82.860    0.389
  422.343   14.020   84.116    0.390
  423.163   14.305   84.157    0.392
  423.983   19.242   82.968    0.384
  424.803   26.355   83.409    0.362
  425.623   34.185   83.849    0.317
  426.444   22.823   78.168    0.282
  427.264   15.533   72.088    0.249
  428.084   12.025   66.416    0.276
  428.904   11.614   66.856    0.370
  429.724   13.233   71.381    0.415
  430.545   14.008   74.683    0.408
  431.365   10.651   75.124    0.401
  432.185   10.867   76.779    0.409
  433.005   10.487   75.190    0.426
  433.825   13.112   74.009    0.416
  434.646   14.137   76.488    0.397
  435.466   13.150   78.143    0.398
  436.286   10.758   78.176    0.373
  437.106   11.180   73.319    0.344
  437.927   17.425   67.646    0.285
  438.747   23.866   63.604    0.252
  439.567   69.571   58.339    0.207
  440.387   10.655   59.187    0.217
  441.207   13.068   64.119    0.291
  442.028   17.258   69.043    0.322
  442.848   21.959   71.522    0.352
  443.668    8.923   64.219    0.366
  444.488    9.112   64.660    0.276
  445.308    8.479   70.407    0.329
  446.129    7.747   74.109    0.344
  446.949    7.340   77.402    0.398
  447.769    6.466   84.780    0.420
  448.589    6.969   86.452    0.424
  449.409    8.245   84.447    0.444
  450.230    8.565   83.657    0.434
  451.050    8.423   84.913    0.427
  451.870    8.437   82.093    0.433
  452.690    8.771   79.698    0.436
  453.510    9.285   82.991    0.430
  454.331   10.390   83.831    0.417
  455.151   12.743   76.121    0.395
