~VERSION INFORMATION
 VERS.                 2.0:   CWLS LOG ASCII STANDARD -VERSION 2.0
 WRAP.                  NO:   ONE LINE PER DEPTH STEP
~WELL INFORMATION BLOCK
#MNEM.UNIT           DATA                    DESCRIPTION OF MNEMONIC
#---------    -------------------            -------------------------------
# Generated from Intellog Unique Number	CC_88_90/WELL/3153
WELL.         UNION OIL COMPANY OF CALIFORNI : Well_name    - WELL
LOC .         AA/11-33-090-11W4/0            : Location     - LOCATION
UWI .         AA/11-33-090-11W400            : Uwi          - UNIQUE WELL ID
ENTR.         JOETTE                         : Entered      - ENTERED BY
SRVC.         COMPUTALOG                     : Scn          - SERVICE COMPANY
DATE.         03/11/92                       : Date         - LOG DATE
STRT.M        30.480                         : top_depth    - START DEPTH
STOP.M        131.480                        : bot_depth    - STOP DEPTH
STEP.M        0.25                           : increment    - STEP LENGTH
 NULL. -999.2500:NULL Value
~CURVE INFORMATION BLOCK
#MNEM UNIT       ERCB CURVE CODE    CURVE DESCRIPTION
#-----------   ------------------   ----------------------------------
DEPT.M        00 001 00 00         : DEPTH        - DEPTH
GR  .API      00 310 00 00         : GR           - GAMMA RAY
NPHI.V/V      00 330 00 00         : PHIN         - NEUTRON POROSITY (SANDSTONE)
ILD .OHMM     00 120 00 00         : RESD         - DEEP RESISTIVITY (DIL)
~PARAMETER INFORMATION
#MNEM.UNIT           DATA             DESCRIPTION OF MNEMONIC
#---------         -----------     ------------------------------
GL  .M        423.367              : gl           - GROUND LEVEL ELEVATION
EREF.M        423.367              : kb           - ELEVATION OF DEPTH REFERENCE
DATM.M        423.367              : datum        - DATUM ELEVATION
TDD .M        167.335              : tdd          - TOTAL DEPTH DRILLER
RUN .         ONE                  : Run          - RUN NUMBER
ENG .         BILL                 : Engineer     - RECORDING ENGINEER
WIT .         JIM                  : Witness      - WITNESSED BY
MUD .         GEL                  : Mud_type     - MUD TYPE
MATR.         SANDSTONE            : Logunit      - NEUTRON MATRIX
TMAX.C        7.22222              : BHT          - MAXIMUM RECORDED TEMPERATURE
BHTD.M        167.335              : BHTDEP       - MAXIMUM RECORDED TEMPERATURE
RMT .C        6.66667              : MDTP         - TEMPERATURE OF MUD
MUDD.KG/M     1110                 : MWT          - MUD DENSITY
NEUT.         1                    : NEUTRON      - NEUTRON TYPE
RESI.         0                    : RESIST       - RESISTIVITY TYPE
RM  .OHMM     5.9                  : RM           - RESISTIVITY OF MUD
RMC .OHMM     5.9                  : RMC          - RESISTIVITY OF MUD CAKE
RMF .OHMM     4                    : RMF          - RESISTIVITY OF MUD FILTRATE
SUFT.C        4                    : SUFT         - SURFACE TEMPERATURE
~A  DEPTH       GR     PHIN     RESD
   30.480   85.425    0.454   10.354
   30.730   84.199    0.447   10.217
   30.980   87.275    0.446   10.079
   31.230   96.496    0.451    9.941
   31.480  112.478    0.454    9.735
   31.730  106.336    0.463    9.666
   31.980  105.725    0.470    9.595
   32.230  119.863    0.470    9.390
   32.480  127.241    0.474    9.185
   32.730  113.723    0.482    8.980
   32.980  111.268    0.493    8.574
   33.230  124.792    0.506    8.234
   33.480  121.108    0.515    7.626
   33.730  110.048    0.527    6.613
   33.980  109.437    0.539    5.871
   34.230  105.138    0.537    5.867
   34.480  102.683    0.541    5.931
   34.730  103.916    0.529    6.130
   34.980  112.523    0.521    6.529
   35.230  105.765    0.529    6.929
   35.480   93.477    0.549    7.128
   35.730  100.855    0.537    7.258
   35.980   95.942    0.536    7.389
   36.230  108.237    0.555    7.454
   36.480  115.614    0.556    7.383
   36.730  119.920    0.544    7.313
   36.980  127.297    0.541    7.108
   37.230  112.551    0.540    6.969
   37.480  104.565    0.535    6.901
   37.730  107.641    0.534    6.830
   37.980  118.706    0.526    6.759
   38.230  121.168    0.507    6.755
   38.480  121.171    0.490    7.156
   38.730  109.497    0.489    9.238
   38.980   90.449    0.501   12.931
   39.230   89.838    0.522   12.458
   39.480   93.528    0.522   10.908
   39.730   94.760    0.513   10.232
   39.980  108.899    0.514    9.422
   40.230  120.578    0.490    8.007
   40.480  126.727    0.474    9.146
   40.730  125.501    0.488    9.009
   40.980  106.453    0.505    8.938
   41.230   84.331    0.522    9.272
   41.480   97.856    0.538    9.538
   41.730   89.255    0.565    8.996
   41.980   91.102    0.562    7.984
   42.230   99.094    0.566    6.771
   42.480   99.712    0.564    5.825
   42.730  102.173    0.560    6.292
   42.980   96.030    0.559    6.424
   43.230  102.794    0.544    6.352
   43.480  124.307    0.524    6.283
   43.730  135.987    0.529    6.145
   43.980  129.230    0.541    6.074
   44.230  116.941    0.531    6.070
   44.480  102.195    0.526    6.135
   44.730  112.646    0.531    6.133
   44.980  114.493    0.535    6.599
   45.230  118.183    0.536    6.798
   45.480  121.874    0.546    6.458
   45.730  118.189    0.567    5.916
   45.980  115.734    0.566    5.644
   46.230  118.196    0.565    5.574
   46.480  120.043    0.557    5.705
   46.730  108.984    0.551    5.972
   46.980  100.998    0.538    6.304
   47.230  102.229    0.554    6.704
   47.480  113.295    0.575    6.633
   47.730  102.850    0.587    6.360
   47.980  101.625    0.577    6.020
   48.230  104.701    0.578    5.951
   48.480  110.849    0.560    6.015
   48.730  112.082    0.553    6.079
   48.980  105.325    0.566    5.807
   49.230  109.630    0.578    5.670
   49.480  109.633    0.581    5.464
   49.730  107.792    0.571    5.258
   49.980  108.410    0.568    5.120
   50.230   99.809    0.557    5.051
   50.480   99.812    0.565    4.846
   50.730   97.972    0.579    4.708
   50.980   83.225    0.583    4.570
   51.230   88.145    0.576    4.432
   51.480   94.909    0.562    4.362
   51.730   89.380    0.578    4.291
   51.980   91.842    0.579    4.288
   52.230  101.678    0.572    4.285
   52.480  102.296    0.587    4.214
   52.730   93.081    0.592    4.210
   52.980  105.375    0.590    4.208
   53.230  120.742    0.581    4.338
   53.480  120.131    0.581    4.335
   53.730  117.061    0.591    4.601
   53.980  120.137    0.559    5.135
   54.230  109.079    0.518    6.141
   54.480   99.249    0.517    7.281
   54.730   94.949    0.517    7.613
   54.980   98.640    0.512    7.609
   55.230   99.258    0.509    7.808
   55.480  100.490    0.518    8.209
   55.730   98.650    0.525    8.676
   55.980   91.892    0.496    8.202
   56.230   96.197    0.496    8.065
   56.480  108.492    0.493    8.061
   56.730   94.975    0.483    8.460
   56.980   95.593    0.475    8.727
   57.230  102.356    0.459    9.193
   57.480   92.526    0.447    9.325
   57.730  101.747    0.458    9.390
   57.980  100.522    0.468    9.656
   58.230   89.463    0.478    9.920
   58.480   88.852    0.495    9.783
   58.730   94.386    0.492    9.577
   58.980   98.691    0.511    9.575
   59.230   95.621    0.510    9.975
   59.480   88.864    0.525    9.433
   59.730   91.325    0.549    9.094
   59.980  118.369    0.533    9.091
   60.230  104.852    0.527    7.944
   60.480   93.178    0.533    6.529
   60.730   90.723    0.505    5.718
   60.980   89.498    0.502    5.917
   61.230  112.239    0.510    6.249
   61.480  123.919    0.521    6.314
   61.730  113.475    0.508    6.378
   61.980  114.708    0.494    6.441
   62.230  114.710    0.492    6.506
   62.480  104.266    0.503    6.637
   62.730   98.738    0.504    6.769
   62.980   97.512    0.491    7.033
   63.230  109.806    0.477    7.166
   63.480  120.258    0.473    7.297
   63.730  110.427    0.467    7.360
   63.980  107.357    0.472    7.290
   64.230  109.819    0.496    7.218
   64.480  108.593    0.500    7.147
   64.730  108.597    0.490    7.145
   64.980  116.589    0.474    7.142
   65.230  112.290    0.474    6.868
   65.480   93.241    0.486    6.665
   65.730   87.099    0.487    6.325
   65.980   82.800    0.486    5.850
   66.230   80.960    0.479    5.645
   66.480   72.974    0.451    6.517
   66.730   64.987    0.463    7.388
   66.980   74.823    0.486    6.847
   67.230   83.430    0.504    6.306
   67.480   88.350    0.530    5.697
   67.730   96.957    0.554    4.955
   67.980  116.012    0.557    4.278
   68.230  106.797    0.545    3.871
   68.480  117.862    0.533    3.667
   68.730  127.084    0.518    3.731
   68.980  120.327    0.495    3.929
   69.230  116.642    0.501    4.262
   69.480  120.948    0.509    4.461
   69.730  124.024    0.505    4.658
   69.980  128.329    0.493    4.790
   70.230  116.655    0.504    6.737
   70.480  110.512    0.516    7.876
   70.730   95.766    0.482    7.739
   70.980   90.239    0.470    6.659
   71.230   97.002    0.479    6.992
   71.480  102.536    0.490    7.997
   71.730  110.528    0.494    9.138
   71.980  106.844    0.481   10.076
   72.230  111.764    0.474   11.551
   72.480  106.850    0.482   11.145
   72.730  108.697    0.491   10.603
   72.980  105.627    0.494    9.861
   73.230   93.954    0.498    9.184
   73.480   93.957    0.498    8.846
   73.730  104.408    0.495    8.573
   73.980  102.567    0.492    8.838
   74.230  110.560    0.490    9.239
   74.480  116.708    0.489    9.774
   74.730  103.806    0.472   10.578
   74.980   81.685    0.466   11.381
   75.230   82.302    0.485   11.781
   75.480  101.972    0.493   11.508
   75.730  102.590    0.491   11.035
   75.980   88.457    0.479   10.561
   76.230   79.857    0.480   10.020
   76.480   83.548    0.491    9.479
   76.730   81.093    0.497    8.937
   76.980   77.408    0.488    9.404
   77.230   94.619    0.475   10.611
   77.480  107.528    0.479   10.204
   77.730  105.073    0.498    9.663
   77.980   96.472    0.506    9.055
   78.230  105.079    0.494    8.850
   78.480  108.770    0.480    9.384
   78.730   95.867    0.475    9.919
   78.980   91.568    0.474   10.252
   79.230   87.884    0.475   10.316
   79.480   89.116    0.509   10.111
   79.730   77.443    0.513    9.704
   79.980   80.519    0.507    9.028
   80.230  111.865    0.498    8.823
   80.480  114.941    0.474    9.021
   80.730  114.329    0.438    9.153
   80.980  111.260    0.425    9.352
   81.230   84.836    0.442    9.685
   81.480   81.767    0.464   10.085
   81.730   84.843    0.472   10.620
   81.980   89.148    0.467   11.154
   82.230  103.900    0.461   11.755
   82.480  130.330    0.464   11.885
   82.730  124.188    0.459   11.883
   82.980  111.899    0.459   12.284
   83.230  104.529    0.471   11.944
   83.480  105.146    0.487   11.538
   83.730   91.013    0.479   10.997
   83.980   85.486    0.487   10.321
   84.230   83.031    0.526    7.964
   84.480   82.420    0.516    7.423
