~VERSION INFORMATION
 VERS.                 2.0:   CWLS LOG ASCII STANDARD -VERSION 2.0
 WRAP.                  NO:   ONE LINE PER DEPTH STEP
~WELL INFORMATION BLOCK
#MNEM.UNIT           DATA                    DESCRIPTION OF MNEMONIC
#---------    -------------------            -------------------------------
# Generated from Intellog Unique Number	CN_94_101/WELL/5008
WELL.         10-29-100-14W4                 : Well_name    - WELL
LOC .         AA/10-29-100-14W4/0            : Location     - LOCATION
UWI .         AA/10-29-100-14W400            : Uwi          - UNIQUE WELL ID
ENTR.         TIM                            : Entered      - ENTERED BY
SRVC.         SCHLUMBERGER                   : Scn          - SERVICE COMPANY
DATE.         08/11/92                       : Date         - LOG DATE
STRT.M        275                            : top_depth    - START DEPTH
STOP.M        480                            : bot_depth    - STOP DEPTH
STEP.M        0.25                           : increment    - STEP LENGTH
 NULL. -999.2500:NULL Value
~CURVE INFORMATION BLOCK
#MNEM UNIT       ERCB CURVE CODE    CURVE DESCRIPTION
#-----------   ------------------   ----------------------------------
DEPT.M        00 001 00 00         : DEPTH        - DEPTH
GR  .API      00 310 00 00         : GR           - GAMMA RAY
ILD .OHMM     00 120 00 00         : RESD         - DEEP RESISTIVITY (DIL)
NPHI.V/V      00 330 00 00         : PHIN         - NEUTRON POROSITY (SANDSTONE)
DPHI.V/V      00 890 00 00         : PHID         - DENSITY POROSITY (SANDSTONE)
~PARAMETER INFORMATION
#MNEM.UNIT           DATA             DESCRIPTION OF MNEMONIC
#---------         -----------     ------------------------------
GL  .M        713.6                : gl           - GROUND LEVEL ELEVATION
EREF.M        716.96               : kb           - ELEVATION OF DEPTH REFERENCE
DATM.M        716.96               : datum        - DATUM ELEVATION
TDD .M        480                  : tdd          - TOTAL DEPTH DRILLER
RUN .         ONE                  : Run          - RUN NUMBER
ENG .         BILL                 : Engineer     - RECORDING ENGINEER
WIT .         JIM                  : Witness      - WITNESSED BY
MUD .         GEL                  : Mud_type     - MUD TYPE
MATR.         SANDSTONE            : Logunit      - NEUTRON MATRIX
TMAX.C        28                   : BHT          - MAXIMUM RECORDED TEMPERATURE
BHTD.M        480                  : BHTDEP       - MAXIMUM RECORDED TEMPERATURE
RMT .C        17.3                 : MDTP         - TEMPERATURE OF MUD
MUDD.KG/M     1130                 : MWT          - MUD DENSITY
NEUT.         1                    : NEUTRON      - NEUTRON TYPE
RESI.         0                    : RESIST       - RESISTIVITY TYPE
RM  .OHMM     8.25                 : RM           - RESISTIVITY OF MUD
RMC .OHMM     7.89                 : RMC          - RESISTIVITY OF MUD CAKE
RMF .OHMM     6.89                 : RMF          - RESISTIVITY OF MUD FILTRATE
SUFT.C        4                    : SUFT         - SURFACE TEMPERATURE
~A  DEPTH       GR     RESD     PHIN     PHID
# ...
  449.000   67.443   28.784    0.416    0.280
  449.250   60.051   33.562    0.401    0.272
  449.500   51.431   39.797    0.390    0.269
  449.750   42.810   43.744    0.383    0.282
  450.000   42.182   46.027    0.377    0.288
  450.250   44.006   46.643    0.358    0.288
  450.500   45.222   43.723    0.344    0.280
  450.750   47.053   36.643    0.355    0.279
  451.000   48.888   29.770    0.368    0.281
  451.250   51.334   21.648    0.375    0.282
  451.500   51.931   22.890    0.383    0.285
  451.750   48.233   26.213    0.382    0.283
  452.000   47.601   28.287    0.367    0.278
  452.250   50.662   28.697    0.356    0.279
  452.500   53.111   38.468    0.367    0.284
  452.750   56.165   45.535    0.385    0.291
  453.000   56.158   50.522    0.398    0.299
  453.250   55.530   54.054    0.394    0.302
  453.500   54.283   57.792    0.390    0.310
  453.750   53.655   58.617    0.395    0.313
  454.000   54.871   58.194    0.398    0.315
  454.250   56.703   56.315    0.400    0.313
  454.500   59.767   50.898    0.394    0.312
  454.750   65.287   34.663    0.384    0.308
  455.000   70.192   26.332    0.375    0.283
  455.250   73.864   18.628    0.373    0.264
  455.500   72.009   14.044    0.380    0.247
  455.750   69.537   13.413    0.387    0.260
  456.000   68.908   12.990    0.388    0.274
  456.250   70.740   12.983    0.385    0.272
  456.500   72.570   13.185    0.378    0.268
  456.750   71.942   14.634    0.376    0.265
  457.000   71.314   16.708    0.371    0.267
  457.250   70.071   22.527    0.375    0.278
  457.500   68.825   31.258    0.381    0.295
  457.750   67.585   38.950    0.388    0.312
  458.000   65.109   38.735    0.394    0.321
  458.250   63.866   36.023    0.401    0.325
  458.500   66.315   31.648    0.396    0.327
  458.750   72.450   28.312    0.393    0.322
  459.000   85.348   20.815    0.393    0.314
  459.250   93.327   11.236    0.401    0.298
  459.500   98.232   11.230    0.407    0.277
  459.750  101.907   14.760    0.407    0.260
  460.000  105.583   17.666    0.404    0.260
  460.250  108.029   12.874    0.400    0.266
  460.500  110.471   10.579    0.390    0.261
  460.750  115.376    8.908    0.376    0.256
  461.000  119.670    7.444    0.369    0.248
  461.250  123.957    6.606    0.375    0.241
  461.500  122.714    5.349    0.381    0.232
  461.750  117.785    5.134    0.385    0.220
  462.000  114.083    5.753    0.381    0.219
  462.250  117.759   15.733    0.374    0.260
  462.500  122.049   14.270    0.368    0.271
  462.750  127.569   13.431    0.367    0.271
  463.000  130.626   12.800    0.368    0.269
  463.250  130.616   11.542    0.368    0.268
  463.500  130.599   10.704    0.369    0.266
  463.750  132.427   10.283    0.369    0.262
  464.000  134.870    9.235    0.367    0.258
  464.250  136.092    8.813    0.368    0.254
  464.500  139.768    8.181    0.369    0.251
  464.750  137.910    7.132    0.371    0.246
  465.000  131.134    6.708    0.369    0.242
  465.250  122.513    6.496    0.362    0.237
  465.500  119.422    6.073    0.352    0.231
  465.750  123.716    5.859    0.347    0.223
  466.000  124.929    5.644    0.355    0.212
  466.250  121.230    5.429    0.363    0.201
  466.500  116.912    5.213    0.368    0.198
  466.750  111.981    5.204    0.371    0.231
  467.000  107.045    4.993    0.371    0.239
  467.250  108.265    4.775    0.368    0.244
  467.500  111.325    4.771    0.361    0.250
  467.750  114.998    4.765    0.356    0.249
  468.000  115.599    4.550    0.356    0.246
  468.250  114.971    4.541    0.357    0.245
  468.500  113.113    4.533    0.358    0.244
  468.750  111.873    4.528    0.359    0.242
  469.000  111.238    4.519    0.361    0.241
  469.250  112.458    4.516    0.361    0.243
  469.500  113.677    4.509    0.361    0.244
  469.750  114.890    4.501    0.361    0.247
  470.000  115.488    4.496    0.359    0.250
  470.250  115.478    4.488    0.358    0.251
  470.500  113.610    4.482    0.358    0.248
  470.750  112.992    4.472    0.360    0.243
  471.000  112.361    4.467    0.363    0.235
  471.250  111.121    4.462    0.363    0.228
  471.500  109.875    4.454    0.361    0.218
  471.750  109.250    4.241    0.361    0.211
  472.000  108.618    4.231    0.369    0.221
  472.250  109.834    4.018    0.373    0.237
  472.500  113.513    4.013    0.374    0.240
  472.750  118.415    3.796    0.374    0.242
  473.000  118.402    3.581    0.379    0.240
  473.250  117.777    3.365    0.385    0.237
  473.500  115.919    3.358    0.389    0.234
  473.750  113.446    3.143    0.386    0.236
  474.000  107.285    3.137    0.376    0.236
  474.250   99.890    2.924    0.369    0.233
  474.500   96.191    2.917    0.370    0.233
  474.750   91.259    2.908    0.373    0.234
  475.000   91.861    2.902    0.375    0.236
  475.250   93.073    2.895    0.374    0.237
  475.500   93.678    2.887    0.372    0.239
  475.750   94.280    2.883    0.367    0.242
  476.000   95.493    2.876    0.363    0.246
  476.250   96.702    2.868    0.358    0.247
  476.500   97.922    2.863    0.351    0.249
  476.750   97.905    2.853    0.330    0.251
  477.000   97.895    2.850    0.311    0.248
  477.250   97.881    2.843    0.292    0.238
  477.500   98.486    3.044    0.267    0.105
  477.750   97.858    3.662    0.241    0.079
  478.000   95.385    5.111    0.139    0.063
  478.250   92.912   16.131    0.128    0.057
  478.500   90.433   19.869    0.121    0.054
  478.750   89.812   21.321    0.112    0.050
  479.000   91.639   22.353    0.105    0.048
  479.250   94.700   22.554    0.102    0.045
  479.500   97.149   22.547    0.098    0.044
  479.750   98.365   22.541    0.095    0.043
  480.000   98.963   22.534    0.093    0.042
