~VERSION INFORMATION
 VERS.                 2.0:   CWLS LOG ASCII STANDARD -VERSION 2.0
 WRAP.                  NO:   ONE LINE PER DEPTH STEP
~WELL INFORMATION BLOCK
#MNEM.UNIT           DATA                    DESCRIPTION OF MNEMONIC
#---------    -------------------            -------------------------------
# Generated from Intellog Unique Number	CN_91_93/WELL/1077
WELL.         10-11-091-16W4                 : Well_name    - WELL
LOC .         AA/10-11-091-16W4/0            : Location     - LOCATION
UWI .         AA/10-11-091-16W400            : Uwi          - UNIQUE WELL ID
ENTR.         JOETTE                         : Entered      - ENTERED BY
SRVC.         SCHLUMBERGER                   : Scn          - SERVICE COMPANY
STRT.F        213.255                        : top_depth    - START DEPTH
STOP.F        787.402                        : bot_depth    - STOP DEPTH
STEP.F        0.82                           : increment    - STEP LENGTH
 NULL. -999.2500:NULL Value
~CURVE INFORMATION BLOCK
#MNEM UNIT       ERCB CURVE CODE    CURVE DESCRIPTION
#-----------   ------------------   ----------------------------------
DEPT.F        00 001 00 00         : DEPTH        - DEPTH
GR  .API      00 310 00 00         : GR           - GAMMA RAY
DPHI.V/V      00 890 00 00         : PHID         - DENSITY POROSITY (SANDSTONE)
NPHI.V/V      00 330 00 00         : PHIN         - NEUTRON POROSITY (SANDSTONE)
CALI.IN       00 280 01 00         : CAL          - CALIPER
ILD .OHMM     00 120 00 00         : RESD         - DEEP RESISTIVITY (DIL)
~PARAMETER INFORMATION
#MNEM.UNIT           DATA             DESCRIPTION OF MNEMONIC
#---------         -----------     ------------------------------
GL  .M        490.58               : gl           - GROUND LEVEL ELEVATION
EREF.M        493.87               : kb           - ELEVATION OF DEPTH REFERENCE
DATM.M        493.87               : datum        - DATUM ELEVATION
TDD .M        246                  : tdd          - TOTAL DEPTH DRILLER
RUN .         ONE                  : Run          - RUN NUMBER
ENG .         BILL                 : Engineer     - RECORDING ENGINEER
WIT .         JIM                  : Witness      - WITNESSED BY
MUD .         GEL                  : Mud_type     - MUD TYPE
MATR.         SANDSTONE            : Logunit      - NEUTRON MATRIX
TMAX.F        140                  : BHT          - MAXIMUM RECORDED TEMPERATURE
BHTD.F        6797.9               : BHTDEP       - MAXIMUM RECORDED TEMPERATURE
RMT .F        77                   : MDTP         - TEMPERATURE OF MUD
MUDD.LB/G     9.66666              : MWT          - MUD DENSITY
NEUT.         1                    : NEUTRON      - NEUTRON TYPE
RESI.         0                    : RESIST       - RESISTIVITY TYPE
RM  .OHMM     8.75                 : RM           - RESISTIVITY OF MUD
RMC .OHMM     0.25                 : RMC          - RESISTIVITY OF MUD CAKE
RMF .OHMM     6.25                 : RMF          - RESISTIVITY OF MUD FILTRATE
SUFT.F        39.2                 : SUFT         - SURFACE TEMPERATURE
~A  DEPTH       GR     PHID     PHIN      CAL     RESD
# ...
  333.005   73.119    0.306    0.409    9.560   26.794
  333.825   75.579    0.317    0.444    9.563   29.338
  334.646   72.622    0.316    0.430    9.566   28.113
  335.466   71.177    0.313    0.427    9.549   26.557
  336.286   74.239    0.307    0.429    9.553   25.827
  337.106   74.893    0.265    0.437    9.557   25.884
  337.927   70.132    0.212    0.443    9.559   32.376
  338.747   65.965    0.160    0.332    9.564   39.626
  339.567   66.626    0.147    0.305    9.566   37.139
  340.387   72.395    0.207    0.364    9.588   31.860
  341.207   80.278    0.260    0.389    9.591   26.535
  342.028   83.941    0.287    0.491    9.594   25.060
  342.848   82.489    0.242    0.487    9.577   24.746
  343.668   76.825    0.204    0.429    9.561   26.306
  344.488   82.895    0.241    0.424    9.561   26.737
  345.308   88.671    0.265    0.437    9.568   26.028
  346.129   92.936    0.294    0.427    9.590   24.563
  346.949   98.111    0.282    0.425    9.615   22.521
  347.769  102.977    0.288    0.481    9.637   20.492
  348.589  108.753    0.288    0.495    9.699   15.964
  349.409  110.919    0.283    0.511    9.721   14.317
  350.230  107.354    0.259    0.520    9.725   12.557
  351.050  101.690    0.213    0.520    9.728   10.850
  351.870  103.554    0.209    0.512    9.691    9.950
  352.690  103.600    0.265    0.525    9.615    9.469
  353.510   95.228    0.287    0.558    9.558    9.348
  354.331   93.489    0.278    0.448    9.443    9.643
  355.151   94.444    0.254    0.443    9.367   11.205
  355.971   92.083    0.261    0.456    9.310   13.113
  356.791   92.430    0.267    0.481    9.235   14.467
  357.612   97.297    0.272    0.506    9.217   14.825
  358.432   99.469    0.268    0.520    9.240   13.894
  359.252   96.506    0.276    0.546    9.204   12.834
  360.072   85.419    0.289    0.558    9.088   12.210
  360.892   79.748    0.300    0.498    9.012   12.980
  361.713   71.075    0.258    0.402    8.916   15.082
  362.533   64.809    0.137    0.357    8.899   18.455
  363.353   62.756    0.197    0.349    8.942   23.607
  364.173   62.213    0.207    0.358    8.945   29.317
  364.993   64.065    0.216    0.345    8.988   40.688
  365.814   67.427    0.197    0.325    9.149   41.091
  366.634   71.699    0.165    0.362    9.331   38.502
  367.454   79.273    0.179    0.370    9.314   28.064
  368.274   83.545    0.228    0.399    9.338   25.916
  369.094   90.518    0.247    0.420    9.380   22.227
  369.915   97.197    0.303    0.401    9.582   19.214
  370.735   93.939    0.274    0.434    9.802   17.099
  371.555   96.098    0.292    0.459   10.084   14.450
  372.375   89.832    0.307    0.529   10.066   13.249
  373.196   84.776    0.313    0.569    9.990   13.576
  374.016   78.203    0.310    0.526    9.914   14.861
  374.836   76.450    0.293    0.495    9.778   18.593
  375.656   76.195    0.249    0.479    9.842   21.444
  376.476   87.387    0.235    0.454   10.261   22.131
  377.297   96.172    0.258    0.429   10.482   22.505
  378.117  101.948    0.270    0.424   10.623   22.224
  378.937  100.791    0.256    0.436   10.686   20.377
  379.757   98.443    0.261    0.440   10.689   15.408
  380.577   98.201    0.265    0.446   10.692   13.415
  381.398   96.141    0.240    0.484   10.696   12.388
  382.218   90.169    0.203    0.477   10.718   12.886
  383.038   91.726    0.235    0.479   10.718   13.494
  383.858   92.996    0.260    0.446   10.745   13.933
  384.678   94.553    0.260    0.443   10.847   13.953
  385.499   97.614    0.214    0.447   10.870   13.881
  386.319  100.067    0.260    0.469   10.873   13.600
  387.139   96.209    0.270    0.494   10.873   13.132
  387.959   97.465    0.288    0.517   10.879   12.590
  388.780  102.037    0.293    0.527   10.843   12.250
  389.600  100.284    0.287    0.534   10.806   12.088
  390.420   98.237    0.274    0.552   10.730   12.758
  391.240   98.892    0.262    0.499   10.634   13.666
  392.060   96.832    0.247    0.493   10.498   14.527
  392.881   96.590    0.207    0.503   10.343   15.673
  393.701   98.140    0.161    0.489   10.227   16.538
  394.521  103.315    0.179    0.500   10.091   15.622
  395.341  110.588    0.208    0.522    9.976   14.750
  396.161  112.754    0.235    0.512    9.840   12.285
  396.982  109.503    0.254    0.557    9.665    9.855
  397.802  108.967    0.242    0.571    9.489    9.379
  398.622  109.903    0.207    0.587    9.354    9.465
  399.442  108.150    0.195    0.572    9.278   10.292
  400.262  105.802    0.186    0.537    9.221   10.543
  401.083  105.554    0.200    0.540    9.106   10.567
  401.903  110.113    0.226    0.543    8.950   10.355
  402.723   99.936    0.255    0.551    8.736   10.294
  403.543   88.849    0.297    0.525    8.460   10.393
  404.364   78.665    0.305    0.474    7.889   11.213
  405.184   76.010    0.309    0.434    7.674   12.368
  406.004   77.874    0.319    0.413    7.578   13.849
  406.824   75.814    0.328    0.404    7.522   15.390
  407.644   76.789    0.326    0.416    7.508   20.891
  408.465   75.324    0.323    0.425    7.489   22.706
  409.285   74.474    0.317    0.433    7.489   23.965
  410.105   72.735    0.294    0.411    7.496   25.487
  410.925   68.562    0.247    0.373    7.538   27.093
  411.745   66.802    0.137    0.323    7.699   28.794
  412.566   67.163    0.144    0.297    7.921   31.997
  413.386   67.824    0.101    0.266    8.063   39.746
  414.206   68.478    0.125    0.287    8.164   43.529
  415.026   69.433    0.140    0.298    8.306   45.257
  415.846   71.592    0.151    0.313    8.488   43.048
  416.667   73.149    0.149    0.357    8.630   39.763
  417.487   69.598    0.108    0.261    8.832   40.735
  418.307   69.042    0.116    0.252    8.933   43.004
  419.127   73.307    0.140    0.276    9.115   39.998
  419.948   89.614    0.243    0.308    9.534   32.342
  420.768   97.496    0.238    0.368    9.559   26.352
  421.588  100.858    0.242    0.384    9.599   25.239
  422.408  101.814    0.239    0.409    9.940   21.812
  423.228  101.572    0.243    0.423   10.181   20.453
  424.049   94.096    0.242    0.436   10.421   19.901
  424.869   92.055    0.234    0.403   10.664   20.691
  425.689   93.299    0.209    0.407   10.765   21.822
  426.509   96.667    0.232    0.428   10.808   22.532
  427.329   99.428    0.241    0.452   10.771   22.086
  428.150   99.186    0.240    0.470   10.675   21.799
  428.970   96.825    0.243    0.489   10.600   21.363
  429.790   94.778    0.245    0.438   10.543   21.242
  430.610   93.922    0.255    0.417   10.487   21.447
  431.430   93.072    0.264    0.414   10.450   22.293
  432.251   91.927    0.265    0.417   10.394   23.012
  433.071   88.062    0.270    0.403   10.318   23.401
  433.891   83.909    0.259    0.414   10.261   23.280
  434.711   81.849    0.256    0.397   10.244   22.978
  435.531   82.810    0.244    0.394   10.307   23.720
  436.352   84.668    0.257    0.419   10.410   22.573
  437.172   82.608    0.281    0.430   10.413   21.630
  437.992   76.944    0.288    0.448   10.376   21.678
  438.812   74.590    0.280    0.416   10.359   21.710
  439.633   78.861    0.268    0.406   10.303   22.082
  440.453   81.615    0.261    0.415   10.287   22.449
  441.273   84.690    0.288    0.388   10.310   21.212
  442.093   88.046    0.282    0.393   10.310   20.482
  442.913   91.715    0.280    0.410   10.395   20.211
  443.734   89.354    0.281    0.411   10.576   19.958
  444.554   86.104    0.284    0.434   10.659   19.845
  445.374   85.548    0.289    0.429   10.503   19.889
  446.194   84.698    0.295    0.432   10.248   20.081
  447.014   80.237    0.292    0.427   10.192   20.270
  447.835   81.206    0.289    0.433   10.315   20.309
  448.655   82.455    0.289    0.397   10.436   20.960
  449.475   83.712    0.266    0.403   10.677   21.157
  450.295   86.773    0.237    0.406   10.898   21.047
  451.115   92.248    0.248    0.416   10.898   20.933
  451.936   95.918    0.248    0.418   10.905   20.656
