~Version : LASO    vs 4.00 - DATA COPYRIGHT - RILEYS DATASHARE INTERNATIONAL
 VERS.                2.0 :   CWLS Log ASCII Standard -VERSION 2.0
 WRAP.                 NO :   One line per depth step
~Well Information Block
#MNEM.UNIT       Data                        Description of Mnemonic
#----.----      -------------------------- : -----------------------------
 STRT.FT           30.0000                 : Start Depth
 STOP.FT          463.0000                 : End Depth
 STEP.FT            0.5000                 : Depth Increment
 NULL.           -999.25                   : NULL Value
 COMP.    PACIFIC PETROLEUMS LIMITED       : COMPANY
 WELL.    BAYSEL-ASHLAND STPBK CH#21 13-30 : WELL NAME
 FLD .    STPBK. OIL SANDS                 : FIELD NAME
 LOC .    13-30-091-08W4                     : WELL LOCATION
 PROV.    ALBERTA                          : PROVINCE
 SRVC.    SCHLUMBERGER                     : LOGGING SERVICE COMPANY
 DATE.    01-MAR-73                        : DATE LOGGED
 UWI .    AA/13-30-091-08W400              : UNIQUE WELL ID
~Curve Information Block
#MNEM.UNIT        API CODE                   Curve Description
#----.----      LG--CV-CL--M               : -----------------
 DEPT.FT         0   1  0  0               : 1 DEPTH
 CALI.IN        45 280  1  1               : 2 DENSITY CALIPER
 DPHI.%         45 890 12  1               : 3 DENSITY POROSITY (SANDSTONE)
 GR  .GAPI      45 310  1  1               : 4 GAMMA RAY
 RHOB.G/C3      45 350  1  1               : 5 BULK DENSITY
 LLS .OHMM      11 220  9  1               : 6 FOCUSSED RESISTIVITY
 SP  .MV        11  10  1  1               : 7 SPONTANEOUS POTENTIAL
 NPHI.%         41 890  3  1               : 8 NEUTRON POROSITY (SANDSTONE)
~Parameter Information Block
#MNEM.UNIT       Data                        Description of Mnemonic
#----.----      -------------------------- : -----------------------------
 RUN .                   1                 : Run Number
 GL  .FT         1240.0000                 : Ground Level Elevation
 DREF.                  KB                 : Depth Reference
 EREF.FT         1244.0000                 : Elevation of Depth Reference
 TDL .FT          464.0000                 : Total Depth Logger
 TDD .FT          455.0000                 : Total Depth Driller
 CSGL.FT            0.0000                 : Casing Bottom Logger
 CSGD.FT            0.0000                 : Casing Bottom Driller
 CSGS.IN          219.0000                 : Casing Size
 CSGW.LBS           0.0000                 : Casing Weight
 BHT .DEGF         52.0000                 : Bottom Hole Temperature
 BS  .IN            6.2500                 : Bit Size
 DFD .           1110.0000                 : Mud Weight (Density)
 DFV .             89.0000                 : Mud Viscosity
 DFL .              4.5000                 : Mud Fluid Loss
 DFPH.              9.0000                 : Mud pH
 RM  .OHMM          4.6200                 : Mud Resistivity
 RMT .DEGF         49.0000                 : Mud Resistivity Temperature
 RMF .OHMM          5.0000                 : Mud Filtrate Resistivity
 RMFT.DEGF         20.0000                 : RMF Temperature
 RMC .OHMM          5.3000                 : Mud Cake Resistivity
 RMCT.DEGF         20.0000                 : RMC Temperature
~Asc DEPTH      CALI       DPHI       GR         RHOB       LLS        SP         NPHI 
# ...
  348.5000     6.4040    30.1740    24.1200     2.1496   410.6104    20.0400    36.3180
  349.0000     6.3990    30.1800    22.9800     2.1507   794.0172    18.5250    36.3060
  349.5000     6.3900    30.1860    21.2200     2.1449  1310.4785    16.4400    36.1800
  350.0000     6.3810    30.1980    21.4600     2.1463  1251.4973    13.9950    34.7880
  350.5000     6.3630    30.2100    20.3600     2.1479  1288.9318    11.0550    35.7480
  351.0000     6.3420    30.1860    19.3300     2.1451   763.8884     7.1250    35.3820
  351.5000     6.3260    30.1380    19.2400     2.1497   915.8618     3.8550    35.1960
  352.0000     6.3190    30.0780    21.2600     2.1485   794.0172     2.1450    35.3160
  352.5000     6.3090    29.9160    21.2400     2.1535  1071.0997     0.0450    34.9080
  353.0000     6.3140    29.4960    21.2200     2.1608   902.4641     1.2300    34.1460
  353.5000     6.3230    29.7780    20.8400     2.1562  1047.6830    -2.3400    33.5700
  354.0000     6.3320    30.1800    20.4300     2.1487  1163.6702    -3.2850    34.7340
  354.5000     6.3410    30.5940    20.1700     2.1449   895.0142    -4.1100    35.9040
  355.0000     6.3500    30.8280    19.8800     2.1419  1175.5197    -4.1700    35.5020
  355.5000     6.3570    30.9660    19.5200     2.1362  1354.6587    -4.2300    35.6400
  356.0000     6.3640    30.7320    19.2300     2.1423  1199.5819    -4.5450    33.6180
  356.5000     6.3720    30.5700    18.2100     2.1477  1157.2572    -5.6850    34.5600
  357.0000     6.3630    30.7860    18.3500     2.1383  1305.6594    -6.4950    35.4180
  357.5000     6.3510    30.2760    18.6100     2.1534   989.5322    -7.0950    36.5400
  358.0000     6.3390    29.6880    19.1100     2.1629   827.6180    -7.1100    37.0380
  358.5000     6.3220    29.1000    19.5800     2.1711   280.1754    -2.2950    37.3500
  359.0000     6.3020    28.7340    19.8700     2.1653   356.9685    -0.0600    36.2700
  359.5000     6.2580    29.6880    19.1200     2.1595   290.4223     0.5700    34.7460
  360.0000     6.2140    30.4620    19.3600     2.1546   495.9409     8.2350    33.9060
  360.5000     6.1700    29.9280    20.4100     2.1519  1336.0721    12.7800    33.0000
  361.0000     6.1240    29.3220    21.7100     2.1706  2000.0000    17.1600    32.3160
  361.5000     6.0710    28.7160    21.8200     2.1810  2000.0000    22.3950    31.8900
  362.0000     6.0900    28.1100    21.7000     2.1872   949.3578    26.8950    33.5700
  362.5000     6.1200    27.4500    24.2500     2.2013    78.8188    32.4600    32.7240
  363.0000     6.1660    26.6820    26.4700     2.2202   111.7455    38.0550    31.6680
  363.5000     6.2120    25.9140    27.7300     2.2253   102.1010    43.0950    31.2000
  364.0000     6.2580    25.2960    26.1100     2.2274   222.7563    45.4200    31.1520
  364.5000     6.3000    27.6300    24.3100     2.1902   501.9147    45.0000    33.3420
  365.0000     6.3330    29.5740    22.0200     2.1527  1130.9148    42.7200    32.5260
  365.5000     6.2890    31.7880    19.0100     2.1234  1754.8092    39.8850    33.1140
  366.0000     6.2280    31.5000    18.1700     2.1284  1260.7527    37.2300    34.2060
  366.5000     6.1750    31.2840    18.1700     2.1215  1188.5841    35.2500    34.5900
  367.0000     6.1230    32.1180    17.2500     2.1157  1135.0890    33.3000    34.7400
  367.5000     6.1320    32.1300    15.6200     2.1145  1091.0129    32.9550    35.2860
  368.0000     6.1490    32.1660    13.9600     2.1218  1079.0210    32.7000    35.5080
  368.5000     6.1620    32.2320    14.1900     2.1153  1122.6125    33.3600    35.0160
  369.0000     6.1560    32.3580    14.4000     2.1217  1156.1919    32.8800    35.8320
  369.5000     6.1500    31.5000    15.1400     2.1323  1172.2761    32.2050    34.8420
  370.0000     6.1600    30.3540    15.9000     2.1453  1172.2761    31.2900    34.7640
  370.5000     6.1740    30.9360    16.8800     2.1386   266.0909    30.3600    36.2340
  371.0000     6.1720    32.0100    18.1200     2.1235   197.8017    29.3400    38.3340
  371.5000     6.1690    33.2400    19.9600     2.1096   181.2299    28.5000    38.8800
  372.0000     6.1340    32.6880    21.2200     2.1032   331.3065    28.3650    38.0640
  372.5000     6.0550    32.0520    18.7200     2.1162   495.0282    28.3050    38.3340
  373.0000     6.0100    31.4580    17.2900     2.1273   246.9619    30.4050    36.5640
  373.5000     5.9290    30.9300    17.4800     2.1385   105.7377    33.7200    35.6520
  374.0000     5.8330    30.5520    18.8100     2.1424    55.8509    37.4550    35.0400
  374.5000     5.8990    30.2640    22.6100     2.1446    36.7308    41.1900    35.3640
  375.0000     6.0020    28.9620    27.1400     2.1505    22.3991    45.1200    37.3860
  375.5000     6.1280    27.6480    30.0700     2.1938    27.3294    49.1250    36.1260
  376.0000     6.2530    26.3340    31.6800     2.2286    56.0570    53.1300    34.6920
  376.5000     6.2960    25.3800    32.0500     2.2286    67.5818    56.1750    33.9480
  377.0000     6.3390    27.0840    27.2700     2.2126    93.0315    49.8000    33.3180
  377.5000     6.3690    28.4160    25.6000     2.1754    94.9358    47.1450    35.4180
  378.0000     6.3060    29.9520    25.0800     2.1536    56.4196    44.5200    37.1940
  378.5000     6.2660    29.3280    24.3300     2.1636    62.7812    46.6800    36.0120
  379.0000     6.2260    28.5000    23.2600     2.1805    95.5498    45.3000    34.8840
  379.5000     6.2400    27.4020    21.2800     2.1989   149.7718    43.5600    33.0060
  380.0000     6.2560    26.8860    19.1400     2.2105   261.7158    41.6100    30.3480
  380.5000     6.2720    28.1160    17.0000     2.1840   395.7582    40.3050    30.6900
  381.0000     6.2890    28.8720    15.5500     2.1720   340.2749    39.9600    31.2660
  381.5000     6.3050    29.6400    18.4400     2.1617   316.1039    39.5850    31.8300
  382.0000     6.2670    29.6340    20.2200     2.1527   388.1771    39.0150    31.0200
  382.5000     6.2260    29.5980    21.4300     2.1572   470.1429    38.4000    30.1800
  383.0000     6.2450    29.4240    22.0900     2.1582   362.2679    37.5750    30.1800
  383.5000     6.2680    29.9280    21.3800     2.1574   259.3164    36.7950    33.0420
  384.0000     6.2820    29.3760    21.1800     2.1542   185.6222    35.7600    33.1500
  384.5000     6.2920    28.5120    22.0200     2.1784   137.0976    36.1500    32.4300
  385.0000     6.3050    27.6480    22.0000     2.2000   152.9783    36.9600    31.5000
  385.5000     6.2830    26.7840    21.9800     2.2150   166.9667    39.9900    29.5080
  386.0000     6.2480    25.9200    23.2500     2.2248   167.4287    42.5400    28.4580
  386.5000     6.2130    25.1460    24.8800     2.2341    90.2464    44.1450    30.8160
  387.0000     6.1900    25.9200    26.6300     2.2214    63.4205    45.3900    29.1660
  387.5000     6.2020    25.6140    28.3500     2.2284    47.3620    46.3350    28.2240
  388.0000     6.2110    25.0620    31.0400     2.2393    38.6394    48.7350    27.7140
  388.5000     6.2200    25.5480    32.8600     2.2333    49.2300    51.2700    27.7020
  389.0000     6.2460    26.2620    33.8200     2.2177    52.7509    53.7000    30.6780
  389.5000     6.2710    26.9760    34.2000     2.1994    63.0130    55.9650    31.4700
  390.0000     6.2930    27.3480    34.3100     2.1965    72.4152    57.4950    30.6480
  390.5000     6.2910    27.2280    31.9700     2.1914    57.0466    57.0450    31.7580
  391.0000     6.2890    27.9240    30.9600     2.1853    57.8935    56.6550    32.0280
  391.5000     6.2870    27.3720    30.5400     2.1978    53.8803    56.7300    32.1060
  392.0000     6.2730    26.5980    30.5000     2.2063    57.9469    56.7750    33.0300
  392.5000     6.2530    27.0240    30.7100     2.2083    59.0786    56.2350    34.3620
  393.0000     6.2330    27.8040    31.3300     2.1924    71.6193    55.8000    34.8360
  393.5000     6.2130    27.8520    32.3700     2.1875   107.7035    55.2900    33.9060
