~Version : LASO    vs 4.00
VERS.                2.00:   CWLS Log ASCII Standard -VERSION 2.0
WRAP.                  NO:
~Well Information Block
#MNEM.UNIT       Data                        Description of Mnemonic
#----.----      -------------------------- : -----------------------------
STRT.M             3.0000:
STOP.M           202.0000:
STEP.M             0.1250:
NULL.           -999.2500:
COMP.  MOBILOIL CANADA             :COMPANY
WELL.  MOBIL CLARKE OV 10-26       :WELL
FLD.   CLARKE                      :FIELD
LOC.   10-26-090-07W4              :LOCATION
CTRY.  CANADA                      :COUNTRY
PROV.  ALBERTA                     :PROVINCE
SRVC.  DRESSER ATLAS               :SERVICE COMPANY
DATE.  31-JAN-81                   :LOG DATE
UWI.   AA/10-26-090-07W400         :UNIQUE WELL ID
~Parameter Information Block
#MNEM.UNIT       Data                        Description of Mnemonic
#----.----      -------------------------- : -----------------------------
RUN .                   1                 : Run Number
GL  .M           456.0000                 : Ground Level Elevation
DREF.                  KB                 : Depth Reference
EREF.M           456.0000                 : Elevation of Depth Reference
TDL .M           201.0000                 : Total Depth Logger
TDD .M           203.0000                 : Total Depth Driller
CSGL.M            13.0000                 : Casing Bottom Logger
CSGD.M            12.0000                 : Casing Bottom Driller
CSGS.MM          219.0000                 : Casing Size
CSGW.KG/M          0.0000                 : Casing Weight
BHT .DEGC         18.0000                 : Bottom Hole Temperature
BS  .MM          171.4000                 : Bit Size
DFD .              9.7000                 : Mud Weight (Density)
DFV .             85.0000                 : Mud Viscosity
RM  .OHMM          4.0000                 : Mud Resistivity
RMT .DEGC         18.0000                 : Mud Resistivity Temperature
RMF .OHMM          6.2000                 : Mud Filtrate Resistivity
RMFT.DEGC         12.0000                 : RMF Temperature
RMC .OHMM         11.6000                 : Mud Cake Resistivity
RMCT.DEGC         12.0000                 : RMC Temperature
~Curve Information Block
#MNEM.UNIT        API CODE    Curve Description
#---------    ------------    -------------------------------------------
DEPT.M                    :   DEPTH
CALI.MM       42 280  1  1:   3 DENSITY CALIPER
DPHI.V/V                  :   DPHI
DT  .US/M     60 520 42  1:   2 SONIC INTERVAL TRANSIT TIME (COMPENSATED)
GR  .GAPI     42 310  1  1:   4 GAMMA RAY
LLD .Ohmm                 :   LLD
NPHI.V/V      42 890  3  1:   5 NEUTRON POROSITY (SANDSTONE)
RHOB.K/M3     42 350  1  1:   6 BULK DENSITY
~A  Depth           CALI        DPHI          DT          GR         LLD        NPHI        RHOB
# ...
34.1250         216.1750      0.3870    502.6800     60.6450    307.8002      0.3522   2079.3999
34.2500         199.9250      0.4039    436.5200     60.4500    319.3254      0.3560   2132.0000
34.3750         200.5500      0.4030    415.9600     60.8250    407.9193      0.3593   2136.8999
34.5000         204.2250      0.3832    424.0400     60.0900    496.5133      0.3646   2111.2000
34.6250         207.9000      0.3624    425.2800     56.4000    505.5539      0.3728   2078.8000
34.7500         208.5000      0.3389    438.7600     52.5300    509.3196      0.3889   2042.1000
34.8750         203.9000      0.3274    514.9600     48.6600    514.6590      0.3983   2010.2000
35.0000         187.3750      0.3384    536.2800     44.7900    521.6441      0.4099   1994.4000
35.1250         180.3250      0.3517    525.5200     40.0050    524.2715      0.4148   1988.2000
35.2500         180.0000      0.3825    548.8000     35.5800    533.8213      0.4301   1974.1001
35.3750         191.3500      0.4010    355.6400     33.7350    549.6311      0.4301   1938.0000
35.5000         211.2500      0.4217    240.4800     31.7100    553.4688      0.4294   1905.0000
35.6250         225.0500      0.4352    419.1200     30.6000    557.7321      0.4316   1901.3000
35.7500         225.3500      0.4421    610.3200     29.4900    558.6739      0.4328   1920.9000
35.8750         230.8750      0.4453    605.4000     28.2000    558.1210      0.4361   1944.7000
36.0000         234.8500      0.4403    605.1600     26.9100    558.0878      0.4376   1955.8000
36.1250         243.1250      0.4354    610.0800     26.7300    558.1588      0.4410   1947.8000
36.2500         264.2750      0.4369    616.4400     27.2850    557.4275      0.4530   1941.1001
36.3750         281.1250      0.4407    607.3600     28.3950    555.7256      0.4556   1940.5000
36.5000         271.3000      0.4459    605.1600     28.9500    557.1215      0.4534   1947.8000
36.6250         243.4250      0.4530    604.6800     29.1300    559.1416      0.4508   1950.3000
36.7500         235.1500      0.4543    610.5600     27.8400    558.8270      0.4478   1940.5000
36.8750         234.2500      0.4521    614.0000     26.7300    558.7655      0.4406   1917.2000
37.0000         233.6250      0.4540    616.9200     27.6600    559.6817      0.4343   1882.9000
37.1250         230.8750      0.4612    618.8800     28.5750    562.5025      0.4249   1846.2000
37.2500         223.8250      0.4681    620.6000     29.1300    563.0259      0.4148   1822.3000
37.3750         226.2750      0.4748    620.8400     28.7550    560.6161      0.4099   1821.1001
37.5000         219.8500      0.4832    618.4000     28.3950    558.2713      0.4051   1834.6001
37.6250         221.0750      0.4930    615.2000     27.8400    559.1626      0.4006   1857.8000
37.7500         225.9750      0.4966    613.2400     28.5750    561.1261      0.3927   1872.5000
37.8750         224.7500      0.4887    610.5600     29.1300    560.6274      0.3908   1878.0000
38.0000         211.5750      0.4787    607.6000     30.2400    557.2013      0.3908   1894.0000
38.1250         207.5750      0.4710    604.4400     28.3950    555.0326      0.3961   1916.0000
38.2500         213.4000      0.4626    599.0400     27.6600    554.8248      0.4028   1921.5000
38.3750         222.3000      0.4565    601.0000     27.1050    556.2614      0.4114   1919.7000
38.5000         217.0750      0.4502    605.1600     27.4650    557.4807      0.4103   1919.0000
38.6250         214.0250      0.4457    605.9200     27.4650    557.9779      0.4066   1928.2000
38.7500         214.9500      0.4417    605.1600     27.2850    556.3799      0.4151   1938.6001
38.8750         208.5000      0.4396    605.4000     27.6600    554.4939      0.4121   1934.3000
39.0000         199.3250      0.4373    604.6800     26.9100    555.0725      0.4058   1930.1001
39.1250         187.9750      0.4348    599.7600     25.2600    557.1191      0.3979   1931.3000
39.2500         179.1000      0.4323    601.0000     23.2350    557.4683      0.3968   1936.2000
39.3750         176.6500      0.4262    601.4800     21.5700    554.9434      0.3976   1955.8000
39.5000         176.9500      0.4187    599.7600     19.9200    554.6889      0.4002   1995.0000
39.6250         178.7750      0.4058    595.6000     17.8800    556.5367      0.4013   2015.1000
39.7500         183.0750      0.3992    591.6800     18.0750    558.6646      0.4021   2013.9000
39.8750         188.6000      0.3929    591.9200     18.9900    558.0712      0.4091   2007.8000
40.0000         189.2000      0.3883    586.5200     20.1000    556.2824      0.4133   1994.4000
40.1250         190.7250      0.3860    582.6000     19.7250    558.9253      0.4118   1979.6001
40.2500         194.4000      0.3861    585.0800     18.9900    561.1388      0.4031   1972.3000
40.3750         200.2250      0.3884    588.5200     19.3650    559.8694      0.4069   1972.9000
40.5000         206.6750      0.3906    576.2400     20.1000    558.8566      0.4114   1970.5000
40.6250         215.2500      0.3940    544.6400     20.8350    559.5342      0.4114   1964.9000
40.7500         229.6500      0.4049    601.4800     20.2800    561.5754      0.4185   1963.1001
40.8750         246.2000      0.4125    598.0400     19.5450    559.9227      0.4230   1970.5000
41.0000         255.6750      0.4144    594.4000     18.0750    560.8374      0.4238   1974.7000
41.1250         271.9250      0.4140    591.4400     16.9650    559.0953      0.4253   1976.0000
41.2500         289.3750      0.4139    583.8400     17.3400    560.0132      0.4226   1976.6001
41.3750         297.0500      0.4138    583.1200     17.5200    561.7187      0.4219   1972.3000
41.5000         295.8250      0.4143    582.3600     18.4350    560.6285      0.4204   1964.9000
41.6250         292.7500      0.4148    583.1200     20.2800    562.3267      0.4151   1960.7000
41.7500         297.9750      0.4182    583.6000     22.3050    562.4934      0.4061   1961.3000
41.8750         298.5750      0.4184    582.1200     23.5950    560.6424      0.4061   1966.8000
42.0000         296.1250      0.4204    582.6000     24.1500    561.6356      0.4133   1969.8000
42.1250         291.5250      0.4237    584.0800     25.2600    562.7572      0.4185   1974.1001
42.2500         289.3750      0.4261    587.7600     25.9950    563.8835      0.4245   1976.0000
42.3750         287.2500      0.4275    595.8400     26.3700    562.0058      0.4298   1968.6001
42.5000         285.7000      0.4269    597.3200     26.9100    494.0006      0.4268   1947.8000
42.6250         295.5250      0.4266    596.6000     26.5500    495.8795      0.4226   1927.6001
42.7500         304.1000      0.4283    602.7200     25.9950    497.7584      0.4215   1917.8000
42.8750         304.1000      0.4360    601.2400     25.8150    496.3118      0.4226   1917.2000
43.0000         304.7000      0.4432    595.6000     25.2600    466.3483      0.4204   1923.3000
43.1250         306.2500      0.4446    589.7200     25.4400    444.5283      0.4208   1922.1001
43.2500         306.5500      0.4425    585.3200     26.7300    421.7358      0.4256   1916.6001
43.3750         307.7750      0.4411    581.1600     28.5750    374.4227      0.4279   1917.2000
43.5000         310.2250      0.4419    584.3200     31.7100    339.3630      0.4313   1931.3000
43.6250         332.5750      0.4378    584.8400     34.4700    310.6027      0.4365   1935.6001
43.7500         357.1000      0.4329    589.2400     37.2300    288.3092      0.4253   1930.7000
43.8750         359.5500      0.4258    589.4800     40.0050    276.0510      0.4171   1918.4000
44.0000         340.5500      0.4099    581.8800     44.2350    266.2883      0.4073   1909.9000
44.1250         300.1000      0.3980    572.8000     49.5750    259.4410      0.3968   1916.6001
44.2500         283.8750      0.3939    535.3200     55.2900    250.9273      0.3852   1931.3000
44.3750         275.9000      0.3878    511.0400     62.4750    249.6522      0.3747   1962.5000
