~VERSION INFORMATION
 VERS.                 2.0:   CWLS LOG ASCII STANDARD -VERSION 2.0
 WRAP.                  NO:   ONE LINE PER DEPTH STEP
~WELL INFORMATION BLOCK
#MNEM.UNIT           DATA                    DESCRIPTION OF MNEMONIC
#---------    -------------------            -------------------------------
# Generated from Intellog Unique Number	CS_73_76/WELL/3242
WELL.         10-26-076-06W4                 : Well_name    - WELL
LOC .         AA/10-26-076-06W4/0            : Location     - LOCATION
UWI .         AA/10-26-076-06W4/0            : Uwi          - UNIQUE WELL ID
ENTR.         SP                             : Entered      - ENTERED BY
SRVC.         SCHLUMBERGER                   : Scn          - SERVICE COMPANY
STRT.M        145                            : top_depth    - START DEPTH
STOP.M        385                            : bot_depth    - STOP DEPTH
STEP.M        0.25                           : increment    - STEP LENGTH
 NULL. -999.2500:NULL Value
~CURVE INFORMATION BLOCK
#MNEM UNIT       ERCB CURVE CODE    CURVE DESCRIPTION
#-----------   ------------------   ----------------------------------
DEPT.M        00 001 00 00         : DEPTH        - DEPTH
ILD .OHMM     00 120 00 00         : RESD         - DEEP RESISTIVITY (DIL)
DPHI.V/V      00 890 00 00         : PHID         - DENSITY POROSITY (LIMESTONE)
NPHI.V/V      00 330 00 00         : PHIN         - NEUTRON POROSITY (LIMESTONE)
GR  .API      00 310 00 00         : GR           - GAMMA RAY
~PARAMETER INFORMATION
#MNEM.UNIT           DATA             DESCRIPTION OF MNEMONIC
#---------         -----------     ------------------------------
GL  .M        557                  : gl           - GROUND LEVEL ELEVATION
EREF.M        560.67               : kb           - ELEVATION OF DEPTH REFERENCE
DATM.M        557                  : datum        - DATUM ELEVATION
TDD .M        385                  : tdd          - TOTAL DEPTH DRILLER
RUN .         ONE                  : Run          - RUN NUMBER
ENG .         BILL                 : Engineer     - RECORDING ENGINEER
WIT .         JIM                  : Witness      - WITNESSED BY
MUD .         GEL                  : Mud_type     - MUD TYPE
MATR.         LIMESTONE            : Logunit      - NEUTRON MATRIX
TMAX.C        21                   : BHT          - MAXIMUM RECORDED TEMPERATURE
BHTD.M        385                  : BHTDEP       - MAXIMUM RECORDED TEMPERATURE
MATR.         1                    : LOGUNIT      - NEUTRON MATRIX
RMT .C        25                   : MDTP         - TEMPERATURE OF MUD
NEUT.         1                    : NEUTRON      - NEUTRON TYPE
RESI.         0                    : RESIST       - RESISTIVITY TYPE
RMC .OHMM     0.25                 : RMC          - RESISTIVITY OF MUD CAKE
RMF .OHMM     0.25                 : RMF          - RESISTIVITY OF MUD FILTRATE
SUFT.C        15                   : SUFT         - SURFACE TEMPERATURE
~A  DEPTH     RESD     PHID     PHIN       GR
# ...
  232.000    7.685    0.214    0.457   95.953
  232.250    7.981    0.219    0.441   92.910
  232.500    8.446    0.211    0.440   89.868
  232.750    8.448    0.201    0.451   89.873
  233.000    8.611    0.208    0.452   89.270
  233.250    8.613    0.216    0.430   87.446
  233.500    8.456    0.222    0.435   88.063
  233.750    8.302    0.212    0.453   89.897
  234.000    8.152    0.204    0.461   87.464
  234.250    8.153    0.214    0.457   83.811
  234.500    8.006    0.215    0.446   84.427
  234.750    8.008    0.218    0.454   86.873
  235.000    8.010    0.235    0.480   90.538
  235.250    8.012    0.241    0.488   91.761
  235.500    8.015    0.218    0.456   92.987
  235.750    8.324    0.226    0.457   90.554
  236.000    8.483    0.232    0.452   83.244
  236.250    8.977    0.236    0.457   79.590
  236.500    9.322    0.253    0.468   77.159
  236.750    9.865    0.257    0.449   75.944
  237.000   10.053    0.247    0.459   74.731
  237.250   10.245    0.251    0.453   74.128
  237.500   10.442    0.257    0.449   74.742
  237.750   10.252    0.245    0.458   76.579
  238.000   10.256    0.249    0.475   77.194
  238.250   10.259    0.265    0.468   77.198
  238.500   10.455    0.285    0.440   74.155
  238.750   10.658    0.281    0.455   74.771
  239.000   10.861    0.289    0.459   76.606
  239.250   10.664    0.287    0.443   78.442
  239.500   10.084    0.270    0.433   78.448
  239.750    8.524    0.263    0.423   76.624
  240.000    7.764    0.254    0.411   76.630
  240.250    7.343    0.243    0.455   85.173
  240.500    7.209    0.233    0.487   90.665
  240.750    6.946    0.233    0.494   83.356
  241.000    7.350    0.250    0.449   79.703
  241.250    8.073    0.264    0.449   78.488
  241.500    9.739    0.275    0.464   77.275
  241.750   10.900    0.282    0.452   74.233
  242.000   12.905    0.308    0.440   69.971
  242.250   15.277    0.326    0.449   66.927
  242.500   17.099    0.341    0.461   59.617
  242.750   18.092    0.354    0.454   57.182
  243.000   18.098    0.351    0.445   58.408
  243.250   18.104    0.359    0.457   59.027
  243.500   18.109    0.374    0.476   59.031
  243.750   17.780    0.385    0.474   59.035
  244.000   17.457    0.376    0.473   59.041
  244.250   17.137    0.359    0.466   58.441
  244.500   16.208    0.348    0.447   58.446
  244.750   15.326    0.351    0.446   59.060
  245.000   13.703    0.364    0.464   59.065
  245.250   12.481    0.371    0.456   59.681
  245.500    9.789    0.348    0.427   62.125
  245.750    8.274    0.335    0.419   68.842
  246.000    7.125    0.314    0.430   69.454
  246.250    6.252    0.277    0.438   71.291
  246.500    5.913    0.261    0.489   71.298
  246.750    5.914    0.269    0.533   70.082
  247.000    6.258    0.323    0.555   69.478
  247.250    6.380    0.338    0.544   70.704
  247.500    6.502    0.272    0.485   73.148
  247.750    6.504    0.255    0.487   75.592
  248.000    6.507    0.256    0.506   76.819
  248.250    6.757    0.257    0.498   79.875
  248.500    6.887    0.269    0.495   82.319
  248.750    7.151    0.279    0.495   82.934
  249.000    7.425    0.291    0.506   81.110
  249.250    7.857    0.279    0.501   76.849
  249.500    8.313    0.275    0.493   74.415
  249.750    9.132    0.279    0.492   73.811
  250.000    9.483    0.289    0.501   73.817
  250.250   10.815    0.295    0.504   73.822
  250.500   11.880    0.294    0.493   67.122
  250.750   12.808    0.262    0.463   58.591
  251.000   13.551    0.146    0.378   50.061
  251.250   13.812    0.132    0.268   43.968
  251.500   13.816    0.163    0.348   56.779
  251.750   13.565    0.228    0.440   66.541
  252.000   13.569    0.274    0.461   70.207
  252.250   13.573    0.298    0.464   68.993
  252.500   13.578    0.306    0.482   66.559
  252.750   13.329    0.307    0.493   64.737
  253.000   13.334    0.306    0.466   65.962
  253.250   13.849    0.303    0.438   67.186
  253.500   13.852    0.306    0.434   64.144
  253.750   14.119    0.310    0.441   61.100
  254.000   13.861    0.312    0.452   60.496
  254.250   13.109    0.314    0.445   61.724
  254.500   12.868    0.312    0.423   63.559
  254.750   11.945    0.308    0.414   64.782
  255.000   11.726    0.308    0.417   66.618
  255.250   10.884    0.292    0.456   67.843
  255.500   10.293    0.270    0.463   70.287
  255.750    9.734    0.259    0.444   73.343
  256.000    9.379    0.248    0.436   76.397
  256.250    8.870    0.234    0.437   79.453
  256.500    8.546    0.241    0.496   81.287
  256.750    8.083    0.246    0.504   81.292
  257.000    7.502    0.232    0.487   83.129
  257.250    7.095    0.233    0.455   82.524
  257.500    6.585    0.241    0.459   83.141
  257.750    6.345    0.245    0.469   86.805
  258.000    6.113    0.238    0.486   91.080
  258.250    5.890    0.241    0.500   93.524
  258.500    5.468    0.234    0.505   92.919
  258.750    5.367    0.212    0.501   91.706
  259.000    4.982    0.195    0.484   89.274
  259.250    4.454    0.224    0.488   88.062
  259.500    3.909    0.273    0.502   87.456
  259.750    3.560    0.307    0.543   87.463
  260.000    3.243    0.307    0.575   88.076
  260.250    3.184    0.284    0.612   89.912
  260.500    3.185    0.272    0.599   91.749
  260.750    3.247    0.263    0.567   92.975
  261.000    3.309    0.270    0.551   92.978
  261.250    3.372    0.262    0.534   92.375
  261.500    3.636    0.254    0.528   90.550
  261.750    3.776    0.262    0.559   86.899
  262.000    4.148    0.270    0.588   87.515
  262.250    4.556    0.286    0.560   88.741
  262.500    5.195    0.278    0.498   88.746
  262.750    6.151    0.259    0.483   86.313
  263.000    6.756    0.274    0.495   83.880
  263.250    7.998    0.280    0.480   79.616
  263.500   10.207    0.287    0.464   75.355
  263.750   10.798    0.325    0.403   72.312
  264.000   12.548    0.357    0.369   68.661
  264.250   12.788    0.356    0.309   66.835
  264.500   12.794    0.340    0.338   64.403
  264.750   12.796    0.318    0.394   63.800
  265.000   12.563    0.275    0.444   62.586
  265.250   12.335    0.161    0.381   58.934
  265.500   12.573    0.158    0.360   58.939
  265.750   12.814    0.240    0.379   62.603
  266.000   13.059    0.294    0.433   68.706
  266.250   14.082    0.291    0.424   77.248
  266.500   14.350    0.277    0.445  101.644
  266.750   15.470    0.260    0.427  124.821
  267.000   16.369    0.232    0.403  129.705
  267.250   16.684    0.222    0.364  131.542
  267.500   16.075    0.228    0.335  134.594
  267.750   15.204    0.245    0.418  150.454
  268.000   14.927    0.261    0.477  143.753
  268.250   14.930    0.261    0.473  105.954
  268.500   14.658    0.261    0.458   90.716
  268.750   14.664    0.266    0.425   90.112
  269.000   14.945    0.267    0.416   82.802
  269.250   15.232    0.273    0.415   77.319
  269.500   15.525    0.281    0.411   71.228
  269.750   15.531    0.290    0.416   71.843
  270.000   15.536    0.289    0.409   71.850
  270.250   15.539    0.282    0.388   67.588
  270.500   15.258    0.289    0.355   64.544
  270.750   14.977    0.290    0.378   62.720
  271.000   14.166    0.293    0.430   63.949
  271.250   13.907    0.298    0.421   63.954
  271.500   13.653    0.299    0.427   63.349
  271.750   13.660    0.293    0.427   57.257
  272.000   13.922    0.296    0.421   52.994
  272.250   13.925    0.306    0.410   48.732
  272.500   13.930    0.307    0.423   51.786
  272.750   13.933    0.306    0.415   54.232
  273.000   13.940    0.306    0.412   55.457
  273.250   13.945    0.307    0.423   54.852
  273.500   13.948    0.315    0.438   51.202
  273.750   13.952    0.317    0.431   49.988
  274.000   13.957    0.322    0.417   48.774
  274.250   13.961    0.326    0.420   48.170
  274.500   13.964    0.332    0.433   49.398
  274.750   13.970    0.321    0.436   50.623
  275.000   13.973    0.317    0.428   50.627
  275.250   13.721    0.314    0.418   50.633
