~VERSION INFORMATION
 VERS.                 2.0:   CWLS LOG ASCII STANDARD -VERSION 2.0
 WRAP.                  NO:   ONE LINE PER DEPTH STEP
~WELL INFORMATION BLOCK
#MNEM.UNIT           DATA                    DESCRIPTION OF MNEMONIC
#---------    -------------------            -------------------------------
# Generated from Intellog Unique Number	CS_71_72/WELL/908
WELL.         ET AL KIRBY                    : Well_name    - WELL
LOC .         AA/11-30-071-05W4/0            : Location     - LOCATION
UWI .         AA/11-30-071-05W4/0            : Uwi          - UNIQUE WELL ID
ENTR.         SP                             : Entered      - ENTERED BY
SRVC.         SCHLUMBERGER                   : Scn          - SERVICE COMPANY
STRT.M        340                            : top_depth    - START DEPTH
STOP.M        507                            : bot_depth    - STOP DEPTH
STEP.M        0.25                           : increment    - STEP LENGTH
 NULL. -999.2500:NULL Value
~CURVE INFORMATION BLOCK
#MNEM UNIT       ERCB CURVE CODE    CURVE DESCRIPTION
#-----------   ------------------   ----------------------------------
DEPT.M        00 001 00 00         : DEPTH        - DEPTH
ILD .OHMM     00 120 00 00         : RESD         - DEEP RESISTIVITY (DIL)
DPHI.V/V      00 890 00 00         : PHID         - DENSITY POROSITY (LIMESTONE)
NPHI.V/V      00 330 00 00         : PHIN         - NEUTRON POROSITY (LIMESTONE)
GR  .API      00 310 00 00         : GR           - GAMMA RAY
~PARAMETER INFORMATION
#MNEM.UNIT           DATA             DESCRIPTION OF MNEMONIC
#---------         -----------     ------------------------------
GL  .M        684.1                : gl           - GROUND LEVEL ELEVATION
EREF.M        687.4                : kb           - ELEVATION OF DEPTH REFERENCE
DATM.M        684.1                : datum        - DATUM ELEVATION
TDD .M        507                  : tdd          - TOTAL DEPTH DRILLER
RUN .         ONE                  : Run          - RUN NUMBER
ENG .         BILL                 : Engineer     - RECORDING ENGINEER
WIT .         JIM                  : Witness      - WITNESSED BY
MUD .         GEL                  : Mud_type     - MUD TYPE
MATR.         LIMESTONE            : Logunit      - NEUTRON MATRIX
TMAX.C        22                   : BHT          - MAXIMUM RECORDED TEMPERATURE
BHTD.M        507                  : BHTDEP       - MAXIMUM RECORDED TEMPERATURE
MATR.         1                    : LOGUNIT      - NEUTRON MATRIX
RMT .C        25                   : MDTP         - TEMPERATURE OF MUD
NEUT.         1                    : NEUTRON      - NEUTRON TYPE
RESI.         0                    : RESIST       - RESISTIVITY TYPE
RMC .OHMM     0.25                 : RMC          - RESISTIVITY OF MUD CAKE
RMF .OHMM     0.25                 : RMF          - RESISTIVITY OF MUD FILTRATE
SUFT.C        15                   : SUFT         - SURFACE TEMPERATURE
~A  DEPTH     RESD     PHID     PHIN       GR
# ...
  383.500    6.120    0.339    0.462   56.548
  383.750    6.043    0.346    0.468   55.577
  384.000    5.958    0.344    0.475   55.772
  384.250    5.826    0.337    0.459   56.574
  384.500    5.669    0.331    0.446   58.114
  384.750    5.443    0.326    0.445   59.717
  385.000    5.285    0.322    0.450   61.073
  385.250    5.219    0.322    0.459   62.005
  385.500    5.271    0.329    0.471   61.949
  385.750    5.296    0.334    0.489   61.405
  386.000    5.320    0.337    0.502   59.150
  386.250    5.324    0.338    0.506   57.748
  386.500    5.266    0.336    0.502   56.409
  386.750    5.221    0.337    0.497   57.337
  387.000    5.146    0.338    0.490   58.755
  387.250    5.093    0.339    0.482   59.682
  387.500    5.039    0.336    0.477   60.120
  387.750    5.024    0.330    0.481   59.334
  388.000    5.028    0.323    0.479   58.607
  388.250    5.108    0.313    0.471   58.493
  388.500    5.267    0.304    0.462   60.094
  388.750    5.341    0.296    0.451   62.309
  389.000    5.325    0.292    0.444   64.644
  389.250    5.220    0.291    0.442   65.695
  389.500    5.127    0.297    0.440   65.397
  389.750    5.026    0.296    0.439   62.160
  390.000    4.897    0.291    0.444   61.863
  390.250    4.791    0.284    0.450   63.159
  390.500    4.723    0.283    0.454   62.432
  390.750    4.630    0.292    0.455   60.603
  391.000    4.468    0.304    0.452   57.733
  391.250    4.339    0.312    0.452   55.108
  391.500    4.222    0.302    0.454   55.056
  391.750    3.992    0.296    0.452   55.373
  392.000    3.775    0.307    0.449   55.197
  392.250    3.497    0.317    0.453   53.551
  392.500    3.332    0.324    0.457   50.498
  392.750    3.168    0.331    0.454   48.731
  393.000    3.042    0.332    0.465   47.759
  393.250    2.925    0.335    0.468   47.155
  393.500    2.781    0.341    0.459   45.944
  393.750    2.732    0.346    0.470   45.581
  394.000    2.598    0.350    0.477   44.429
  394.250    2.499    0.351    0.460   43.822
  394.500    2.362    0.353    0.455   42.118
  394.750    2.325    0.352    0.459   41.267
  395.000    2.318    0.348    0.471   40.603
  395.250    2.342    0.341    0.475   41.285
  395.500    2.411    0.334    0.475   42.705
  395.750    2.543    0.330    0.467   44.243
  396.000    2.614    0.332    0.451   47.011
  396.250    2.696    0.333    0.460   48.304
  396.500    2.901    0.322    0.471   50.334
  396.750    2.950    0.305    0.479   59.775
  397.000    3.148    0.289    0.478   68.665
  397.250    3.346    0.271    0.483   75.289
  397.500    3.557    0.254    0.492   79.830
  397.750    3.774    0.243    0.489   81.922
  398.000    3.878    0.240    0.498   81.870
  398.250    3.946    0.248    0.512   80.408
  398.500    3.987    0.256    0.522   76.989
  398.750    4.033    0.262    0.511   74.853
  399.000    4.074    0.259    0.497   72.779
  399.250    4.079    0.259    0.493   71.379
  399.500    4.122    0.266    0.498   70.961
  399.750    4.199    0.279    0.498   70.723
  400.000    4.219    0.286    0.492   70.125
  400.250    4.217    0.293    0.486   69.699
  400.500    4.186    0.298    0.476   66.527
  400.750    4.137    0.300    0.468   64.022
  401.000    4.146    0.300    0.470   61.886
  401.250    4.158    0.300    0.486   63.059
  401.500    4.162    0.299    0.495   64.721
  401.750    4.156    0.297    0.487   66.691
  402.000    4.141    0.293    0.484   68.353
  402.250    4.139    0.289    0.490   66.219
  402.500    4.141    0.288    0.496   64.696
  402.750    4.166    0.288    0.494   66.541
  403.000    4.208    0.289    0.499   69.552
  403.250    4.220    0.293    0.511   62.824
  403.500    3.881    0.307    0.519   60.872
  403.750    3.972    0.313    0.501   64.434
  404.000    4.104    0.302    0.491   68.486
  404.250    4.171    0.290    0.496   71.433
  404.500    4.434    0.281    0.494   75.057
  404.750    4.669    0.278    0.505   75.555
  405.000    4.870    0.297    0.520   74.032
  405.250    5.004    0.315    0.520   69.142
  405.500    5.140    0.306    0.501   66.700
  405.750    5.241    0.286    0.491   73.386
  406.000    5.276    0.258    0.490   77.805
  406.250    5.290    0.241    0.521   79.651
  406.500    5.272    0.239    0.549   73.719
  406.750    5.247    0.253    0.521   71.461
  407.000    5.213    0.265    0.495   75.146
  407.250    5.149    0.277    0.493   78.646
  407.500    5.009    0.282    0.526   79.574
  407.750    4.836    0.283    0.548   78.663
  408.000    4.599    0.280    0.523   81.674
  408.250    4.331    0.283    0.529   84.254
  408.500    4.073    0.281    0.543   88.370
  408.750    3.867    0.273    0.559   90.769
  409.000    3.448    0.268    0.573   90.898
  409.250    3.175    0.267    0.600   90.722
  409.500    3.031    0.275    0.631   90.731
  409.750    2.944    0.281    0.636   91.658
  410.000    2.896    0.284    0.619   92.096
  410.250    2.899    0.283    0.593   92.656
  410.500    2.978    0.277    0.584   92.604
  410.750    3.071    0.273    0.574   92.736
  411.000    3.110    0.275    0.567   93.417
  411.250    3.181    0.279    0.558   95.142
  411.500    3.179    0.282    0.573   96.255
  411.750    3.121    0.285    0.598   96.446
  412.000    3.031    0.286    0.612   95.230
  412.250    2.972    0.281    0.603   90.645
  412.500    3.099    0.268    0.586   86.122
  412.750    3.717    0.257    0.563   82.394
  413.000    4.159    0.249    0.536   78.665
  413.250    4.867    0.251    0.519   76.715
  413.500    5.590    0.256    0.512   77.520
  413.750    6.253    0.259    0.505   78.509
  414.000    6.723    0.254    0.484   79.131
  414.250    6.948    0.248    0.479   79.139
  414.500    6.874    0.244    0.497   77.862
  414.750    6.815    0.243    0.515   75.974
  415.000    6.793    0.248    0.500   75.185
  415.250    6.785    0.250    0.493   75.011
  415.500    6.740    0.250    0.492   76.370
  415.750    6.544    0.248    0.491   78.218
  416.000    6.331    0.244    0.484   78.895
  416.250    6.136    0.242    0.476   81.050
  416.500    5.900    0.240    0.486   82.405
  416.750    5.773    0.240    0.497   83.210
  417.000    5.710    0.243    0.506   83.830
  417.250    5.726    0.245    0.519   84.454
  417.500    5.720    0.249    0.514   84.338
  417.750    5.731    0.250    0.503   81.591
  418.000    5.694    0.250    0.520   77.312
  418.250    5.570    0.251    0.533   81.242
  418.500    5.452    0.253    0.532   84.742
  418.750    5.077    0.257    0.543   86.466
  419.000    4.731    0.261    0.552   84.881
  419.250    4.187    0.274    0.551   84.769
  419.500    3.893    0.280    0.535   85.451
  419.750    3.531    0.259    0.526   86.929
  420.000    3.339    0.252    0.521   87.918
  420.250    3.254    0.250    0.528   88.417
  420.500    3.244    0.256    0.547   88.734
  420.750    3.265    0.263    0.555   90.642
  421.000    3.299    0.264    0.554   91.935
  421.250    3.402    0.262    0.565   92.496
  421.500    3.476    0.260    0.544   92.811
  421.750    3.519    0.261    0.522   92.513
  422.000    3.515    0.269    0.513   92.154
  422.250    3.445    0.277    0.524   94.429
  422.500    3.414    0.284    0.534   94.132
  422.750    3.469    0.286    0.552   89.792
  423.000    3.654    0.277    0.588   85.391
  423.250    4.080    0.265    0.601   82.337
  423.500    4.486    0.257    0.539   79.406
  423.750    4.969    0.271    0.507   77.700
  424.000    5.099    0.277    0.513   83.650
  424.250    5.319    0.257    0.529   78.761
  424.500    5.444    0.239    0.521   79.258
  424.750    5.386    0.230    0.504   82.084
  425.000    5.290    0.237    0.499   82.216
  425.250    5.175    0.246    0.509   80.449
  425.500    5.296    0.252    0.513   75.373
  425.750    5.454    0.217    0.513   68.768
  426.000    5.775    0.154    0.526   63.387
  426.250    6.114    0.131    0.379   62.047
  426.500    6.343    0.246    0.399   67.752
  426.750    6.494    0.273    0.500   72.540
