~VERSION INFORMATION
 VERS.                 2.0:   CWLS LOG ASCII STANDARD -VERSION 2.0
 WRAP.                  NO:   ONE LINE PER DEPTH STEP
~WELL INFORMATION BLOCK
#MNEM.UNIT           DATA                    DESCRIPTION OF MNEMONIC
#---------    -------------------            -------------------------------
# Generated from Intellog Unique Number	CW_79_81/WELL/2478
WELL.         10-35-081-19W4                 : Well_name    - WELL
LOC .         AA/10-35-081-19W4/0            : Location     - LOCATION
UWI .         AA/10-35-081-19W400            : Uwi          - UNIQUE WELL ID
ENTR.         MAX                            : Entered      - ENTERED BY
SRVC.         SCHLUMBERGER                   : Scn          - SERVICE COMPANY
STRT.M        167.64                         : top_depth    - START DEPTH
STOP.M        365.64                         : bot_depth    - STOP DEPTH
STEP.M        0.25                           : increment    - STEP LENGTH
 NULL. -999.2500:NULL Value
~CURVE INFORMATION BLOCK
#MNEM UNIT       ERCB CURVE CODE    CURVE DESCRIPTION
#-----------   ------------------   ----------------------------------
DEPT.M        00 001 00 00         : DEPTH        - DEPTH
ILD .OHMM     00 120 00 00         : RESD         - DEEP RESISTIVITY (DIL)
NPHI.V/V      00 330 00 00         : PHIN         - NEUTRON POROSITY (SANDSTONE)
DPHI.V/V      00 890 00 00         : PHID         - DENSITY POROSITY (SANDSTONE)
GR  .API      00 310 00 00         : GR           - GAMMA RAY
CALI.MM       00 280 01 00         : CAL          - CALIPER
~PARAMETER INFORMATION
#MNEM.UNIT           DATA             DESCRIPTION OF MNEMONIC
#---------         -----------     ------------------------------
GL  .M        574.548              : gl           - GROUND LEVEL ELEVATION
EREF.M        577.596              : kb           - ELEVATION OF DEPTH REFERENCE
DATM.M        574.548              : datum        - DATUM ELEVATION
TDD .M        365.455              : tdd          - TOTAL DEPTH DRILLER
RUN .         ONE                  : Run          - RUN NUMBER
ENG .         BILL                 : Engineer     - RECORDING ENGINEER
WIT .         JIM                  : Witness      - WITNESSED BY
MUD .         GEL                  : Mud_type     - MUD TYPE
MATR.         SANDSTONE            : Logunit      - NEUTRON MATRIX
TMAX.C        23.8889              : BHT          - MAXIMUM RECORDED TEMPERATURE
BHTD.M        365.455              : BHTDEP       - MAXIMUM RECORDED TEMPERATURE
MATR.         1                    : LOGUNIT      - NEUTRON MATRIX
RMT .C        7.22222              : MDTP         - TEMPERATURE OF MUD
NEUT.         1                    : NEUTRON      - NEUTRON TYPE
RESI.         0                    : RESIST       - RESISTIVITY TYPE
RMC .OHMM     5.71                 : RMC          - RESISTIVITY OF MUD CAKE
RMF .OHMM     6.9                  : RMF          - RESISTIVITY OF MUD FILTRATE
SUFT.C        -20                  : SUFT         - SURFACE TEMPERATURE
~A  DEPTH     RESD     PHIN     PHID       GR      CAL
# ...
  240.640   14.462    0.433    0.340   45.487  160.087
  240.890   14.447    0.443    0.334   43.758  162.657
  241.140   14.436    0.459    0.333   41.824  164.872
  241.390   14.421    0.461    0.337   41.260  166.097
  241.640   14.487    0.465    0.341   41.471  167.016
  241.890   14.528    0.470    0.342   41.814  169.143
  242.140   14.544    0.477    0.340   41.641  172.688
  242.390   14.633    0.484    0.339   40.069  174.345
  242.640   14.619    0.475    0.340   38.941  163.293
  242.890   14.715    0.459    0.325   38.886  149.585
  243.140   14.809    0.453    0.312   39.039  145.776
  243.390   14.904    0.456    0.304   38.998  144.601
  243.640   15.000    0.462    0.302   38.952  143.093
  243.890   15.069    0.464    0.307   39.509  142.565
  244.140   14.942    0.461    0.324   38.656  142.469
  244.390   14.824    0.459    0.326   39.639  142.392
  244.640   14.706    0.458    0.328   41.219  142.650
  244.890   14.534    0.455    0.331   42.866  142.796
  245.140   14.339    0.453    0.333   44.056  142.721
  245.390   14.220    0.454    0.334   44.153  142.453
  245.640   14.210    0.450    0.335   43.565  141.457
  245.890   13.993    0.444    0.336   45.071  141.380
  246.140   13.857    0.441    0.336   46.970  141.303
  246.390   13.745    0.442    0.337   48.999  141.003
  246.640   13.634    0.447    0.337   51.353  140.373
  246.890   13.502    0.455    0.336   55.806  139.041
  247.140   13.389    0.453    0.336   61.437  137.123
  247.390   12.996    0.451    0.330   68.399  137.031
  247.640   11.793    0.457    0.310   76.528  137.938
  247.890   10.123    0.475    0.283   87.378  139.190
  248.140    8.235    0.497    0.250   98.099  140.554
  248.390    6.122    0.508    0.208  100.931  142.204
  248.640    5.160    0.495    0.194   98.438  142.132
  248.890    5.119    0.487    0.184   94.247  142.925
  249.140    5.161    0.471    0.174   87.527  143.077
  249.390    5.231    0.431    0.163   82.553  142.788
  249.640    5.359    0.391    0.161   82.375  142.049
  249.890    5.733    0.427    0.195   88.864  140.440
  250.140    6.039    0.479    0.214   89.087  139.444
  250.390    6.078    0.483    0.247   82.552  138.042
  250.640    6.084    0.463    0.277   74.270  136.980
  250.890    6.361    0.443    0.292   69.294  136.033
  251.140    7.053    0.439    0.289   68.790  135.079
  251.390    8.405    0.457    0.275   70.354  134.004
  251.640   10.329    0.440    0.257   71.937  133.482
  251.890   13.627    0.425    0.239   71.891  134.284
  252.140   17.425    0.381    0.205   63.867  135.409
  252.390   21.481    0.275    0.141   55.128  136.429
  252.640   25.689    0.152    0.065   49.828  137.456
  252.890   32.057    0.139    0.016   49.107  139.303
  253.140   43.987    0.146   -0.004   49.600  140.138
  253.390   49.257    0.156   -0.004   49.554  140.061
  253.640   51.567    0.167   -0.001   50.089  139.978
  253.890   51.333    0.181    0.010   51.081  139.897
  254.140   49.462    0.198    0.032   52.269  139.820
  254.390   46.151    0.226    0.070   53.568  139.728
  254.640   43.758    0.259    0.123   55.151  139.656
  254.890   40.049    0.292    0.153   57.959  139.571
  255.140   35.646    0.346    0.190   61.545  139.492
  255.390   29.871    0.393    0.238   65.390  139.415
  255.640   23.546    0.423    0.283   68.195  139.340
  255.890   17.217    0.452    0.292   67.874  139.255
  256.140   14.726    0.457    0.296   67.836  139.175
  256.390   13.780    0.451    0.302   67.781  139.537
  256.640   13.187    0.446    0.307   67.931  140.228
  256.890   12.849    0.448    0.308   68.275  141.689
  257.140   12.700    0.458    0.305   68.812  143.698
  257.390   12.689    0.471    0.297   69.653  145.819
  257.640   12.677    0.469    0.295   70.151  148.026
  257.890   12.667    0.462    0.300   69.063  150.145
  258.140   12.657    0.460    0.300   68.365  152.594
  258.390   12.554    0.466    0.297   68.317  155.815
  258.640   12.386    0.476    0.294   68.466  159.582
  258.890   12.266    0.470    0.295   67.633  163.904
  259.140   12.163    0.460    0.299   67.586  168.407
  259.390   12.419    0.456    0.302   67.799  172.730
  259.640   12.477    0.464    0.295   67.822  174.741
  259.890   12.377    0.470    0.291   68.036  173.785
  260.140   12.144    0.471    0.288   68.895  170.302
  260.390   11.788    0.470    0.273   70.925  165.824
  260.640   10.858    0.473    0.262   74.770  152.003
  260.890    9.603    0.465    0.240   79.586  142.773
  261.140    8.827    0.457    0.230   84.795  138.887
  261.390    8.209    0.456    0.228   88.380  136.611
  261.640    7.774    0.462    0.231   88.010  133.898
  261.890    7.602    0.465    0.232   81.999  128.550
  262.140    7.872    0.464    0.248   81.618  125.700
  262.390    8.539    0.460    0.278   78.869  127.466
  262.640    9.299    0.453    0.280   77.507  128.414
  262.890   10.068    0.446    0.269   78.237  129.874
  263.140   10.551    0.443    0.254   80.848  131.558
  263.390   10.386    0.448    0.234   84.407  131.989
  263.640    9.995    0.451    0.217   88.142  132.375
  263.890    9.630    0.440    0.232   91.205  130.980
  264.140    9.229    0.434    0.237   93.882  129.914
  264.390    8.863    0.445    0.236   96.302  130.053
  264.640    8.574    0.462    0.231   98.400  131.290
  264.890    8.332    0.457    0.225   99.524  133.071
  265.140    8.077    0.473    0.225   97.590  135.736
  265.390    7.955    0.477    0.222   93.649  134.773
  265.640    7.877    0.471    0.214   89.125  135.139
  265.890    7.870    0.460    0.217   86.356  135.721
  266.140    7.920    0.447    0.230   84.887  135.420
  266.390    7.994    0.436    0.232   81.243  132.771
  266.640    8.107    0.458    0.236   80.105  130.853
  266.890    8.101    0.457    0.239   80.328  134.290
  267.140    8.139    0.458    0.232   81.124  137.732
  267.390    8.221    0.459    0.227   82.505  140.290
  267.640    8.333    0.459    0.230   84.279  140.977
  267.890    8.458    0.458    0.244   85.985  138.144
  268.140    8.516    0.464    0.244   85.662  135.303
  268.390    8.631    0.468    0.235   85.362  134.786
  268.640    8.655    0.466    0.226   85.249  135.917
  268.890    8.649    0.458    0.223   84.942  135.844
  269.140    8.610    0.451    0.225   84.183  134.345
  269.390    8.439    0.452    0.230   82.670  133.810
  269.640    8.245    0.453    0.236   81.817  133.713
  269.890    7.887    0.471    0.242   80.725  133.189
  270.140    7.544    0.484    0.251   79.643  132.683
  270.390    7.271    0.488    0.258   77.263  132.837
  270.640    7.085    0.480    0.263   74.168  133.532
  270.890    7.069    0.462    0.256   73.360  133.779
  271.140    7.561    0.447    0.247   76.010  133.241
  271.390    8.231    0.366    0.224   74.412  133.604
  271.640    9.012    0.354    0.179   71.450  133.966
  271.890    9.892    0.394    0.152   71.405  134.332
  272.140   10.485    0.453    0.161   75.379  134.808
  272.390    9.709    0.481    0.204   81.339  135.677
  272.640    8.613    0.486    0.232   81.567  136.054
  272.890    8.001    0.485    0.241   81.003  135.545
  273.140    7.728    0.482    0.254   80.428  134.366
  273.390    7.639    0.477    0.262   79.605  132.968
  273.640    7.701    0.474    0.265   78.661  132.014
  273.890    8.048    0.479    0.270   78.519  132.460
  274.140    8.415    0.478    0.270   80.628  132.837
  274.390    8.654    0.479    0.255   83.964  132.760
  274.640    8.196    0.488    0.257   89.043  133.336
  274.890    7.706    0.493    0.258   93.662  133.914
  275.140    7.469    0.490    0.255   95.882  134.605
  275.390    7.516    0.481    0.266   93.586  136.454
  275.640    7.511    0.475    0.268   91.367  137.296
  275.890    7.612    0.471    0.259   84.842  137.212
  276.140    7.717    0.467    0.255   81.811  136.803
  276.390    7.880    0.465    0.255   81.377  136.283
  276.640    8.091    0.465    0.259   82.175  135.873
  276.890    8.272    0.466    0.263   82.804  135.787
