~VERSION INFORMATION
 VERS.                 2.0:   CWLS LOG ASCII STANDARD -VERSION 2.0
 WRAP.                  NO:   ONE LINE PER DEPTH STEP
~WELL INFORMATION BLOCK
#MNEM.UNIT           DATA                    DESCRIPTION OF MNEMONIC
#---------    -------------------            -------------------------------
# Generated from Intellog Unique Number	CC_88_90/WELL/2298
WELL.         10-26-090-16W4                 : Well_name    - WELL
LOC .         AA/10-26-090-16W4/0            : Location     - LOCATION
UWI .         AA/10-26-090-16W400            : Uwi          - UNIQUE WELL ID
ENTR.         DW                             : Entered      - ENTERED BY
SRVC.         SCHLUMBERGER                   : Scn          - SERVICE COMPANY
STRT.M        125                            : top_depth    - START DEPTH
STOP.M        214.75                         : bot_depth    - STOP DEPTH
STEP.M        0.25                           : increment    - STEP LENGTH
 NULL. -999.2500:NULL Value
~CURVE INFORMATION BLOCK
#MNEM UNIT       ERCB CURVE CODE    CURVE DESCRIPTION
#-----------   ------------------   ----------------------------------
DEPT.M        00 001 00 00         : DEPTH        - DEPTH
GR  .API      00 310 00 00         : GR           - GAMMA RAY
DPHI.V/V      00 890 00 00         : PHID         - DENSITY POROSITY (SANDSTONE)
NPHI.V/V      00 330 00 00         : PHIN         - NEUTRON POROSITY (SANDSTONE)
ILD .OHMM     00 120 00 00         : RESD         - DEEP RESISTIVITY (DIL)
~PARAMETER INFORMATION
#MNEM.UNIT           DATA             DESCRIPTION OF MNEMONIC
#---------         -----------     ------------------------------
GL  .M        473                  : gl           - GROUND LEVEL ELEVATION
EREF.M        476.57               : kb           - ELEVATION OF DEPTH REFERENCE
DATM.M        476.57               : datum        - DATUM ELEVATION
TDD .M        227                  : tdd          - TOTAL DEPTH DRILLER
RUN .         ONE                  : Run          - RUN NUMBER
ENG .         BILL                 : Engineer     - RECORDING ENGINEER
WIT .         JIM                  : Witness      - WITNESSED BY
MUD .         GEL                  : Mud_type     - MUD TYPE
MATR.         SANDSTONE            : Logunit      - NEUTRON MATRIX
TMAX.C        25                   : BHT          - MAXIMUM RECORDED TEMPERATURE
BHTD.M        227                  : BHTDEP       - MAXIMUM RECORDED TEMPERATURE
MATR.         1                    : LOGUNIT      - NEUTRON MATRIX
RMT .C        25                   : MDTP         - TEMPERATURE OF MUD
NEUT.         1                    : NEUTRON      - NEUTRON TYPE
RESI.         0                    : RESIST       - RESISTIVITY TYPE
RMC .OHMM     0.25                 : RMC          - RESISTIVITY OF MUD CAKE
RMF .OHMM     0.25                 : RMF          - RESISTIVITY OF MUD FILTRATE
SUFT.C        15                   : SUFT         - SURFACE TEMPERATURE
~A  DEPTH       GR     PHID     PHIN     RESD
  125.000  104.021    0.148    0.400   11.922
  125.250  109.545    0.230    0.415    6.497
  125.500  119.352    0.261    0.472    4.700
  125.750  125.488    0.275    0.517    4.178
  126.000  126.729    0.295    0.555    4.098
  126.250  126.138    0.277    0.609    4.579
  126.500  123.708    0.192    0.621    5.480
  126.750  120.059    0.160    0.518    6.939
  127.000  115.181    0.133    0.467    8.656
  127.250  112.751    0.085    0.411   10.112
  127.500  110.317    0.121    0.376   10.731
  127.750  114.005    0.220    0.405   10.551
  128.000  118.917    0.223    0.405   10.410
  128.250  124.441    0.218    0.410   11.005
  128.500  126.298    0.198    0.443   12.310
  128.750  125.699    0.168    0.480   13.310
  129.000  123.881    0.143    0.469   13.620
  129.250  120.227    0.122    0.405   13.495
  129.500  117.185    0.120    0.374   13.292
  129.750  114.759    0.186    0.443   13.689
  130.000  117.224    0.220    0.474   14.186
  130.250  114.182    0.219    0.493   14.474
  130.500  110.528    0.221    0.480   14.697
  130.750  106.874    0.225    0.421   14.898
  131.000  103.832    0.223    0.413   15.441
  131.250  102.630    0.231    0.446   17.685
  131.500  100.196    0.221    0.482   20.938
  131.750   96.542    0.185    0.471   23.340
  132.000   93.504    0.169    0.415   23.744
  132.250   92.914    0.187    0.379   22.703
  132.500   94.151    0.200    0.405   21.266
  132.750   97.227    0.219    0.439   19.328
  133.000   99.076    0.200    0.412   17.851
  133.250   99.106    0.172    0.386   16.194
  133.500   99.115    0.164    0.402   15.281
  133.750   99.132    0.181    0.426   15.351
  134.000   99.149    0.220    0.435   15.395
  134.250   97.335    0.241    0.446   17.501
  134.500   95.513    0.247    0.456   18.619
  134.750   94.918    0.233    0.488   18.300
  135.000   96.159    0.219    0.474   17.635
  135.250   97.400    0.228    0.429   17.147
  135.500   98.033    0.237    0.467   17.883
  135.750   98.046    0.225    0.466   21.837
  136.000   95.629    0.258    0.428   26.932
  136.250   94.423    0.263    0.397   30.579
  136.500   93.820    0.163    0.356   31.593
  136.750   99.955    0.065    0.309   30.674
  137.000   99.369    0.098    0.314   31.496
  137.250   96.935    0.092    0.343   37.719
  137.500   94.500    0.044    0.341   40.283
  137.750   92.070    0.028    0.285   40.105
  138.000   90.864    0.047    0.262   36.568
  138.250   96.388    0.075    0.295   29.567
  138.500  100.692    0.112    0.308   24.129
  138.750  104.380    0.160    0.359   19.037
  139.000  106.233    0.213    0.397   15.468
  139.250  108.086    0.247    0.415   13.241
  139.500  113.002    0.243    0.425   12.172
  139.750  113.015    0.222    0.425   11.903
  140.000  113.032    0.211    0.433   11.518
  140.250  111.214    0.192    0.467   11.473
  140.500  112.459    0.178    0.483   11.794
  140.750  110.641    0.150    0.511   12.175
  141.000  105.759    0.105    0.480   12.606
  141.250  104.553    0.111    0.418   12.897
  141.500  110.697    0.192    0.472   12.643
  141.750  110.715    0.215    0.496   12.246
  142.000  109.508    0.189    0.467   11.939
  142.250  111.361    0.146    0.434   12.131
  142.500  113.821    0.133    0.423   12.516
  142.750  118.126    0.167    0.423   12.637
  143.000  116.924    0.203    0.439   12.387
  143.250  115.708    0.219    0.494   11.441
  143.500  114.502    0.210    0.501   10.881
  143.750  113.304    0.209    0.479   10.967
  144.000  110.258    0.218    0.452   12.092
  144.250  106.609    0.215    0.431   13.522
  144.500  115.799    0.177    0.436   13.596
  144.750  120.099    0.082    0.414   13.032
  145.000  125.011    0.112    0.390   11.821
  145.250  128.092    0.197    0.441   10.444
  145.500  126.278    0.238    0.492    9.615
  145.750  124.455    0.237    0.473    9.486
  146.000  122.633    0.217    0.460    9.656
  146.250  118.979    0.196    0.473    9.936
  146.500  120.836    0.186    0.491   10.529
  146.750  124.525    0.180    0.484   11.184
  147.000  125.154    0.175    0.449   11.519
  147.250  125.171    0.180    0.426   11.722
  147.500  125.188    0.203    0.444   12.331
  147.750  123.986    0.205    0.452   13.166
  148.000  123.391    0.175    0.431   13.548
  148.250  125.240    0.123    0.400   13.439
  148.500  127.705    0.147    0.408   13.188
  148.750  128.334    0.225    0.445   12.607
  149.000  127.132    0.210    0.454   11.632
  149.250  127.761    0.195    0.458   11.571
  149.500  125.942    0.176    0.450   11.889
  149.750  119.841    0.175    0.401   12.436
  150.000  121.694    0.196    0.353   12.911
  150.250  126.606    0.212    0.350   13.018
  150.500  130.294    0.215    0.366   12.766
  150.750  132.147    0.205    0.400   11.831
  151.000  132.776    0.189    0.453   10.830
  151.250  134.021    0.188    0.474   10.365
  151.500  134.039    0.211    0.475   10.409
  151.750  130.385    0.235    0.489   10.262
  152.000  123.060    0.230    0.494    9.418
  152.250  123.082    0.210    0.481    8.539
  152.500  125.551    0.188    0.455    8.044
  152.750  126.783    0.176    0.434    7.833
  153.000  128.024    0.193    0.407    7.795
  153.250  124.986    0.222    0.389    7.998
  153.500  120.716    0.228    0.407    8.393
  153.750  120.126    0.234    0.414    8.668
  154.000  123.198    0.187    0.413    8.879
  154.250  131.169    0.178    0.406    8.726
  154.500  133.026    0.215    0.395    8.500
  154.750  129.373    0.224    0.385    8.563
  155.000  126.335    0.188    0.368    8.705
  155.250  126.960    0.135    0.349    8.879
  155.500  130.036    0.104    0.373    8.589
  155.750  133.729    0.044    0.403    8.081
  156.000  133.746    0.081    0.432    7.910
  156.250  133.763    0.216    0.445    8.101
  156.500  134.388    0.221    0.417    8.369
  156.750  136.241    0.186    0.433    8.909
  157.000  138.710    0.150    0.464    9.411
  157.250  140.563    0.170    0.458    9.697
  157.500  142.415    0.199    0.444   10.165
  157.750  141.213    0.183    0.459   11.106
  158.000  137.555    0.167    0.481   12.431
  158.250  131.454    0.157    0.509   14.167
  158.500  127.805    0.145    0.501   15.255
  158.750  127.210    0.100    0.469   16.160
  159.000  129.670    0.077    0.465   16.415
  159.250  127.852    0.116    0.513   15.269
  159.500  125.422    0.139    0.557   13.389
  159.750  124.827    0.125    0.519   11.557
  160.000  124.845    0.139    0.520   10.646
  160.250  124.862    0.186    0.495   10.214
  160.500  126.107    0.197    0.478   10.083
  160.750  127.348    0.149    0.532   10.311
  161.000  129.817    0.117    0.579   10.653
  161.250  131.054    0.160    0.580   11.207
  161.500  131.683    0.149    0.517   11.213
  161.750  131.700    0.142    0.458   10.763
  162.000  130.494    0.183    0.463   10.245
  162.250  125.616    0.212    0.493   10.076
  162.500  114.620    0.202    0.476   10.438
  162.750  103.013    0.203    0.445   10.991
  163.000   87.734    0.193    0.429   12.876
  163.250   71.843    0.174    0.416   14.270
  163.500   63.907    0.203    0.368   18.028
  163.750   62.700    0.266    0.338   25.416
  164.000   62.722    0.284    0.387   33.679
  164.250   63.963    0.286    0.368   49.380
  164.500   65.816    0.297    0.376   75.912
  164.750   67.668    0.309    0.415   91.876
  165.000   68.909    0.312    0.432   88.959
  165.250   69.538    0.304    0.411   80.497
  165.500   70.779    0.295    0.388   77.302
  165.750   72.632    0.300    0.409   77.019
  166.000   73.873    0.300    0.382   80.129
  166.250   73.890    0.288    0.358   90.738
  166.500   73.907    0.287    0.372  103.031
  166.750   73.925    0.290    0.394  109.335
  167.000   72.718    0.263    0.417  110.548
  167.250   71.512    0.254    0.446  107.452
  167.500   71.534    0.291    0.471  101.349
  167.750   72.779    0.322    0.447   94.394
  168.000   74.632    0.302    0.419   81.710
  168.250   75.868    0.274    0.400   64.466
