~VERSION INFORMATION
 VERS.                 2.0:   CWLS LOG ASCII STANDARD -VERSION 2.0
 WRAP.                  NO:   ONE LINE PER DEPTH STEP
~WELL INFORMATION BLOCK
#MNEM.UNIT           DATA                    DESCRIPTION OF MNEMONIC
#---------    -------------------            -------------------------------
# Generated from Intellog Unique Number	CN_91_93/WELL/3639
WELL.         10-08-093-17W4                 : Well_name    - WELL
LOC .         AA/10-08-093-17W4/0            : Location     - LOCATION
UWI .         AA/10-08-093-17W400            : Uwi          - UNIQUE WELL ID
ENTR.         JOETTE                         : Entered      - ENTERED BY
SRVC.         SCHLUMBERGER                   : Scn          - SERVICE COMPANY
DATE.         03/20/92                       : Date         - LOG DATE
STRT.M        75                             : top_depth    - START DEPTH
STOP.M        255                            : bot_depth    - STOP DEPTH
STEP.M        0.25                           : increment    - STEP LENGTH
 NULL. -999.2500:NULL Value
~CURVE INFORMATION BLOCK
#MNEM UNIT       ERCB CURVE CODE    CURVE DESCRIPTION
#-----------   ------------------   ----------------------------------
DEPT.M        00 001 00 00         : DEPTH        - DEPTH
CALI.MM       00 280 01 00         : CAL          - CALIPER
GR  .API      00 310 00 00         : GR           - GAMMA RAY
NPHI.V/V      00 330 00 00         : PHIN         - NEUTRON POROSITY (SANDSTONE)
DPHI.V/V      00 890 00 00         : PHID         - DENSITY POROSITY (SANDSTONE)
ILD .OHMM     00 120 00 00         : RESD         - DEEP RESISTIVITY (DIL)
~PARAMETER INFORMATION
#MNEM.UNIT           DATA             DESCRIPTION OF MNEMONIC
#---------         -----------     ------------------------------
GL  .M        506.3                : gl           - GROUND LEVEL ELEVATION
EREF.M        509.95               : kb           - ELEVATION OF DEPTH REFERENCE
DATM.M        509.95               : datum        - DATUM ELEVATION
TDD .M        262                  : tdd          - TOTAL DEPTH DRILLER
RUN .         ONE                  : Run          - RUN NUMBER
ENG .         BILL                 : Engineer     - RECORDING ENGINEER
WIT .         JIM                  : Witness      - WITNESSED BY
MUD .         GEL                  : Mud_type     - MUD TYPE
MATR.         SANDSTONE            : Logunit      - NEUTRON MATRIX
TMAX.C        21                   : BHT          - MAXIMUM RECORDED TEMPERATURE
BHTD.M        262                  : BHTDEP       - MAXIMUM RECORDED TEMPERATURE
RMT .C        17.5                 : MDTP         - TEMPERATURE OF MUD
MUDD.KG/M     1130                 : MWT          - MUD DENSITY
NEUT.         1                    : NEUTRON      - NEUTRON TYPE
RESI.         0                    : RESIST       - RESISTIVITY TYPE
RM  .OHMM     9.4                  : RM           - RESISTIVITY OF MUD
RMC .OHMM     9.4                  : RMC          - RESISTIVITY OF MUD CAKE
RMF .OHMM     9.4                  : RMF          - RESISTIVITY OF MUD FILTRATE
SUFT.C        4                    : SUFT         - SURFACE TEMPERATURE
~A  DEPTH      CAL       GR     PHIN     PHID     RESD
# ...
  148.000  229.044  120.751    0.491    0.250    5.588
  148.250  228.032  118.950    0.482    0.251    5.808
  148.500  227.006  121.318    0.507    0.266    6.039
  148.750  224.995  122.492    0.456    0.278    6.541
  149.000  220.009  120.690    0.428    0.280    7.675
  149.250  216.021  117.103    0.400    0.268   10.595
  149.500  208.060  110.533    0.376    0.214   12.692
  149.750  202.081  108.735    0.361    0.112   14.904
  150.000  197.088  111.695    0.446    0.191   18.210
  150.250  201.022  118.225    0.463    0.223   17.813
  150.500  205.954  124.155    0.475    0.257   17.444
  150.750  209.888  127.119    0.489    0.265   10.714
  151.000  211.851  130.074    0.514    0.250    9.104
  151.250  213.815  132.442    0.496    0.242    6.186
  151.500  215.771  135.993    0.505    0.240    5.472
  151.750  216.736  135.981    0.527    0.231    4.936
  152.000  216.702  134.175    0.549    0.223    4.643
  152.250  216.675  131.778    0.538    0.205    4.272
  152.500  216.648  128.195    0.447    0.171    4.269
  152.750  216.621  124.609    0.404    0.150    4.813
  153.000  216.601  118.046    0.406    0.133    6.126
  153.250  208.639  113.261    0.431    0.171    5.992
  153.500  207.620  118.605    0.461    0.220    5.298
  153.750  218.497  125.734    0.567    0.242    5.084
  154.000  225.412  133.454    0.591    0.238    4.876
  154.250  229.353  129.863    0.602    0.229    4.769
  154.500  231.309  129.248    0.612    0.238    4.860
  154.750  232.281  126.855    0.553    0.230    4.952
  155.000  234.231  119.698    0.514    0.216    5.694
  155.250  236.188  116.111    0.476    0.177    6.167
  155.500  238.137  114.904    0.431    0.161    6.953
  155.750  238.117  117.268    0.426    0.245    7.681
  156.000  238.090  123.794    0.400    0.253    8.483
  156.250  242.024  122.588    0.394    0.246    9.372
  156.500  243.973  120.195    0.405    0.239   10.154
  156.750  243.960  115.418    0.436    0.230   12.158
  157.000  241.949  110.629    0.441    0.235   13.168
  157.250  237.955  110.621    0.417    0.238   14.257
  157.500  229.993  110.604    0.404    0.220   14.818
  157.750  224.008  109.398    0.415    0.210   14.796
  158.000  223.981  112.357    0.425    0.218   14.184
  158.250  224.953  118.887    0.425    0.228   14.164
  158.500  229.878  124.223    0.420    0.219   13.582
  158.750  236.794  123.017    0.418    0.218   13.020
  159.000  242.718  120.620    0.421    0.227   12.751
  159.250  244.668  118.818    0.435    0.232   12.218
  159.500  244.647  119.397    0.442    0.236   12.210
  159.750  244.614  122.361    0.435    0.231   11.948
  160.000  243.595  122.939    0.412    0.232   12.418
  160.250  241.584  121.733    0.402    0.237   12.653
  160.500  238.581  118.146    0.391    0.227   13.161
  160.750  233.595  115.150    0.386    0.210   13.964
  161.000  228.616  114.539    0.401    0.189   15.113
  161.250  223.616  118.089    0.407    0.202   15.405
  161.500  223.602  119.259    0.391    0.215   16.338
  161.750  224.567  118.061    0.362    0.198   16.982
  162.000  224.540  111.498    0.367    0.142   17.309
  162.250  216.571  106.721    0.412    0.177   17.631
  162.500  214.554  113.247    0.429    0.263   17.978
  162.750  215.525  115.016    0.406    0.248   17.939
  163.000  216.490  113.219    0.396    0.241   17.554
  163.250  219.439  112.608    0.391    0.252   17.184
  163.500  222.380  114.373    0.388    0.256   16.143
  163.750  223.352  116.741    0.390    0.256   15.481
  164.000  224.310  117.316    0.393    0.257   14.846
  164.250  224.276  117.895    0.394    0.247   14.522
  164.500  223.271  119.073    0.399    0.238   14.512
  164.750  224.236  122.627    0.406    0.234   14.781
  165.000  228.162  122.012    0.413    0.230   15.056
  165.250  230.133  119.016    0.405    0.230   15.045
  165.500  234.073  117.805    0.403    0.236   15.324
  165.750  233.054  118.392    0.405    0.244   15.614
  166.000  227.069  119.566    0.414    0.254   15.592
  166.250  224.067  121.930    0.429    0.250   14.946
  166.500  224.033  127.270    0.450    0.238   14.333
  166.750  224.012  127.250    0.467    0.221   13.470
  167.000  226.954  125.452    0.459    0.204   12.922
  167.250  226.927  119.481    0.452    0.173   12.144
  167.500  227.892  115.898    0.419    0.086   13.411
  167.750  227.865  118.262    0.331    0.068   14.525
  168.000  225.861  123.602    0.362    0.100   14.795
  168.250  212.933  123.586    0.380    0.133   14.483
  168.500  217.872  121.189    0.425    0.195   14.172
  168.750  225.773  119.384    0.450    0.235   11.330
  169.000  224.754  119.363    0.446    0.255   10.222
  169.250  219.774  120.537    0.485    0.258   10.624
  169.500  212.791  125.881    0.534    0.266    9.212
  169.750  211.786  132.407    0.597    0.270    7.364
  170.000  213.735  132.395    0.588    0.257    3.696
  170.250  215.685  128.209    0.543    0.220    3.403
  170.500  216.650  124.031    0.509    0.187    3.540
  170.750  215.631  119.254    0.477    0.154    6.226
  171.000  210.645  112.691    0.362    0.111    9.315
  171.250  206.657  112.076    0.401    0.127   11.162
  171.500  202.663  115.039    0.438    0.198   13.922
  171.750  202.636  119.780    0.454    0.214   12.822
  172.000  207.568  122.148    0.459    0.218   10.887
  172.250  213.492  120.942    0.463    0.220   10.657
  172.500  220.408  120.330    0.471    0.224   10.425
  172.750  219.382  123.290    0.493    0.228   10.843
  173.000  216.386  125.650    0.551    0.210   12.729
  173.250  222.310  123.848    0.530    0.170   17.565
  173.500  228.234  119.662    0.399    0.151   28.495
  173.750  220.273  115.484    0.288    0.042   32.124
  174.000  205.361  105.351    0.262    0.065   34.058
  174.250  200.375  102.950    0.266    0.079   32.685
  174.500  198.364  105.914    0.304    0.070   28.909
  174.750  199.322  114.229    0.337    0.202   25.559
  175.000  200.294  121.945    0.387    0.225   23.060
  175.250  204.234  120.144    0.387    0.227   22.130
  175.500  208.174  119.528    0.382    0.215   21.206
  175.750  213.106  120.111    0.380    0.211   20.752
  176.000  220.022  121.285    0.391    0.201   20.729
  176.250  225.946  121.269    0.396    0.200   20.699
  176.500  232.856  120.063    0.386    0.210   20.661
  176.750  235.797  117.067    0.379    0.213   20.639
  177.000  236.769  116.459    0.383    0.216   20.601
  177.250  237.740  116.443    0.395    0.205   20.579
  177.500  237.693  117.022    0.401    0.210   20.549
  177.750  237.673  118.196    0.404    0.215   19.698
  178.000  237.659  119.965    0.410    0.225   19.283
  178.250  234.643  120.544    0.413    0.228   18.863
  178.500  230.655  118.742    0.394    0.224   19.213
  178.750  230.628  115.747    0.368    0.224   20.392
  179.000  232.585  112.755    0.350    0.192   22.537
  179.250  230.574  110.358    0.319    0.162   27.547
  179.500  224.589  109.152    0.315    0.125   32.985
  179.750  227.538  109.735    0.331    0.149   34.984
  180.000  227.511  110.909    0.354    0.184   34.946
  180.250  222.531  109.103    0.348    0.195   34.197
  180.500  214.563  104.921    0.343    0.195   31.483
  180.750  211.560  104.306    0.360    0.203   29.597
  181.000  209.549  106.670    0.378    0.228   26.159
  181.250  206.547  109.629    0.383    0.256   24.592
  181.500  202.552  111.398    0.381    0.246   23.583
  181.750  198.544  112.568    0.371    0.223   23.078
  182.000  196.547  110.180    0.330    0.054   22.583
  182.250  194.536  103.617    0.284    0.074   23.019
  182.500  192.526   99.431    0.315    0.140   24.922
  182.750  191.500  102.990    0.343    0.217   29.852
  183.000  189.496  108.924    0.360    0.265   32.297
  183.250  183.504  114.859    0.378    0.242   31.616
  183.500  183.491  119.009    0.390    0.216   29.127
  183.750  184.455  120.778    0.385    0.189   26.288
  184.000  186.405  116.596    0.362    0.175   21.867
  184.250  187.377  111.216    0.321    0.160   24.167
