~VERSION INFORMATION
VERS.                2.00:   CWLS LOG ASCII STANDARD -VERSION 2.0
WRAP.                  NO:
~WELL INFORMATION BLOCK
#MNEM.UNIT           DATA                    DESCRIPTION OF MNEMONIC
#---------    -------------------            -------------------------------
# Generated from Intellog Unique Number	nealta/WELL/1061
LOC .         03-12-096-10W4                 : Location     - LOCATION          
UWI .         AB/03-12-096-10W400            : Uwi          - UNIQUE WELL ID    
ENTR.         MAX                            : Entered      - ENTERED BY        
STRT.M            70.0000                    :
STOP.M           415.0000                    :
STEP.M             0.2500                    :
NULL.           -999.2500                    :
COMP.  SHELL CANADA                          :COMPANY
WELL.  ALSANDS 5021                          :WELL
FLD.                                         :FIELD
LOC.   03-12-096-10W4                        :LOCATION
CTRY.  CANADA                                :COUNTRY
PROV.  ALBERTA                               :PROVINCE
SRVC.  SCHLUMBERGER                          :SERVICE COMPANY
DATE.  11 MAR 80                             :LOG DATE
UWI.      AB/03-12-096-10W4/0                :UNIQUE WELL ID
~Curve Information Block
#MNEM UNIT       ERCB CURVE CODE    CURVE DESCRIPTION
#MNEM.UNIT        API CODE    Curve Description
#---------    ------------    -------------------------------------------
DEPT.M                    :   DEPTH
DPHI.V/V      00 890 00 00:   PHID         - DENSITY POROSITY (LIMESTONE)
GR  .API      00 310 00 00:   GR           - GAMMA RAY
NPHI.V/V      00 330 00 00:   PHIN         - NEUTRON POROSITY (LIMESTONE)
~PARAMETER INFORMATION       
#MNEM.UNIT           DATA             DESCRIPTION OF MNEMONIC
#---------         -----------     ------------------------------
GL  .M        299                  : gl           - GROUND LEVEL ELEVATION      
EREF.M        10                   : kb           - ELEVATION OF DEPTH REFERENCE
DATM.M        10                   : datum        - DATUM ELEVATION             
TDD .M        414.5                : tdd          - TOTAL DEPTH DRILLER         
RUN .         ONE                  : Run          - RUN NUMBER                  
ENG .         BILL                 : Engineer     - RECORDING ENGINEER          
WIT .         JIM                  : Witness      - WITNESSED BY                
MUD .         GEL                  : Mud_type     - MUD TYPE                    
MATR.         LIMESTONE            : Logunit      - NEUTRON MATRIX              
TMAX.C        33                   : BHT          - MAXIMUM RECORDED TEMPERATURE
BHTD.M        414.5                : BHTDEP       - MAXIMUM RECORDED TEMPERATURE
RMT .C        25                   : MDTP         - TEMPERATURE OF MUD          
MUDD.KG/M     1100                 : MWT          - MUD DENSITY                 
NEUT.         1                    : NEUTRON      - NEUTRON TYPE                
RESI.         0                    : RESIST       - RESISTIVITY TYPE            
RM  .OHMM     0.25                 : RM           - RESISTIVITY OF MUD          
RMC .OHMM     0.25                 : RMC          - RESISTIVITY OF MUD CAKE     
RMF .OHMM     0.25                 : RMF          - RESISTIVITY OF MUD FILTRATE 
SUFT.C        4                    : SUFT         - SURFACE TEMPERATURE         
~A  Depth           DPHI          GR        NPHI
# ...
357.0000          0.0636     24.9780      0.0154
357.2500          0.0779     44.9190      0.0130
357.5000          0.0870     58.6530      0.0127
357.7500          0.0860     72.3790      0.0125
358.0000          0.0812     72.4210      0.0112
358.2500          0.0829     58.7530      0.0110
358.5000          0.0818     54.4300      0.0099
358.7500          0.0816     47.6180      0.0095
359.0000          0.0803     43.9170      0.0114
359.2500          0.0772     43.9500      0.0127
359.5000          0.0723     43.3620      0.0139
359.7500          0.0660     66.4310      0.0170
360.0000          0.0768     67.0870      0.0236
360.2500          0.0782     59.6520      0.0288
360.5000          0.0806     49.1050      0.0338
360.7500          0.0865     34.2020      0.0306
361.0000          0.0804     35.4800      0.0193
361.2500          0.0666     44.8580      0.0086
361.5000          0.0684     39.9120      0.0071
361.7500          0.0622     37.4480      0.0090
362.0000          0.0706     36.2370      0.0135
362.2500          0.0729     68.0190      0.0129
362.5000          0.0669     74.8990      0.0104
362.7500          0.0658     75.5630      0.0077
363.0000          0.0622     76.2190      0.0062
363.2500          0.0605     79.3650      0.0060
363.5000          0.0556     91.8460      0.0059
363.7500          0.0580     86.2780      0.0058
364.0000          0.0563     81.9550      0.0056
364.2500          0.0525     70.7850      0.0055
364.5000          0.0448     64.5950      0.0054
364.7500          0.0395     64.6370      0.0053
365.0000          0.0468     63.4170      0.0072
365.2500          0.0457     62.8370      0.0095
365.5000          0.0392     65.9820      0.0098
365.7500          0.0380     87.1770      0.0108
366.0000          0.0448     82.2310      0.0108
366.2500          0.0490     69.8170      0.0118
366.5000          0.0547     69.2280      0.0129
366.7500          0.0617     88.5720      0.0141
367.0000          0.0659     91.7090      0.0184
367.2500          0.0640     89.2530      0.0232
367.5000          0.0632     78.7060      0.0255
367.7500          0.0656     71.8940      0.0263
368.0000          0.0664     78.7730      0.0217
368.2500          0.0611    101.2290      0.0178
368.5000          0.0480    104.9970      0.0161
368.7500          0.0540    111.2450      0.0147
369.0000          0.0514    106.9220      0.0154
369.2500          0.0498     92.6410      0.0156
369.5000          0.0484     89.5710      0.0155
369.7500          0.0481     84.6170      0.0141
370.0000          0.0503     84.0290      0.0140
370.2500          0.0526    109.5880      0.0150
370.5000          0.0550    113.9780      0.0150
370.7500          0.0574    123.9690      0.0148
371.0000          0.0631    116.5430      0.0147
371.2500          0.0624     97.8970      0.0136
371.5000          0.0634     88.6030      0.0116
371.7500          0.0598     89.2590      0.0107
372.0000          0.0585     89.2840      0.0105
372.2500          0.0604     82.4710      0.0121
372.5000          0.0663     75.6590      0.0134
372.7500          0.0693     70.7130      0.0137
373.0000          0.0677     60.7970      0.0137
373.2500          0.0651     63.9430      0.0145
373.5000          0.0649     68.9550      0.0147
373.7500          0.0617     77.0790      0.0157
374.0000          0.0569     75.2460      0.0157
374.2500          0.0569     74.6570      0.0145
374.5000          0.0619     75.9350      0.0142
374.7500          0.0576     74.7240      0.0141
375.0000          0.0524     72.2680      0.0151
375.2500          0.0472     69.1980      0.0151
375.5000          0.0408     71.0990      0.0173
375.7500          0.0611     70.5180      0.0185
376.0000          0.0653     67.4310      0.0197
376.2500          0.0582     62.4940      0.0220
376.5000          0.0457     59.4080      0.0240
376.7500          0.0468     58.8190      0.0280
377.0000          0.0535     63.2090      0.0365
377.2500          0.0692     80.6770      0.0451
377.5000          0.0765     83.8310      0.0525
377.7500          0.0742     85.1090      0.0611
378.0000          0.0781     90.1130      0.0530
378.2500          0.0839     89.5240      0.0413
378.5000          0.0889     87.6910      0.0369
378.7500          0.0884     89.6000      0.0341
379.0000          0.0827     96.4880      0.0314
379.2500          0.0762     95.8990      0.0329
379.5000          0.0673    108.9940      0.0362
379.7500          0.0593    122.7280      0.0398
380.0000          0.0539    131.4750      0.0456
380.2500          0.0704    132.7610      0.0538
380.5000          0.0699    131.5500      0.0654
380.7500          0.0769    131.5750      0.0864
381.0000          0.0856    132.8620      0.1143
381.2500          0.0927    142.8530      0.1407
381.5000          0.0977    149.1100      0.1573
381.7500          0.1048    157.2430      0.1484
382.0000          0.1076    157.9070      0.1317
382.2500          0.1020    142.3730      0.1017
382.5000          0.1049    134.3080      0.0834
382.7500          0.1003    121.8940      0.0707
383.0000          0.1023    120.0600      0.0552
383.2500          0.0961    116.9900      0.0431
383.5000          0.1008    113.2810      0.0350
383.7500          0.1032    128.2600      0.0373
384.0000          0.1172    139.4960      0.0518
384.2500          0.1249    145.1310      0.0854
384.5000          0.1311    161.3540      0.1165
384.7500          0.1338    159.5210      0.1322
385.0000          0.1315    152.0860      0.1439
385.2500          0.1303    141.5390      0.1561
385.5000          0.1287    141.5810      0.1684
385.7500          0.1275    144.1120      0.1704
386.0000          0.1234    146.0040      0.1632
386.2500          0.1202    148.5190      0.1631
386.5000          0.1174    147.9470      0.1705
386.7500          0.1209    143.6150      0.1714
387.0000          0.1284    133.0690      0.1671
387.2500          0.1298    126.2560      0.1675
387.5000          0.1259    120.6800      0.1774
387.7500          0.1187    109.5110      0.1904
388.0000          0.1174    102.0760      0.1921
388.2500          0.1225    103.3540      0.1933
388.5000          0.1199    129.5440      0.2032
388.7500          0.1248    142.6470      0.2109
389.0000          0.1275    158.2400      0.2194
389.2500          0.1299    177.5840      0.2105
389.5000          0.1323    165.1530      0.1990
389.7500          0.1315    136.5570      0.1872
390.0000          0.1312    114.1860      0.1741
390.2500          0.1266     78.1130      0.1773
390.5000          0.1260     53.2430      0.1681
390.7500          0.1281     33.9830      0.1589
391.0000          0.1212     22.1920      0.1583
391.2500          0.1096      0.4420      0.1764
391.5000          0.0990     -8.8510      0.1715
391.7500          0.0874      4.8660      0.1619
392.0000          0.0843      9.2560      0.1459
392.2500          0.0794     22.9980      0.1215
392.5000          0.0769     32.9900      0.1063
392.7500          0.0715     34.2600      0.1142
393.0000          0.0614     29.9450      0.1264
393.2500          0.0558     30.6010      0.1316
393.5000          0.0468     31.2480      0.1256
393.7500          0.0490     35.6470      0.1178
394.0000          0.0469     51.8620      0.1084
394.2500          0.0474     87.3790      0.0980
394.5000          0.0494     84.3010      0.0887
394.7500          0.0530     60.0620      0.0795
395.0000          0.0609     43.2830      0.0691
395.2500          0.0657     15.3100      0.0622
395.5000          0.0681     25.9240      0.0604
395.7500          0.0660     88.2190      0.0742
396.0000          0.0729    107.5380      0.0855
396.2500          0.0814    103.8460      0.0644
396.5000          0.0875     88.9340      0.0574
396.7500          0.0863     85.8560      0.0634
397.0000          0.0748     84.6530      0.0696
397.2500          0.0684     83.4330      0.0745
397.5000          0.0735     82.2300      0.0714
397.7500          0.0700     82.2720      0.0725
