~VERSION INFORMATION
 VERS.                 2.0:   CWLS LOG ASCII STANDARD -VERSION 2.0
 WRAP.                  NO:   ONE LINE PER DEPTH STEP
~WELL INFORMATION BLOCK
#MNEM.UNIT           DATA                    DESCRIPTION OF MNEMONIC
#---------    -------------------            -------------------------------
# Generated from Intellog Unique Number	CN_91_93/WELL/3609
WELL.         07-12-093-10W4                 : Well_name    - WELL
LOC .         AB/07-12-093-10W4/0            : Location     - LOCATION
UWI .         AB/07-12-093-10W400            : Uwi          - UNIQUE WELL ID
ENTR.         JOETTE                         : Entered      - ENTERED BY
SRVC.         WESTERN ATLAS                  : Scn          - SERVICE COMPANY
DATE.         03\18\92                       : Date         - LOG DATE
STRT.M        3                              : top_depth    - START DEPTH
STOP.M        60                             : bot_depth    - STOP DEPTH
STEP.M        0.25                           : increment    - STEP LENGTH
 NULL. -999.2500:NULL Value
~CURVE INFORMATION BLOCK
#MNEM UNIT       ERCB CURVE CODE    CURVE DESCRIPTION
#-----------   ------------------   ----------------------------------
DEPT.M        00 001 00 00         : DEPTH        - DEPTH
ILD .OHMM     00 120 00 00         : RESD         - DEEP RESISTIVITY (DIL)
GR  .API      00 310 00 00         : GR           - GAMMA RAY
CALI.MM       00 280 01 00         : CAL          - CALIPER
NPHI.V/V      00 330 00 00         : PHIN         - NEUTRON POROSITY (SANDSTONE)
~PARAMETER INFORMATION
#MNEM.UNIT           DATA             DESCRIPTION OF MNEMONIC
#---------         -----------     ------------------------------
GL  .M        0                    : gl           - GROUND LEVEL ELEVATION
EREF.M        0                    : kb           - ELEVATION OF DEPTH REFERENCE
DATM.M        0                    : datum        - DATUM ELEVATION
TDD .M        71.8                 : tdd          - TOTAL DEPTH DRILLER
RUN .         ONE                  : Run          - RUN NUMBER
ENG .         JO                   : Engineer     - RECORDING ENGINEER
WIT .         TIM                  : Witness      - WITNESSED BY
MUD .         GEL                  : Mud_type     - MUD TYPE
MATR.         SANDSTONE            : Logunit      - NEUTRON MATRIX
TMAX.C        0                    : BHT          - MAXIMUM RECORDED TEMPERATURE
BHTD.M        71.8                 : BHTDEP       - MAXIMUM RECORDED TEMPERATURE
RMT .C        0                    : MDTP         - TEMPERATURE OF MUD
MUDD.KG/M     1000                 : MWT          - MUD DENSITY
NEUT.         1                    : NEUTRON      - NEUTRON TYPE
RESI.         0                    : RESIST       - RESISTIVITY TYPE
RM  .OHMM     5.46                 : RM           - RESISTIVITY OF MUD
RMC .OHMM     6.32                 : RMC          - RESISTIVITY OF MUD CAKE
RMF .OHMM     4.52                 : RMF          - RESISTIVITY OF MUD FILTRATE
SUFT.C        4                    : SUFT         - SURFACE TEMPERATURE
~A  DEPTH     RESD       GR      CAL     PHIN
    3.000    4.785   40.188  318.972    0.532
    3.250    4.277   42.542  320.911    0.563
    3.500    6.303   43.705  320.850    0.547
    3.750    3.963   40.679  321.774    0.467
    4.000    3.413   31.046  322.714    0.481
    4.250    3.955   32.809  320.639    0.499
    4.500    4.581   38.162  318.609    0.454
    4.750    3.467   36.335  313.550    0.500
    5.000    3.216   40.498  309.476    0.480
    5.250    3.793   37.462  306.402    0.508
    5.500    4.822   33.827  305.357    0.552
    5.750    4.556   34.391  305.296    0.553
    6.000    3.382   49.332  305.236    0.554
    6.250    3.707   52.304  305.175    0.570
    6.500    4.458   51.677  306.084    0.579
    6.750    3.500   45.043  306.039    0.538
    7.000    2.851   47.406  306.994    0.484
    7.250    3.125   38.354  308.902    0.573
    7.500    3.553   42.526  309.857    0.596
    7.750    3.615   52.096  310.811    0.537
    8.000    3.293   53.850  311.750    0.488
    8.250    2.683   39.409  313.674    0.460
    8.500    2.886   37.573  314.614    0.486
    8.750    2.677   41.136  315.568    0.459
    9.000    2.988   37.510  316.477    0.440
    9.250    3.155   36.265  316.447    0.425
    9.500    3.656   38.628  317.371    0.526
    9.750    4.157   40.991  317.311    0.588
   10.000    4.152   40.964  316.236    0.535
   10.250    4.722   57.123  316.205    0.591
   10.500    4.804   65.475  314.131    0.616
   10.750    4.375   61.249  310.071    0.622
   11.000    3.700   48.017  309.011    0.628
   11.250    3.070   42.582  307.951    0.637
   11.500    2.901   64.121  308.860    0.635
   11.750    2.792   61.704  308.830    0.636
   12.000    2.738   57.469  309.769    0.641
   12.250    2.736   52.625  310.709    0.645
   12.500    2.889   55.597  311.648    0.644
   12.750    3.225   54.961  311.588    0.635
   13.000    3.804   51.916  312.497    0.615
   13.250    4.327   50.072  312.451    0.609
   13.500    4.569   46.446  312.406    0.604
   13.750    4.158   55.997  310.316    0.614
   14.000    4.080   50.572  309.271    0.626
   14.250    4.001   41.538  306.212    0.638
   14.500    4.071   41.493  304.137    0.644
   14.750    4.461   36.067  303.062    0.640
   15.000    4.799   29.415  303.031    0.643
   15.250    3.983   34.786  302.971    0.646
   15.500    3.368   34.741  303.910    0.646
   15.750    3.124   29.315  304.850    0.638
   16.000    2.740   22.681  305.774    0.632
   16.250    2.495   21.445  306.728    0.637
   16.500    2.402   16.610  310.667    0.631
   16.750    2.399   18.374  312.591    0.625
   17.000    2.729   24.327  307.547    0.619
   17.250    3.666   21.900  277.480    0.613
   17.500    5.819   21.255  273.421    0.608
   17.750   37.708   24.818  295.369    0.591
   18.000   65.635   22.982  316.303    0.546
   18.250   74.634   21.746  312.243    0.487
   18.500   88.044   20.501  275.179    0.429
   18.750   94.734   17.466  261.123    0.408
   19.000  100.062   15.630  254.049    0.420
   19.250   99.926   18.602  248.991    0.409
   19.500   94.426   22.756  247.931    0.466
   19.750   87.591   20.929  252.854    0.476
   20.000   81.252   17.285  258.791    0.425
   20.250   92.392   21.456  262.745    0.402
   20.500   95.747   26.219  252.687    0.466
   20.750   88.841   29.781  211.639    0.468
   21.000   79.394   23.147  210.564    0.439
   21.250   87.022   20.712  213.503    0.408
   21.500   88.552   23.674  207.444    0.405
   21.750   83.677   22.439  174.394    0.415
   22.000  123.232   24.202  133.331    0.400
   22.250  118.689   24.756  133.270    0.276
   22.500   68.040   34.326  184.210    0.236
   22.750   35.547   43.287  243.147    0.236
   23.000   26.406   54.048  248.085    0.378
   23.250   25.418   68.407  245.010    0.467
   23.500   31.125  101.361  243.950    0.513
   23.750   43.385   99.534  243.890    0.405
   24.000   61.605   90.501  246.828    0.424
   24.250   49.280   82.058  249.737    0.434
   24.500   44.875   90.428  250.706    0.427
   24.750   71.206   83.185  250.616    0.402
   25.000   76.595   77.151  250.570    0.415
   25.250   73.731   75.915  250.510    0.409
   25.500   69.672   87.275  250.450    0.441
   25.750   74.945   84.831  250.404    0.467
   26.000   97.011   80.005  250.329    0.444
   26.250   59.887   76.970  250.269    0.364
   26.500   42.072   94.928  250.208    0.375
   26.750   39.017  103.880  250.148    0.396
   27.000   38.974  102.044  251.087    0.416
   27.250   39.670   97.219  251.042    0.450
   27.500   40.367   97.173  250.951    0.425
   27.750   42.626   98.936  250.906    0.456
   28.000   44.174   96.510  250.830    0.445
   28.250   40.977   80.869  250.770    0.411
   28.500   48.365   79.025  250.710    0.413
   28.750   64.949   88.595  250.664    0.407
   29.000   54.937   92.157  250.574    0.401
   29.250   51.899   79.525  250.544    0.431
   29.500   57.948   71.091  249.453    0.461
   29.750   51.786   77.653  249.423    0.477
   30.000   50.781   89.013  249.363    0.421
   30.250   51.674   92.576  249.302    0.414
   30.500   53.579   91.340  249.227    0.427
   30.750   55.524   83.497  249.181    0.402
   31.000   63.137   79.271  249.106    0.396
   31.250   67.916   78.026  249.031    0.404
   31.500   69.128   82.198  248.955    0.419
   31.750   62.949   87.560  248.925    0.419
   32.000   46.749   94.113  248.849    0.409
   32.250   41.023   97.076  248.804    0.390
   32.500   42.524  100.038  248.729    0.385
   32.750   39.435   99.411  248.668    0.377
   33.000   42.431   80.772  249.607    0.389
   33.250   78.096   72.938  249.532    0.425
   33.500   87.151   63.904  249.487    0.480
   33.750   85.460   72.257  249.441    0.445
   34.000  143.386   67.431  249.381    0.439
   34.250   91.828   56.589  249.305    0.481
   34.500   65.717   64.359  249.260    0.410
   34.750   89.948   72.720  249.185    0.460
   35.000   88.203   60.079  249.109    0.479
   35.250   78.824   64.232  249.079    0.450
   35.500   69.188   61.197  249.004    0.471
   35.750   59.599   61.170  248.943    0.490
   36.000  131.965   66.532  249.867    0.478
   36.250   84.537   64.696  249.807    0.471
   36.500  115.675   61.061  249.762    0.510
   36.750   68.813   71.822  249.671    0.596
   37.000   72.663   71.177  249.626    0.526
   37.250   66.168   65.751  249.580    0.495
   37.500   66.078   48.311  249.490    0.517
   37.750  115.048   39.278  249.460    0.489
   38.000  642.948   30.244  249.399    0.456
   38.250  311.929   27.209  249.339    0.421
   38.500  160.019   40.959  249.263    0.426
   38.750  522.792   38.524  249.218    0.451
   39.000  226.973   40.296  250.127    0.413
   39.250   74.650   68.451  250.082    0.439
   39.500  380.405   57.018  250.037    0.532
   39.750  150.555   54.583  250.037    0.471
   40.000  137.097   55.746  247.886    0.444
   40.250  315.007   50.902  250.825    0.500
   40.500  229.711   53.275  250.780    0.507
   40.750  152.703   52.039  250.719    0.564
   41.000  119.880   61.000  250.644    0.483
   41.250  111.203   60.964  250.583    0.474
   41.500  141.305   52.530  251.538    0.505
   41.750   93.934   54.893  251.477    0.466
   42.000   82.428   72.851  252.402    0.463
   42.250  245.491   66.217  252.326    0.513
   42.500  182.313   40.979  252.296    0.484
   42.750  143.165   51.740  253.205    0.416
   43.000  110.361   58.901  253.175    0.435
   43.250   85.073   57.656  253.084    0.460
   43.500  226.674   52.231  253.039    0.595
   43.750  147.920   46.187  253.039    0.508
   44.000  174.546   47.960  249.889    0.519
   44.250  247.846   51.522  249.829    0.482
   44.500  147.439   52.077  249.783    0.483
   44.750  113.625   49.641  250.723    0.501
   45.000  190.642   44.198  250.677    0.507
   45.250  256.009   39.972  250.617    0.502
   45.500  193.782   50.732  250.541    0.502
   45.750  173.223   53.704  250.496    0.472
   46.000  362.830   44.062  251.435    0.450
   46.250  172.847   42.226  251.375    0.380
