~VERSION INFORMATION
 VERS.                 2.0:   CWLS LOG ASCII STANDARD -VERSION 2.0
 WRAP.                  NO:   ONE LINE PER DEPTH STEP
~WELL INFORMATION BLOCK
#MNEM.UNIT           DATA                    DESCRIPTION OF MNEMONIC
#---------    -------------------            -------------------------------
# Generated from Intellog Unique Number	CN_91_93/WELL/3588
WELL.         AOSTRA                         : Well_name    - WELL
LOC .         AB/01-23-093-13W4/0            : Location     - LOCATION
UWI .         AB/01-23-093-13W400            : Uwi          - UNIQUE WELL ID
ENTR.         JOETTE                         : Entered      - ENTERED BY
SRVC.         COMPUTALOG                     : Scn          - SERVICE COMPANY
DATE.         03/18/92                       : Date         - LOG DATE
STRT.M        0                              : top_depth    - START DEPTH
STOP.M        155                            : bot_depth    - STOP DEPTH
STEP.M        0.25                           : increment    - STEP LENGTH
 NULL. -999.2500:NULL Value
~CURVE INFORMATION BLOCK
#MNEM UNIT       ERCB CURVE CODE    CURVE DESCRIPTION
#-----------   ------------------   ----------------------------------
DEPT.M        00 001 00 00         : DEPTH        - DEPTH
GR  .API      00 310 00 00         : GR           - GAMMA RAY
CALI.MM       00 280 01 00         : CAL          - CALIPER
DPHI.V/V      00 890 00 00         : PHID         - DENSITY POROSITY (SANDSTONE)
ILD .OHMM     00 120 00 00         : RESD         - DEEP RESISTIVITY (DIL)
~PARAMETER INFORMATION
#MNEM.UNIT           DATA             DESCRIPTION OF MNEMONIC
#---------         -----------     ------------------------------
GL  .M        420.86               : gl           - GROUND LEVEL ELEVATION
EREF.M        420.86               : kb           - ELEVATION OF DEPTH REFERENCE
DATM.M        420.86               : datum        - DATUM ELEVATION
TDD .M        158.5                : tdd          - TOTAL DEPTH DRILLER
RUN .         ONE                  : Run          - RUN NUMBER
ENG .         JO                   : Engineer     - RECORDING ENGINEER
WIT .         TIM                  : Witness      - WITNESSED BY
MUD .         GEL                  : Mud_type     - MUD TYPE
MATR.         SANDSTONE            : Logunit      - NEUTRON MATRIX
TMAX.C        18                   : BHT          - MAXIMUM RECORDED TEMPERATURE
BHTD.M        158.5                : BHTDEP       - MAXIMUM RECORDED TEMPERATURE
RMT .C        16                   : MDTP         - TEMPERATURE OF MUD
MUDD.KG/M     541.666              : MWT          - MUD DENSITY
NEUT.         1                    : NEUTRON      - NEUTRON TYPE
RESI.         0                    : RESIST       - RESISTIVITY TYPE
RM  .OHMM     5.73                 : RM           - RESISTIVITY OF MUD
RMC .OHMM     5.73                 : RMC          - RESISTIVITY OF MUD CAKE
RMF .OHMM     5.73                 : RMF          - RESISTIVITY OF MUD FILTRATE
SUFT.C        4                    : SUFT         - SURFACE TEMPERATURE
~A  DEPTH       GR      CAL     PHID     RESD
# ...
  130.500   58.699  217.926    0.244   24.600
  130.750   56.387  218.001    0.250   36.896
  131.000   64.043  219.034    0.273   21.653
  131.250   65.847  219.127    0.268   27.521
  131.500   54.751  219.183    0.273   27.035
  131.750   59.487  219.277    0.265   27.553
  132.000   65.993  219.332    0.258   35.664
  132.250   59.001  219.444    0.268   67.928
  132.500   54.355  218.542    0.264   27.600
  132.750   46.777  218.598    0.272   41.400
  133.000   48.581  218.672    0.274   39.194
  133.250   60.939  218.765    0.266   29.219
  133.500   51.602  218.840    0.261   39.239
  133.750   48.128  218.933    0.270   36.477
  134.000   44.666  218.970    0.283   42.283
  134.250   52.322  219.082    0.285   34.558
  134.500   52.378  219.138    0.290   49.041
  134.750   52.423  219.138    0.296   63.488
  135.000   53.652  221.298    0.293   40.110
  135.250   54.294  217.426    0.284   50.973
  135.500   54.903  217.482    0.284   46.521
  135.750   49.084  217.575    0.281   38.727
  136.000   49.726  218.608    0.271   58.075
  136.250   53.864  218.608    0.284   36.022
  136.500   61.543  220.787    0.271   59.221
  136.750   72.729  218.851    0.282   25.899
  137.000   74.532  218.925    0.288   24.076
  137.250   46.432  219.000    0.295   45.862
  137.500   61.722  219.074    0.314   36.130
  137.750   64.698  219.149    0.313   57.253
  138.000   50.670  219.242    0.303   47.662
  138.250   47.783  217.362    0.295   53.253
  138.500   46.655  213.509    0.278   82.849
  138.750   64.889  213.621    0.268   55.311
  139.000   52.044  213.677    0.266   35.592
  139.250   58.528  215.706    0.273   39.048
  139.500   53.295  217.735    0.291   34.351
  139.750   58.617  218.787    0.296   29.668
  140.000   58.087  217.903    0.289   43.679
  140.250   55.786  217.959    0.284   71.809
  140.500   59.936  218.052    0.271   63.171
  140.750   67.017  218.126    0.267   42.173
  141.000   62.957  218.220    0.275   48.886
  141.250   51.274  218.294    0.280   35.780
  141.500   52.492  217.391    0.278   34.513
  141.750   56.055  215.511    0.277   37.859
  142.000   59.031  214.627    0.277   28.224
  142.250   59.087  214.683    0.275   47.262
  142.500   49.739  214.739    0.280   28.256
  142.750   52.715  214.851    0.268   34.611
  143.000   66.856  214.907    0.262   25.803
  143.250   70.994  215.977    0.255   24.435
  143.500   79.259  218.025    0.243   23.136
  143.750   86.926  218.062    0.273   26.326
  144.000   65.275  219.133    0.289   21.916
  144.250   63.561  219.189    0.277   23.176
  144.500   61.847  219.282    0.253   41.011
  144.750   65.409  218.379    0.249   22.364
  145.000   62.534  216.499    0.275   21.179
  145.250   56.703  216.574    0.293   22.393
  145.500   50.298  216.649    0.296   26.926
  145.750   45.652  216.742    0.287   30.643
  146.000   55.079  216.835    0.275   92.447
  146.250   69.794  216.872    0.283   31.252
  146.500   42.268  216.965    0.319   30.700
  146.750   48.176  217.040    0.332   59.557
  147.000   55.855  217.115    0.320   52.392
  147.250   55.900  217.208    0.296   54.386
  147.500   51.840  217.264    0.304   29.122
  147.750   44.273  217.338    0.313   36.330
  148.000   47.250  217.431    0.312   64.296
  148.250   46.708  216.529    0.313   48.822
  148.500   49.673  212.676    0.320   33.204
  148.750   54.996  213.746    0.305   63.232
  149.000   62.674  215.775    0.274   28.166
  149.250   75.033  217.804    0.280   23.448
  149.500   52.795  218.875    0.303   21.010
  149.750   45.217  218.931    0.306   35.182
  150.000   48.194  219.024    0.317   58.923
  150.250   42.973  218.121    0.316   82.093
  150.500   43.593  218.177    0.240   82.140
  150.750   67.690  218.270    0.317   37.268
  151.000   44.855  218.345    0.343   21.085
  151.250   34.345  218.457    0.335   24.441
  151.500   44.358  218.494    0.309   31.060
  151.750   46.184  218.569    0.289   39.472
  152.000   52.668  218.680    0.261   34.724
  152.250   65.026  218.736    0.269   22.345
  152.500   61.553  219.807    0.279   24.064
  152.750   44.006  219.881    0.284   24.081
  153.000   45.810  219.937    0.279   32.339
  153.250   49.959  220.012    0.314   52.197
  153.500   53.545  220.086    0.349   37.508
  153.750   41.254  220.161    0.365   42.685
  154.000   29.571  220.254    0.210   45.133
  154.250   33.134  218.374    0.093   45.165
  154.500   30.833  214.521   -0.024   52.353
  154.750   36.753  215.592   -0.082   47.781
  155.000   43.248  216.643   -0.114   36.282
