~VERSION INFORMATION
 VERS.                 2.0:   CWLS LOG ASCII STANDARD -VERSION 2.0
 WRAP.                  NO:   ONE LINE PER DEPTH STEP
~WELL INFORMATION BLOCK
#MNEM.UNIT           DATA                    DESCRIPTION OF MNEMONIC
#---------    -------------------            -------------------------------
# Generated from Intellog Unique Number	res/WELL/2026
WELL.         AMOCO AOSTRA GLISPLH1          : Well_name    - WELL
LOC .         AB/05-02-086-07W4/0            : Location     - LOCATION
UWI .         AB/05-02-086-07W400            : Uwi          - UNIQUE WELL ID
ENTR.         KATHY                          : Entered      - ENTERED BY
SRVC.         SCHLUMBERGER                   : Scn          - SERVICE COMPANY
STRT.M        160                            : top_depth    - START DEPTH
STOP.M        235.001                        : bot_depth    - STOP DEPTH
STEP.M        0.3                            : increment    - STEP LENGTH
 NULL. -999.2500:NULL Value
~CURVE INFORMATION BLOCK
#MNEM UNIT       ERCB CURVE CODE    CURVE DESCRIPTION
#-----------   ------------------   ----------------------------------
DEPT.M        00 001 00 00         : DEPTH        - DEPTH
GR  .API      00 310 00 00         : GR           - GAMMA RAY
DPHI.V/V      00 890 00 00         : PHID         - DENSITY POROSITY (LIMESTONE)
ILD .OHMM     00 120 00 00         : RESD         - DEEP RESISTIVITY (DIL)
GR  .API      00 310 00 00         : GR           - GAMMA RAY
DPHI.V/V      00 890 00 00         : PHID         - DENSITY POROSITY (LIMESTONE)
ILD .OHMM     00 120 00 00         : RESD         - DEEP RESISTIVITY (DIL)
~PARAMETER INFORMATION
#MNEM.UNIT           DATA             DESCRIPTION OF MNEMONIC
#---------         -----------     ------------------------------
GL  .M        478.6                : gl           - GROUND LEVEL ELEVATION
EREF.M        480                  : kb           - ELEVATION OF DEPTH REFERENCE
DATM.M        480                  : datum        - DATUM ELEVATION
TDD .M        241                  : tdd          - TOTAL DEPTH DRILLER
RUN .         ONE                  : Run          - RUN NUMBER
ENG .         BILL                 : Engineer     - RECORDING ENGINEER
WIT .         JIM                  : Witness      - WITNESSED BY
MUD .         GEL                  : Mud_type     - MUD TYPE
MATR.         LIMESTONE            : Logunit      - NEUTRON MATRIX
TMAX.C        60                   : BHT          - MAXIMUM RECORDED TEMPERATURE
BHTD.M        241                  : BHTDEP       - MAXIMUM RECORDED TEMPERATURE
MATR.         1                    : LOGUNIT      - NEUTRON MATRIX
RMT .C        25                   : MDTP         - TEMPERATURE OF MUD
NEUT.         1                    : NEUTRON      - NEUTRON TYPE
RESI.         0                    : RESIST       - RESISTIVITY TYPE
RMC .OHMM     0.25                 : RMC          - RESISTIVITY OF MUD CAKE
RMF .OHMM     0.25                 : RMF          - RESISTIVITY OF MUD FILTRATE
SUFT.C        5                    : SUFT         - SURFACE TEMPERATURE
~A  DEPTH       GR     PHID     RESD       GR     PHID     RESD
  160.000   83.371    0.258    4.499   83.371    0.258    4.499
  160.300   96.533    0.255    4.028   96.533    0.255    4.028
  160.600   95.654    0.255    3.708   95.654    0.255    3.708
  160.900   93.878    0.252    3.608   93.878    0.252    3.608
  161.200   93.895    0.247    3.511   93.895    0.247    3.511
  161.500   96.599    0.257    3.385   96.599    0.257    3.385
  161.800   96.915    0.276    3.325   96.915    0.276    3.325
  162.100   99.023    0.278    3.296   99.023    0.278    3.296
  162.400   97.247    0.264    3.329   97.247    0.264    3.329
  162.700   95.172    0.263    3.456   95.172    0.263    3.456
  163.000   95.191    0.256    3.690   95.191    0.256    3.690
  163.300   97.894    0.251    3.939   97.894    0.251    3.939
  163.600   98.210    0.248    4.206   98.210    0.248    4.206
  163.900   95.537    0.240    4.287   95.537    0.240    4.287
  164.200   96.152    0.225    4.410   96.152    0.225    4.410
  164.500   98.260    0.223    4.708   98.260    0.223    4.708
  164.800   95.287    0.215    5.216   95.287    0.215    5.216
  165.100   84.249    0.257    6.281   84.249    0.257    6.281
  165.400   72.314    0.316    7.565   72.314    0.316    7.565
  165.700   70.835    0.329    9.280   70.835    0.329    9.280
  166.000   69.656    0.321    8.386   69.656    0.321    8.386
  166.300   69.076    0.294    8.468   69.076    0.294    8.468
  166.600   73.276    0.258    7.868   73.276    0.258    7.868
  166.900   79.567    0.232    7.175   79.567    0.232    7.175
  167.200   84.664    0.254    6.484   84.664    0.254    6.484
  167.500   84.382    0.253    5.859   84.382    0.253    5.859
  167.800   87.686    0.243    5.545   87.686    0.243    5.545
  168.100   82.621    0.253    5.347   82.621    0.253    5.347
  168.400   64.411    0.300    6.379   64.411    0.300    6.379
  168.700   55.164    0.372    8.273   55.164    0.372    8.273
  169.000   52.193    0.378   11.238   52.193    0.378   11.238
  169.300   55.795    0.388   12.921   55.795    0.388   12.921
  169.600   57.605    0.394   10.942   57.605    0.394   10.942
  169.900   57.920    0.391    7.488   57.920    0.391    7.488
  170.200   60.925    0.384    5.318   60.925    0.384    5.318
  170.500   65.721    0.366    3.955   65.721    0.366    3.955
  170.800   69.623    0.330    3.198   69.623    0.330    3.198
  171.100   68.444    0.318    3.027   68.444    0.318    3.027
  171.400   66.967    0.303    3.114   66.967    0.303    3.114
  171.700   82.821    0.267    3.514   82.821    0.267    3.514
  172.000   95.088    0.250    4.078   95.088    0.250    4.078
  172.300   99.587    0.255    4.603   99.587    0.255    4.603
  172.600   95.421    0.256    4.914   95.421    0.256    4.914
  172.900   89.161    0.275    4.871   89.161    0.275    4.871
  173.200   83.501    0.322    4.784   83.501    0.322    4.784
  173.500   75.450    0.347    4.699   75.450    0.347    4.699
  173.800   73.376    0.303    4.659   73.376    0.303    4.659
  174.100   84.747    0.258    4.661   84.747    0.258    4.661
  174.400   96.118    0.220    4.751   96.118    0.220    4.751
  174.700   95.239    0.225    5.072   95.239    0.225    5.072
  175.000   96.748    0.220    5.415   96.748    0.220    5.415
  175.300   95.570    0.203    6.342   95.570    0.203    6.342
  175.600   81.842    0.257    7.567   81.842    0.257    7.567
  175.900   65.423    0.275    9.814   65.423    0.275    9.814
  176.200   53.786    0.307   12.379   53.786    0.307   12.379
  176.500   45.437    0.344   11.083   45.437    0.344   11.083
  176.800   52.324    0.326    9.561   52.324    0.326    9.561
  177.100   72.363    0.284    7.588   72.363    0.284    7.588
  177.400   83.734    0.241    6.192   83.734    0.241    6.192
  177.700   87.337    0.200    5.648   87.337    0.200    5.648
  178.000   96.019    0.221    5.103   96.019    0.221    5.103
  178.300  100.518    0.213    4.966  100.518    0.213    4.966
  178.600   97.545    0.209    4.832   97.545    0.209    4.832
  178.900  101.147    0.207    4.971  101.147    0.207    4.971
  179.200   98.475    0.223    5.458   98.475    0.223    5.458
  179.500   88.333    0.232    5.461   88.333    0.232    5.461
  179.800   85.957    0.238    5.938   85.957    0.238    5.938
  180.100   84.181    0.249    6.053   84.181    0.249    6.053
  180.400   83.601    0.219    5.890   83.601    0.219    5.890
  180.700   86.008    0.224    5.679   86.008    0.224    5.679
  181.000   97.678    0.220    5.227   97.678    0.220    5.227
  181.300  103.970    0.205    5.182  103.970    0.205    5.182
  181.600   97.113    0.228    5.382   97.113    0.228    5.382
  181.900   87.568    0.258    5.745   87.568    0.258    5.745
  182.200   81.011    0.266    6.248   81.011    0.266    6.248
  182.500   91.785    0.245    6.986   91.785    0.245    6.986
  182.800   87.619    0.294    8.336   87.619    0.294    8.336
  183.100   61.339    0.339   11.013   61.339    0.339   11.013
  183.400   47.908    0.327   14.686   47.908    0.327   14.686
  183.700   55.395    0.295   16.422   55.395    0.295   16.422
  184.000   64.675    0.301   13.401   64.675    0.301   13.401
  184.300   71.564    0.281   11.777   71.564    0.281   11.777
  184.600   83.234    0.267   11.784   83.234    0.267   11.784
  184.900   60.542    0.290   12.816   60.542    0.290   12.816
  185.200   49.801    0.308   15.150   49.801    0.308   15.150
  185.500   39.360    0.328   18.076   39.360    0.328   18.076
  185.800   32.504    0.328   21.973   32.504    0.328   21.973
  186.100   31.923    0.328   27.206   31.923    0.328   27.206
  186.400   30.445    0.358   31.571   30.445    0.358   31.571
  186.700   30.164    0.379   34.978   30.164    0.379   34.978
  187.000   27.789    0.376   34.995   27.789    0.376   34.995
  187.300   26.013    0.343   33.741   26.013    0.343   33.741
  187.600   26.030    0.318   32.232   26.030    0.318   32.232
  187.900   26.643    0.307   31.077   26.643    0.307   31.077
  188.200   27.855    0.315   30.808   27.855    0.315   30.808
  188.500   26.677    0.323   31.401   26.677    0.323   31.401
  188.800   23.407    0.325   33.835   23.407    0.325   33.835
  189.100   27.308    0.330   37.835   27.308    0.330   37.835
  189.400   42.863    0.321   42.702   42.863    0.321   42.702
  189.700   41.087    0.319   49.096   41.087    0.319   49.096
  190.000   33.931    0.363   61.929   33.931    0.363   61.929
  190.300   30.063    0.361   83.349   30.063    0.361   83.349
  190.600   31.574    0.343  109.104   31.574    0.343  109.104
  190.900   33.085    0.344  148.209   33.085    0.344  148.209
  191.200   33.700    0.345  180.144   33.700    0.345  180.144
  191.500   34.611    0.343  207.121   34.611    0.343  207.121
  191.800   35.226    0.337  196.031   35.226    0.337  196.031
  192.100   36.139    0.328   97.899   36.139    0.328   97.899
  192.400   35.259    0.298   62.784   35.259    0.298   62.784
  192.700   37.965    0.277   39.163   37.965    0.277   39.163
  193.000   47.544    0.267   30.229   47.544    0.267   30.229
  193.300   52.043    0.297   26.567   52.043    0.297   26.567
  193.600   56.243    0.284   23.785   56.243    0.284   23.785
  193.900   62.533    0.269   21.492   62.533    0.269   21.492
  194.200   59.562    0.296   21.305   59.562    0.296   21.305
  194.500   51.810    0.317   22.535   51.810    0.317   22.535
  194.800   42.564    0.335   24.737   42.564    0.335   24.737
  195.100   38.695    0.343   27.407   38.695    0.343   27.407
  195.400   35.724    0.328   30.364   35.724    0.328   30.364
  195.700   31.557    0.337   33.331   31.557    0.337   33.331
  196.000   28.885    0.356   36.587   28.885    0.356   36.587
  196.300   30.992    0.359   40.913   30.992    0.359   40.913
  196.600   31.010    0.349   47.040   31.010    0.349   47.040
  196.900   29.532    0.343   55.096   29.532    0.343   55.096
  197.200   30.445    0.343   42.527   30.445    0.343   42.527
