~VERSION INFORMATION
 VERS.                 2.0:   CWLS LOG ASCII STANDARD -VERSION 2.0
 WRAP.                  NO:   ONE LINE PER DEPTH STEP
~WELL INFORMATION BLOCK
#MNEM.UNIT           DATA                    DESCRIPTION OF MNEMONIC
#---------    -------------------            -------------------------------
# Generated from Intellog Unique Number	CN_91_93/WELL/3588
WELL.         AOSTRA                         : Well_name    - WELL
LOC .         AB/01-23-093-13W4/0            : Location     - LOCATION
UWI .         AB/01-23-093-13W400            : Uwi          - UNIQUE WELL ID
ENTR.         JOETTE                         : Entered      - ENTERED BY
SRVC.         COMPUTALOG                     : Scn          - SERVICE COMPANY
DATE.         03/18/92                       : Date         - LOG DATE
STRT.M        0                              : top_depth    - START DEPTH
STOP.M        155                            : bot_depth    - STOP DEPTH
STEP.M        0.25                           : increment    - STEP LENGTH
 NULL. -999.2500:NULL Value
~CURVE INFORMATION BLOCK
#MNEM UNIT       ERCB CURVE CODE    CURVE DESCRIPTION
#-----------   ------------------   ----------------------------------
DEPT.M        00 001 00 00         : DEPTH        - DEPTH
GR  .API      00 310 00 00         : GR           - GAMMA RAY
CALI.MM       00 280 01 00         : CAL          - CALIPER
DPHI.V/V      00 890 00 00         : PHID         - DENSITY POROSITY (SANDSTONE)
ILD .OHMM     00 120 00 00         : RESD         - DEEP RESISTIVITY (DIL)
~PARAMETER INFORMATION
#MNEM.UNIT           DATA             DESCRIPTION OF MNEMONIC
#---------         -----------     ------------------------------
GL  .M        420.86               : gl           - GROUND LEVEL ELEVATION
EREF.M        420.86               : kb           - ELEVATION OF DEPTH REFERENCE
DATM.M        420.86               : datum        - DATUM ELEVATION
TDD .M        158.5                : tdd          - TOTAL DEPTH DRILLER
RUN .         ONE                  : Run          - RUN NUMBER
ENG .         JO                   : Engineer     - RECORDING ENGINEER
WIT .         TIM                  : Witness      - WITNESSED BY
MUD .         GEL                  : Mud_type     - MUD TYPE
MATR.         SANDSTONE            : Logunit      - NEUTRON MATRIX
TMAX.C        18                   : BHT          - MAXIMUM RECORDED TEMPERATURE
BHTD.M        158.5                : BHTDEP       - MAXIMUM RECORDED TEMPERATURE
RMT .C        16                   : MDTP         - TEMPERATURE OF MUD
MUDD.KG/M     541.666              : MWT          - MUD DENSITY
NEUT.         1                    : NEUTRON      - NEUTRON TYPE
RESI.         0                    : RESIST       - RESISTIVITY TYPE
RM  .OHMM     5.73                 : RM           - RESISTIVITY OF MUD
RMC .OHMM     5.73                 : RMC          - RESISTIVITY OF MUD CAKE
RMF .OHMM     5.73                 : RMF          - RESISTIVITY OF MUD FILTRATE
SUFT.C        4                    : SUFT         - SURFACE TEMPERATURE
~A  DEPTH       GR      CAL     PHID     RESD
# ...
   87.000   91.128  256.356    0.218   10.453
   87.250   92.931  255.454    0.213   11.051
   87.500   86.526  249.665    0.219   12.122
   87.750   87.744  240.962    0.257   12.819
   88.000   92.490  239.064    0.255   12.826
   88.250  103.101  239.138    0.214   12.372
   88.500  108.412  239.213    0.189   11.930
   88.750   97.316  241.261    0.103   11.721
   89.000   89.151  243.271    0.168   12.621
   89.250   93.312  249.247    0.215   15.460
   89.500   89.241  254.226    0.233   19.647
   89.750  103.392  257.195    0.244   13.117
   90.000  106.346  259.224    0.252   10.525
   90.250  106.391  249.526    0.251    9.091
   90.500   92.949  243.737    0.247    9.264
   90.750  105.894  238.944    0.267    9.271
   91.000  112.400  240.014    0.262    8.618
   91.250  104.822  241.048    0.247    8.161
   91.500   97.233  243.077    0.237    7.870
   91.750  106.084  244.129    0.250    7.592
   92.000  113.752  245.199    0.251    7.457
   92.250  108.530  245.255    0.250    6.932
   92.500  112.082  245.330    0.179    6.211
   92.750   94.536  244.427    0.109    6.812
   93.000   85.198  241.588    0.166   11.620
   93.250  106.961  240.686    0.192   20.189
   93.500  113.445  246.642    0.238   13.729
   93.750  105.280  244.744    0.220    8.673
   94.000  107.671  247.750    0.213    8.521
   94.250  103.611  238.052    0.228    8.370
   94.500  100.724  225.440    0.231    8.688
   94.750  116.623  236.246    0.221   10.071
   95.000  114.322  248.067    0.213   11.676
   95.250  109.665  254.983    0.216    9.899
   95.500  122.609  255.076    0.208    9.377
   95.750  113.870  247.332    0.209    9.554
   96.000  101.003  236.638    0.206    9.917
   96.250  105.153  234.777    0.197   10.295
   96.500  111.647  237.783    0.224   10.886
   96.750  125.190  239.794    0.228   11.940
   97.000  118.784  243.814    0.227   14.626
   97.250  101.813  244.829    0.228   13.598
   97.500   89.544  248.850    0.223   11.322
   97.750   96.039  244.020    0.169   10.919
   98.000  101.372  238.230    0.149   11.128
   98.250  103.763  242.214    0.179   11.764
   98.500  110.257  241.311    0.229   11.141
   98.750  102.093  240.409    0.227    9.981
   99.000  115.647  245.388    0.245    8.780
   99.250  112.162  249.353    0.260    8.625
   99.500   98.123  245.519    0.196    9.121
   99.750   94.649  238.752    0.142   10.769
  100.000   88.244  248.637    0.201   13.195
  100.250  101.786  248.693    0.222   11.820
  100.500   97.151  257.563    0.228   10.398
  100.750  103.635  252.751    0.245   10.214
  101.000  124.800  244.030    0.246    9.851
  101.250  109.002  241.192    0.230    9.327
  101.500   97.905  243.202    0.213    9.163
  101.750  100.296  251.132    0.215    9.168
  102.000   99.179  247.298    0.224    9.174
  102.250  106.846  244.440    0.233    9.181
  102.500  102.200  242.560    0.229    9.357
  102.750   91.690  240.680    0.120    9.363
  103.000   86.458  235.850    0.118    9.540
  103.250   94.125  241.788    0.168   10.274
  103.500   96.515  249.700    0.211   15.407
  103.750   94.801  251.729    0.252   12.139
  104.000  102.480  250.826    0.258   10.293
  104.250   99.006  247.010    0.255    8.412
  104.500  102.569  245.149    0.250    6.507
  104.750   99.096  244.209    0.245    5.831
  105.000   95.036  246.238    0.235    5.623
  105.250  110.913  250.240    0.225    6.168
  105.500  112.728  251.292    0.233    7.417
  105.750  108.081  241.575    0.239    8.758
  106.000  112.231  236.763    0.239    8.603
  106.250   99.375  240.784    0.221    7.709
  106.500   81.818  237.908    0.200    7.858
  106.750   89.485  241.892    0.188    9.277
  107.000  102.441  233.208    0.229   13.409
  107.250  113.041  237.155    0.234    9.814
  107.500   94.908  243.093    0.230    7.875
  107.750   76.189  246.118    0.245    7.456
  108.000   68.600  244.238    0.278    6.681
  108.250   67.483  237.490    0.366    6.809
  108.500   63.998  233.637    0.364    5.565
  108.750   88.682  232.734    0.344    5.080
  109.000   88.151  232.809    0.341    4.723
  109.250   75.285  234.875    0.339    5.086
  109.500   68.879  234.913    0.323    5.377
  109.750   62.474  235.983    0.290    5.380
  110.000   56.069  236.076    0.270    6.590
  110.250   64.323  236.114    0.239    9.015
  110.500   62.608  236.225    0.242   10.645
  110.750   57.962  238.255    0.223   12.114
  111.000   75.023  240.284    0.165   12.809
  111.250   60.408  241.354    0.154   13.296
  111.500   61.626  242.369    0.222   17.530
  111.750  106.832  240.489    0.260    7.667
  112.000   97.495  228.836    0.258    5.310
  112.250   99.299  227.952    0.235    5.412
  112.500   87.030  229.004    0.235    6.047
  112.750   91.179  230.037    0.241    6.162
  113.000   94.753  233.081    0.236    6.167
  113.250   98.903  228.250    0.222    6.170
  113.500  109.502  223.438    0.187    6.288
  113.750   91.956  225.486    0.210    7.424
  114.000  105.487  226.557    0.224    7.030
  114.250  104.370  225.617    0.216    6.535
  114.500  109.106  225.691    0.229    5.964
  114.750  126.155  226.743    0.222    5.752
  115.000  109.781  228.791    0.211    5.755
  115.250  107.481  232.793    0.222    6.087
  115.500   98.144  236.777    0.232    6.555
  115.750   98.775  229.992    0.247    8.484
  116.000   77.113  215.444    0.266    8.972
  116.250   40.205  214.504    0.279    9.313
  116.500   37.318  214.579    0.295   15.314
  116.750   37.374  214.654    0.313   15.897
  117.000   40.350  214.747    0.293   19.470
  117.250   36.302  217.753    0.277   41.408
  117.500   46.304  221.737    0.261   26.161
  117.750   67.469  224.743    0.270   23.441
  118.000   79.838  225.814    0.272   17.157
  118.250   81.056  227.843    0.259   13.516
  118.500   78.180  224.008    0.257   12.112
  118.750   81.145  223.106    0.250   13.046
  119.000   74.740  223.161    0.245   13.294
  119.250   77.130  223.273    0.244   10.667
  119.500   78.348  221.393    0.248   10.871
  119.750   91.304  221.487    0.255   12.374
  120.000   86.082  221.542    0.255   12.154
  120.250   82.011  221.617    0.241   11.939
  120.500   75.020  221.673    0.241   12.625
  120.750   81.514  221.766    0.238   12.402
  121.000   86.250  221.822    0.231   13.357
  121.250   76.338  221.915    0.238   12.882
  121.500   80.476  222.027    0.239   13.130
  121.750   78.186  222.083    0.233   12.432
  122.000   79.990  222.139    0.241   13.387
  122.250   71.815  222.232    0.259   12.676
  122.500   73.618  222.288    0.263   13.404
  122.750   78.952  221.385    0.262   12.011
  123.000   77.835  223.415    0.257   12.699
  123.250   78.455  222.530    0.258   12.944
  123.500   83.777  221.609    0.265   14.729
  123.750   85.581  221.702    0.266   14.205
  124.000   72.139  220.800    0.233   12.496
  124.250   56.938  220.874    0.171   15.591
  124.500   51.706  219.971    0.169   20.556
  124.750   62.891  220.046    0.271   42.928
  125.000   58.245  219.143    0.272   22.987
  125.250   68.269  219.218    0.270   28.676
  125.500   57.748  217.357    0.270   48.019
  125.750   56.034  216.472    0.260   32.058
  126.000   80.717  215.570    0.270   25.255
  126.250   62.584  214.667    0.296   24.360
  126.500   58.525  213.764    0.291   23.933
  126.750   60.328  212.843    0.280   23.503
  127.000   54.510  212.955    0.286   26.264
  127.250   55.727  213.011    0.289   38.668
  127.500   68.097  214.044    0.279   29.362
  127.750   79.282  216.073    0.269   44.848
  128.000   84.605  218.121    0.263   95.399
  128.250   62.954  219.191    0.263   54.975
  128.500   50.098  219.247    0.258   37.378
  128.750   43.693  218.363    0.253   23.614
  129.000   44.910  217.460    0.261   21.552
  129.250   48.485  216.558    0.279   27.901
  129.500   47.943  216.651    0.277   41.077
  129.750   48.563  216.688    0.262   34.196
  130.000   47.435  216.763    0.251   55.195
  130.250   58.632  217.852    0.254   47.670
