~VERSION INFORMATION
 VERS.                 2.0:   CWLS LOG ASCII STANDARD -VERSION 2.0
 WRAP.                  NO:   ONE LINE PER DEPTH STEP
~WELL INFORMATION BLOCK
#MNEM.UNIT           DATA                    DESCRIPTION OF MNEMONIC
#---------    -------------------            -------------------------------
# Generated from Intellog Unique Number	CN_91_93/WELL/3588
WELL.         AOSTRA                         : Well_name    - WELL
LOC .         AB/01-23-093-13W4/0            : Location     - LOCATION
UWI .         AB/01-23-093-13W400            : Uwi          - UNIQUE WELL ID
ENTR.         JOETTE                         : Entered      - ENTERED BY
SRVC.         COMPUTALOG                     : Scn          - SERVICE COMPANY
DATE.         03/18/92                       : Date         - LOG DATE
STRT.M        0                              : top_depth    - START DEPTH
STOP.M        155                            : bot_depth    - STOP DEPTH
STEP.M        0.25                           : increment    - STEP LENGTH
 NULL. -999.2500:NULL Value
~CURVE INFORMATION BLOCK
#MNEM UNIT       ERCB CURVE CODE    CURVE DESCRIPTION
#-----------   ------------------   ----------------------------------
DEPT.M        00 001 00 00         : DEPTH        - DEPTH
GR  .API      00 310 00 00         : GR           - GAMMA RAY
CALI.MM       00 280 01 00         : CAL          - CALIPER
DPHI.V/V      00 890 00 00         : PHID         - DENSITY POROSITY (SANDSTONE)
ILD .OHMM     00 120 00 00         : RESD         - DEEP RESISTIVITY (DIL)
~PARAMETER INFORMATION
#MNEM.UNIT           DATA             DESCRIPTION OF MNEMONIC
#---------         -----------     ------------------------------
GL  .M        420.86               : gl           - GROUND LEVEL ELEVATION
EREF.M        420.86               : kb           - ELEVATION OF DEPTH REFERENCE
DATM.M        420.86               : datum        - DATUM ELEVATION
TDD .M        158.5                : tdd          - TOTAL DEPTH DRILLER
RUN .         ONE                  : Run          - RUN NUMBER
ENG .         JO                   : Engineer     - RECORDING ENGINEER
WIT .         TIM                  : Witness      - WITNESSED BY
MUD .         GEL                  : Mud_type     - MUD TYPE
MATR.         SANDSTONE            : Logunit      - NEUTRON MATRIX
TMAX.C        18                   : BHT          - MAXIMUM RECORDED TEMPERATURE
BHTD.M        158.5                : BHTDEP       - MAXIMUM RECORDED TEMPERATURE
RMT .C        16                   : MDTP         - TEMPERATURE OF MUD
MUDD.KG/M     541.666              : MWT          - MUD DENSITY
NEUT.         1                    : NEUTRON      - NEUTRON TYPE
RESI.         0                    : RESIST       - RESISTIVITY TYPE
RM  .OHMM     5.73                 : RM           - RESISTIVITY OF MUD
RMC .OHMM     5.73                 : RMC          - RESISTIVITY OF MUD CAKE
RMF .OHMM     5.73                 : RMF          - RESISTIVITY OF MUD FILTRATE
SUFT.C        4                    : SUFT         - SURFACE TEMPERATURE
~A  DEPTH       GR      CAL     PHID     RESD
    0.000   65.718  265.803    0.018    1.282
    0.250   62.820  266.836    0.016    1.259
    0.500   61.692  265.971    0.016    1.192
    0.750   71.118  265.087    0.015    1.109
    1.000   72.336  263.188    0.013    1.030
    1.250   56.549  260.312    0.011    0.906
    1.500   60.123  256.496    0.008    0.843
    1.750   56.052  253.639    0.006    0.813
    2.000   62.547  248.827    0.003    0.977
    2.250   56.152  244.992   -0.001    0.960
    2.500   61.474  243.094   -0.006    0.829
    2.750   65.624  247.077   -0.011    0.678
    3.000   64.507  250.084   -0.014    1.114
    3.250   59.263  254.124   -0.019    1.268
    3.500   66.344  256.153   -0.024    1.470
    3.750   65.803  257.223   -0.027    1.704
    4.000   72.895  257.260   -0.036    1.904
    4.250   60.040  257.335   -0.041    2.050
    4.500   59.498  257.447   -0.044    2.334
    4.750   62.475  257.484   -0.041    2.608
    5.000   61.358  257.559   -0.031    2.860
    5.250   65.496  256.693   -0.028    2.759
    5.500   70.232  256.730   -0.022    2.710
    5.750   73.817  255.846   -0.014    3.200
    6.000   69.159  253.966   -0.012    3.143
    6.250   60.995  251.128   -0.009    2.665
    6.500   58.694  253.157   -0.019    1.715
    6.750   65.775  255.149   -0.030    1.302
    7.000   68.752  257.197   -0.026    1.538
    7.250   65.865  257.271   -0.019    1.656
    7.500   60.046  253.437   -0.029    1.627
    7.750   60.091  240.806   -0.055    1.689
    8.000   54.272  242.836   -0.050    1.853
    8.250   59.594  255.615   -0.041    2.033
    8.500   66.100  255.708   -0.042    2.149
    8.750   58.522  259.692   -0.056    2.272
    9.000   66.189  266.645   -0.052    2.403
    9.250   64.475  268.636   -0.041    2.404
    9.500   64.520  272.657   -0.043    2.362
    9.750   63.989  272.713   -0.048    2.236
   10.000   68.736  272.788   -0.033    2.118
   10.250   71.115  271.904   -0.025    2.119
   10.500   62.364  270.964   -0.014    2.281
   10.750   60.661  269.102   -0.003    2.457
   11.000   58.349  265.249    0.053    2.695
   11.250   57.808  259.497    0.089    3.687
   11.500   67.821  256.659    0.164    3.757
   11.750   84.295  254.741    0.275    3.306
   12.000   91.962  252.861    0.392    6.653
   12.250   87.327  253.932    0.420    9.269
   12.500   83.843  257.897    0.373   10.358
   12.750   89.165  262.877    0.335    9.452
   13.000   98.603  259.023    0.320    8.470
   13.250   94.554  249.344    0.335    7.589
   13.500   94.001  250.377    0.344    7.186
   13.750   86.423  256.334    0.325    7.190
   14.000  101.127  250.545    0.313    7.605
   14.250   85.340  262.347    0.315    7.749
   14.500   80.694  275.145    0.297    8.346
   14.750   77.220  272.269    0.390    8.823
   15.000   85.474  264.525    0.401    9.505
   15.250   89.048  261.686    0.362    9.685
   15.500   79.711  262.738    0.337    9.691
   15.750   80.342  263.790    0.340    9.697
   16.000   80.973  263.865    0.330    9.353
   16.250   77.500  262.980    0.301    9.019
   16.500   86.926  262.096    0.294    8.385
   16.750   88.730  258.243    0.286    8.237
   17.000   81.739  254.390    0.278    8.395
   17.250   87.669  257.415    0.281    8.876
   17.500   83.598  258.448    0.297    9.384
   17.750   88.920  260.515    0.302   10.107
   18.000   87.206  260.571    0.274    9.224
   18.250   86.078  258.691    0.275    8.575
   18.500   74.982  254.856    0.288    8.270
   18.750   74.440  249.067    0.290    8.585
   19.000   83.280  249.160    0.278    8.590
   19.250   92.143  250.193    0.278    7.840
   19.500   81.622  252.222    0.290    6.771
   19.750   74.033  255.229    0.276    7.427
   20.000   84.057  260.208    0.293    8.455
   20.250   94.070  262.238    0.312    8.303
   20.500   87.665  261.354    0.297    8.466
   20.750  114.107  261.409    0.291    8.625
   21.000   87.168  259.529    0.304    8.473
   21.250   80.762  256.672    0.317    7.592
   21.500   94.891  252.856    0.331    7.324
   21.750   91.418  250.976    0.336    7.193
   22.000   75.033  251.070    0.338    6.213
   22.250   86.816  251.125    0.326    5.366
   22.500   71.615  250.241    0.326    5.995
   22.750   76.938  250.297    0.324    7.345
   23.000   82.857  250.390    0.309    8.358
   23.250   72.336  250.446    0.322    9.688
   23.500   77.658  251.536    0.314    9.517
   23.750   80.635  251.573    0.245    8.529
   24.000   59.570  252.625    0.167    9.885
   24.250   53.762  254.691    0.209   13.036
   24.500   54.969  292.861    0.324   18.160
   24.750   59.715  276.322    0.366   19.920
   25.000   65.624  246.101    0.289   17.204
   25.250   71.532  244.239    0.291    9.211
   25.500   82.718  245.291    0.287   11.494
   25.750   90.397  248.298    0.292    9.926
   26.000   91.028  250.327    0.285    8.264
   26.250   79.932  249.424    0.295    8.421
   26.500   82.908  245.589    0.319    8.741
   26.750   86.471  239.800    0.339    9.590
   27.000   84.170  234.030    0.350    7.838
   27.250   87.147  238.972    0.329    7.700
   27.500   86.605  249.815    0.324    7.028
   27.750   93.111  247.917    0.332    6.778
   28.000   80.245  241.169    0.338    6.658
   28.250   85.578  242.221    0.328    6.542
   28.500  100.282  245.209    0.310    6.666
   28.750   94.463  251.184    0.287    6.669
   29.000   86.885  252.236    0.266    7.317
   29.250   86.930  249.397    0.290    7.882
   29.500   87.561  248.457    0.321    7.462
   29.750   72.946  245.619    0.325    7.890
   30.000   77.682  244.697    0.311    7.608
   30.250   91.811  244.791    0.280    7.204
   30.500   96.558  246.820    0.279    8.505
   30.750   94.257  247.872    0.301   11.011
   31.000   76.113  247.965    0.300    8.209
   31.250   74.399  248.021    0.304    8.064
   31.500   82.066  250.068    0.329    8.372
   31.750   72.143  252.079    0.330    9.182
   32.000   82.753  253.131    0.320   10.072
   32.250   73.991  253.205    0.315   10.847
   32.500   78.152  253.317    0.319   11.469
   32.750   86.406  253.373    0.314   10.860
   33.000   75.896  253.448    0.210    9.379
   33.250   73.009  253.578    0.163   10.675
   33.500   81.263  252.638    0.258   13.818
   33.750   87.171  251.735    0.321   10.114
   34.000   74.902  251.791    0.305    8.115
   34.250   66.738  251.903    0.297    7.139
   34.500   73.233  252.955    0.285    7.689
   34.750   78.566  254.007    0.314    8.280
   35.000   91.510  256.036    0.298    8.917
   35.250   93.901  257.069    0.275    9.091
   35.500   78.700  259.136    0.237    7.996
   35.750   76.986  260.150    0.204   11.140
   36.000   90.528  262.179    0.196   15.238
   36.250   94.091  262.273    0.304    8.621
   36.500  118.188  260.393    0.279    7.310
   36.750  104.149  255.581    0.265    6.922
   37.000   91.880  259.564    0.295    6.928
   37.250  111.286  270.389    0.310    6.930
   37.500  120.126  268.509    0.290    7.062
   37.750  112.548  259.788    0.297    7.068
   38.000  116.697  253.022    0.336    7.072
   38.250  121.444  250.164    0.424    6.820
   38.500   91.573  248.303    0.395    6.699
   38.750   99.240  256.196    0.326    6.955
   39.000  123.337  269.952    0.268    7.087
   39.250  103.446  271.023    0.236    7.225
   39.500  109.940  270.139    0.276    7.228
   39.750   97.671  269.199    0.273    7.233
   40.000   92.439  271.228    0.276    7.236
   40.250  105.970  275.230    0.320    7.243
   40.500  101.910  276.301    0.361    7.247
   40.750   89.066  274.421    0.268    7.520
   41.000  119.016  269.590    0.269    7.951
   41.250  109.092  266.733    0.282    8.724
   41.500  119.116  269.739    0.249    8.259
   41.750  113.872  267.859    0.277    7.820
   42.000  106.881  265.002    0.306    7.271
   42.250   89.335  262.145    0.316    6.885
   42.500   74.709  258.329    0.295    6.639
   42.750   67.131  256.486    0.295   10.141
   43.000   67.175  256.542    0.306    9.603
   43.250   76.027  256.598    0.311   13.378
