~VERSION INFORMATION
VERS.                2.00:   CWLS LOG ASCII STANDARD -VERSION 2.0
WRAP.                  NO:
~WELL INFORMATION BLOCK
#MNEM.UNIT           DATA                    DESCRIPTION OF MNEMONIC
#---------    -------------------            -------------------------------
# Generated from Intellog Unique Number	nealta/WELL/1061
LOC .         03-12-096-10W4                 : Location     - LOCATION          
UWI .         AB/03-12-096-10W400            : Uwi          - UNIQUE WELL ID    
ENTR.         MAX                            : Entered      - ENTERED BY        
STRT.M            70.0000                    :
STOP.M           415.0000                    :
STEP.M             0.2500                    :
NULL.           -999.2500                    :
COMP.  SHELL CANADA                          :COMPANY
WELL.  ALSANDS 5021                          :WELL
FLD.                                         :FIELD
LOC.   03-12-096-10W4                        :LOCATION
CTRY.  CANADA                                :COUNTRY
PROV.  ALBERTA                               :PROVINCE
SRVC.  SCHLUMBERGER                          :SERVICE COMPANY
DATE.  11 MAR 80                             :LOG DATE
UWI.      AB/03-12-096-10W4/0                :UNIQUE WELL ID
~Curve Information Block
#MNEM UNIT       ERCB CURVE CODE    CURVE DESCRIPTION
#MNEM.UNIT        API CODE    Curve Description
#---------    ------------    -------------------------------------------
DEPT.M                    :   DEPTH
DPHI.V/V      00 890 00 00:   PHID         - DENSITY POROSITY (LIMESTONE)
GR  .API      00 310 00 00:   GR           - GAMMA RAY
NPHI.V/V      00 330 00 00:   PHIN         - NEUTRON POROSITY (LIMESTONE)
~PARAMETER INFORMATION       
#MNEM.UNIT           DATA             DESCRIPTION OF MNEMONIC
#---------         -----------     ------------------------------
GL  .M        299                  : gl           - GROUND LEVEL ELEVATION      
EREF.M        10                   : kb           - ELEVATION OF DEPTH REFERENCE
DATM.M        10                   : datum        - DATUM ELEVATION             
TDD .M        414.5                : tdd          - TOTAL DEPTH DRILLER         
RUN .         ONE                  : Run          - RUN NUMBER                  
ENG .         BILL                 : Engineer     - RECORDING ENGINEER          
WIT .         JIM                  : Witness      - WITNESSED BY                
MUD .         GEL                  : Mud_type     - MUD TYPE                    
MATR.         LIMESTONE            : Logunit      - NEUTRON MATRIX              
TMAX.C        33                   : BHT          - MAXIMUM RECORDED TEMPERATURE
BHTD.M        414.5                : BHTDEP       - MAXIMUM RECORDED TEMPERATURE
RMT .C        25                   : MDTP         - TEMPERATURE OF MUD          
MUDD.KG/M     1100                 : MWT          - MUD DENSITY                 
NEUT.         1                    : NEUTRON      - NEUTRON TYPE                
RESI.         0                    : RESIST       - RESISTIVITY TYPE            
RM  .OHMM     0.25                 : RM           - RESISTIVITY OF MUD          
RMC .OHMM     0.25                 : RMC          - RESISTIVITY OF MUD CAKE     
RMF .OHMM     0.25                 : RMF          - RESISTIVITY OF MUD FILTRATE 
SUFT.C        4                    : SUFT         - SURFACE TEMPERATURE         
~A  Depth           DPHI          GR        NPHI
# ...
111.0000          0.3059     22.4990      0.3749
111.2500          0.2995     23.8050      0.3860
111.5000          0.2929     23.8330      0.3847
111.7500          0.2945     23.8600      0.3826
112.0000          0.2872     24.5240      0.3945
112.2500          0.2683     25.8230      0.3977
112.5000          0.2770     27.7580      0.4036
112.7500          0.2868     30.3280      0.4086
113.0000          0.2979     29.0920      0.4042
113.2500          0.3072     27.2130      0.3966
113.5000          0.3161     26.6050      0.3862
113.7500          0.3207     28.5400      0.3885
114.0000          0.3179     29.2030      0.3914
114.2500          0.3106     30.5030      0.3857
114.5000          0.3041     31.8020      0.3866
114.7500          0.3044     31.8290      0.3825
115.0000          0.3013     29.9500      0.3752
115.2500          0.2954     28.0710      0.3583
115.5000          0.2952     26.8280      0.3459
115.7500          0.2918     25.5840      0.3483
116.0000          0.2868     23.7120      0.3738
116.2500          0.2803     23.7470      0.3866
116.5000          0.2830     23.7680      0.3881
116.7500          0.2735     23.8030      0.3860
117.0000          0.2539     23.1950      0.3776
117.2500          0.2367     23.2230      0.3660
117.5000          0.2315     24.5220      0.3724
117.7500          0.2296     25.8210      0.3899
118.0000          0.2246     26.4850      0.4004
118.2500          0.2333     27.1550      0.4069
118.5000          0.2327     27.8260      0.3980
118.7500          0.2398     28.4820      0.3776
119.0000          0.2413     29.1460      0.3721
119.2500          0.2309     30.4380      0.3657
119.5000          0.2182     35.5580      0.3549
119.7500          0.1900     43.2140      0.3454
120.0000          0.1553     51.5050      0.3516
120.2500          0.1304     59.1610      0.3588
120.5000          0.1659     70.6300      0.3694
120.7500          0.1630     82.1140      0.3834
121.0000          0.1458     80.8630      0.3980
121.2500          0.1307     73.8990      0.4146
121.5000          0.1171     64.3920      0.4021
121.7500          0.1373     52.3430      0.3694
122.0000          0.1465     53.0060      0.3315
122.2500          0.1458     56.8480      0.2871
122.5000          0.1468     60.6900      0.2588
122.7500          0.1565     65.8100      0.2477
123.0000          0.1530     70.2800      0.2704
123.2500          0.1455     77.3210      0.2984
123.5000          0.1409     76.7060      0.3180
123.7500          0.1378     78.0120      0.3375
124.0000          0.1339     78.6620      0.3628
124.2500          0.1424     78.0540      0.3858
124.5000          0.1466     76.1820      0.3880
124.7500          0.1386     73.6600      0.3743
125.0000          0.1268     69.8810      0.3627
125.2500          0.1119     66.0950      0.3531
125.5000          0.1090     62.3020      0.3382
125.7500          0.1019     56.6160      0.3236
126.0000          0.0985     51.5590      0.2966
126.2500          0.0943     47.7800      0.2664
126.5000          0.0917     43.9930      0.2513
126.7500          0.0997     43.3860      0.2285
127.0000          0.1132     45.9560      0.2045
127.2500          0.1364     48.5270      0.2068
127.5000          0.1402     51.7260      0.2242
127.7500          0.1378     58.7460      0.2380
128.0000          0.1283     59.4160      0.2515
128.2500          0.1167     54.3590      0.2724
128.5000          0.1037     49.3020      0.2868
128.7500          0.0868     44.8800      0.2811
129.0000          0.0768     39.1870      0.2859
129.2500          0.0597     32.8580      0.2807
129.5000          0.0511     29.7220      0.2511
129.7500          0.0419     30.3710      0.2174
130.0000          0.0303     30.3990      0.1749
130.2500          0.0583     29.7910      0.1797
130.5000          0.0699     29.1830      0.1812
130.7500          0.0735     29.2180      0.1824
131.0000          0.0750     28.6110      0.1824
131.2500          0.0820     28.6310      0.1846
131.5000          0.0883     31.2090      0.1835
131.7500          0.0982     31.8720      0.1868
132.0000          0.0987     33.1780      0.1904
132.2500          0.0961     34.4780      0.1917
132.5000          0.0907     35.7770      0.1976
132.7500          0.0854     36.4330      0.2049
133.0000          0.0844     35.1900      0.2135
133.2500          0.0874     33.3180      0.2209
133.5000          0.0809     28.8960      0.2272
133.7500          0.0949     27.6660      0.2154
134.0000          0.0997     28.9520      0.1857
134.2500          0.0988     29.6150      0.1729
134.5000          0.0950     29.0080      0.1665
134.7500          0.0935     28.4070      0.1666
135.0000          0.0933     28.4270      0.1728
135.2500          0.1086     26.5480      0.1749
135.5000          0.1156     25.9410      0.1717
135.7500          0.1071     27.2400      0.1690
136.0000          0.2120     32.3600      0.1651
136.2500          0.1632     36.2090      0.1638
136.5000          0.1358     38.7720      0.1657
136.7500          0.0987     38.8000      0.1817
137.0000          0.0863     40.0990      0.1987
137.2500          0.1273     42.6760      0.2136
137.5000          0.2065     46.5250      0.2365
137.7500          0.2895     49.0890      0.2224
138.0000          0.3575     55.4730      0.2007
138.2500          0.2673     61.2220      0.1715
138.5000          0.2229     68.8770      0.1587
138.7500          0.1862     77.8180      0.1936
139.0000          0.2825     72.1180      0.2224
139.2500          0.3647     63.2470      0.2551
139.5000          0.4208     54.3760      0.3225
139.7500          0.4155     48.6830      0.4018
140.0000          0.4015     53.7960      0.3542
140.2500          0.3869     59.5450      0.2535
140.5000          0.4367     64.6580      0.2196
140.7500          0.4396     68.5070      0.2917
141.0000          0.4426     75.5260      0.3658
141.2500          0.4455     83.8180      0.4199
141.5000          0.4485     91.4740      0.9468
141.7500          0.4368     96.5940      1.0116
142.0000          0.4198     94.0790      0.9955
142.2500          0.3839     91.5640      0.9407
142.5000          0.3037     90.3210      0.6099
142.7500          0.2646     86.5410      0.5507
143.0000          0.2307     84.6550      0.4018
143.2500          0.2112     78.3340      0.3273
143.5000          0.2446     73.9050      0.2905
143.7500          0.3071     67.5760      0.2341
144.0000          0.3422     59.3480      0.2202
144.2500          0.3729     65.0970      0.2557
144.5000          0.3714     72.1090      0.2951
144.7500          0.3817     82.9440      0.3326
145.0000          0.3961     92.5130      0.3700
145.2500          0.4142     93.8190      0.3657
145.5000          0.4061     92.5760      0.3921
145.7500          0.3911     91.3390      0.4145
146.0000          0.3860     90.7180      0.4097
146.2500          0.3843     86.9380      0.3943
146.5000          0.3790     85.0520      0.3958
146.7500          0.3839     85.0800      0.4026
147.0000          0.4015     88.9290      0.3917
147.2500          0.3983     92.7780      0.3812
147.5000          0.3878     95.3550      0.3922
147.7500          0.3761     96.6400      0.4010
148.0000          0.3856     97.3040      0.3932
148.2500          0.3952     92.8820      0.4079
148.5000          0.4048     91.0100      0.4076
148.7500          0.4143     91.0380      0.3831
149.0000          0.4239     90.4300      0.3666
149.2500          0.4335     89.8290      0.4094
149.5000          0.4430     89.8570      0.4307
149.7500          0.4295     89.2490      0.4458
150.0000          0.3959     89.2840      1.0043
150.2500          0.3689     89.9340      0.7751
150.5000          0.2873     89.9620      0.5080
150.7500          0.2275     86.1890      0.4703
151.0000          0.1905     86.2030      0.4623
151.2500          0.1543     86.2380      0.4519
151.5000          0.1078     83.0950      0.4691
151.7500          0.0697     81.2090      0.4489
