~VERSION INFORMATION
 VERS.                 2.0:   CWLS LOG ASCII STANDARD -VERSION 2.0
 WRAP.                  NO:   ONE LINE PER DEPTH STEP
~WELL INFORMATION BLOCK
#MNEM.UNIT           DATA                    DESCRIPTION OF MNEMONIC
#---------    -------------------            -------------------------------
# Generated from Intellog Unique Number	CN_91_93/WELL/2912
WELL.         04-23-092-11W4                 : Well_name    - WELL
LOC .         AB/04-23-092-11W4/0            : Location     - LOCATION
UWI .         AB/04-23-092-11W400            : Uwi          - UNIQUE WELL ID
ENTR.         JOETTE                         : Entered      - ENTERED BY
SRVC.         SCHLUMBERGER                   : Scn          - SERVICE COMPANY
DATE.         03/31/92                       : Date         - LOG DATE
STRT.M        5                              : top_depth    - START DEPTH
STOP.M        80                             : bot_depth    - STOP DEPTH
STEP.M        0.25                           : increment    - STEP LENGTH
 NULL. -999.2500:NULL Value
~CURVE INFORMATION BLOCK
#MNEM UNIT       ERCB CURVE CODE    CURVE DESCRIPTION
#-----------   ------------------   ----------------------------------
DEPT.M        00 001 00 00         : DEPTH        - DEPTH
CALI.MM       00 280 01 00         : CAL          - CALIPER
GR  .API      00 310 00 00         : GR           - GAMMA RAY
NPHI.V/V      00 330 00 00         : PHIN         - NEUTRON POROSITY (SANDSTONE)
DPHI.V/V      00 890 00 00         : PHID         - DENSITY POROSITY (SANDSTONE)
ILD .OHMM     00 120 00 00         : RESD         - DEEP RESISTIVITY (DIL)
~PARAMETER INFORMATION
#MNEM.UNIT           DATA             DESCRIPTION OF MNEMONIC
#---------         -----------     ------------------------------
GL  .M        332.5                : gl           - GROUND LEVEL ELEVATION
EREF.M        332.5                : kb           - ELEVATION OF DEPTH REFERENCE
DATM.M        332.5                : datum        - DATUM ELEVATION
TDD .M        87.5                 : tdd          - TOTAL DEPTH DRILLER
RUN .         ONE                  : Run          - RUN NUMBER
ENG .         JO                   : Engineer     - RECORDING ENGINEER
WIT .         TIM                  : Witness      - WITNESSED BY
MUD .         GEL                  : Mud_type     - MUD TYPE
MATR.         SANDSTONE            : Logunit      - NEUTRON MATRIX
TMAX.C        14                   : BHT          - MAXIMUM RECORDED TEMPERATURE
BHTD.M        87.5                 : BHTDEP       - MAXIMUM RECORDED TEMPERATURE
RMT .C        14                   : MDTP         - TEMPERATURE OF MUD
MUDD.KG/M     9000                 : MWT          - MUD DENSITY
NEUT.         1                    : NEUTRON      - NEUTRON TYPE
RESI.         0                    : RESIST       - RESISTIVITY TYPE
RM  .OHMM     9.5                  : RM           - RESISTIVITY OF MUD
RMC .OHMM     9.5                  : RMC          - RESISTIVITY OF MUD CAKE
RMF .OHMM     9.5                  : RMF          - RESISTIVITY OF MUD FILTRATE
SUFT.C        4                    : SUFT         - SURFACE TEMPERATURE
~A  DEPTH      CAL       GR     PHIN     PHID     RESD
    5.000  125.012   78.040    0.462    0.316    4.365
    5.250  125.236   79.014    0.466    0.302    3.474
    5.500  125.219   84.744    0.451    0.290    2.691
    5.750  125.446   89.679    0.445    0.279    2.389
    6.000  125.423   97.981    0.444    0.237    2.200
    6.250  125.405  105.887    0.441    0.148    2.081
    6.500  125.384  111.020    0.432    0.263    1.513
    6.750  125.111  112.786    0.422    0.270    1.249
    7.000  125.586  105.640    0.416    0.239    3.890
    7.250  126.556  106.415    0.408    0.241    7.282
    7.500  128.271  106.003    0.402    0.260    8.339
    7.750  130.726  101.825    0.389    0.259    8.183
    8.000  132.684   99.034    0.384    0.275    6.879
    8.250  134.151  101.395    0.380    0.274    7.737
    8.500  136.359  105.141    0.373    0.258    8.164
    8.750  139.555  109.682    0.365    0.263    7.724
    9.000  141.022  115.013    0.361    0.266    7.443
    9.250  141.989  114.599    0.360    0.260    6.854
    9.500  142.214  112.208    0.353    0.251    6.786
    9.750  142.196  114.568    0.341    0.235    7.096
   10.000  138.960  109.799    0.346    0.222    7.287
   10.250  137.947   98.293    0.368    0.208    7.415
   10.500  136.936   91.541    0.387    0.145    7.411
   10.750  136.668   95.884    0.401    0.135    7.076
   11.000  133.677  107.949    0.392    0.291    6.339
   11.250  132.913  105.556    0.397    0.337    5.427
   11.500  133.141   99.398    0.406    0.349    4.204
   11.750  131.632   95.222    0.408    0.326    3.632
   12.000  133.095   92.631    0.392    0.314    3.405
   12.250  136.790   94.793    0.398    0.305    3.936
   12.500  138.503   98.936    0.388    0.267    4.153
   12.750  138.978   96.739    0.366    0.252    4.038
   13.000  138.214   98.111    0.367    0.239    5.301
   13.250  138.442  100.071    0.537    0.230    5.345
   13.500  136.441   99.661    0.534    0.220    5.390
   13.750  136.173   95.485    0.477    0.211    5.793
   14.000  137.638   88.141    0.471    0.188    6.575
   14.250  137.862   82.577    0.474    0.170    6.510
   14.500  136.849   74.837    0.442    0.131    5.887
   14.750  136.826   73.234    0.421    0.256    4.436
   15.000  136.808   72.423    0.610    0.330    3.564
   15.250  136.543   73.199    0.635    0.329    2.863
   15.500  136.517   75.361    0.631    0.347    2.451
   15.750  136.502   77.129    0.631    0.367    2.098
   16.000  136.724   78.894    0.630    0.360    1.949
   16.250  136.953   77.097    0.613    0.345    2.076
   16.500  137.673   76.484    0.605    0.338    2.356
   16.750  137.903   79.441    0.603    0.295    2.674
   17.000  137.882   81.009    0.554    0.240    3.035
   17.250  137.859   80.394    0.515    0.246    3.604
   17.500  138.332   82.358    0.528    0.252    3.839
   17.750  138.559   82.934    0.535    0.258    4.052
   18.000  138.543   81.734    0.502    0.237    4.434
   18.250  138.518   77.754    0.492    0.225    4.853
   18.500  138.253   82.295    0.486    0.226    5.558
   18.750  137.489   84.257    0.472    0.222    5.404
   19.000  135.486   81.668    0.468    0.186    5.114
   19.250  133.732   82.246    0.462    0.129    4.623
   19.500  132.722   89.162    0.523    0.171    4.104
   19.750  131.706   90.136    0.550    0.269    3.745
   20.000  130.945   91.704    0.531    0.263    3.386
   20.250  130.182   92.282    0.549    0.277    3.146
   20.500  129.664   93.254    0.564    0.282    2.896
   20.750  129.646   95.612    0.576    0.288    2.791
   21.000  129.873   94.409    0.551    0.273    2.713
   21.250  129.855   93.995    0.541    0.269    2.736
   21.500  129.832   96.751    0.555    0.273    2.888
   21.750  129.809   95.549    0.562    0.281    3.160
   22.000  129.296   97.513    0.561    0.266    3.427
   22.250  128.033   95.516    0.532    0.249    3.617
   22.500  127.770   90.744    0.507    0.231    3.581
   22.750  127.750   87.555    0.519    0.244    3.884
   23.000  127.482   85.364    0.546    0.222    4.136
   23.250  127.206   82.773    0.552    0.189    3.914
   23.500  126.446   88.496    0.496    0.160    3.806
   23.750  125.930   91.058    0.481    0.237    3.734
   24.000  125.662   94.805    0.525    0.271    3.631
   24.250  125.642   96.373    0.551    0.253    3.467
   24.500  125.619   90.413    0.547    0.236    4.156
   24.750  125.603   85.842    0.517    0.253    4.507
   25.000  125.823   78.693    0.489    0.240    4.843
   25.250  125.807   76.892    0.461    0.230    5.253
   25.500  126.035   75.688    0.444    0.229    6.182
   25.750  126.014   73.493    0.440    0.214    7.211
   26.000  125.499   70.109    0.445    0.189    8.259
   26.250  124.488   65.340    0.444    0.080    9.990
   26.500  124.467   61.164    0.297    0.024   10.934
   26.750  124.689   68.672    0.291    0.058   10.729
   27.000  124.424   71.826    0.360    0.107    9.788
   27.250  123.658   78.742    0.408    0.179    8.611
   27.500  122.400   83.083    0.431    0.190    7.645
   27.750  121.887   83.659    0.438    0.209    7.039
   28.000  121.867   85.427    0.434    0.225    7.097
   28.250  122.091   83.430    0.423    0.225    7.559
   28.500  122.068   71.132    0.423    0.220    7.559
   28.750  122.048   64.976    0.447    0.205    7.827
   29.000  121.782   60.798    0.428    0.214    8.722
   29.250  121.762   58.998    0.406    0.231    9.289
   29.500  121.739   58.981    0.390    0.242   10.260
   29.750  121.718   58.175    0.399    0.244   11.433
   30.000  121.695   55.584    0.399    0.251   11.433
   30.250  121.678   58.934    0.375    0.252   12.165
   30.500  121.657   60.304    0.393    0.256   13.317
   30.750  122.624   58.105    0.399    0.255   14.180
   31.000  124.089   60.270    0.399    0.258   14.561
   31.250  125.059   57.084    0.404    0.246   14.553
   31.500  125.286   52.711    0.392    0.239   14.541
   31.750  123.288   48.929    0.361    0.248   14.399
   32.000  121.039   47.329    0.362    0.263   14.259
   32.250  119.526   50.479    0.362    0.257   14.378
   32.500  119.261   49.472    0.373    0.250   14.766
   32.750  118.995   46.685    0.410    0.263   15.163
   33.000  118.970   39.735    0.419    0.257   16.294
   33.250  119.199   33.183    0.399    0.256   17.195
   33.500  119.179   30.592    0.407    0.260   17.819
   33.750  118.911   30.175    0.414    0.294   18.633
   34.000  118.395   29.169    0.415    0.303   20.026
   34.250  118.372   28.956    0.406    0.314   17.941
   34.500  118.354   32.505    0.398    0.292   16.075
   34.750  118.086   42.191    0.376    0.253   14.534
   35.000  117.818   44.160    0.351    0.260   13.504
   35.250  117.548   55.234    0.359    0.238   12.206
   35.500  117.275   67.894    0.370    0.207   11.550
   35.750  117.014   68.472    0.368    0.206   11.232
   36.000  116.496   65.682    0.377    0.226   11.121
   36.250  115.981   66.854    0.375    0.216   11.525
   36.500  115.713   69.413    0.383    0.224   11.835
   36.750  115.690   72.367    0.382    0.209   11.718
   37.000  116.910   74.133    0.384    0.205   11.090
   37.250  121.098   81.247    0.386    0.209    9.845
   37.500  126.772   88.363    0.385    0.199    8.820
   37.750  125.266   79.036    0.413    0.209    9.392
   38.000  119.056   69.511    0.458    0.223   10.186
   38.250  117.548   67.910    0.463    0.233   10.273
   38.500  120.496   77.400    0.409    0.204   10.079
   38.750  121.218   79.563    0.389    0.216   10.073
   39.000  120.947   77.170    0.399    0.211   10.534
   39.250  119.939   76.357    0.397    0.185   11.013
   39.500  118.683   73.966    0.405    0.198   10.906
   39.750  118.168   71.179    0.412    0.224   10.799
   40.000  119.135   71.160    0.395    0.232   10.792
   40.250  121.093   76.096    0.401    0.207   10.980
   40.500  122.058   64.196    0.416    0.206   10.974
   40.750  122.045   49.917    0.414    0.227   11.064
   41.000  122.022   47.326    0.405    0.231   11.261
   41.250  121.756   58.401    0.385    0.238   11.458
