~VERSION INFORMATION
 VERS.                 2.0:   CWLS LOG ASCII STANDARD -VERSION 2.0
 WRAP.                  NO:   ONE LINE PER DEPTH STEP
~WELL INFORMATION BLOCK
#MNEM.UNIT           DATA                    DESCRIPTION OF MNEMONIC
#---------    -------------------            -------------------------------
# Generated from Intellog Unique Number	CN_94_101/WELL/2456
WELL.         SYNCRUDE CANADA LTD.           : Well_name    - WELL
LOC .         AB/07-11-094-11W4/0            : Location     - LOCATION
UWI .         AB/07-11-094-11W400            : Uwi          - UNIQUE WELL ID
ENTR.         JOETTE                         : Entered      - ENTERED BY
SRVC.         SCHLUMBERGER                   : Scn          - SERVICE COMPANY
DATE.         05\15\92                       : Date         - LOG DATE
STRT.F        20                             : top_depth    - START DEPTH
STOP.F        139.751                        : bot_depth    - STOP DEPTH
STEP.F        0.8202                         : increment    - STEP LENGTH
 NULL. -999.2500:NULL Value
~CURVE INFORMATION BLOCK
#MNEM UNIT       ERCB CURVE CODE    CURVE DESCRIPTION
#-----------   ------------------   ----------------------------------
DEPT.F        00 001 00 00         : DEPTH        - DEPTH
CALI.IN       00 280 01 00         : CAL          - CALIPER
GR  .API      00 310 00 00         : GR           - GAMMA RAY
NPHI.V/V      00 330 00 00         : PHIN         - NEUTRON POROSITY (SANDSTONE)
DPHI.V/V      00 890 00 00         : PHID         - DENSITY POROSITY (SANDSTONE)
ILD .OHMM     00 120 00 00         : RESD         - DEEP RESISTIVITY (DIL)
~PARAMETER INFORMATION
#MNEM.UNIT           DATA             DESCRIPTION OF MNEMONIC
#---------         -----------     ------------------------------
GL  .F        292                  : gl           - GROUND LEVEL ELEVATION
EREF.F        292                  : kb           - ELEVATION OF DEPTH REFERENCE
DATM.F        292                  : datum        - DATUM ELEVATION
TDD .F        145                  : tdd          - TOTAL DEPTH DRILLER
RUN .         ONE                  : Run          - RUN NUMBER
ENG .         JO                   : Engineer     - RECORDING ENGINEER
WIT .         TIM                  : Witness      - WITNESSED BY
MUD .         GEL                  : Mud_type     - MUD TYPE
MATR.         SANDSTONE            : Logunit      - NEUTRON MATRIX
TMAX.F        10                   : BHT          - MAXIMUM RECORDED TEMPERATURE
BHTD.F        145                  : BHTDEP       - MAXIMUM RECORDED TEMPERATURE
RMT .F        10                   : MDTP         - TEMPERATURE OF MUD
MUDD.LB/G     1.06                 : MWT          - MUD DENSITY
NEUT.         1                    : NEUTRON      - NEUTRON TYPE
RESI.         0                    : RESIST       - RESISTIVITY TYPE
RM  .OHMM     7.7                  : RM           - RESISTIVITY OF MUD
RMC .OHMM     7.7                  : RMC          - RESISTIVITY OF MUD CAKE
RMF .OHMM     7.7                  : RMF          - RESISTIVITY OF MUD FILTRATE
SUFT.F        39.2                 : SUFT         - SURFACE TEMPERATURE
~A  DEPTH      CAL       GR     PHIN     PHID     RESD
   20.000    6.713   76.259    0.433    0.203    1.000
   20.820    6.715   79.548    0.428    0.289 1389.790
   21.640    6.717   79.570    0.426    0.301 1468.900
   22.461    6.639   82.859    0.424    0.290 1444.980
   23.281    6.478   88.182    0.422    0.304 1420.930
   24.101    6.399   89.835    0.428    0.311 1421.950
   24.921    6.564   88.231    0.435    0.311 1348.750
   25.741    6.770   86.617    0.433    0.310 1233.110
   26.562    6.936   87.862    0.434    0.314 1107.040
   27.382    6.979   91.146    0.440    0.314  975.913
   28.202    7.063   96.473    0.440    0.318  814.571
   29.022    7.064   92.831    0.437    0.317  472.153
   29.843    7.108   90.401    0.437    0.318  136.974
   30.663    7.111   88.385    0.444    0.321  106.295
   31.483    7.113   85.966    0.452    0.312  116.681
   32.303    7.114   83.944    0.456    0.316   88.849
   33.123    7.118   76.219    0.455    0.327   61.811
   33.944    7.119   69.321    0.427    0.334   69.073
   34.764    7.122   71.376    0.412    0.329   75.768
   35.584    7.125   73.029    0.433    0.304   75.877
   36.404    7.127   67.338    0.438    0.311   84.760
   37.224    7.129   59.613    0.424    0.335  107.599
   38.045    7.130   58.412    0.413    0.348  120.197
   38.865    7.092   63.739    0.428    0.336   79.173
   39.685    7.096   67.844    0.440    0.311  122.802
   40.505    7.056   65.833    0.445    0.320  137.180
   41.325    7.059   65.844    0.431    0.331  120.932
   42.146    7.020   72.802    0.421    0.319   90.489
   42.966    6.981   82.610    0.423    0.273   81.237
   43.786    6.942   95.276    0.429    0.237  119.347
   44.606    6.904  103.453    0.447    0.229  128.505
   45.426    6.826  114.488    0.447    0.232  146.189
   46.247    6.827  117.772    0.408    0.238   96.294
   47.067    6.790  110.863    0.397    0.250  109.585
   47.887    6.791  101.507    0.391    0.264  124.665
   48.707    6.793   96.637    0.404    0.275   33.018
   49.528    6.796   91.766    0.407    0.284   28.076
   50.348    6.799   87.309    0.409    0.287   30.241
   51.168    6.800   85.287    0.404    0.277   28.146
   51.988    6.802   84.906    0.399    0.265   30.874
   52.808    6.805   88.598    0.406    0.275   47.888
   53.629    6.807   89.843    0.404    0.288   54.478
   54.449    6.810   89.457    0.397    0.281   53.591
   55.269    6.812   89.479    0.395    0.271   56.703
   56.089    6.814   92.768    0.400    0.275   50.887
   56.910    6.777   93.203    0.405    0.276   48.250
   57.730    6.737   91.594    0.408    0.276   55.899
   58.550    6.740   90.801    0.403    0.266   50.202
   59.370    6.702   92.454    0.426    0.258   37.551
   60.190    6.703   94.928    0.418    0.258   52.233
   61.011    6.706   95.357    0.401    0.264   55.265
   61.831    6.708   97.005    0.406    0.265   52.364
   62.651    6.710   98.255    0.422    0.260   49.686
   63.471    6.713   98.277    0.411    0.264   47.960
   64.291    6.715   99.115    0.396    0.265   37.903
   65.112    6.717  102.398    0.386    0.255   40.089
   65.932    6.719  106.095    0.415    0.254   42.416
   66.752    6.722  106.519    0.426    0.259   42.492
   67.572    6.725  102.470    0.426    0.261   45.753
   68.392    6.726   98.828    0.418    0.260   53.006
   69.213    6.729   95.990    0.435    0.260   48.462
   70.033    6.691   91.935    0.451    0.264   36.955
   70.853    6.692   84.618    0.445    0.268   38.367
   71.673    6.695   73.626    0.445    0.311   39.848
   72.493    6.698   58.563    0.433    0.344   45.348
   73.314    6.700   49.615    0.411    0.357   42.222
   74.134    6.701   39.852    0.425    0.363   48.015
   74.954    6.704   37.433    0.417    0.365  115.350
   75.774    6.706   38.672    0.429    0.359  351.022
   76.594    6.791   42.777    0.453    0.346 1088.220
   77.415    6.874   43.207    0.461    0.341 1307.510
   78.235    6.999   39.967    0.448    0.336  576.689
   79.055    7.082   37.543    0.431    0.332  547.002
   79.875    7.207   35.532    0.415    0.329  803.318
   80.695    7.251   36.369    0.402    0.332  913.541
   81.516    7.294   40.060    0.403    0.328 1181.010
   82.336    7.295   43.344    0.415    0.340 1295.470
   83.156    7.299   47.851    0.404    0.350 1297.800
   83.976    7.300   51.135    0.408    0.345 1323.550
   84.797    7.302   51.162    0.420    0.345 1374.630
   85.617    7.305   50.369    0.415    0.351 1303.390
   86.437    7.307   49.575    0.411    0.349  756.032
   87.257    7.310   52.043    0.413    0.343  860.075
   88.077    7.311   56.561    0.421    0.340 1052.010
   88.898    7.314   54.952    0.417    0.346 1335.470
   89.718    7.316   53.338    0.409    0.346 1387.000
   90.538    7.319   52.952    0.400    0.343 1339.780
   91.358    7.321   54.605    0.439    0.333 1391.490
   92.178    7.242   54.627    0.447    0.329 1393.480
   92.999    7.163   53.844    0.442    0.334 1228.870
   93.819    7.124   53.051    0.428    0.332 1102.840
   94.639    7.126   53.073    0.423    0.341  855.830
   95.459    7.089   55.128    0.425    0.347  905.194
   96.279    7.049   57.194    0.419    0.351 1510.130
   97.100    7.052   58.847    0.412    0.358 1406.530
   97.920    7.054   64.577    0.417    0.357 1382.630
   98.740    7.056   68.676    0.423    0.348 1360.110
   99.560    7.099   69.524    0.422    0.345 1412.600
  100.381    7.061   72.802    0.421    0.346 1339.400
  101.201    7.064   75.684    0.424    0.345 1202.460
  102.021    7.065   72.847    0.427    0.347 1319.000
  102.841    7.109   68.389    0.413    0.343  649.172
  103.661    7.111   72.080    0.404    0.343  476.814
  104.482    7.072   75.772    0.401    0.348  452.268
  105.302    7.033   77.425    0.392    0.348  314.524
  106.122    7.036   76.631    0.397    0.339  320.995
  106.942    6.998   75.028    0.404    0.336  479.901
  107.762    7.000   72.190    0.411    0.336  555.979
  108.583    7.002   63.650    0.411    0.331  680.294
  109.403    7.004   54.295    0.411    0.326  645.042
  110.223    7.006   57.584    0.409    0.326  500.570
  111.043    7.009   60.058    0.405    0.332  590.795
  111.864    7.012   60.482    0.409    0.338  540.142
  112.684    7.013   59.688    0.421    0.343  450.844
  113.504    7.016   54.818    0.410    0.346  808.984
  114.324    7.018   51.578    0.404    0.351 1104.180
  115.144    7.021   53.231    0.417    0.345 1453.700
  115.965    7.023   54.889    0.422    0.356 1258.390
  116.785    6.985   53.694    0.409    0.352 1150.910
  117.605    6.987   53.715    0.401    0.345 1308.830
  118.425    6.989   55.770    0.415    0.346 1384.320
  119.245    6.992   57.837    0.416    0.347 1134.600
  120.066    6.994   56.233    0.405    0.339 1157.530
  120.886    6.996   57.880    0.420    0.345 1097.550
  121.706    6.998   62.795    0.406    0.351 1248.590
  122.526    7.041   63.225    0.415    0.341  951.451
  123.346    7.084   60.398    0.425    0.345  593.386
  124.167    7.086   53.483    0.426    0.344  840.262
  124.987    7.090    9.059    0.411    0.331 1085.890
  125.807    7.091    4.199    0.397    0.328 1127.790
  126.627    7.093    4.618    0.378    0.335  859.397
  127.448    7.055    5.059    0.356    0.373  507.473
  128.268    7.017    5.081    0.333    0.397  352.915
  129.088    6.979    5.097    0.266    0.426  204.635
  129.908    6.940    5.119    0.206    0.461  317.515
  130.728    6.901    5.147    0.180    0.505  104.601
  131.549    6.863    5.169    0.152    0.353   52.409
  132.369    6.784    5.201    0.147    0.306   33.898
  133.189    6.744    5.212    0.153    0.141   25.831
  134.009    6.706    5.234    0.135    0.128   29.386
  134.829    6.668    5.256    0.147    0.153   24.528
  135.650    6.711    5.284    0.138    0.138   15.021
  136.470    6.795    5.311    0.108    0.096   12.089
  137.290    6.797    5.741    0.091    0.109   18.751
  138.110    6.799    5.763    0.337    0.072   15.091
  138.930    6.802    5.790    0.324    0.055   26.101
