~VERSION INFORMATION
VERS.                2.00:   CWLS LOG ASCII STANDARD -VERSION 2.0
WRAP.                  NO:
~WELL INFORMATION BLOCK
#MNEM.UNIT           DATA                    DESCRIPTION OF MNEMONIC
#---------    -------------------            -------------------------------
# Generated from Intellog Unique Number	nealta/WELL/1061
LOC .         03-12-096-10W4                 : Location     - LOCATION          
UWI .         AB/03-12-096-10W400            : Uwi          - UNIQUE WELL ID    
ENTR.         MAX                            : Entered      - ENTERED BY        
STRT.M            70.0000                    :
STOP.M           415.0000                    :
STEP.M             0.2500                    :
NULL.           -999.2500                    :
COMP.  SHELL CANADA                          :COMPANY
WELL.  ALSANDS 5021                          :WELL
FLD.                                         :FIELD
LOC.   03-12-096-10W4                        :LOCATION
CTRY.  CANADA                                :COUNTRY
PROV.  ALBERTA                               :PROVINCE
SRVC.  SCHLUMBERGER                          :SERVICE COMPANY
DATE.  11 MAR 80                             :LOG DATE
UWI.      AB/03-12-096-10W4/0                :UNIQUE WELL ID
~Curve Information Block
#MNEM UNIT       ERCB CURVE CODE    CURVE DESCRIPTION
#MNEM.UNIT        API CODE    Curve Description
#---------    ------------    -------------------------------------------
DEPT.M                    :   DEPTH
DPHI.V/V      00 890 00 00:   PHID         - DENSITY POROSITY (LIMESTONE)
GR  .API      00 310 00 00:   GR           - GAMMA RAY
NPHI.V/V      00 330 00 00:   PHIN         - NEUTRON POROSITY (LIMESTONE)
~PARAMETER INFORMATION       
#MNEM.UNIT           DATA             DESCRIPTION OF MNEMONIC
#---------         -----------     ------------------------------
GL  .M        299                  : gl           - GROUND LEVEL ELEVATION      
EREF.M        10                   : kb           - ELEVATION OF DEPTH REFERENCE
DATM.M        10                   : datum        - DATUM ELEVATION             
TDD .M        414.5                : tdd          - TOTAL DEPTH DRILLER         
RUN .         ONE                  : Run          - RUN NUMBER                  
ENG .         BILL                 : Engineer     - RECORDING ENGINEER          
WIT .         JIM                  : Witness      - WITNESSED BY                
MUD .         GEL                  : Mud_type     - MUD TYPE                    
MATR.         LIMESTONE            : Logunit      - NEUTRON MATRIX              
TMAX.C        33                   : BHT          - MAXIMUM RECORDED TEMPERATURE
BHTD.M        414.5                : BHTDEP       - MAXIMUM RECORDED TEMPERATURE
RMT .C        25                   : MDTP         - TEMPERATURE OF MUD          
MUDD.KG/M     1100                 : MWT          - MUD DENSITY                 
NEUT.         1                    : NEUTRON      - NEUTRON TYPE                
RESI.         0                    : RESIST       - RESISTIVITY TYPE            
RM  .OHMM     0.25                 : RM           - RESISTIVITY OF MUD          
RMC .OHMM     0.25                 : RMC          - RESISTIVITY OF MUD CAKE     
RMF .OHMM     0.25                 : RMF          - RESISTIVITY OF MUD FILTRATE 
SUFT.C        4                    : SUFT         - SURFACE TEMPERATURE         
~A  Depth           DPHI          GR        NPHI
# ...
316.0000          0.0531    209.3630      0.0118
316.2500          0.0549    233.5600      0.0107
316.5000          0.0578    245.0290      0.0140
316.7500          0.0614    259.6910      0.0165
317.0000          0.0650    271.1540      0.0177
317.2500          0.0711    273.0820      0.0188
317.5000          0.0759    278.1950      0.0139
317.7500          0.0817    285.8640      0.0112
318.0000          0.0869    288.4350      0.0097
318.2500          0.0929    283.3710      0.0106
318.5000          0.0943    258.6010      0.0117
318.7500          0.0843    236.3810      0.0149
319.0000          0.0902    151.8600      0.0184
319.2500          0.0788    133.4540      0.0241
319.5000          0.0724    126.4900      0.0230
319.7500          0.0626    139.2380      0.0196
320.0000          0.0697    141.8010      0.0189
320.2500          0.0707    157.7340      0.0205
320.5000          0.0739    171.1040      0.0235
320.7500          0.0743    187.0230      0.0267
321.0000          0.0698    202.3130      0.0292
321.2500          0.0680    211.8760      0.0316
321.5000          0.0677    220.8030      0.0296
321.7500          0.0753    235.4510      0.0271
322.0000          0.0816    246.2920      0.0244
322.2500          0.0887    253.3120      0.0194
322.5000          0.0938    258.4250      0.0153
322.7500          0.0977    254.6390      0.0149
323.0000          0.0857    238.7750      0.0136
323.2500          0.0844    177.1380      0.0134
323.5000          0.0952    168.9020      0.0121
323.7500          0.0975    146.6890      0.0156
324.0000          0.0931    137.8110      0.0145
324.2500          0.0891    125.7620      0.0142
324.5000          0.0921    115.6190      0.0140
324.7500          0.0957    107.3830      0.0139
325.0000          0.0838     64.7430      0.0129
325.2500          0.0689     49.2180      0.0117
325.5000          0.0564     23.1030      0.0111
325.7500          0.0512     10.6890      0.0109
326.0000          0.0468      6.9880      0.0108
326.2500          0.0430      9.5200      0.0096
326.5000          0.0425     10.7980      0.0093
326.7500          0.0435      8.9640      0.0091
327.0000          0.0545     12.7320      0.0090
327.2500          0.0568     17.1220      0.0089
327.5000          0.0512     23.3800      0.0088
327.7500          0.0411     29.0230      0.0086
328.0000          0.0428     27.1890      0.0085
328.2500          0.0475     18.5010      0.0096
328.5000          0.0504     18.5510      0.0095
328.7500          0.0524     22.9420      0.0094
329.0000          0.0582     35.4140      0.0093
329.2500          0.0654     42.3020      0.0091
329.5000          0.0760     48.5680      0.0103
329.7500          0.0688     48.6010      0.0091
330.0000          0.0658     48.6350      0.0078
330.2500          0.0679     53.6390      0.0075
330.5000          0.0642     50.5600      0.0062
330.7500          0.0640     42.5030      0.0042
331.0000          0.0601     36.3210      0.0035
331.2500          0.0620     36.9860      0.0042
331.5000          0.0661     38.8780      0.0042
331.7500          0.0684     40.7870      0.0052
332.0000          0.0683     39.5750      0.0063
332.2500          0.0712     41.4760      0.0053
332.5000          0.0707     45.2360      0.0050
332.7500          0.0721     51.4930      0.0060
333.0000          0.0716     57.1440      0.0071
333.2500          0.0725     55.3020      0.0083
333.5000          0.0683     48.4900      0.0083
333.7500          0.0621     43.5440      0.0082
334.0000          0.0644     41.7110      0.0071
334.2500          0.0624     44.2340      0.0079
334.5000          0.0598     60.4570      0.0090
334.7500          0.0605     81.0290      0.0089
335.0000          0.0593     89.7840      0.0098
335.2500          0.0625     86.7060      0.0099
335.5000          0.0704     84.2500      0.0098
335.7500          0.0701     89.8850      0.0087
336.0000          0.0677     98.6310      0.0094
336.2500          0.0626     93.0630      0.0102
336.5000          0.0586     55.7460      0.0111
336.7500          0.0496     40.8430      0.0126
337.0000          0.0484     32.7850      0.0128
337.2500          0.0601     25.3510      0.0127
337.5000          0.0687     22.2720      0.0135
337.7500          0.0678     19.1940      0.0158
338.0000          0.0627     15.5020      0.0182
338.2500          0.0553     16.1490      0.0217
338.5000          0.0549     23.0370      0.0264
338.7500          0.0526     27.4270      0.0291
339.0000          0.0696     25.5930      0.0294
339.2500          0.0732     10.0680      0.0237
339.5000          0.0653      3.8770      0.0184
339.7500          0.0643      0.7990      0.0155
340.0000          0.0609      0.8410      0.0128
340.2500          0.0559      0.2520      0.0125
340.5000          0.0484      2.1440      0.0111
340.7500          0.0519     25.2140      0.0110
341.0000          0.0477     37.0730      0.0108
341.2500          0.0460     42.7070      0.0097
341.5000          0.0536     42.1190      0.0093
341.7500          0.0559     44.6500      0.0077
342.0000          0.0555     49.0400      0.0067
342.2500          0.0518     47.2150      0.0065
342.5000          0.0443     46.0040      0.0081
342.7500          0.0497     46.6510      0.0107
343.0000          0.0580     51.0410      0.0121
343.2500          0.0525     58.5510      0.0100
343.5000          0.0521     63.5640      0.0107
343.7500          0.0471     71.6880      0.0116
344.0000          0.0542     79.1900      0.0118
344.2500          0.0505     78.6180      0.0117
344.5000          0.0400     73.6640      0.0116
344.7500          0.0380     48.1720      0.0126
345.0000          0.0458     33.2690      0.0137
345.2500          0.0552     31.4440      0.0126
345.5000          0.0549     45.1690      0.0135
345.7500          0.0556     39.5930      0.0181
346.0000          0.0516     30.9130      0.0230
346.2500          0.0497     25.9760      0.0221
346.5000          0.0546     40.9470      0.0200
346.7500          0.0563     45.3370      0.0181
347.0000          0.0607     57.8180      0.0191
347.2500          0.0715     59.7270      0.0286
347.5000          0.0671     49.1800      0.0337
347.7500          0.0586     44.8570      0.0326
348.0000          0.0563     59.8270      0.0263
348.2500          0.0456     67.3290      0.0200
348.5000          0.0313     72.3420      0.0155
348.7500          0.0231     71.7610      0.0139
349.0000          0.0575     69.9280      0.0124
349.2500          0.0780     66.8740      0.0110
349.5000          0.0883     66.2600      0.0093
349.7500          0.0919     66.9250      0.0090
350.0000          0.0881     75.0410      0.0089
350.2500          0.0808     83.1730      0.0087
350.5000          0.0763     89.4310      0.0086
350.7500          0.0781     88.8420      0.0094
351.0000          0.0747     82.6600      0.0107
351.2500          0.0778     81.4490      0.0116
351.5000          0.0767     82.0960      0.0118
351.7500          0.0756     82.7520      0.0108
352.0000          0.0740     78.4290      0.0104
352.2500          0.0689     74.1060      0.0126
352.5000          0.0686     77.8820      0.0102
352.7500          0.0647     87.2510      0.0088
353.0000          0.0646    100.9770      0.0123
353.2500          0.0665     93.5420      0.0184
353.5000          0.0688    106.0310      0.0233
353.7500          0.0740    105.4420      0.0258
354.0000          0.0791     98.0070      0.0277
354.2500          0.0876     86.8380      0.0290
354.5000          0.0835     76.9140      0.0292
354.7500          0.0846     70.0930      0.0270
355.0000          0.0806     62.6580      0.0245
355.2500          0.0745     57.7120      0.0239
355.5000          0.0745     52.1530      0.0227
355.7500          0.0712     47.8210      0.0224
356.0000          0.0673     42.2530      0.0213
356.2500          0.0678     34.1960      0.0198
356.5000          0.0632     24.2720      0.0183
356.7500          0.0627     20.5790      0.0158
