~VERSION INFORMATION
VERS.                2.00:   CWLS LOG ASCII STANDARD -VERSION 2.0
WRAP.                  NO:
~WELL INFORMATION BLOCK
#MNEM.UNIT           DATA                    DESCRIPTION OF MNEMONIC
#---------    -------------------            -------------------------------
# Generated from Intellog Unique Number	nealta/WELL/1061
LOC .         03-12-096-10W4                 : Location     - LOCATION          
UWI .         AB/03-12-096-10W400            : Uwi          - UNIQUE WELL ID    
ENTR.         MAX                            : Entered      - ENTERED BY        
STRT.M            70.0000                    :
STOP.M           415.0000                    :
STEP.M             0.2500                    :
NULL.           -999.2500                    :
COMP.  SHELL CANADA                          :COMPANY
WELL.  ALSANDS 5021                          :WELL
FLD.                                         :FIELD
LOC.   03-12-096-10W4                        :LOCATION
CTRY.  CANADA                                :COUNTRY
PROV.  ALBERTA                               :PROVINCE
SRVC.  SCHLUMBERGER                          :SERVICE COMPANY
DATE.  11 MAR 80                             :LOG DATE
UWI.      AB/03-12-096-10W4/0                :UNIQUE WELL ID
~Curve Information Block
#MNEM UNIT       ERCB CURVE CODE    CURVE DESCRIPTION
#MNEM.UNIT        API CODE    Curve Description
#---------    ------------    -------------------------------------------
DEPT.M                    :   DEPTH
DPHI.V/V      00 890 00 00:   PHID         - DENSITY POROSITY (LIMESTONE)
GR  .API      00 310 00 00:   GR           - GAMMA RAY
NPHI.V/V      00 330 00 00:   PHIN         - NEUTRON POROSITY (LIMESTONE)
~PARAMETER INFORMATION       
#MNEM.UNIT           DATA             DESCRIPTION OF MNEMONIC
#---------         -----------     ------------------------------
GL  .M        299                  : gl           - GROUND LEVEL ELEVATION      
EREF.M        10                   : kb           - ELEVATION OF DEPTH REFERENCE
DATM.M        10                   : datum        - DATUM ELEVATION             
TDD .M        414.5                : tdd          - TOTAL DEPTH DRILLER         
RUN .         ONE                  : Run          - RUN NUMBER                  
ENG .         BILL                 : Engineer     - RECORDING ENGINEER          
WIT .         JIM                  : Witness      - WITNESSED BY                
MUD .         GEL                  : Mud_type     - MUD TYPE                    
MATR.         LIMESTONE            : Logunit      - NEUTRON MATRIX              
TMAX.C        33                   : BHT          - MAXIMUM RECORDED TEMPERATURE
BHTD.M        414.5                : BHTDEP       - MAXIMUM RECORDED TEMPERATURE
RMT .C        25                   : MDTP         - TEMPERATURE OF MUD          
MUDD.KG/M     1100                 : MWT          - MUD DENSITY                 
NEUT.         1                    : NEUTRON      - NEUTRON TYPE                
RESI.         0                    : RESIST       - RESISTIVITY TYPE            
RM  .OHMM     0.25                 : RM           - RESISTIVITY OF MUD          
RMC .OHMM     0.25                 : RMC          - RESISTIVITY OF MUD CAKE     
RMF .OHMM     0.25                 : RMF          - RESISTIVITY OF MUD FILTRATE 
SUFT.C        4                    : SUFT         - SURFACE TEMPERATURE         
~A  Depth           DPHI          GR        NPHI
70.0000           0.2716     61.6720      0.4595
70.2500           0.2787     61.0640      0.4630
70.5000           0.3001     59.8210      0.4679
70.7500           0.3318     58.5780      0.4596
71.0000           0.3598     63.6970      0.4590
71.2500           0.3483     70.0750      0.4689
71.5000           0.3174     79.6440      0.4728
71.7500           0.2913     78.4010      0.4672
72.0000           0.2812     82.2500      0.4597
72.2500           0.2728     82.9060      0.4606
72.5000           0.2756     81.6700      0.4670
72.7500           0.3083     78.5130      0.4845
73.0000           0.3326     73.4620      0.5131
73.2500           0.3614     67.7620      0.5816
73.5000           0.4063     58.2550      0.6114
73.7500           0.4081     48.7550      0.6485
74.0000           0.4125     48.1470      0.6561
74.2500           0.4133     49.4470      0.6371
74.5000           0.4079     50.1100      0.6229
74.7500           0.3946     49.5020      0.6096
75.0000           0.3490     49.5370      0.6000
75.2500           0.3168     52.7430      0.5834
75.5000           0.2934     55.9490      0.5636
75.7500           0.2393     59.1480      0.5331
76.0000           0.2099     61.7190      0.5026
76.2500           0.1846     60.4750      0.4720
76.5000           0.1807     59.2320      0.4406
76.7500           0.2083     59.9100      0.4199
77.0000           0.2273     60.5660      0.4022
77.2500           0.2366     57.4160      0.4186
77.5000           0.2499     49.1800      0.4350
77.7500           0.2764     44.1230      0.4513
78.0000           0.3197     40.3370      0.4537
78.2500           0.3681     38.4580      0.4593
78.5000           0.4096     44.8420      0.4534
78.7500           0.4035     52.4980      0.5113
79.0000           0.4146     54.4320      0.5890
79.2500           0.4259     50.0180      0.6230
79.5000           0.4269     45.5960      0.6574
79.7500           0.4302     46.2730      0.6667
80.0000           0.4251     47.5660      0.6544
80.2500           0.4265     50.1360      0.6407
80.5000           0.3830     53.9780      0.6252
80.7500           0.3487     52.0990      0.5963
81.0000           0.3156     52.7620      0.5730
81.2500           0.2533     54.7040      0.5383
81.5000           0.2252     56.6390      0.5112
81.7500           0.2550     57.9310      0.4940
82.0000           0.2787     63.6800      0.4834
82.2500           0.2806     68.7930      0.4727
82.5000           0.2756     71.3630      0.4620
82.7500           0.2713     68.2200      0.4514
83.0000           0.2729     61.8840      0.4226
83.2500           0.2729     54.2840      0.3801
83.5000           0.2774     47.9560      0.3308
83.7500           0.2789     37.8130      0.3137
84.0000           0.2753     27.0350      0.3071
84.2500           0.2725     18.1630      0.3199
84.5000           0.2774     18.8270      0.3212
84.7500           0.2772     23.9540      0.3119
85.0000           0.2803     23.9750      0.3122
85.2500           0.2871     20.1960      0.3191
85.5000           0.2977     19.5880      0.3219
85.7500           0.3100     20.8870      0.3290
86.0000           0.3183     19.6440      0.3352
86.2500           0.3238     19.0360      0.3470
86.5000           0.3267     19.0570      0.3548
86.7500           0.3280     19.0910      0.3447
87.0000           0.3269     16.5840      0.3330
87.2500           0.3254     16.6050      0.3301
87.5000           0.3240     17.9110      0.3228
87.7500           0.3177     20.4810      0.3202
88.0000           0.3024     20.5090      0.3155
88.2500           0.3117     19.9010      0.3112
88.5000           0.3098     19.9290      0.3127
88.7500           0.3048     19.9500      0.3234
89.0000           0.3111     20.6130      0.3375
89.2500           0.3365     20.6410      0.3481
89.5000           0.3238     22.5900      0.3530
89.7500           0.3092     22.6180      0.3463
90.0000           0.2953     20.1030      0.3308
90.2500           0.3061     18.2240      0.3090
90.5000           0.3235     18.2520      0.3095
90.7500           0.3329     20.1870      0.3242
91.0000           0.3291     20.2150      0.3463
91.2500           0.3069     20.2420      0.3577
91.5000           0.2901     20.9060      0.3602
91.7500           0.2995     24.1190      0.3622
92.0000           0.3108     24.1470      0.3628
92.2500           0.3088     24.8170      0.3683
92.5000           0.2963     24.8380      0.3744
92.7500           0.2948     23.5880      0.3805
93.0000           0.3040     22.3440      0.3845
93.2500           0.3000     21.7370      0.3893
93.5000           0.2993     23.0500      0.3919
93.7500           0.2980     23.7130      0.3887
94.0000           0.3023     23.7340      0.3801
94.2500           0.3210     23.7620      0.3636
94.5000           0.3155     22.5260      0.3498
94.7500           0.3052     22.5530      0.3365
95.0000           0.3018     21.9450      0.3255
95.2500           0.2978     21.3450      0.3137
95.5000           0.3065     21.3660      0.3133
95.7500           0.3101     22.6650      0.3210
96.0000           0.3039     23.9640      0.3172
96.2500           0.2915     25.8990      0.3168
96.5000           0.2818     28.4830      0.3200
96.7500           0.2649     29.7680      0.3315
97.0000           0.2634     32.3390      0.3393
97.2500           0.2662     34.9090      0.3434
97.5000           0.2623     40.6650      0.3504
97.7500           0.2680     43.2350      0.3600
98.0000           0.2688     41.3560      0.3676
98.2500           0.2688     42.6560      0.3761
98.5000           0.2652     43.3190      0.3793
98.7500           0.2612     41.4400      0.3796
99.0000           0.2596     39.5610      0.3828
99.2500           0.2569     40.2310      0.3853
99.5000           0.2547     42.1660      0.3855
99.7500           0.2499     38.3800      0.3831
100.0000          0.2501     35.2300      0.3769
100.2500          0.2576     32.7150      0.3703
100.5000          0.2695     29.5710      0.3613
100.7500          0.2832     26.4210      0.3455
101.0000          0.2937     23.9060      0.3394
101.2500          0.2938     22.0270      0.3467
101.5000          0.2949     22.6840      0.3540
101.7500          0.2901     24.6250      0.3594
102.0000          0.2860     24.6460      0.3560
102.2500          0.2857     23.4100      0.3527
102.5000          0.3032     23.4310      0.3504
102.7500          0.3159     22.2010      0.3533
103.0000          0.3178     21.5930      0.3579
103.2500          0.3128     22.8930      0.3639
103.5000          0.2997     24.1850      0.3689
103.7500          0.2944     27.3980      0.3728
104.0000          0.2734     28.6970      0.3802
104.2500          0.2683     28.0820      0.3838
104.5000          0.2730     23.0250      0.3741
104.7500          0.2770     21.7880      0.3589
105.0000          0.2890     22.4520      0.3367
105.2500          0.2964     23.7510      0.3260
105.5000          0.2934     24.4220      0.3186
105.7500          0.2873     25.0920      0.3204
106.0000          0.2750     25.7420      0.3369
106.2500          0.2557     27.0410      0.3556
106.5000          0.2699     28.9760      0.3606
106.7500          0.2682     32.8240      0.3470
107.0000          0.2690     37.3020      0.3413
107.2500          0.2742     36.7010      0.3466
107.5000          0.2813     34.1790      0.3421
107.7500          0.2884     29.7570      0.3498
108.0000          0.2910     26.6070      0.3593
108.2500          0.2913     24.7280      0.3543
108.5000          0.2868     25.3910      0.3480
108.7500          0.2804     26.0550      0.3515
109.0000          0.2701     26.7250      0.3562
109.2500          0.2582     28.6600      0.3499
109.5000          0.2823     31.8660      0.3363
109.7500          0.2880     31.8940      0.3387
110.0000          0.2890     28.1080      0.3458
110.2500          0.2942     23.6860      0.3508
110.5000          0.2993     22.4430      0.3581
110.7500          0.3026     22.4710      0.3631
