~VERSION INFORMATION
 VERS.                 2.0:   CWLS LOG ASCII STANDARD -VERSION 2.0
 WRAP.                  NO:   ONE LINE PER DEPTH STEP
~WELL INFORMATION BLOCK
#MNEM.UNIT           DATA                    DESCRIPTION OF MNEMONIC
#---------    -------------------            -------------------------------
# Generated from Intellog Unique Number	CN_91_93/WELL/3588
WELL.         AOSTRA                         : Well_name    - WELL
LOC .         AB/01-23-093-13W4/0            : Location     - LOCATION
UWI .         AB/01-23-093-13W400            : Uwi          - UNIQUE WELL ID
ENTR.         JOETTE                         : Entered      - ENTERED BY
SRVC.         COMPUTALOG                     : Scn          - SERVICE COMPANY
DATE.         03/18/92                       : Date         - LOG DATE
STRT.M        0                              : top_depth    - START DEPTH
STOP.M        155                            : bot_depth    - STOP DEPTH
STEP.M        0.25                           : increment    - STEP LENGTH
 NULL. -999.2500:NULL Value
~CURVE INFORMATION BLOCK
#MNEM UNIT       ERCB CURVE CODE    CURVE DESCRIPTION
#-----------   ------------------   ----------------------------------
DEPT.M        00 001 00 00         : DEPTH        - DEPTH
GR  .API      00 310 00 00         : GR           - GAMMA RAY
CALI.MM       00 280 01 00         : CAL          - CALIPER
DPHI.V/V      00 890 00 00         : PHID         - DENSITY POROSITY (SANDSTONE)
ILD .OHMM     00 120 00 00         : RESD         - DEEP RESISTIVITY (DIL)
~PARAMETER INFORMATION
#MNEM.UNIT           DATA             DESCRIPTION OF MNEMONIC
#---------         -----------     ------------------------------
GL  .M        420.86               : gl           - GROUND LEVEL ELEVATION
EREF.M        420.86               : kb           - ELEVATION OF DEPTH REFERENCE
DATM.M        420.86               : datum        - DATUM ELEVATION
TDD .M        158.5                : tdd          - TOTAL DEPTH DRILLER
RUN .         ONE                  : Run          - RUN NUMBER
ENG .         JO                   : Engineer     - RECORDING ENGINEER
WIT .         TIM                  : Witness      - WITNESSED BY
MUD .         GEL                  : Mud_type     - MUD TYPE
MATR.         SANDSTONE            : Logunit      - NEUTRON MATRIX
TMAX.C        18                   : BHT          - MAXIMUM RECORDED TEMPERATURE
BHTD.M        158.5                : BHTDEP       - MAXIMUM RECORDED TEMPERATURE
RMT .C        16                   : MDTP         - TEMPERATURE OF MUD
MUDD.KG/M     541.666              : MWT          - MUD DENSITY
NEUT.         1                    : NEUTRON      - NEUTRON TYPE
RESI.         0                    : RESIST       - RESISTIVITY TYPE
RM  .OHMM     5.73                 : RM           - RESISTIVITY OF MUD
RMC .OHMM     5.73                 : RMC          - RESISTIVITY OF MUD CAKE
RMF .OHMM     5.73                 : RMF          - RESISTIVITY OF MUD FILTRATE
SUFT.C        4                    : SUFT         - SURFACE TEMPERATURE
~A  DEPTH       GR      CAL     PHID     RESD
# ...
   43.500   72.553  258.627    0.306   15.509
   43.750   87.844  261.634    0.288   15.518
   44.000  134.820  264.640    0.273   14.426
   44.250  101.431  271.593    0.286    8.785
   44.500   73.905  268.736    0.299   12.016
   44.750   65.741  262.928    0.162   11.377
   45.000   75.754  250.298    0.181   15.562
   45.250   71.694  240.581    0.269   15.287
   45.500   65.875  230.901    0.263   15.872
   45.750   60.642  227.048    0.235   16.476
   46.000   71.839  225.187    0.256   16.791
   46.250   75.989  226.238    0.277   16.801
   46.500   64.306  225.336    0.272   16.810
   46.750   50.267  225.410    0.262   17.137
   47.000   70.259  226.462    0.244   17.144
   47.250   77.938  236.310    0.223   17.797
   47.500   87.365  248.149    0.239   18.137
   47.750   88.582  251.137    0.250   15.665
   48.000   75.727  251.211    0.253   11.256
   48.250   81.635  250.327    0.248   10.465
   48.500   93.418  250.402    0.238   11.065
   48.750   92.290  250.458    0.212   11.277
   49.000   82.953  250.569    0.223   11.282
   49.250   82.998  249.685    0.233   11.086
   49.500   83.043  248.764    0.245   10.887
   49.750   90.710  247.843    0.251   10.895
   50.000   94.284  245.981    0.256   11.101
   50.250   81.418  248.010    0.267   10.909
   50.500   85.567  251.994    0.277   10.141
   50.750   92.659  247.164    0.224   10.720
   51.000   63.375  239.420    0.210   13.132
   51.250   57.556  226.790    0.263   11.341
   51.500   59.957  216.114    0.293   13.147
   51.750   55.886  226.939    0.299   15.810
   52.000   74.706  239.737    0.265   15.824
   52.250   77.096  244.716    0.261   15.831
   52.500   80.073  243.814    0.266   15.267
   52.750   80.704  240.938    0.258    9.470
   53.000   66.676  234.190    0.258    8.331
   53.250   73.757  228.382    0.274    8.808
   53.500   65.592  224.566    0.287   14.217
   53.750   60.360  224.622    0.266   14.758
   54.000   66.268  225.693    0.256   14.768
   54.250   68.083  225.767    0.239   14.777
   54.500   69.301  225.861    0.233   14.516
   54.750   57.618  225.954    0.291   15.068
   55.000   64.699  226.010    0.306   12.544
   55.250   65.917  225.107    0.296   11.661
   55.500   66.548  225.182    0.291   14.284
   55.750   62.488  225.237    0.258   12.338
   56.000   66.051  225.312    0.181   15.969
   56.250   60.232  226.401    0.237   15.120
   56.500   74.361  226.438    0.278   14.319
   56.750   72.060  227.509    0.289   15.422
   57.000   72.691  230.515    0.284   14.874
   57.250   79.783  233.522    0.302   14.347
   57.500   84.519  237.505    0.307   13.833
   57.750   95.705  239.553    0.305    9.940
   58.000   92.231  236.696    0.288    9.073
   58.250   85.240  232.861    0.293    9.770
   58.500   84.112  231.000    0.301   10.916
   58.750   85.915  233.029    0.298   11.545
   59.000   89.490  234.062    0.298   10.155
   59.250   91.293  236.110    0.294    9.977
   59.500   79.611  240.094    0.296   10.745
   59.750   82.587  244.059    0.284   11.570
   60.000   90.255  251.970    0.283   12.010
   60.250   80.332  248.136    0.302    8.790
   60.500   75.099  240.411    0.315    7.876
   60.750   69.280  234.622    0.292    8.176
   61.000   75.188  230.787    0.243   10.203
   61.250   89.317  234.771    0.210   12.270
   61.500   96.398  235.841    0.244    9.317
   61.750   97.616  235.916    0.293    9.323
   62.000   81.829  234.976    0.362    9.678
   62.250   68.376  235.050    0.292    9.334
   62.500   76.641  236.139    0.259   10.621
   62.750   84.895  232.286    0.260   12.313
   63.000   78.489  233.338    0.131   13.758
   63.250   94.377  240.254    0.183   20.631
   63.500   74.474  241.305    0.147    7.788
   63.750   63.964  228.694    0.186   10.081
   64.000   83.957  236.568    0.221   13.538
   64.250  103.949  237.639    0.273   10.863
   64.500   94.601  236.755    0.178   10.289
   64.750   80.573  241.697    0.196   10.291
   65.000  108.188  250.567    0.240   11.712
   65.250   97.092  249.664    0.294   15.444
   65.500   92.445  245.848    0.297   14.623
   65.750  100.699  242.014    0.288    6.883
   66.000  115.415  240.134    0.300    5.524
   66.250  118.391  238.272    0.314    5.527
   66.500  100.845  235.378    0.322    5.530
   66.750  107.340  228.630    0.317    5.533
   67.000  109.730  236.523    0.283    5.743
   67.250   79.859  245.393    0.262    6.536
   67.500  100.437  253.286    0.275    7.578
   67.750   88.168  240.656    0.258    7.723
   68.000   71.784  235.844    0.235    9.814
   68.250  112.897  243.737    0.229   12.245
   68.500  107.078  251.648    0.222    9.648
   68.750   97.740  251.741    0.235    9.476
   69.000  101.303  249.843    0.232    9.310
   69.250   97.244  246.985    0.210   10.026
   69.500   83.204  245.124    0.189   14.492
   69.750   87.951  239.316    0.231   12.986
   70.000   84.478  258.955    0.243   11.853
   70.250  109.747  260.007    0.231   11.642
   70.500   96.294  253.241    0.224   11.865
   70.750  103.973  240.611    0.223   13.017
   71.000   94.050  245.609    0.216   13.512
   71.250   96.440  245.665    0.208   13.032
   71.500   85.919  245.721    0.213   11.892
   71.750   88.907  245.795    0.162   12.809
   72.000   77.799  244.892    0.114   11.268
   72.250   88.996  241.077    0.111   14.320
   72.500   94.904  237.242    0.140   20.321
   72.750   84.395  231.453    0.189   31.039
   73.000   83.267  228.596    0.240   21.498
   73.250   90.348  228.689    0.245   15.737
   73.500   90.990  227.786    0.251   16.338
   73.750   83.412  228.819    0.261   16.958
   74.000   78.755  230.848    0.246   17.285
   74.250   72.947  234.851    0.193   16.977
   74.500   85.892  235.921    0.221   18.971
   74.750   83.005  234.004    0.249   18.296
   75.000   72.495  228.215    0.275   18.990
   75.250   66.089  223.403    0.270   20.082
   75.500   89.600  222.519    0.260   19.014
   75.750   86.713  224.548    0.253   19.378
   76.000   80.296  225.619    0.252   17.686
   76.250   84.457  221.784    0.245   16.143
   76.500   88.020  226.745    0.246   15.567
   76.750   98.619  237.551    0.232   17.393
   77.000  105.125  250.349    0.238   17.088
   77.250   94.615  243.582    0.243   15.594
   77.500   81.749  228.998    0.244   13.973
   77.750   63.616  241.777    0.251   13.230
   78.000   71.870  240.912    0.252   16.208
   78.250   60.187  238.994    0.226   19.854
   78.500   59.059  235.160    0.184   22.183
   78.750   65.554  228.412    0.090   21.791
   79.000   65.013  225.536    0.061   23.468
   79.250   63.885  225.648    0.121   93.291
   79.500   65.700  225.685    0.191   26.726
   79.750   66.917  226.774    0.242   20.674
   80.000   76.344  226.849    0.171   21.458
   80.250   73.457  227.901    0.124   23.975
   80.500   61.774  228.953    0.189   25.349
   80.750   72.960  229.009    0.250   21.106
   81.000   77.120  230.060    0.248   20.355
   81.250   83.029  230.154    0.259   16.634
   81.500   71.932  231.224    0.266   18.585
   81.750   79.600  231.299    0.248   21.154
   82.000   77.299  231.373    0.254   19.306
   82.250   66.789  230.452    0.251   16.072
   82.500   70.950  233.496    0.175   19.328
   82.750   73.926  235.487    0.051   22.824
   83.000   74.558  235.562    0.187   25.033
   83.250   76.373  234.659    0.211   32.403
   83.500   81.683  228.889    0.214   59.495
   83.750   82.901  227.009    0.226   25.545
   84.000   96.443  246.629    0.232   17.052
   84.250   88.279  247.699    0.215   14.197
   84.500   87.737  247.755    0.214   16.157
   84.750   98.337  246.871    0.214   10.787
   85.000  100.140  245.010    0.214   10.213
   85.250   95.494  245.066    0.222   10.033
   85.500   90.848  248.072    0.264    9.856
   85.750   95.606  238.393    0.256    9.332
   86.000  101.503  234.558    0.236    9.167
   86.250  104.480  238.542    0.215    9.694
   86.500   84.002  245.439    0.198   10.248
   86.750   85.817  252.354    0.206   10.641
