~VERSION INFORMATION
 VERS.                 2.0:   CWLS LOG ASCII STANDARD -VERSION 2.0
 WRAP.                  NO:   ONE LINE PER DEPTH STEP
~WELL INFORMATION BLOCK
#MNEM.UNIT           DATA                    DESCRIPTION OF MNEMONIC
#---------    -------------------            -------------------------------
# Generated from Intellog Unique Number	res/WELL/2026
WELL.         AMOCO AOSTRA GLISPLH1          : Well_name    - WELL
LOC .         AB/05-02-086-07W4/0            : Location     - LOCATION
UWI .         AB/05-02-086-07W400            : Uwi          - UNIQUE WELL ID
ENTR.         KATHY                          : Entered      - ENTERED BY
SRVC.         SCHLUMBERGER                   : Scn          - SERVICE COMPANY
STRT.M        160                            : top_depth    - START DEPTH
STOP.M        235.001                        : bot_depth    - STOP DEPTH
STEP.M        0.3                            : increment    - STEP LENGTH
 NULL. -999.2500:NULL Value
~CURVE INFORMATION BLOCK
#MNEM UNIT       ERCB CURVE CODE    CURVE DESCRIPTION
#-----------   ------------------   ----------------------------------
DEPT.M        00 001 00 00         : DEPTH        - DEPTH
GR  .API      00 310 00 00         : GR           - GAMMA RAY
DPHI.V/V      00 890 00 00         : PHID         - DENSITY POROSITY (LIMESTONE)
ILD .OHMM     00 120 00 00         : RESD         - DEEP RESISTIVITY (DIL)
GR  .API      00 310 00 00         : GR           - GAMMA RAY
DPHI.V/V      00 890 00 00         : PHID         - DENSITY POROSITY (LIMESTONE)
ILD .OHMM     00 120 00 00         : RESD         - DEEP RESISTIVITY (DIL)
~PARAMETER INFORMATION
#MNEM.UNIT           DATA             DESCRIPTION OF MNEMONIC
#---------         -----------     ------------------------------
GL  .M        478.6                : gl           - GROUND LEVEL ELEVATION
EREF.M        480                  : kb           - ELEVATION OF DEPTH REFERENCE
DATM.M        480                  : datum        - DATUM ELEVATION
TDD .M        241                  : tdd          - TOTAL DEPTH DRILLER
RUN .         ONE                  : Run          - RUN NUMBER
ENG .         BILL                 : Engineer     - RECORDING ENGINEER
WIT .         JIM                  : Witness      - WITNESSED BY
MUD .         GEL                  : Mud_type     - MUD TYPE
MATR.         LIMESTONE            : Logunit      - NEUTRON MATRIX
TMAX.C        60                   : BHT          - MAXIMUM RECORDED TEMPERATURE
BHTD.M        241                  : BHTDEP       - MAXIMUM RECORDED TEMPERATURE
MATR.         1                    : LOGUNIT      - NEUTRON MATRIX
RMT .C        25                   : MDTP         - TEMPERATURE OF MUD
NEUT.         1                    : NEUTRON      - NEUTRON TYPE
RESI.         0                    : RESIST       - RESISTIVITY TYPE
RMC .OHMM     0.25                 : RMC          - RESISTIVITY OF MUD CAKE
RMF .OHMM     0.25                 : RMF          - RESISTIVITY OF MUD FILTRATE
SUFT.C        5                    : SUFT         - SURFACE TEMPERATURE
~A  DEPTH       GR     PHID     RESD       GR     PHID     RESD
# ...
  197.500   32.255    0.350   32.525   32.255    0.350   32.525
  197.800   35.857    0.334   27.801   35.857    0.334   27.801
  198.100   43.942    0.287   25.355   43.942    0.287   25.355
  198.400   53.520    0.267   26.572   53.520    0.267   26.572
  198.700   53.535    0.319   35.107   53.535    0.319   35.107
  199.000   42.795    0.336   49.951   42.795    0.336   49.951
  199.300   34.446    0.327   80.915   34.446    0.327   80.915
  199.600   34.763    0.351  142.473   34.763    0.351  142.473
  199.900   34.777    0.345  188.232   34.777    0.345  188.232
  200.200   35.690    0.330  224.604   35.690    0.330  224.604
  200.500   38.097    0.322  251.145   38.097    0.322  251.145
  200.800   39.011    0.318  275.682   39.011    0.318  275.682
  201.100   36.936    0.311  246.812   36.936    0.311  246.812
  201.400   35.758    0.310  146.977   35.758    0.310  146.977
  201.700   36.370    0.330   65.674   36.370    0.330   65.674
  202.000   40.869    0.332   37.340   40.869    0.332   37.340
  202.300   47.460    0.322   30.191   47.460    0.322   30.191
  202.600   54.947    0.302   27.533   54.947    0.302   27.533
  202.900   60.940    0.264   26.796   60.940    0.264   26.796
  203.200   60.956    0.271   28.605   60.956    0.271   28.605
  203.500   55.894    0.299   31.987   55.894    0.299   31.987
  203.800   50.232    0.319   35.112   50.232    0.319   35.112
  204.100   45.468    0.319   35.789   45.468    0.319   35.789
  204.400   50.564    0.324   36.142   50.564    0.324   36.142
  204.700   50.581    0.356   40.418   50.581    0.356   40.418
  205.000   38.644    0.359   58.040   38.644    0.359   58.040
  205.300   32.386    0.339   78.128   32.386    0.339   78.128
  205.600   34.495    0.333  132.546   34.495    0.333  132.546
  205.900   37.201    0.325  122.003   37.201    0.325  122.003
  206.200   41.102    0.320  103.320   41.102    0.320  103.320
  206.500   45.900    0.334  106.286   45.900    0.334  106.286
  206.800   47.112    0.347  114.535   47.112    0.347  114.535
  207.100   44.737    0.356  131.679   44.737    0.356  131.679
  207.400   39.375    0.344  167.642   39.375    0.344  167.642
  207.700   34.910    0.351  187.462   34.910    0.351  187.462
  208.000   37.019    0.357  198.291   37.019    0.357  198.291
  208.300   44.804    0.347  223.799   44.804    0.347  223.799
  208.600   44.224    0.342  257.313   44.224    0.342  257.313
  208.900   37.367    0.341  301.379   37.367    0.341  301.379
  209.201   31.407    0.344  293.282   31.407    0.344  293.282
  209.501   29.930    0.348  246.066   29.930    0.348  246.066
  209.801   31.141    0.367  206.463   31.141    0.367  206.463
  210.101   31.171    0.372  193.607   31.171    0.372  193.607
  210.401   31.181    0.354  191.940   31.181    0.354  191.940
  210.701   31.195    0.363  192.037   31.195    0.363  192.037
  211.001   31.213    0.373  199.401   31.213    0.373  199.401
  211.301   30.931    0.366  210.907   30.931    0.366  210.907
  211.601   30.045    0.351  253.988   30.045    0.351  253.988
  211.901   29.464    0.333  276.231   29.464    0.333  276.231
  212.201   28.884    0.351   65.734   28.884    0.351   65.734
  212.501   31.889    0.351   43.347   31.889    0.351   43.347
  212.801   37.583    0.324   44.594   37.583    0.324   44.594
  213.101   42.978    0.315   48.951   42.978    0.315   48.951
  213.401   40.903    0.330   55.762   40.903    0.330   55.762
  213.701   36.437    0.343   70.336   36.437    0.343   70.336
  214.001   32.868    0.348 1923.120   32.868    0.348 1923.120
  214.301   32.586    0.333 1221.950   32.586    0.333 1221.950
  214.601   34.993    0.328  714.355   34.993    0.328  714.355
  214.901   36.502    0.329   87.234   36.502    0.329   87.234
  215.201   35.922    0.350   66.717   35.922    0.350   66.717
  215.501   36.536    0.367   54.442   36.536    0.367   54.442
  215.801   35.657    0.377   46.534   35.657    0.377   46.534
  216.101   32.984    0.375   38.684   32.984    0.375   38.684
  216.401   29.414    0.389   38.349   29.414    0.389   38.349
  216.701   29.433    0.402   39.089   29.433    0.402   39.089
  217.001   32.436    0.359   43.710   32.436    0.359   43.710
  217.301   35.441    0.325   59.377   35.441    0.325   59.377
  217.601   33.665    0.325   74.896   33.665    0.325   74.896
  217.901   33.383    0.338   77.767   33.383    0.338   77.767
  218.201   32.800    0.328   77.807   32.800    0.328   77.807
  218.501   31.323    0.334   75.717   31.323    0.334   75.717
  218.801   29.547    0.344   77.895   29.547    0.344   77.895
  219.101   25.381    0.359   80.881   25.381    0.359   80.881
  219.401   28.983    0.357   86.350   28.983    0.357   86.350
  219.701   31.690    0.338   88.014   31.690    0.338   88.014
  220.001   31.705    0.365   93.965   31.705    0.365   93.965
  220.301   32.917    0.367  101.246   32.917    0.367  101.246
  220.601   33.233    0.359  101.303   33.233    0.359  101.303
  220.901   29.963    0.360   96.771   29.963    0.360   96.771
  221.201   34.163    0.360   73.341   34.163    0.360   73.341
  221.501   36.570    0.367   56.086   36.570    0.367   56.086
  221.801   34.494    0.374   52.587   34.494    0.374   52.587
  222.101   36.303    0.371   52.626   36.303    0.371   52.626
  222.401   39.308    0.336   55.662   39.308    0.336   55.662
  222.701   46.795    0.312   74.216   46.795    0.312   74.216
  223.001   44.720    0.335  101.755   44.720    0.335  101.755
  223.301   34.875    0.362  194.748   34.875    0.362  194.748
  223.601   30.410    0.347  254.924   30.410    0.347  254.924
  223.901   30.128    0.333  219.925   30.128    0.333  219.925
  224.201   30.145    0.347  200.576   30.145    0.347  200.576
  224.501   30.759    0.357  186.352   30.759    0.357  186.352
  224.801   31.972    0.365  169.957   31.972    0.365  169.957
  225.101   32.584    0.370  157.895   32.584    0.370  157.895
  225.401   33.199    0.361  156.527   33.199    0.361  156.527
  225.701   32.021    0.355  164.041   32.021    0.355  164.041
  226.001   27.257    0.360  168.760   27.257    0.360  168.760
  226.301   26.973    0.368  141.599   26.973    0.368  141.599
  226.601   32.070    0.363  107.291   32.070    0.363  107.291
  226.901   35.078    0.336   81.300   35.078    0.336   81.300
  227.201   40.174    0.308   54.615   40.174    0.308   54.615
  227.501   40.487    0.303   47.114   40.487    0.303   47.114
  227.801   33.930    0.317   48.920   33.930    0.317   48.920
  228.101   38.130    0.342   52.227   38.130    0.342   52.227
  228.401   43.824    0.336   56.278   43.824    0.336   56.278
  228.701   41.748    0.355   70.332   41.748    0.355   70.332
  229.001   37.581    0.350   87.897   37.581    0.350   87.897
  229.301   34.013    0.346  141.070   34.013    0.346  141.070
  229.601   27.755    0.358  169.886   27.755    0.358  169.886
  229.901   24.257    0.354  153.824   24.257    0.354  153.824
  230.201   26.088    0.322   91.322   26.088    0.322   91.322
  230.501   27.916    0.330   59.440   27.916    0.330   59.440
  230.801   30.642    0.275   42.418   30.642    0.275   42.418
  231.101   32.769    0.147   31.129   32.769    0.147   31.129
  231.401   31.003    0.099   27.714   31.003    0.099   27.714
  231.701   33.433    0.074   29.129   33.433    0.074   29.129
  232.001   34.362    0.050   31.185   34.362    0.050   31.185
  232.301   32.297    0.035   31.885   32.297    0.035   31.885
  232.601   31.430    0.015   31.147   31.430    0.015   31.147
  232.901   32.958    0.005   29.304   32.958    0.005   29.304
  233.201   35.983    0.003   26.573   35.983    0.003   26.573
  233.501   40.808    0.004   24.098   40.808    0.004   24.098
  233.801   43.534    0.017   22.063   43.534    0.017   22.063
  234.101   41.769    0.027   21.544   41.769    0.027   21.544
  234.401   44.494    0.019   21.427   44.494    0.019   21.427
  234.701   45.723    0.018   21.708   45.723    0.018   21.708
