~VERSION INFORMATION
 VERS.                 2.0:   CWLS LOG ASCII STANDARD -VERSION 2.0
 WRAP.                  NO:   ONE LINE PER DEPTH STEP
~WELL INFORMATION BLOCK
#MNEM.UNIT           DATA                    DESCRIPTION OF MNEMONIC
#---------    -------------------            -------------------------------
# Generated from Intellog Unique Number	CN_91_93/WELL/2912
WELL.         04-23-092-11W4                 : Well_name    - WELL
LOC .         AB/04-23-092-11W4/0            : Location     - LOCATION
UWI .         AB/04-23-092-11W400            : Uwi          - UNIQUE WELL ID
ENTR.         JOETTE                         : Entered      - ENTERED BY
SRVC.         SCHLUMBERGER                   : Scn          - SERVICE COMPANY
DATE.         03/31/92                       : Date         - LOG DATE
STRT.M        5                              : top_depth    - START DEPTH
STOP.M        80                             : bot_depth    - STOP DEPTH
STEP.M        0.25                           : increment    - STEP LENGTH
 NULL. -999.2500:NULL Value
~CURVE INFORMATION BLOCK
#MNEM UNIT       ERCB CURVE CODE    CURVE DESCRIPTION
#-----------   ------------------   ----------------------------------
DEPT.M        00 001 00 00         : DEPTH        - DEPTH
CALI.MM       00 280 01 00         : CAL          - CALIPER
GR  .API      00 310 00 00         : GR           - GAMMA RAY
NPHI.V/V      00 330 00 00         : PHIN         - NEUTRON POROSITY (SANDSTONE)
DPHI.V/V      00 890 00 00         : PHID         - DENSITY POROSITY (SANDSTONE)
ILD .OHMM     00 120 00 00         : RESD         - DEEP RESISTIVITY (DIL)
~PARAMETER INFORMATION
#MNEM.UNIT           DATA             DESCRIPTION OF MNEMONIC
#---------         -----------     ------------------------------
GL  .M        332.5                : gl           - GROUND LEVEL ELEVATION
EREF.M        332.5                : kb           - ELEVATION OF DEPTH REFERENCE
DATM.M        332.5                : datum        - DATUM ELEVATION
TDD .M        87.5                 : tdd          - TOTAL DEPTH DRILLER
RUN .         ONE                  : Run          - RUN NUMBER
ENG .         JO                   : Engineer     - RECORDING ENGINEER
WIT .         TIM                  : Witness      - WITNESSED BY
MUD .         GEL                  : Mud_type     - MUD TYPE
MATR.         SANDSTONE            : Logunit      - NEUTRON MATRIX
TMAX.C        14                   : BHT          - MAXIMUM RECORDED TEMPERATURE
BHTD.M        87.5                 : BHTDEP       - MAXIMUM RECORDED TEMPERATURE
RMT .C        14                   : MDTP         - TEMPERATURE OF MUD
MUDD.KG/M     9000                 : MWT          - MUD DENSITY
NEUT.         1                    : NEUTRON      - NEUTRON TYPE
RESI.         0                    : RESIST       - RESISTIVITY TYPE
RM  .OHMM     9.5                  : RM           - RESISTIVITY OF MUD
RMC .OHMM     9.5                  : RMC          - RESISTIVITY OF MUD CAKE
RMF .OHMM     9.5                  : RMF          - RESISTIVITY OF MUD FILTRATE
SUFT.C        4                    : SUFT         - SURFACE TEMPERATURE
~A  DEPTH      CAL       GR     PHIN     PHID     RESD
# ...
   41.500  121.486   85.917    0.362    0.209   11.346
   41.750  121.215   95.211    0.385    0.194   10.166
   42.000  121.195   84.299    0.416    0.190    9.024
   42.250  121.172   72.794    0.442    0.191    8.695
   42.500  121.154   68.816    0.427    0.213    9.259
   42.750  121.131   64.641    0.421    0.205    9.863
   43.000  121.111   61.055    0.392    0.204   11.193
   43.250  121.093   67.379    0.384    0.194   11.390
   43.500  120.825   76.079    0.371    0.171   11.279
   43.750  120.807   72.102    0.376    0.187   11.374
   44.000  120.786   60.596    0.394    0.229   11.679
   44.250  121.006   49.486    0.379    0.232   11.670
   44.500  121.236   41.152    0.389    0.247   11.557
   44.750  121.215   41.133    0.376    0.249   11.339
   45.000  120.947   52.210    0.379    0.247   11.331
   45.250  119.939   58.928    0.378    0.225   11.424
   45.500  118.183   65.051    0.404    0.200   11.211
   45.750  117.667   62.854    0.418    0.201   12.049
   46.000  117.895   55.512    0.425    0.224   13.799
   46.250  120.592   46.779    0.421    0.235   14.967
   46.500  121.070   37.848    0.422    0.259   16.084
   46.750  120.059   34.663    0.427    0.254   17.283
   47.000  118.803   40.786    0.402    0.239   18.240
   47.250  119.030   42.354    0.401    0.209   19.251
   47.500  120.245   45.309    0.412    0.229   17.405
   47.750  120.967   54.009    0.390    0.245   17.872
   48.000  119.457   62.707    0.394    0.229   15.583
   48.250  117.703   78.735    0.413    0.212   14.477
   48.500  117.193   74.754    0.396    0.183   12.507
   48.750  116.920   70.976    0.419    0.210   11.516
   49.000  117.394   63.234    0.424    0.229   11.096
   49.250  118.117   54.105    0.447    0.250   11.710
   49.500  118.594   45.176    0.461    0.251   16.234
   49.750  118.823   41.001    0.442    0.232   27.744
   50.000  117.560   35.239    0.421    0.197   38.467
   50.250  116.304   27.696    0.345    0.187   47.815
   50.500  120.493   26.885    0.332    0.234   56.793
   50.750  120.470   27.465    0.378    0.255   52.286
   51.000  120.697   26.851    0.409    0.300   46.850
   51.250  119.931   29.609    0.423    0.297   41.210
   51.500  118.428   35.536    0.421    0.299   32.216
   51.750  117.912   40.472    0.425    0.290   30.207
   52.000  119.620   44.218    0.419    0.279   26.335
   52.250  120.842   50.342    0.412    0.244   23.167
   52.500  122.060   56.663    0.423    0.240   24.008
   52.750  122.284   51.497    0.434    0.259   28.516
   53.000  121.769   43.953    0.446    0.280   31.778
   53.250  121.503   34.628    0.457    0.304   32.337
   53.500  121.503   31.441    0.426    0.288   34.441
   53.750  121.212   30.434    0.433    0.300   34.416
   54.000  121.187   42.501    0.416    0.307   30.834
   54.250  121.187   50.011    0.417    0.293   27.376
   54.500  121.146   54.350    0.437    0.270   23.010
   54.750  121.125   50.770    0.446    0.273   21.774
   55.000  121.358   43.226    0.449    0.283   29.108
   55.250  121.322   35.089    0.468    0.304   37.869
   55.500  121.317   27.743    0.467    0.303   45.387
   55.750  121.296   25.350    0.448    0.303   51.988
   56.000  121.271   27.116    0.433    0.296   60.087
   56.250  121.250   29.080    0.425    0.301   55.324
   56.500  120.985   29.062    0.427    0.308   53.795
   56.750  120.219   28.253    0.434    0.314   58.341
   57.000  118.958   26.056    0.443    0.311   63.265
   57.250  118.943   24.854    0.435    0.277   66.153
   57.500  119.910   28.204    0.428    0.264   68.560
   57.750  120.880   31.951    0.361    0.284   71.048
   58.000  121.600   32.329    0.375    0.289   52.587
   58.250  121.830   30.728    0.424    0.307   46.262
   58.500  121.559   29.129    0.445    0.305   47.081
   58.750  120.794   28.913    0.450    0.314   51.054
   59.000  120.778   27.708    0.437    0.322   54.872
   59.250  120.263   25.511    0.430    0.314   66.978
   59.500  118.999   24.306    0.435    0.308   80.274
   59.750  118.234   23.892    0.436    0.321   88.663
   60.000  119.456   23.087    0.435    0.328   80.888
   60.250  121.414   23.467    0.436    0.314   71.815
   60.500  121.641   25.629    0.414    0.292   63.759
   60.750  121.623   26.997    0.418    0.299   57.641
   61.000  121.597   26.585    0.451    0.307   51.648
   61.250  121.580   25.578    0.448    0.306   51.138
   61.500  121.559   26.156    0.430    0.309   54.957
   61.750  121.539   27.328    0.419    0.312   50.142
   62.000  121.018   27.706    0.423    0.322   45.749
   62.250  120.508   27.688    0.426    0.329   42.503
   62.500  120.240   28.269    0.439    0.322   40.951
   62.750  120.709   28.847    0.474    0.316   39.101
   63.000  121.684   27.240    0.471    0.317   38.372
   63.250  122.649   26.634    0.445    0.319   39.408
   63.500  123.126   28.202    0.453    0.322   41.968
   63.750  122.861   30.756    0.454    0.318   45.098
   64.000  122.340   32.725    0.435    0.307   42.281
   64.250  122.320   35.877    0.416    0.286   41.867
   64.500  122.302   37.247    0.427    0.272   59.109
   64.750  122.279   34.260    0.432    0.268   77.610
   65.000  122.258   29.686    0.418    0.288   92.174
   65.250  122.485   25.907    0.388    0.299  121.001
   65.500  123.205   25.891    0.390    0.296  161.775
   65.750  124.175   29.835    0.384    0.302  161.641
   66.000  125.150   32.592    0.392    0.305  170.597
   66.250  125.617   33.170    0.405    0.307  186.704
   66.500  125.849   35.134    0.398    0.296  113.120
   66.750  126.319   39.871    0.382    0.277   54.598
   67.000  125.561   49.361    0.382    0.273   37.575
   67.250  124.297   45.978    0.410    0.278   46.285
   67.500  123.289   40.414    0.459    0.284   80.551
   67.750  122.774   31.485    0.472    0.307   88.969
   68.000  122.256   26.119    0.406    0.306  136.324
   68.250  121.988   26.303    0.393    0.303  195.999
   68.500  121.967   24.304    0.385    0.303  228.584
   68.750  122.197   23.297    0.379    0.295  208.576
   69.000  122.424   23.079    0.380    0.280  199.157
   69.250  122.896   23.067    0.386    0.274  191.882
   69.500  122.878   24.237    0.397    0.288  184.891
   69.750  122.858   23.826    0.396    0.260  170.249
   70.000  122.832   25.392    0.397    0.275  143.111
   70.250  122.815   25.574    0.392    0.293  127.058
   70.500  122.541   26.746    0.388    0.295  136.547
   70.750  122.524   27.718    0.393    0.291  135.212
   71.000  122.503   27.307    0.381    0.302  125.630
   71.250  122.483   26.497    0.372    0.299  122.136
   71.500  122.465   25.888    0.380    0.297  112.464
   71.750  122.442   25.278    0.388    0.295   85.544
   72.000  122.174   26.052    0.392    0.281   71.264
   72.250  121.408   31.979    0.387    0.273   63.264
   72.500  120.648   40.281    0.379    0.269   60.402
   72.750  120.377   43.830    0.401    0.289   60.402
   73.000  120.607   42.031    0.413    0.304   59.226
   73.250  120.584   42.607    0.420    0.307   54.042
   73.500  120.566   42.590    0.413    0.313   50.208
   73.750  120.293   40.794    0.418    0.313   47.945
   74.000  120.027   37.804    0.407    0.292   45.361
   74.250  120.002   32.240    0.393    0.291   47.002
   74.500  120.231   34.603    0.397    0.296   55.823
   74.750  120.461   35.377    0.410    0.305   60.003
   75.000  119.698   30.207    0.422    0.312   65.656
   75.250  119.427   27.420    0.429    0.281   70.559
   75.500  119.402   26.415    0.432    0.293   73.126
   75.750  119.387   28.379    0.429    0.279   72.417
   76.000  119.366   34.503    0.425    0.294   33.399
   76.250  119.346   46.174    0.426    0.298   22.569
   76.500  119.325   69.924    0.419    0.295   17.482
   76.750  119.305   65.749    0.363    0.231   12.706
   77.000  119.284   60.781    0.382    0.259   12.582
   77.250  119.264   53.038    0.399    0.254   14.809
   77.500  119.486   49.655    0.411    0.258   17.273
   77.750  119.963   42.509    0.392    0.256   21.863
