~VERSION INFORMATION
VERS.                2.00:   CWLS LOG ASCII STANDARD -VERSION 2.0
WRAP.                  NO:
~WELL INFORMATION BLOCK
#MNEM.UNIT           DATA                    DESCRIPTION OF MNEMONIC
#---------    -------------------            -------------------------------
# Generated from Intellog Unique Number	nealta/WELL/1061
LOC .         03-12-096-10W4                 : Location     - LOCATION          
UWI .         AB/03-12-096-10W400            : Uwi          - UNIQUE WELL ID    
ENTR.         MAX                            : Entered      - ENTERED BY        
STRT.M            70.0000                    :
STOP.M           415.0000                    :
STEP.M             0.2500                    :
NULL.           -999.2500                    :
COMP.  SHELL CANADA                          :COMPANY
WELL.  ALSANDS 5021                          :WELL
FLD.                                         :FIELD
LOC.   03-12-096-10W4                        :LOCATION
CTRY.  CANADA                                :COUNTRY
PROV.  ALBERTA                               :PROVINCE
SRVC.  SCHLUMBERGER                          :SERVICE COMPANY
DATE.  11 MAR 80                             :LOG DATE
UWI.      AB/03-12-096-10W4/0                :UNIQUE WELL ID
~Curve Information Block
#MNEM UNIT       ERCB CURVE CODE    CURVE DESCRIPTION
#MNEM.UNIT        API CODE    Curve Description
#---------    ------------    -------------------------------------------
DEPT.M                    :   DEPTH
DPHI.V/V      00 890 00 00:   PHID         - DENSITY POROSITY (LIMESTONE)
GR  .API      00 310 00 00:   GR           - GAMMA RAY
NPHI.V/V      00 330 00 00:   PHIN         - NEUTRON POROSITY (LIMESTONE)
~PARAMETER INFORMATION       
#MNEM.UNIT           DATA             DESCRIPTION OF MNEMONIC
#---------         -----------     ------------------------------
GL  .M        299                  : gl           - GROUND LEVEL ELEVATION      
EREF.M        10                   : kb           - ELEVATION OF DEPTH REFERENCE
DATM.M        10                   : datum        - DATUM ELEVATION             
TDD .M        414.5                : tdd          - TOTAL DEPTH DRILLER         
RUN .         ONE                  : Run          - RUN NUMBER                  
ENG .         BILL                 : Engineer     - RECORDING ENGINEER          
WIT .         JIM                  : Witness      - WITNESSED BY                
MUD .         GEL                  : Mud_type     - MUD TYPE                    
MATR.         LIMESTONE            : Logunit      - NEUTRON MATRIX              
TMAX.C        33                   : BHT          - MAXIMUM RECORDED TEMPERATURE
BHTD.M        414.5                : BHTDEP       - MAXIMUM RECORDED TEMPERATURE
RMT .C        25                   : MDTP         - TEMPERATURE OF MUD          
MUDD.KG/M     1100                 : MWT          - MUD DENSITY                 
NEUT.         1                    : NEUTRON      - NEUTRON TYPE                
RESI.         0                    : RESIST       - RESISTIVITY TYPE            
RM  .OHMM     0.25                 : RM           - RESISTIVITY OF MUD          
RMC .OHMM     0.25                 : RMC          - RESISTIVITY OF MUD CAKE     
RMF .OHMM     0.25                 : RMF          - RESISTIVITY OF MUD FILTRATE 
SUFT.C        4                    : SUFT         - SURFACE TEMPERATURE         
~A  Depth           DPHI          GR        NPHI
# ...
275.0000          0.0539     38.1150      0.2307
275.2500          0.0310     40.0500      0.2212
275.5000         -0.0003     42.6200      0.2133
275.7500         -0.0156     47.0980      0.2173
276.0000         -0.0258     51.5750      0.2250
276.2500         -0.0364     56.0530      0.2944
276.5000         -0.0508     54.1730      0.3130
276.7500         -0.0403     44.0310      0.2879
277.0000         -0.0351     45.3370      0.2532
277.2500         -0.0238     47.2720      0.2467
277.5000          0.0070     46.0280      0.2601
277.7500          0.0494     42.2350      0.2736
278.0000          0.0742     42.2700      0.2337
278.2500          0.0571     39.7620      0.1794
278.5000          0.0567     37.2480      0.1804
278.7500          0.0533     34.7330      0.1967
279.0000          0.0483     34.1250      0.1501
279.2500          0.0430     35.4170      0.1256
279.5000          0.0388     39.2660      0.1323
279.7500          0.0347     39.9230      0.1541
280.0000          0.0437     45.6710      0.1835
280.2500          0.0454     55.2410      0.2112
280.5000          0.0442     61.6250      0.2535
280.7500          0.0427     63.5600      0.2923
281.0000          0.0518     60.4100      0.3119
281.2500          0.0353     56.6310      0.2893
281.5000          0.0203     57.9300      0.2677
281.7500          0.0172     59.8640      0.2610
282.0000          0.0327     65.6200      0.2743
282.2500          0.0479     63.7340      0.2921
282.5000          0.0619     58.0410      0.2995
282.7500          0.0712     54.2620      0.2728
283.0000          0.0562     55.5610      0.2551
283.2500          0.0491     56.2180      0.2480
283.5000          0.0877     60.0590      0.2513
283.7500          0.0991     61.3590      0.2580
284.0000          0.0870     63.9360      0.2411
284.2500          0.0876     71.5990      0.2192
284.5000          0.0992     72.2550      0.1966
284.7500          0.0947     74.8330      0.2043
285.0000          0.0815     75.4960      0.2240
285.2500          0.0694     72.9810      0.2497
285.5000          0.0788     71.7310      0.2846
285.7500          0.0865     78.7580      0.3111
286.0000          0.0707     85.1490      0.2611
286.2500          0.0621     83.2630      0.2575
286.5000          0.0550     77.5700      0.2877
286.7500          0.0504     74.4200      0.2871
287.0000          0.0574     77.6260      0.2802
287.2500          0.0954     73.2040      0.2859
287.5000          0.1122     68.7900      0.2775
287.7500          0.1142     73.2600      0.2672
288.0000          0.1115     83.4650      0.2542
288.2500          0.1100     82.8580      0.2734
288.5000          0.1073     79.0710      0.2928
288.7500          0.1009     74.0140      0.3090
289.0000          0.0904     70.2350      0.2785
289.2500          0.0733     70.2560      0.2493
289.5000          0.0681     70.9260      0.2309
289.7500          0.0877     72.2250      0.2192
290.0000          0.0873     70.3390      0.2430
290.2500          0.0815     66.5530      0.2789
290.5000          0.0877     67.8590      0.3041
290.7500          0.1054     70.4370      0.3226
291.0000          0.1139     67.2870      0.3214
291.2500          0.0886     64.7650      0.3295
291.5000          0.0744     62.8930      0.3471
291.7500          0.0565     59.7350      0.3717
292.0000          0.0390     55.3210      0.3938
292.2500          0.0227     59.7910      0.3496
292.5000          0.0389     65.5400      0.2359
292.7500          0.0484     67.4880      0.2911
293.0000          0.0549     63.6950      0.3410
293.2500          0.0811     58.6380      0.3000
293.5000          0.0982     57.4020      0.2560
293.7500          0.1076     56.1510      0.2993
294.0000          0.1200     51.0940      0.3574
294.2500          0.1279     49.8500      0.2995
294.5000          0.1318     54.3350      0.2879
294.7500          0.0996     60.7120      0.2209
295.0000          0.0786     70.9240      0.2011
295.2500          0.0702     70.9520      0.2274
295.5000          0.0716     77.9650      0.2357
295.7500          0.0834     91.3420      0.2181
296.0000          0.1005    104.0900      0.2628
296.2500          0.1053    112.3810      0.2974
296.5000          0.0980    112.4090      0.3115
296.7500          0.0917     95.2740      0.2928
297.0000          0.0878     80.6820      0.3079
297.2500          0.0841     69.2680      0.3340
297.5000          0.1079     66.7530      0.3582
297.7500          0.1317     68.0520      0.3570
298.0000          0.1451     74.4370      0.3324
298.2500          0.1558     86.5560      0.3377
298.5000          0.1639     90.3910      0.3148
298.7500          0.1758     96.1400      0.2966
299.0000          0.1797    100.6170      0.3003
299.2500          0.1708     92.3810      0.3155
299.5000          0.1591     92.4090      0.3282
299.7500          0.1484     97.5220      0.3219
300.0000          0.0960    105.1780      0.2910
300.2500          0.0922    123.6540      0.2662
300.5000          0.0968    128.1240      0.2564
300.7500          0.1135    144.6790      0.2573
301.0000          0.1341    163.7830      0.2647
301.2500          0.1487    172.0750      0.2696
301.5000          0.1588    170.8310      0.2733
301.7500          0.1839    176.5800      0.2745
302.0000          0.1834    179.7930      0.2743
302.2500          0.1696    174.1000      0.2680
302.5000          0.1599    161.4150      0.2571
302.7500          0.1494    148.0870      0.2586
303.0000          0.1526    139.2160      0.2703
303.2500          0.1586    132.2580      0.2804
303.5000          0.1670    136.1210      0.2944
303.7500          0.1732    137.3990      0.3089
304.0000          0.1758    139.9770      0.3307
304.2500          0.1710    141.2690      0.2968
304.5000          0.1755    157.1880      0.2723
304.7500          0.1694    171.2140      0.2637
305.0000          0.1557    166.1500      0.2828
305.2500          0.1446    169.3560      0.2782
305.5000          0.1373    181.4610      0.2671
305.7500          0.1396    181.4890      0.2578
306.0000          0.1515    173.8960      0.2523
306.2500          0.1510    180.2800      0.2533
306.5000          0.1442    186.0290      0.2557
306.7500          0.1387    181.6070      0.2618
307.0000          0.1358    156.2020      0.2728
307.2500          0.1499    147.3310      0.2754
307.5000          0.1480    146.0950      0.2500
307.7500          0.1383    159.4780      0.2337
308.0000          0.1315    170.3120      0.2130
308.2500          0.1496    172.2400      0.1967
308.5000          0.1674    181.1740      0.2004
308.7500          0.1985    186.2870      0.2288
309.0000          0.2191    183.7720      0.2459
309.2500          0.2359    184.4360      0.2566
309.5000          0.2482    200.3550      0.2633
309.7500          0.2613    204.2030      0.2706
310.0000          0.2724    215.6730      0.2843
310.2500          0.2942    229.6850      0.2978
310.5000          0.3011    234.7980      0.3082
310.7500          0.2885    245.6390      0.2844
311.0000          0.2463    252.6590      0.2229
311.2500          0.2218    256.5010      0.1466
311.5000          0.1561    253.3510      0.0979
311.7500          0.1020    246.3860      0.0799
312.0000          0.0853    229.8940      0.0762
312.2500          0.0769    224.1940      0.0800
312.5000          0.0804    217.8660      0.0759
312.7500          0.0747    213.4440      0.0566
313.0000          0.0682    213.4860      0.0466
313.2500          0.0736    216.6780      0.0349
313.5000          0.0765    219.8840      0.0233
313.7500          0.0724    217.3760      0.0190
314.0000          0.0706    205.9620      0.0213
314.2500          0.0692    197.0980      0.0268
314.5000          0.0712    198.3970      0.0287
314.7500          0.0724    201.5960      0.0280
315.0000          0.0666    208.6160      0.0259
315.2500          0.0552    204.8370      0.0218
315.5000          0.0497    203.5870      0.0189
315.7500          0.0507    206.1710      0.0150
