~VERSION INFORMATION
VERS.                2.00:   CWLS LOG ASCII STANDARD -VERSION 2.0
WRAP.                  NO:
~WELL INFORMATION BLOCK
#MNEM.UNIT           DATA                    DESCRIPTION OF MNEMONIC
#---------    -------------------            -------------------------------
# Generated from Intellog Unique Number	nealta/WELL/1061
LOC .         03-12-096-10W4                 : Location     - LOCATION          
UWI .         AB/03-12-096-10W400            : Uwi          - UNIQUE WELL ID    
ENTR.         MAX                            : Entered      - ENTERED BY        
STRT.M            70.0000                    :
STOP.M           415.0000                    :
STEP.M             0.2500                    :
NULL.           -999.2500                    :
COMP.  SHELL CANADA                          :COMPANY
WELL.  ALSANDS 5021                          :WELL
FLD.                                         :FIELD
LOC.   03-12-096-10W4                        :LOCATION
CTRY.  CANADA                                :COUNTRY
PROV.  ALBERTA                               :PROVINCE
SRVC.  SCHLUMBERGER                          :SERVICE COMPANY
DATE.  11 MAR 80                             :LOG DATE
UWI.      AB/03-12-096-10W4/0                :UNIQUE WELL ID
~Curve Information Block
#MNEM UNIT       ERCB CURVE CODE    CURVE DESCRIPTION
#MNEM.UNIT        API CODE    Curve Description
#---------    ------------    -------------------------------------------
DEPT.M                    :   DEPTH
DPHI.V/V      00 890 00 00:   PHID         - DENSITY POROSITY (LIMESTONE)
GR  .API      00 310 00 00:   GR           - GAMMA RAY
NPHI.V/V      00 330 00 00:   PHIN         - NEUTRON POROSITY (LIMESTONE)
~PARAMETER INFORMATION       
#MNEM.UNIT           DATA             DESCRIPTION OF MNEMONIC
#---------         -----------     ------------------------------
GL  .M        299                  : gl           - GROUND LEVEL ELEVATION      
EREF.M        10                   : kb           - ELEVATION OF DEPTH REFERENCE
DATM.M        10                   : datum        - DATUM ELEVATION             
TDD .M        414.5                : tdd          - TOTAL DEPTH DRILLER         
RUN .         ONE                  : Run          - RUN NUMBER                  
ENG .         BILL                 : Engineer     - RECORDING ENGINEER          
WIT .         JIM                  : Witness      - WITNESSED BY                
MUD .         GEL                  : Mud_type     - MUD TYPE                    
MATR.         LIMESTONE            : Logunit      - NEUTRON MATRIX              
TMAX.C        33                   : BHT          - MAXIMUM RECORDED TEMPERATURE
BHTD.M        414.5                : BHTDEP       - MAXIMUM RECORDED TEMPERATURE
RMT .C        25                   : MDTP         - TEMPERATURE OF MUD          
MUDD.KG/M     1100                 : MWT          - MUD DENSITY                 
NEUT.         1                    : NEUTRON      - NEUTRON TYPE                
RESI.         0                    : RESIST       - RESISTIVITY TYPE            
RM  .OHMM     0.25                 : RM           - RESISTIVITY OF MUD          
RMC .OHMM     0.25                 : RMC          - RESISTIVITY OF MUD CAKE     
RMF .OHMM     0.25                 : RMF          - RESISTIVITY OF MUD FILTRATE 
SUFT.C        4                    : SUFT         - SURFACE TEMPERATURE         
~A  Depth           DPHI          GR        NPHI
# ...
193.0000         -0.0979      5.8380      0.0123
193.2500         -0.0932      6.4940      0.0220
193.5000         -0.1001      8.4290      0.0329
193.7500         -0.1125      9.7280      0.0525
194.0000         -0.1210     10.3990      0.0625
194.2500         -0.1291      9.1550      0.0692
194.5000         -0.0668      8.5470      0.0622
194.7500         -0.0462      9.2180      0.0426
195.0000         -0.0627      9.2390      0.0489
195.2500         -0.0865      8.0090      0.0484
195.5000         -0.1103      7.3880      0.0434
195.7500         -0.1232      9.9650      0.0395
196.0000         -0.0791     11.9000      0.0342
196.2500         -0.0468     12.5560      0.0353
196.5000         -0.0512     10.6770      0.0582
196.7500         -0.0609      8.1760      0.0602
197.0000         -0.0761     10.7470      0.0526
197.2500         -0.0730     13.3100      0.0389
197.5000         -0.0658     17.1590      0.0278
197.7500         -0.0595     17.1870      0.0387
198.0000         -0.0460     14.0300      0.0527
198.2500         -0.0617     11.5150      0.0770
198.5000         -0.0725      9.6360      0.1067
198.7500         -0.0865      7.1210      0.0857
199.0000         -0.0999      7.7910      0.0495
199.2500         -0.0913      9.7330      0.0332
199.5000         -0.0882     10.3970      0.0359
199.7500         -0.0881     11.0530      0.0451
200.0000         -0.0766     11.0810      0.0515
200.2500         -0.0744      9.8520      0.0473
200.5000         -0.0695      9.8730      0.0447
200.7500         -0.0571      9.9000      0.0373
201.0000         -0.0622      9.9280      0.0282
201.2500         -0.0729     11.2270      0.0266
201.5000         -0.0715     13.7980      0.0313
201.7500         -0.0594     13.8330      0.0446
202.0000         -0.0458     17.0390      0.0376
202.2500         -0.0496     15.7880      0.0364
202.5000         -0.0877     12.6450      0.0447
202.7500         -0.1142     12.0370      0.0375
203.0000         -0.1378     13.3430      0.0308
203.2500         -0.1470     14.0000      0.0368
203.5000         -0.1460     14.6630      0.0550
203.7500         -0.1437     10.8770      0.0705
204.0000         -0.1354      7.0980      0.0415
204.2500         -0.1385      5.2260      0.0236
204.5000         -0.1400      5.2400      0.0087
204.7500         -0.1314      3.9960      0.0094
205.0000         -0.1345      3.3960      0.0107
205.2500         -0.1178      3.4170      0.0083
205.5000         -0.0886      3.4510      0.0061
205.7500         -0.0613      3.4790      0.0054
206.0000         -0.0399      3.5140      0.0065
206.2500         -0.0057      3.5350      0.0089
206.5000          0.0342      3.5700      0.0174
206.7500          0.0798      3.5910      0.0307
207.0000          0.0940      4.2540      0.0442
207.2500          0.0825      4.2820      0.0823
207.5000          0.0643      4.3100      0.1090
207.7500          0.0576      4.3380      0.1526
208.0000          0.0583      6.9150      0.2173
208.2500          0.0636     11.3990      0.2976
208.5000          0.0893     10.7920      0.3044
208.7500          0.1124     10.1840      0.3021
209.0000          0.1239     11.4830      0.3044
209.2500          0.1280     11.5110      0.2856
209.5000          0.1108     12.1680      0.2725
209.7500          0.0662     13.4810      0.2779
210.0000         -0.0195     16.0440      0.3001
210.2500         -0.0591     21.8000      0.3285
210.5000         -0.1213     23.7280      0.3549
210.7500         -0.1393     23.1200      0.3779
211.0000         -0.1441     18.0620      0.4081
211.2500         -0.1460     13.0120      0.4352
211.5000         -0.1451     11.1260      0.3211
211.7500         -0.1488      9.8830      0.2415
212.0000         -0.1454      8.0030      0.1497
212.2500         -0.1404      6.7670      0.0824
212.5000         -0.1446      6.1590      0.0475
212.7500         -0.1434      6.1870      0.0160
213.0000         -0.1465      5.5860      0.0080
213.2500         -0.1471      4.3360      0.0048
213.5000         -0.1451      3.0990      0.0042
213.7500         -0.1449      2.4910      0.0048
214.0000         -0.1451      2.5260      0.0050
214.2500         -0.1462      2.5400      0.0049
214.5000         -0.1466      2.5680      0.0048
214.7500         -0.1480      3.8810      0.0047
215.0000         -0.1471      4.5520      0.0046
215.2500         -0.1481      4.5720      0.0045
215.5000         -0.1494      5.2360      0.0043
215.7500         -0.1465      5.2570      0.0053
216.0000         -0.1484      5.2850      0.0053
216.2500         -0.1450      5.3270      0.0052
216.5000         -0.1428      5.3400      0.0051
216.7500         -0.1427      5.3750      0.0050
217.0000         -0.1478      3.5100      0.0048
217.2500         -0.1443      3.5310      0.0047
217.5000         -0.1475      2.9160      0.0056
217.7500         -0.1429      2.9580      0.0057
218.0000         -0.1466      2.9720      0.0068
218.2500         -0.1450      2.3640      0.0080
218.5000         -0.1427      1.7700      0.0089
218.7500         -0.1425      2.4200      0.0089
219.0000         -0.1450      2.4480      0.0089
219.2500         -0.1465      2.4890      0.0087
219.5000         -0.1470      2.5170      0.0086
219.7500         -0.1476      2.5380      0.0085
220.0000         -0.1481      3.2020      0.0092
220.2500         -0.1486      3.2370      0.0094
220.5000         -0.1492      1.9930      0.0104
220.7500         -0.1497      2.0210      0.0114
221.0000         -0.1487      2.0420      0.0115
221.2500         -0.1477      2.7120      0.0115
221.5000         -0.1485      3.3830      0.0123
221.7500         -0.1479      3.4110      0.0147
222.0000         -0.1468      3.4380      0.0216
222.2500         -0.1481      3.4730      0.0222
222.5000         -0.1483      3.4870      0.0222
222.7500         -0.1492      3.5150      0.0221
223.0000         -0.1476      3.5430      0.0208
223.2500         -0.1304      2.9350      0.0194
223.5000         -0.0926      2.9700      0.0180
223.7500         -0.0466      3.6330      0.0178
224.0000         -0.0239      3.0400      0.0177
224.2500         -0.0448      2.4180      0.0188
224.5000         -0.0651      2.4460      0.0224
224.7500         -0.0830      3.1090      0.0248
225.0000         -0.1029      4.4150      0.0321
225.2500         -0.1244      5.7150      0.0443
225.5000         -0.1102      6.3780      0.0713
225.7500         -0.0688      5.7700      0.0955
226.0000         -0.0469      5.7980      0.1247
226.2500         -0.0463      6.4620      0.1766
226.5000         -0.0403      6.4890      0.1618
226.7500         -0.0299      4.6170      0.1230
227.0000         -0.0541      4.6380      0.0609
227.2500         -0.0737      5.9370      0.0422
227.5000         -0.1000      8.5080      0.0434
227.7500         -0.1078      8.5500      0.0659
228.0000         -0.1010      6.6700      0.1226
228.2500         -0.1028      6.0630      0.1833
228.5000         -0.0416      7.3620      0.1774
228.7500         -0.0173      7.3970      0.1818
229.0000          0.0286      6.1530      0.1971
229.2500          0.0858      5.5380      0.2098
229.5000          0.1334      5.5730      0.2161
229.7500          0.1062      4.9520      0.1836
230.0000          0.0716      4.3440      0.1337
230.2500          0.0199      4.3790      0.0831
230.5000          0.0034      4.4060      0.0813
230.7500          0.0066      3.8060      0.0898
231.0000          0.0046      3.1910      0.1005
231.2500          0.0158      4.4900      0.1105
231.5000          0.0156      6.4250      0.1316
231.7500          0.0178      8.9950      0.1959
232.0000          0.0227     10.2940      0.2634
232.2500          0.0203     12.2290      0.4121
232.5000          0.0076     14.1710      0.4329
232.7500          0.0038     11.6560      0.2634
233.0000          0.0034     10.4200      0.1940
233.2500          0.0032     12.3480      0.1941
233.5000          0.0065     12.3820      0.2064
233.7500          0.0067     10.5030      0.2175
