~VERSION INFORMATION
VERS.                2.00:   CWLS LOG ASCII STANDARD -VERSION 2.0
WRAP.                  NO:
~WELL INFORMATION BLOCK
#MNEM.UNIT           DATA                    DESCRIPTION OF MNEMONIC
#---------    -------------------            -------------------------------
# Generated from Intellog Unique Number	nealta/WELL/1061
LOC .         03-12-096-10W4                 : Location     - LOCATION          
UWI .         AB/03-12-096-10W400            : Uwi          - UNIQUE WELL ID    
ENTR.         MAX                            : Entered      - ENTERED BY        
STRT.M            70.0000                    :
STOP.M           415.0000                    :
STEP.M             0.2500                    :
NULL.           -999.2500                    :
COMP.  SHELL CANADA                          :COMPANY
WELL.  ALSANDS 5021                          :WELL
FLD.                                         :FIELD
LOC.   03-12-096-10W4                        :LOCATION
CTRY.  CANADA                                :COUNTRY
PROV.  ALBERTA                               :PROVINCE
SRVC.  SCHLUMBERGER                          :SERVICE COMPANY
DATE.  11 MAR 80                             :LOG DATE
UWI.      AB/03-12-096-10W4/0                :UNIQUE WELL ID
~Curve Information Block
#MNEM UNIT       ERCB CURVE CODE    CURVE DESCRIPTION
#MNEM.UNIT        API CODE    Curve Description
#---------    ------------    -------------------------------------------
DEPT.M                    :   DEPTH
DPHI.V/V      00 890 00 00:   PHID         - DENSITY POROSITY (LIMESTONE)
GR  .API      00 310 00 00:   GR           - GAMMA RAY
NPHI.V/V      00 330 00 00:   PHIN         - NEUTRON POROSITY (LIMESTONE)
~PARAMETER INFORMATION       
#MNEM.UNIT           DATA             DESCRIPTION OF MNEMONIC
#---------         -----------     ------------------------------
GL  .M        299                  : gl           - GROUND LEVEL ELEVATION      
EREF.M        10                   : kb           - ELEVATION OF DEPTH REFERENCE
DATM.M        10                   : datum        - DATUM ELEVATION             
TDD .M        414.5                : tdd          - TOTAL DEPTH DRILLER         
RUN .         ONE                  : Run          - RUN NUMBER                  
ENG .         BILL                 : Engineer     - RECORDING ENGINEER          
WIT .         JIM                  : Witness      - WITNESSED BY                
MUD .         GEL                  : Mud_type     - MUD TYPE                    
MATR.         LIMESTONE            : Logunit      - NEUTRON MATRIX              
TMAX.C        33                   : BHT          - MAXIMUM RECORDED TEMPERATURE
BHTD.M        414.5                : BHTDEP       - MAXIMUM RECORDED TEMPERATURE
RMT .C        25                   : MDTP         - TEMPERATURE OF MUD          
MUDD.KG/M     1100                 : MWT          - MUD DENSITY                 
NEUT.         1                    : NEUTRON      - NEUTRON TYPE                
RESI.         0                    : RESIST       - RESISTIVITY TYPE            
RM  .OHMM     0.25                 : RM           - RESISTIVITY OF MUD          
RMC .OHMM     0.25                 : RMC          - RESISTIVITY OF MUD CAKE     
RMF .OHMM     0.25                 : RMF          - RESISTIVITY OF MUD FILTRATE 
SUFT.C        4                    : SUFT         - SURFACE TEMPERATURE         
~A  Depth           DPHI          GR        NPHI
# ...
152.0000          0.0565     74.2440      0.3660
152.2500          0.0260     62.8300      0.3295
152.5000          0.0066     41.2390      0.2489
152.7500          0.0122     24.1040      0.2039
153.0000          0.0115     16.5040      0.1477
153.2500          0.0125     16.5320      0.0566
153.5000          0.0100     18.4740      0.0368
153.7500          0.0363     18.4950      0.0341
154.0000          0.0388     15.3450      0.0397
154.2500          0.0400     14.7510      0.0447
154.5000          0.0381     14.7780      0.0448
154.7500          0.0331     12.9060      0.0435
155.0000          0.0332     12.2920      0.0458
155.2500          0.0287     11.6840      0.0482
155.5000          0.0211     12.9830      0.0494
155.7500          0.0119     14.2750      0.0493
156.0000          0.0026     16.8530      0.0501
156.2500          0.0009     16.8800      0.0492
156.5000          0.0079     15.6370      0.0489
156.7500          0.0081     16.3080      0.0488
157.0000          0.0038     16.9710      0.0486
157.2500          0.0052     16.9990      0.0475
157.5000          0.0195     18.3050      0.0461
157.7500          0.0236     18.9540      0.0449
158.0000          0.0206     19.6180      0.0444
158.2500          0.0142     17.7390      0.0431
158.5000          0.0112     16.5020      0.0418
158.7500          0.0110     17.1660      0.0406
159.0000          0.0246     20.3720      0.0390
159.2500          0.0322     25.4850      0.0369
159.5000          0.0498     31.8770      0.0373
159.7500          0.0650     37.6250      0.0419
160.0000          0.0863     42.7380      0.0502
160.2500          0.1002     45.9510      0.0622
160.5000          0.0949     49.1510      0.0986
160.7500          0.1012     52.9990      0.1330
161.0000          0.1065     56.1980      0.1535
161.2500          0.0983     58.7690      0.1585
161.5000          0.0880     60.7110      0.1778
161.7500          0.0761     55.0180      0.1696
162.0000          0.0616     49.3250      0.1622
162.2500          0.0939     41.0890      0.1739
162.5000          0.1156     33.4890      0.1689
162.7500          0.1287     38.6020      0.1517
163.0000          0.1204     45.6220      0.1262
163.2500          0.1171     52.6420      0.0956
163.5000          0.1196     63.4830      0.0750
163.7500          0.1145     71.7740      0.0965
164.0000          0.1057     71.1740      0.1368
164.2500          0.0976     66.7520      0.1944
164.5000          0.0991     63.5940      0.1945
164.7500          0.0930     66.8010      0.1824
165.0000          0.0976     73.8210      0.1716
165.2500          0.0945     70.0340      0.2044
165.5000          0.0885     63.0770      0.2298
165.7500          0.0820     66.9190      0.2142
166.0000          0.0960     70.7610      0.1960
166.2500          0.1077     68.8890      0.2177
166.5000          0.1049     67.6380      0.2334
166.7500          0.0952     67.0370      0.2452
167.0000          0.0882     68.9720      0.2553
167.2500          0.0913     72.1710      0.2528
167.5000          0.0987     70.9280      0.2425
167.7500          0.0916     65.8710      0.2507
168.0000          0.0838     54.4570      0.2624
168.2500          0.0929     53.2270      0.2565
168.5000          0.1243     53.2550      0.2201
168.7500          0.1363     51.3760      0.2016
169.0000          0.1231     50.1250      0.2036
169.2500          0.1004     54.6030      0.2023
169.5000          0.0762     64.1650      0.1907
169.7500          0.0572     87.0840      0.2121
170.0000          0.0951     92.1970      0.2692
170.2500          0.1398     80.7830      0.3530
170.5000          0.1672     63.0130      0.3671
170.7500          0.1924     52.2340      0.3491
171.0000          0.2095     47.8190      0.3063
171.2500          0.2168     58.6470      0.2607
171.5000          0.2149     42.7830      0.2114
171.7500          0.2232     25.6480      0.2714
172.0000          0.2308     21.8690      0.3782
172.2500          0.2226     23.1610      0.9697
172.5000          0.2188     23.8250      0.6106
172.7500          0.2212     20.0460      0.5213
173.0000          0.2259     20.0740      0.5236
173.2500          0.2447     20.0950      0.5273
173.5000          0.2604     18.8580      0.5229
173.7500          0.2549     18.2500      0.5180
174.0000          0.2541     18.9140      0.5107
174.2500          0.2620     21.4910      0.5018
174.5000          0.2719     22.7900      0.5016
174.7500          0.2666     23.4540      0.5265
175.0000          0.2588     24.7530      0.5317
175.2500          0.2610     25.4170      0.5356
175.5000          0.2577     23.5300      0.5351
175.7500          0.2538     17.8440      0.5375
176.0000          0.2498     15.3370      0.5458
176.2500          0.2457     15.3510      0.5480
176.5000          0.2531     12.8430      0.5349
176.7500          0.2491     12.8710      0.5206
177.0000          0.2438     14.8050      0.5048
177.2500          0.2347     19.2830      0.4990
177.5000          0.2209     21.2180      0.4932
177.7500          0.1939     17.4320      0.4873
178.0000          0.1594     14.9240      0.4815
178.2500          0.1179     15.5940      0.4757
178.5000          0.1194     15.6220      0.4698
178.7500          0.1805     15.0140      0.4640
179.0000          0.2171     12.4930      0.4581
179.2500          0.2428      9.9780      0.4523
179.5000          0.2564      8.1060      0.4394
179.7500          0.2500     10.0470      0.3540
180.0000          0.2446     11.9750      0.2263
180.2500          0.2454     15.1810      0.2511
180.5000          0.2434     17.7520      0.3011
180.7500          0.2504     22.2360      0.3583
181.0000          0.2557     22.9000      0.4439
181.2500          0.2619     25.4630      0.5153
181.5000          0.2570     29.3050      0.5189
181.7500          0.2337     29.9690      0.5113
182.0000          0.2172     26.1830      0.5104
182.2500          0.2000     17.3110      0.4996
182.5000          0.1724     12.2610      0.4888
182.7500          0.1560     11.6530      0.4780
183.0000          0.1771     11.6740      0.4672
183.2500          0.1722     11.7090      0.4564
183.5000          0.1631     12.3790      0.4423
183.7500          0.1993     14.3140      0.4083
184.0000          0.2360     16.2490      0.3810
184.2500          0.3192     16.9120      0.3459
184.5000          0.3535     18.2120      0.3166
184.7500          0.3294     17.5970      0.3246
185.0000          0.2355     16.9890      0.3665
185.2500          0.1805     18.2950      0.4009
185.5000          0.1738     19.5940      0.4215
185.7500          0.1857     20.2580      0.4461
186.0000          0.1820     21.5570      0.4707
186.2500          0.1539     19.6780      0.4905
186.5000          0.1312     19.0770      0.5428
186.7500          0.0942     21.6400      0.5123
187.0000          0.0722     24.2110      0.4535
187.2500          0.0967     21.7030      0.4682
187.5000          0.1370     22.3670      0.4722
187.7500          0.1591     24.3020      0.4096
188.0000          0.1913     24.9650      0.4336
188.2500          0.0829     23.0860      0.3572
188.5000          0.0143     19.3000      0.3038
188.7500         -0.0184     15.5140      0.2673
189.0000         -0.0580     19.9910      0.2254
189.2500         -0.0753     23.8330      0.3050
189.5000         -0.0939     18.7820      0.3780
189.7500         -0.1140     16.2680      0.4023
190.0000         -0.0912     12.4820      0.3683
190.2500         -0.0783     11.8740      0.2746
190.5000         -0.0980     10.6300      0.2169
190.7500         -0.1148      9.3870      0.1243
191.0000         -0.1162      9.4220      0.0732
191.2500         -0.1199      8.8140      0.0364
191.5000         -0.1158     12.0130      0.0395
191.7500         -0.1085     13.9480      0.0492
192.0000         -0.1105      8.2550      0.0550
192.2500         -0.1022      5.7400      0.0475
192.5000         -0.0850      4.5110      0.0342
192.7500         -0.0957      5.8100      0.0175
