~VERSION INFORMATION
VERS.                2.00:   CWLS LOG ASCII STANDARD -VERSION 2.0
WRAP.                  NO:
~WELL INFORMATION BLOCK
#MNEM.UNIT           DATA                    DESCRIPTION OF MNEMONIC
#---------    -------------------            -------------------------------
# Generated from Intellog Unique Number	nealta/WELL/1061
LOC .         03-12-096-10W4                 : Location     - LOCATION          
UWI .         AB/03-12-096-10W400            : Uwi          - UNIQUE WELL ID    
ENTR.         MAX                            : Entered      - ENTERED BY        
STRT.M            70.0000                    :
STOP.M           415.0000                    :
STEP.M             0.2500                    :
NULL.           -999.2500                    :
COMP.  SHELL CANADA                          :COMPANY
WELL.  ALSANDS 5021                          :WELL
FLD.                                         :FIELD
LOC.   03-12-096-10W4                        :LOCATION
CTRY.  CANADA                                :COUNTRY
PROV.  ALBERTA                               :PROVINCE
SRVC.  SCHLUMBERGER                          :SERVICE COMPANY
DATE.  11 MAR 80                             :LOG DATE
UWI.      AB/03-12-096-10W4/0                :UNIQUE WELL ID
~Curve Information Block
#MNEM UNIT       ERCB CURVE CODE    CURVE DESCRIPTION
#MNEM.UNIT        API CODE    Curve Description
#---------    ------------    -------------------------------------------
DEPT.M                    :   DEPTH
DPHI.V/V      00 890 00 00:   PHID         - DENSITY POROSITY (LIMESTONE)
GR  .API      00 310 00 00:   GR           - GAMMA RAY
NPHI.V/V      00 330 00 00:   PHIN         - NEUTRON POROSITY (LIMESTONE)
~PARAMETER INFORMATION       
#MNEM.UNIT           DATA             DESCRIPTION OF MNEMONIC
#---------         -----------     ------------------------------
GL  .M        299                  : gl           - GROUND LEVEL ELEVATION      
EREF.M        10                   : kb           - ELEVATION OF DEPTH REFERENCE
DATM.M        10                   : datum        - DATUM ELEVATION             
TDD .M        414.5                : tdd          - TOTAL DEPTH DRILLER         
RUN .         ONE                  : Run          - RUN NUMBER                  
ENG .         BILL                 : Engineer     - RECORDING ENGINEER          
WIT .         JIM                  : Witness      - WITNESSED BY                
MUD .         GEL                  : Mud_type     - MUD TYPE                    
MATR.         LIMESTONE            : Logunit      - NEUTRON MATRIX              
TMAX.C        33                   : BHT          - MAXIMUM RECORDED TEMPERATURE
BHTD.M        414.5                : BHTDEP       - MAXIMUM RECORDED TEMPERATURE
RMT .C        25                   : MDTP         - TEMPERATURE OF MUD          
MUDD.KG/M     1100                 : MWT          - MUD DENSITY                 
NEUT.         1                    : NEUTRON      - NEUTRON TYPE                
RESI.         0                    : RESIST       - RESISTIVITY TYPE            
RM  .OHMM     0.25                 : RM           - RESISTIVITY OF MUD          
RMC .OHMM     0.25                 : RMC          - RESISTIVITY OF MUD CAKE     
RMF .OHMM     0.25                 : RMF          - RESISTIVITY OF MUD FILTRATE 
SUFT.C        4                    : SUFT         - SURFACE TEMPERATURE         
~A  Depth           DPHI          GR        NPHI
# ...
234.0000         -0.0029     10.5310      0.2285
234.2500         -0.0123     15.6370      0.2215
234.5000         -0.0208     18.8500      0.2121
234.7500         -0.0225     21.4210      0.2062
235.0000         -0.0251     25.2700      0.2038
235.2500         -0.0234     24.0260      0.2033
235.5000          0.0119     19.5970      0.2042
235.7500          0.0364     15.1830      0.2064
236.0000          0.0349     12.6680      0.2055
236.2500          0.0210     13.9670      0.2009
236.5000          0.0075     16.5380      0.1840
236.7500         -0.0020     18.4720      0.1643
237.0000         -0.0037     20.4210      0.1585
237.2500         -0.0008     20.4350      0.1570
237.5000         -0.0024     19.1920      0.1631
237.7500          0.0003     14.7700      0.1915
238.0000          0.0017     11.6260      0.2335
238.2500          0.0073     12.2830      0.2948
238.5000          0.0422     14.2180      0.2801
238.7500          0.0697     18.0670      0.2360
239.0000          0.0858     15.5520      0.1969
239.2500          0.1053     11.7730      0.1720
239.5000          0.1323     10.5290      0.1569
239.7500          0.1318     11.8210      0.1537
240.0000          0.1338     15.0270      0.1576
240.2500          0.1384     15.6980      0.1613
240.5000          0.1456     18.2620      0.1671
240.7500          0.1335     20.8320      0.1775
241.0000          0.1189     24.6880      0.1906
241.2500          0.1094     24.0870      0.2111
241.5000          0.0922     26.6500      0.2474
241.7500          0.0903     26.0430      0.2880
242.0000          0.1008     22.8920      0.3247
242.2500          0.1216     21.6490      0.3485
242.5000          0.1429     22.3120      0.3350
242.7500          0.1406     27.4180      0.3331
243.0000          0.1310     28.0890      0.3361
243.2500          0.0903     24.9380      0.3494
243.5000          0.1112     21.7950      0.3565
243.7500          0.1277     19.9090      0.3529
244.0000          0.0771     17.3940      0.3579
244.2500          0.0101     24.4140      0.3517
244.5000         -0.0432     31.4340      0.3294
244.7500         -0.0915     30.8330      0.3305
245.0000         -0.0825     27.0400      0.3411
245.2500         -0.0635     20.7120      0.3590
245.5000         -0.0358     13.1120      0.3508
245.7500          0.0142      6.7900      0.3710
246.0000          0.0480      6.1890      0.3828
246.2500          0.0714      8.7530      0.4078
246.5000          0.0889     10.0520      0.3869
246.7500          0.0811      8.1730      0.2292
247.0000          0.0435      8.2000      0.1497
247.2500          0.0380      6.3350      0.0780
247.5000          0.0508      6.3560      0.0852
247.7500          0.0476      7.0200      0.1079
248.0000          0.0537      7.0550      0.1364
248.2500          0.0536      6.4470      0.1913
248.5000          0.0406      7.1170      0.3315
248.7500          0.0086      8.4020      0.3758
249.0000         -0.0330      8.4300      0.3655
249.2500         -0.0041      8.4580      0.2807
249.5000          0.0334      9.1220      0.2456
249.7500          0.0490      8.5140      0.2396
250.0000          0.0537      7.9200      0.2621
250.2500          0.0694      7.2980      0.2839
250.5000          0.0726      8.6040      0.2959
250.7500          0.0663      9.9040      0.2757
251.0000          0.0556      9.3030      0.2473
251.2500          0.0416      9.3310      0.2315
251.5000          0.0361      8.0940      0.2194
251.7500          0.0307      8.1080      0.2139
252.0000          0.0229      8.7780      0.2087
252.2500          0.0112      8.1640      0.2065
252.5000          0.0118      7.5630      0.2039
252.7500          0.0057      7.6050      0.2002
253.0000          0.0001      7.6260      0.1963
253.2500         -0.0166      7.6460      0.1912
253.5000         -0.0073      7.6740      0.1882
253.7500          0.0026      7.7090      0.1774
254.0000         -0.0010      7.7300      0.1681
254.2500          0.0079      7.7650      0.1650
254.5000          0.0060      8.4280      0.1608
254.7500          0.0095      8.4560      0.1558
255.0000          0.0170      8.4910      0.1536
255.2500          0.0043      9.7830      0.1469
255.5000         -0.0022     11.0890      0.1435
255.7500          0.0009     11.1170      0.1464
256.0000         -0.0020     11.1380      0.1495
256.2500         -0.0071     11.1660      0.1488
256.5000          0.0050     11.8290      0.1454
256.7500          0.0153     11.8570      0.1415
257.0000          0.0230     11.8920      0.1375
257.2500          0.0149     12.5630      0.1404
257.5000          0.0063     15.1260      0.1439
257.7500         -0.0060     16.4250      0.1419
258.0000         -0.0028     17.0890      0.1378
258.2500          0.0093     15.8450      0.1341
258.5000          0.0078     15.2380      0.1374
258.7500          0.0131     15.2650      0.1468
259.0000          0.0078     17.8570      0.1532
259.2500          0.0049     19.1490      0.1591
259.5000          0.0188     19.8190      0.1643
259.7500          0.0350     19.1980      0.1658
260.0000          0.0684     17.9540      0.1681
260.2500          0.1028     17.9820      0.1657
260.5000          0.1414     19.2810      0.1593
260.7500          0.1532     21.2160      0.1540
261.0000          0.1701     24.4290      0.1488
261.2500          0.1640     28.2710      0.1477
261.5000          0.1169     31.4770      0.1485
261.7500          0.0918     39.1330      0.1558
262.0000          0.0754     41.7030      0.1682
262.2500          0.0639     43.0020      0.1884
262.5000          0.0708     46.8580      0.2113
262.7500          0.0806     47.5140      0.2450
263.0000          0.0884     48.1780      0.2801
263.2500          0.0802     48.8420      0.3057
263.5000          0.0665     47.5980      0.3213
263.7500          0.0689     45.0830      0.3262
264.0000          0.0818     38.7550      0.3111
264.2500          0.0955     34.9690      0.2896
264.5000          0.0389     41.9890      0.2645
264.7500          0.0013     43.3020      0.2244
265.0000         -0.0077     45.2430      0.2299
265.2500         -0.0022     46.5290      0.2419
265.5000          0.0049     47.8280      0.2535
265.7500         -0.0092     49.7700      0.2462
266.0000         -0.0192     50.4260      0.2406
266.2500         -0.0124     49.1830      0.2370
266.5000         -0.0037     46.6820      0.2378
266.7500          0.0050     44.1600      0.2442
267.0000          0.0127     36.5530      0.2215
267.2500          0.0094     28.9600      0.1781
267.5000          0.0016     28.3520      0.1150
267.7500          0.0025     30.9230      0.0588
268.0000          0.0140     30.9510      0.0781
268.2500          0.0345     25.2650      0.0835
268.5000          0.0789     22.7430      0.0764
268.7500          0.0561     22.7710      0.0796
269.0000          0.0033     22.8060      0.0978
269.2500         -0.0261     20.2910      0.1160
269.5000         -0.0490     21.5900      0.1343
269.7500         -0.0511     26.0670      0.1557
270.0000         -0.0682     31.8160      0.1856
270.2500         -0.0833     40.1080      0.1911
270.5000         -0.0801     49.0350      0.1863
270.7500         -0.0897     53.5120      0.2196
271.0000         -0.0965     45.9120      0.3109
271.2500         -0.0854     33.8620      0.3702
271.5000         -0.0452     22.4490      0.3269
271.7500         -0.0174     15.4980      0.1728
272.0000          0.0065     14.8760      0.1449
272.2500          0.0139     16.1890      0.1653
272.5000          0.0166     16.8600      0.1068
272.7500          0.0253     16.8810      0.0772
273.0000          0.0378     18.1800      0.0890
273.2500          0.0554     20.7440      0.0967
273.5000          0.0766     23.3140      0.0867
273.7500          0.0557     25.8840      0.0953
274.0000          0.0308     30.3760      0.1107
274.2500          0.0420     34.2110      0.1319
274.5000          0.0567     38.6880      0.1637
274.7500          0.0607     36.8090      0.2211
