~VERSION INFORMATION
 VERS.                 2.0:   CWLS LOG ASCII STANDARD -VERSION 2.0
 WRAP.                  NO:   ONE LINE PER DEPTH STEP
~WELL INFORMATION BLOCK
#MNEM.UNIT           DATA                    DESCRIPTION OF MNEMONIC
#---------    -------------------            -------------------------------
# Generated from Intellog Unique Number	CN_94_101/WELL/2470
WELL.         06-17-094-09W4                 : Well_name    - WELL
LOC .         AB/06-17-094-09W4/0            : Location     - LOCATION
UWI .         AB/06-17-094-09W400            : Uwi          - UNIQUE WELL ID
ENTR.         JOETTE                         : Entered      - ENTERED BY
SRVC.         SCHLUMBERGER                   : Scn          - SERVICE COMPANY
DATE.         05/17/92                       : Date         - LOG DATE
STRT.M        10                             : top_depth    - START DEPTH
STOP.M        72.5                           : bot_depth    - STOP DEPTH
STEP.M        0.25                           : increment    - STEP LENGTH
 NULL. -999.2500:NULL Value
~CURVE INFORMATION BLOCK
#MNEM UNIT       ERCB CURVE CODE    CURVE DESCRIPTION
#-----------   ------------------   ----------------------------------
DEPT.M        00 001 00 00         : DEPTH        - DEPTH
GR  .API      00 310 00 00         : GR           - GAMMA RAY
ILD .OHMM     00 120 00 00         : RESD         - DEEP RESISTIVITY (DIL)
NPHI.V/V      00 330 00 00         : PHIN         - NEUTRON POROSITY (SANDSTONE)
~PARAMETER INFORMATION
#MNEM.UNIT           DATA             DESCRIPTION OF MNEMONIC
#---------         -----------     ------------------------------
GL  .M        322.89               : gl           - GROUND LEVEL ELEVATION
EREF.M        322.89               : kb           - ELEVATION OF DEPTH REFERENCE
DATM.M        322.89               : datum        - DATUM ELEVATION
TDD .M        74.8                 : tdd          - TOTAL DEPTH DRILLER
RUN .         ONE                  : Run          - RUN NUMBER
ENG .         JO                   : Engineer     - RECORDING ENGINEER
WIT .         TIM                  : Witness      - WITNESSED BY
MUD .         GEL                  : Mud_type     - MUD TYPE
MATR.         SANDSTONE            : Logunit      - NEUTRON MATRIX
TMAX.C        5                    : BHT          - MAXIMUM RECORDED TEMPERATURE
BHTD.M        74.8                 : BHTDEP       - MAXIMUM RECORDED TEMPERATURE
RMT .C        7                    : MDTP         - TEMPERATURE OF MUD
MUDD.KG/M     1000                 : MWT          - MUD DENSITY
NEUT.         1                    : NEUTRON      - NEUTRON TYPE
RESI.         0                    : RESIST       - RESISTIVITY TYPE
RM  .OHMM     11.5                 : RM           - RESISTIVITY OF MUD
RMC .OHMM     11.5                 : RMC          - RESISTIVITY OF MUD CAKE
RMF .OHMM     11.5                 : RMF          - RESISTIVITY OF MUD FILTRATE
SUFT.C        4                    : SUFT         - SURFACE TEMPERATURE
~A  DEPTH       GR     RESD     PHIN
   10.000   38.032    3.336    0.647
   10.250   58.278    4.011    0.501
   10.500   73.771    6.577    0.454
   10.750   87.487   50.029    0.449
   11.000   82.188   89.916    0.457
   11.250   68.571   91.688    0.466
   11.500   73.371  132.330    0.472
   11.750   73.418  127.766    0.382
   12.000   84.759  110.554    0.394
   12.250   83.030   92.230    0.440
   12.500   79.518   75.563    0.416
   12.750   84.906   63.039    0.432
   13.000   99.217   58.692    0.430
   13.250   91.535   60.962    0.420
   13.500   73.166   92.907    0.413
   13.750   61.926  136.561    0.435
   14.000   69.702  100.253    0.450
   14.250   79.849   83.651    0.438
   14.500   75.143   71.072    0.458
   14.750   91.236   58.218    0.462
   15.000   83.567   45.979    0.477
   15.250   87.766   43.582    0.506
   15.500   87.814   38.420    0.473
   15.750   86.084   38.468    0.449
   16.000   88.514   54.504    0.437
   16.250   83.208   56.623    0.413
   16.500   76.127   55.688    0.404
   16.750   82.721   65.731    0.383
   17.000   83.950   72.120    0.454
   17.250   74.492   69.632    0.448
   17.500   69.787   63.645    0.433
   17.750   74.587   69.843    0.425
   18.000   82.957   79.483    0.410
   18.250   67.558   81.092    0.407
   18.500   61.664   74.120    0.426
   18.750   64.682   67.736    0.443
   19.000   63.547   70.356    0.463
   19.250   64.188   64.307    0.475
   19.500   75.523   64.399    0.463
   19.750   91.621   65.692    0.433
   20.000   92.263   62.267    0.354
   20.250   98.245   62.378    0.408
   20.500   92.351   46.629    0.468
   20.750   98.345   31.244    0.438
   21.000   94.234   33.056    0.458
   21.250  106.162   34.974    0.509
   21.500  110.374   31.962    0.474
   21.750  106.857   30.306    0.422
   22.000  108.092   29.261    0.456
   22.250  105.763   30.393    0.433
   22.500  122.450   35.225    0.460
   22.750  117.745   37.262    0.482
   23.000  123.138   44.793    0.462
   23.250  104.769   36.028    0.458
   23.500  110.169   34.162    0.408
   23.750  112.593   53.032    0.393
   24.000   96.006   51.203    0.461
   24.250   89.518   43.511    0.427
   24.500   96.694   58.364    0.457
   24.750   89.025   48.690    0.461
   25.000  100.953   75.599    0.434
   25.250  117.640   90.878    0.441
   25.500  146.203   58.708    0.444
   25.750  168.236   50.800    0.483
   26.000  105.900   31.646    0.500
   26.250   89.908   40.184    0.448
   26.500   79.856   93.233    0.418
   26.750   94.761  492.169    0.439
   27.000   98.372  187.204    0.466
   27.250   80.597   57.191    0.405
   27.500   83.615   72.623    0.464
   27.750   97.926  302.341    0.451
   28.000   92.032   94.068    0.451
   28.250   65.352  554.094    0.424
   28.500   92.721 1786.300    0.372
   28.750  122.477  597.903    0.358
   29.000  175.402  339.835    0.437
   29.250  146.940   51.862    0.435
   29.500  144.605   68.306    0.459
   29.750  117.325   73.588    0.434
   30.000   78.758   86.875    0.429
   30.250  103.756  120.865    0.465
   30.500  109.150  198.231    0.428
   30.750   89.593  313.402    0.436
   31.000   77.165  202.462    0.410
   31.250   42.762  629.290    0.398
   31.500   45.773  534.662    0.399
   31.750   42.262   99.751    0.489
   32.000   29.240  185.883    0.442
   32.250   19.782 1636.710    0.426
   32.500   32.898 1201.550    0.404
   32.750   28.793  590.196    0.397
   33.000   30.622 1320.440    0.452
   33.250   28.893  822.280    0.471
   33.500   34.887  626.226    0.460
   33.750   33.734  572.386    0.468
   34.000   34.982  477.513    0.464
   34.250   35.023  495.987    0.428
   34.500   27.353  206.697    0.429
   34.750   23.830  309.362    0.426
   35.000   26.859 1015.710    0.403
   35.250   34.623 1413.360    0.438
   35.500   32.294 1018.800    0.397
   35.750   27.589 1138.420    0.429
   36.000   26.454 1119.410    0.414
   36.250   37.194  763.889    0.392
   36.500   34.871 1024.820    0.406
   36.750   30.754 1425.770    0.382
   37.000   25.455 1233.700    0.404
   37.250   25.508 1067.510    0.456
   37.500   26.743 1356.020    0.432
   37.750   27.390  799.411    0.439
   38.000   31.596  744.150    0.461
   38.250   27.485 1312.990    0.453
   38.500   30.502 1056.070    0.451
   38.750   40.054 1469.250    0.495
   39.000   41.890  269.155    0.354
   39.250   59.165  220.479    0.372
   39.500   95.456  190.778    0.436
   39.750  102.632   63.845    0.424
   40.000   87.828   37.645    0.461
   40.250   89.069   39.108    0.457
   40.500   95.651   40.621    0.469
   40.750  101.639   44.569    0.427
   41.000   91.593   43.849    0.450
   41.250   92.234   43.895    0.431
   41.500   98.222   36.620    0.428
   41.750   83.417   39.452    0.432
   42.000   85.841   48.308    0.462
   42.250   82.329   38.855    0.445
   42.500   79.406   41.875    0.439
   42.750   77.677   45.929    0.469
   43.000   81.283   42.769    0.463
   43.250   92.029   46.068    0.479
   43.500   70.096   47.850    0.411
   43.750   67.767   59.672    0.435
   44.000   66.626   55.547    0.474
   44.250   54.792   59.853    0.432
   44.500   76.825   57.789    0.374
   44.750   74.496   57.861    0.387
   45.000   65.632   40.227    0.375
   45.250   63.897   43.337    0.393
   45.500   66.921   49.319    0.370
   45.750   66.374   49.398    0.403
   46.000   69.391   48.564    0.434
   46.250   84.890   43.586    0.426
   46.500   79.597   38.409    0.420
   46.750   71.921   45.337    0.423
   47.000   78.497   44.587    0.399
   47.250   63.099   47.175    0.341
   47.500   60.770   50.814    0.403
   47.750   62.011   74.689    0.403
   48.000   54.341   47.377    0.465
   48.250   59.729   46.586    0.412
   48.500   43.148   51.114    0.391
   48.750   49.724   76.515    0.380
   49.000   37.302   57.207    0.392
   49.250   35.567   53.253    0.448
   49.500   37.396   71.430    0.430
   49.750   38.037   61.818    0.451
   50.000   38.691   79.959    0.400
   50.250   41.702   99.678    0.311
   50.500   22.145   65.581    0.299
   50.750   31.697   32.807    0.341
   51.000   43.038   38.036    0.327
   51.250   34.174   44.084    0.308
   51.500   20.558   43.347    0.294
   51.750   23.593   36.823    0.310
   52.000   25.410   33.663    0.326
   52.250   18.917   31.919    0.330
   52.500   20.170   33.148    0.351
   52.750   24.964   28.163    0.338
   53.000   26.793   23.495    0.336
   53.250   17.924   23.533    0.344
   53.500   23.923   21.906    0.358
   53.750   24.558   24.934    0.379
   54.000   15.101   21.575    0.402
   54.250   23.465   27.397    0.358
   54.500   18.765   18.031    0.331
   54.750   17.624   18.383    0.331
   55.000   23.018   19.095    0.300
   55.250   16.531   20.575    0.321
   55.500   24.901   22.991    0.319
   55.750   38.017   25.695    0.313
   56.000   85.002   22.229    0.442
   56.250   83.267    5.454    0.462
   56.500   85.102    8.016    0.404
   56.750   79.809   11.999    0.515
   57.000   56.681   11.586    0.370
   57.250   60.887   15.540    0.471
   57.500   88.267   16.442    0.492
   57.750   94.261   12.988    0.388
   58.000  101.431   10.072    0.425
   58.250   63.458    8.713    0.462
   58.500   51.030   13.046    0.328
   58.750   45.136   12.365    0.378
   59.000   61.823   14.596    0.426
   59.250   71.969   14.092    0.526
   59.500   80.340   12.196    0.407
   59.750   55.430   13.628    0.322
   60.000   37.661   20.028    0.232
   60.250   32.356   38.016    0.222
   60.500   37.161   44.060    0.189
   60.750   36.020   48.359    0.177
   61.000   37.256   51.147    0.189
   61.250   48.596   49.391    0.201
   61.500   48.055   45.977    0.246
   61.750   57.608   46.891    0.286
   62.000   74.288   20.265    0.357
   62.250   73.148   16.606    0.454
   62.500   51.808   11.751    0.278
   62.750   26.311   15.763    0.174
   63.000   25.170   43.908    0.190
   63.250   28.193   72.013    0.184
   63.500   33.587   77.582    0.166
   63.750   33.040   80.584    0.158
   64.000   30.117   79.267    0.149
