~VERSION INFORMATION
 VERS.                 2.0:   CWLS LOG ASCII STANDARD -VERSION 2.0
 WRAP.                  NO:   ONE LINE PER DEPTH STEP
~WELL INFORMATION BLOCK
#MNEM.UNIT           DATA                    DESCRIPTION OF MNEMONIC
#---------    -------------------            -------------------------------
# Generated from Intellog Unique Number	CC_84_87/WELL/2335
NULL.         -999.25                        : NULL_VALUE
WELL.         SUNCOR CHEECHAM                : Well_name    - WELL
LOC .         11-32-084-06W4                 : Location     - LOCATION          
UWI .         AB/11-32-084-06W4/0            : Uwi          - UNIQUE WELL ID    
ENTR.         DW                             : Entered      - ENTERED BY        
SRVC.         SCHLUMBERGER                   : Scn          - SERVICE COMPANY   
DATE.         08 mar 82                      : Date         - LOG DATE
STRT.M        125                            : top_depth    - START DEPTH       
STOP.M        310.099                        : bot_depth    - STOP DEPTH        
STEP.M        0.3                            : increment    - STEP LENGTH       
~CURVE INFORMATION BLOCK
#MNEM UNIT       ERCB CURVE CODE    CURVE DESCRIPTION
#-----------   ------------------   ----------------------------------
DEPT.M        00 001 00 00         : DEPTH        - DEPTH                       
DPHI.V/V      00 890 00 00         : PHID         - DENSITY POROSITY (LIMESTONE)
NPHI.V/V      00 330 00 00         : PHIN         - NEUTRON POROSITY (LIMESTONE)
GR  .API      00 310 00 00         : GR           - GAMMA RAY                   
ILD .OHMM     00 120 00 00         : RESD         - DEEP RESISTIVITY (DIL)      
~PARAMETER INFORMATION       
#MNEM.UNIT           DATA             DESCRIPTION OF MNEMONIC
#---------         -----------     ------------------------------
GL  .M        486.3                : gl           - GROUND LEVEL ELEVATION      
EREF.M        489.4                : kb           - ELEVATION OF DEPTH REFERENCE
DATM.M        489.4                : datum        - DATUM ELEVATION             
TDD .M        314                  : tdd          - TOTAL DEPTH DRILLER         
RUN .         ONE                  : Run          - RUN NUMBER                  
ENG .         BILL                 : Engineer     - RECORDING ENGINEER          
WIT .         JIM                  : Witness      - WITNESSED BY                
MUD .         GEL                  : Mud_type     - MUD TYPE                    
MATR.         LIMESTONE            : Logunit      - NEUTRON MATRIX              
TMAX.C        20                   : BHT          - MAXIMUM RECORDED TEMPERATURE
BHTD.M        314                  : BHTDEP       - MAXIMUM RECORDED TEMPERATURE
MATR.         1                    : LOGUNIT      - NEUTRON MATRIX              
RMT .C        25                   : MDTP         - TEMPERATURE OF MUD          
NEUT.         1                    : NEUTRON      - NEUTRON TYPE                
RESI.         0                    : RESIST       - RESISTIVITY TYPE            
RMC .OHMM     0.25                 : RMC          - RESISTIVITY OF MUD CAKE     
RMF .OHMM     0.25                 : RMF          - RESISTIVITY OF MUD FILTRATE 
SUFT.C        15                   : SUFT         - SURFACE TEMPERATURE         
~A  DEPTH     PHID     PHIN       GR     RESD
# ...
  229.401    0.293    0.365   34.907   63.798
  229.701    0.289    0.369   45.742   51.042
  230.001    0.287    0.363   49.947   48.288
  230.301    0.288    0.353   43.314   53.015
  230.601    0.299    0.396   40.293   61.547
  230.901    0.303    0.391   41.488   66.328
  231.201    0.307    0.367   42.083   58.242
  231.501    0.309    0.367   39.666   53.088
  231.801    0.307    0.366   42.067   55.124
  232.101    0.307    0.379   39.044   62.813
  232.401    0.311    0.390   36.026   71.577
  232.701    0.316    0.389   33.605   86.255
  233.001    0.316    0.391   34.202   91.234
  233.301    0.304    0.397   47.441   89.590
  233.601    0.310    0.435   46.230   86.348
  233.901    0.316    0.379   33.574   80.171
  234.201    0.317    0.367   26.937   69.100
  234.501    0.320    0.373   40.180   61.819
  234.801    0.308    0.385   40.774   59.574
  235.101    0.306    0.417   37.753   80.272
  235.401    0.299    0.415   32.324  108.176
  235.701    0.291    0.395   28.097  112.301
  236.001    0.287    0.349   28.692  110.278
  236.301    0.288    0.340   33.502  100.507
  236.601    0.293    0.362   35.902   89.917
  236.901    0.299    0.363   35.895   80.442
  237.201    0.303    0.361   33.475   76.089
  237.501    0.307    0.378   32.260   66.822
  237.801    0.310    0.376   32.254   64.395
  238.101    0.316    0.373   34.655   63.227
  238.401    0.327    0.405   40.066   58.709
  238.701    0.319    0.383   42.467   58.732
  239.001    0.303    0.395   42.459   60.977
  239.301    0.309    0.391   36.425   55.579
  239.601    0.315    0.380   35.213   39.766
  239.901    0.316    0.378   36.410   30.086
  240.201    0.304    0.383   45.435   23.627
  240.501    0.284    0.371   48.438   21.140
  240.801    0.277    0.371   37.589   20.372
  241.101    0.293    0.398   35.773   19.635
  241.401    0.298    0.390   42.388   20.385
  241.701    0.303    0.379   44.187   22.801
  242.001    0.304    0.385   35.142   25.983
  242.301    0.312    0.378   31.521   28.001
  242.601    0.311    0.371   29.706   27.496
  242.901    0.304    0.386   35.117   17.268
  243.201    0.314    0.417   37.517   11.685
  243.501    0.326    0.425   36.906    7.617
  243.801    0.328    0.386   47.741    4.874
  244.101    0.201    0.357   80.857    4.360
  244.401    0.191    0.376   83.258    3.829
  244.701    0.195    0.383   80.238    3.623
  245.001    0.203    0.377   73.603    3.692
  245.301    0.216    0.382   69.981    3.833
  245.601    0.241    0.397   68.767    4.131
  245.901    0.276    0.459   59.123    8.383
  246.201    0.307    0.423   37.431   10.102
  246.501    0.323    0.420   36.817    9.556
  246.801    0.322    0.428   39.218    6.466
  247.101    0.308    0.385   44.031    4.375
  247.401    0.255    0.365   74.737    3.988
  247.701    0.249    0.365   73.526    4.140
  248.001    0.284    0.437   48.823    4.990
  248.301    0.307    0.455   39.178    5.478
  248.601    0.293    0.411   40.373    5.688
  248.901    0.306    0.431   45.183    5.584
  249.201    0.290    0.402   62.640    4.724
  249.501    0.263    0.403   69.859    3.780
  249.801    0.242    0.382   68.645    3.024
  250.101    0.248    0.393   68.035    2.655
  250.401    0.265    0.419   78.866    2.085
  250.701    0.270    0.402   70.427    1.520
  251.001    0.244    0.405   55.962    1.286
  251.301    0.294    0.442   36.078    1.108
  251.601    0.321    0.442   33.058    0.992
  251.901    0.328    0.443   45.095    0.956
  252.201    0.283    0.402   57.133    1.050
  252.501    0.269    0.410   70.976    1.152
  252.801    0.265    0.401   72.775    1.196
  253.101    0.257    0.396   72.164    1.313
  253.401    0.252    0.409   67.337    1.363
  253.701    0.262    0.449   63.713    1.390
  254.001    0.264    0.427   58.887    1.364
  254.301    0.274    0.419   66.706    1.267
  254.601    0.293    0.442   65.494    1.092
  254.901    0.316    0.461   55.245    1.052
  255.201    0.321    0.431   69.089    1.014
  255.501    0.271    0.402   71.492    1.034
  255.801    0.265    0.413   61.244    1.114
  256.101    0.275    0.436   58.224    1.201
  256.401    0.271    0.425   77.488    1.246
  256.701    0.263    0.436   78.080    1.270
  257.001    0.274    0.441   55.788    1.180
  257.301    0.320    0.432   40.722    1.095
  257.601    0.337    0.419   35.893    0.893
  257.901    0.345    0.392   41.910    0.799
  258.201    0.348    0.398   52.140    0.728
  258.501    0.347    0.384   54.541    0.715
  258.801    0.332    0.377   50.916    0.785
  259.101    0.296    0.380   55.124    0.928
  259.401    0.280    0.377   60.536    1.038
  259.701    0.286    0.400   61.131    1.078
  260.001    0.292    0.451   51.486    0.964
  260.301    0.310    0.441   36.419    0.772
  260.601    0.327    0.380   39.420    0.703
  260.901    0.336    0.384   40.016    0.744
  261.201    0.320    0.416   38.802    0.948
  261.501    0.228    0.423   48.430    1.301
  261.801    0.075    0.275   65.888    1.854
  262.101    0.164    0.309   81.539    2.113
  262.401    0.214    0.358   85.144    1.962
  262.701    0.220    0.393   75.498    1.788
  263.001    0.245    0.404   64.046    1.723
  263.301    0.232    0.390   76.686    1.692
  263.601    0.202    0.412   84.507    1.692
  263.901    0.207    0.388   76.667    1.790
  264.201    0.228    0.381   67.022    1.758
  264.501    0.254    0.407   70.024    1.663
  264.801    0.249    0.373   80.255    1.603
  265.101    0.226    0.375   82.053    1.574
  265.401    0.228    0.413   74.818    1.461
  265.701    0.256    0.433   56.738    1.307
  266.001    0.283    0.416   51.913    1.127
  266.301    0.328    0.423   45.882    0.936
  266.601    0.369    0.467   39.248    0.837
  266.901    0.355    0.469   35.624    0.777
  267.201    0.339    0.435   35.616    0.722
  267.501    0.336    0.426   36.206    0.696
  267.801    0.340    0.420   36.201    0.658
  268.101    0.334    0.405   35.587    0.646
  268.401    0.327    0.393   34.979    0.646
  268.701    0.337    0.417   36.175    0.684
  269.001    0.328    0.398   44.597    0.737
  269.301    0.302    0.366   48.804    0.779
  269.601    0.325    0.406   44.580    0.780
  269.901    0.348    0.419   37.344    0.751
  270.201    0.357    0.428   34.325    0.698
  270.501    0.339    0.423   40.941    0.724
  270.801    0.292    0.375   57.797    0.825
  271.101    0.248    0.373   69.832    1.133
  271.401    0.240    0.385   75.848    1.444
  271.701    0.241    0.379   78.246    1.499
  272.001    0.249    0.408   71.012    1.445
  272.301    0.307    0.427   47.514    1.200
  272.601    0.313    0.386   47.503    0.978
  272.901    0.286    0.373   50.508    0.908
  273.201    0.241    0.359   51.101    0.892
  273.501    0.218    0.329   81.207    0.997
  273.801    0.253    0.381   89.629    1.421
  274.101    0.287    0.408   84.201    1.712
  274.401    0.242    0.412   67.931    1.811
  274.701    0.234    0.357   67.319    1.779
  275.001    0.241    0.351   69.719    1.714
  275.301    0.251    0.386   67.903    1.534
  275.601    0.294    0.426   58.861    1.347
  275.901    0.302    0.433   46.204    1.161
  276.201    0.311    0.406   28.730    0.964
  276.500    0.328    0.401   34.745    0.786
  276.800    0.309    0.371   46.179    0.703
  277.100    0.304    0.390   45.566    0.690
  277.400    0.302    0.419   41.340    0.716
  277.700    0.292    0.392   40.732    0.863
  278.000    0.275    0.363   47.950    0.896
  278.300    0.245    0.319   51.556    0.966
  278.600    0.275    0.331   44.319    0.985
  278.900    0.299    0.367   37.685    0.967
  279.200    0.272    0.366   38.880    0.932
  279.500    0.274    0.378   32.850    0.898
  279.800    0.307    0.384   25.614    0.834
  280.100    0.316    0.389   23.195    0.789
  280.400    0.321    0.391   23.184    0.732
  280.700    0.320    0.376   21.972    0.719
  281.000    0.305    0.367   25.579    0.706
  281.300    0.292    0.365   28.581    0.733
