~VERSION INFORMATION
 VERS.                 2.0:   CWLS LOG ASCII STANDARD -VERSION 2.0
 WRAP.                  NO:   ONE LINE PER DEPTH STEP
~WELL INFORMATION BLOCK
#MNEM.UNIT           DATA                    DESCRIPTION OF MNEMONIC
#---------    -------------------            -------------------------------
# Generated from Intellog Unique Number	CN_94_101/WELL/3339
WELL.         10-13-095-09W4                 : Well_name    - WELL
LOC .         AB/10-13-095-09W4/0            : Location     - LOCATION
UWI .         AB/10-13-095-09W400            : Uwi          - UNIQUE WELL ID
ENTR.         T                              : Entered      - ENTERED BY
SRVC.         SCHLUMBERGER                   : Scn          - SERVICE COMPANY
DATE.         04/10/92                       : Date         - LOG DATE
STRT.M        10                             : top_depth    - START DEPTH
STOP.M        110                            : bot_depth    - STOP DEPTH
STEP.M        0.25                           : increment    - STEP LENGTH
 NULL. -999.2500:NULL Value
~CURVE INFORMATION BLOCK
#MNEM UNIT       ERCB CURVE CODE    CURVE DESCRIPTION
#-----------   ------------------   ----------------------------------
DEPT.M        00 001 00 00         : DEPTH        - DEPTH
GR  .API      00 310 00 00         : GR           - GAMMA RAY
NPHI.V/V      00 330 00 00         : PHIN         - NEUTRON POROSITY (SANDSTONE)
RHOB.KG/M3    00 350 00 00         : DENS         - BULK DENSITY
ILD .OHMM     00 120 00 00         : RESD         - DEEP RESISTIVITY (DIL)
~PARAMETER INFORMATION
#MNEM.UNIT           DATA             DESCRIPTION OF MNEMONIC
#---------         -----------     ------------------------------
GL  .M        322                  : gl           - GROUND LEVEL ELEVATION
EREF.M        322                  : kb           - ELEVATION OF DEPTH REFERENCE
DATM.M        322                  : datum        - DATUM ELEVATION
TDD .M        114                  : tdd          - TOTAL DEPTH DRILLER
RUN .         ONE                  : Run          - RUN NUMBER
ENG .         BILL                 : Engineer     - RECORDING ENGINEER
WIT .         JIM                  : Witness      - WITNESSED BY
MUD .         GEL                  : Mud_type     - MUD TYPE
MATR.         SANDSTONE            : Logunit      - NEUTRON MATRIX
TMAX.C        8                    : BHT          - MAXIMUM RECORDED TEMPERATURE
BHTD.M        114                  : BHTDEP       - MAXIMUM RECORDED TEMPERATURE
RMT .C        8                    : MDTP         - TEMPERATURE OF MUD
MUDD.KG/M     1070                 : MWT          - MUD DENSITY
NEUT.         1                    : NEUTRON      - NEUTRON TYPE
RESI.         0                    : RESIST       - RESISTIVITY TYPE
RM  .OHMM     13                   : RM           - RESISTIVITY OF MUD
RMC .OHMM     10                   : RMC          - RESISTIVITY OF MUD CAKE
RMF .OHMM     7.2                  : RMF          - RESISTIVITY OF MUD FILTRATE
SUFT.C        4                    : SUFT         - SURFACE TEMPERATURE
~A  DEPTH       GR     PHIN     DENS     RESD
# ...
   53.500   34.642    0.361 2159.050  123.739
   53.750   39.588    0.392 2145.180  136.449
   54.000   45.144    0.417 2145.300  143.286
   54.250   44.466    0.442 2127.430  163.313
   54.500   41.892    0.457 2103.580  180.088
   54.750   38.721    0.426 2075.760  188.985
   55.000   36.810    0.409 2067.850  170.863
   55.250   32.392    0.395 2095.930  159.722
   55.500   26.105    0.390 2114.010  182.046
   55.750   22.283    0.396 2116.150  240.833
   56.000   22.852    0.404 2112.240  265.572
   56.250   24.668    0.403 2106.390  236.251
   56.500   26.483    0.397 2106.530  203.201
   56.750   25.182    0.394 2106.640  183.716
   57.000   23.895    0.392 2108.770  174.715
   57.250   21.971    0.391 2106.830  160.647
   57.500   21.916    0.390 2102.980  163.104
   57.750   23.732    0.389 2107.060  226.662
   58.000   24.924    0.388 2117.240  280.493
   58.250   24.870    0.388 2121.290  253.682
   58.500   22.932    0.387 2127.360  241.172
   58.750   20.385    0.385 2139.460  221.678
   59.000   20.330    0.383 2133.580  214.185
   59.250   21.509    0.381 2113.720  228.587
   59.500   23.338    0.380 2099.850  269.198
   59.750   27.010    0.380 2099.960  287.202
   60.000   29.449    0.387 2102.070  301.390
   60.250   29.409    0.394 2090.200  321.655
   60.500   26.834    0.400 2088.310  360.605
   60.750   25.560    0.398 2108.400  461.393
   61.000   24.259    0.387 2134.530  696.634
   61.250   25.451    0.393 2144.590  731.049
   61.500   28.500    0.400 2144.730  608.546
   61.750   29.706    0.400 2134.860  705.390
   62.000   32.145    0.402 2134.970  996.594
   62.250   34.584    0.410 2143.070  269.667
   62.500   35.763    0.422 2151.170  193.529
   62.750   33.215    0.402 2155.280  150.798
   63.000   31.291    0.396 2153.390  593.769
   63.250   30.003    0.394 2147.510  602.849
   63.500   27.442    0.388 2135.640  611.863
   63.750   26.141    0.383 2121.770  663.659
   64.000   26.087    0.376 2121.860  732.077
   64.250   26.642    0.365 2137.950  891.399
   64.500   26.588    0.369 2150.070 1198.490
   64.750   25.910    0.375 2152.150 1237.090
   65.000   25.233    0.370 2150.260 1256.010
   65.250   25.802    0.355 2150.430 1193.670
   65.500   28.227    0.360 2150.540 1097.560
   65.750   29.447    0.365 2156.650  929.171
   66.000   31.859    0.369 2154.760  584.077
   66.250   33.078    0.378 2146.850  392.364
   66.500   35.504    0.378 2134.980  267.879
   66.750   37.319    0.369 2123.110  182.950
   67.000   37.279    0.379 2137.200  149.798
   67.250   34.731    0.377 2153.290  133.259
   67.500   30.923    0.357 2175.370  146.948
   67.750   26.478    0.357 2199.480  175.996
   68.000   25.828    0.370 2201.590  261.374
   68.250   25.150    0.375 2193.680  401.075
   68.500   25.719    0.370 2185.800  539.250
   68.750   26.288    0.359 2185.940  614.825
   69.000   28.104    0.358 2188.080  624.018
   69.250   31.789    0.356 2190.190  583.330
   69.500   37.968    0.354 2200.290  405.026
   69.750   47.264    0.341 2210.360  238.319
   70.000   57.820    0.333 2226.450  115.010
   70.250   75.842    0.331 2240.560   85.311
   70.500  102.605    0.328 2254.660   40.495
   70.750  119.380    0.325 2268.720   31.543
   71.000  109.353    0.335 2278.820   29.477
   71.250   99.948    0.358 2304.920   28.499
   71.500   91.763    0.360 2315.020   26.632
   71.750   89.230    0.359 2321.120   25.302
   72.000   86.058    0.367 2313.240   24.862
   72.250   83.511    0.368 2301.370   24.022
   72.500   80.963    0.367 2287.500   23.998
   72.750   79.039    0.369 2283.650   23.573
   73.000   77.711    0.385 2279.770   23.533
   73.250   78.903    0.405 2265.870   22.738
   73.500   81.979    0.430 2248.010   21.248
   73.750   96.898    0.451 2212.170   18.593
   74.000  155.464    0.579 2160.330   15.745
   74.250  179.110    0.620 2088.540   11.484
   74.500  192.769    0.647 2030.710    9.719
   74.750  145.938    0.693 1996.900    9.390
   75.000  127.183    0.652 2001.000   10.185
   75.250  102.182    0.513 2013.070   11.051
   75.500   89.011    0.494 2067.130   12.187
   75.750   87.710    0.508 2119.170   12.784
   76.000   87.032    0.550 2159.250   12.356
   76.250   88.225    0.589 2107.410   11.935
   76.500   91.300    0.614 2051.600   11.723
   76.750  112.439    0.607 2079.670   11.708
   77.000  122.372    0.595 2101.750   11.696
   77.250  101.734    0.582 2145.830   12.270
   77.500   87.967    0.578 2181.890   12.669
   77.750   74.809    0.590 2195.980   14.203
   78.000   50.431    0.627 2160.150   20.401
   78.250   30.417    0.438 2130.300   32.356
   78.500   34.102    0.388 2120.430   34.532
   78.750   46.528    0.407 2144.500   24.774
   79.000   63.927    0.490 2126.640   20.973
   79.250   75.730    0.546 2048.840   18.051
   79.500   88.765    0.593 1981.050   14.300
   79.750   71.244    0.584 2101.010   13.367
   80.000   43.126    0.534 2117.100   21.201
   80.250   36.215    0.416 2119.210   40.340
   80.500   54.861    0.439 2121.320   27.090
   80.750   78.507    0.507 2097.460   19.435
   81.000   96.543    0.575 1863.860   17.012
   81.250  118.942    0.682 1941.880   13.705
   81.500  122.627    0.707 2051.870   12.184
   81.750  113.833    0.593 2163.840   12.366
   82.000  113.155    0.571 2181.930   12.358
   82.250  119.334    0.538 2237.960   12.752
   82.500  119.266    0.513 2280.040   12.951
   82.750  116.095    0.498 2286.170   13.355
   83.000  113.561    0.486 2290.310   13.563
   83.250  116.000    0.474 2296.350   13.780
   83.500  124.049    0.465 2308.470   14.214
   83.750  131.475    0.474 2270.610   14.205
   84.000  132.044    0.462 2262.790   14.417
   84.250  130.729    0.445 2272.830   14.398
   84.500  128.805    0.440 2286.930   14.143
   84.750  125.011    0.440 2287.040   14.124
   85.000  120.607    0.459 2269.170   14.335
   85.250  110.566    0.482 2257.330   14.807
   85.500   96.798    0.472 2239.440   15.792
   85.750   85.510    0.452 2221.610   16.848
   86.000   89.819    0.465 2255.640   17.390
   86.250  101.622    0.442 2263.740   17.373
   86.500  109.047    0.411 2269.870   17.344
   86.750   90.903    0.386 2261.970   17.603
   87.000   72.135    0.376 2248.100   19.424
   87.250   62.107    0.376 2230.240   22.883
   87.500   57.690    0.378 2216.370   28.327
   87.750   53.259    0.383 2204.500   32.286
   88.000   46.971    0.400 2188.690   34.446
   88.250   40.060    0.404 2180.780   37.971
   88.500   33.772    0.378 2172.910   41.199
   88.750   28.718    0.383 2165.030   48.535
   89.000   23.663    0.390 2155.180   57.177
   89.250   21.129    0.408 2147.250   65.190
   89.500   17.945    0.397 2133.380   79.377
   89.750   16.644    0.382 2121.510   99.899
   90.000   15.343    0.394 2105.640  161.083
   90.250   14.652    0.431 2091.780  177.689
   90.500   13.960    0.438 2079.910  199.205
   90.750   13.933    0.439 2080.020  238.584
   91.000   13.865    0.439 2078.130  155.012
   91.250   13.811    0.437 2076.250  116.898
   91.500   13.770    0.429 2074.360  116.702
   91.750   14.312    0.417 2080.460  128.733
   92.000   14.271    0.395 2112.530  167.458
   92.250   14.854    0.386 2136.630  190.863
   92.500   15.396    0.371 2146.730  236.271
   92.750   15.978    0.402 2156.830  232.088
   93.000   15.924    0.391 2162.930  247.527
   93.250   16.507    0.381 2161.050  273.045
   93.500   17.062    0.380 2143.180  296.159
   93.750   17.604    0.381 2125.320  315.860
   94.000   18.200    0.398 2099.470  258.797
   94.250   18.132    0.418 2075.590  205.082
   94.500   18.701    0.389 2053.730  188.505
   94.750   18.024    0.390 2123.800  204.463
   95.000   17.332    0.397 2117.920  221.846
   95.250   16.655    0.403 2114.010  308.294
   95.500   16.628    0.412 2108.160  369.237
   95.750   16.560    0.416 2124.220  420.703
   96.000   17.752    0.417 2148.290  297.074
   96.250   18.958    0.403 2164.410  268.588
   96.500   20.123    0.386 2178.500  277.145
   96.750   20.692    0.392 2204.580  290.836
