~VERSION INFORMATION
 VERS.                 2.0:   CWLS LOG ASCII STANDARD -VERSION 2.0
 WRAP.                  NO:   ONE LINE PER DEPTH STEP
~WELL INFORMATION BLOCK
#MNEM.UNIT           DATA                    DESCRIPTION OF MNEMONIC
#---------    -------------------            -------------------------------
# Generated from Intellog Unique Number	CN_94_101/WELL/3238
WELL.         13-07-096-09W4                 : Well_name    - WELL
LOC .         AB/13-07-096-09W4/0            : Location     - LOCATION
UWI .         AB/13-07-096-09W400            : Uwi          - UNIQUE WELL ID
ENTR.         JOETTE                         : Entered      - ENTERED BY
SRVC.         SCHLUMBERGER                   : Scn          - SERVICE COMPANY
DATE.         07/20/92                       : Date         - LOG DATE
STRT.M        20                             : top_depth    - START DEPTH
STOP.M        90                             : bot_depth    - STOP DEPTH
STEP.M        0.25                           : increment    - STEP LENGTH
 NULL. -999.2500:NULL Value
~CURVE INFORMATION BLOCK
#MNEM UNIT       ERCB CURVE CODE    CURVE DESCRIPTION
#-----------   ------------------   ----------------------------------
DEPT.M        00 001 00 00         : DEPTH        - DEPTH
GR  .API      00 310 00 00         : GR           - GAMMA RAY
NPHI.V/V      00 330 00 00         : PHIN         - NEUTRON POROSITY (SANDSTONE)
DPHI.V/V      00 890 00 00         : PHID         - DENSITY POROSITY (SANDSTONE)
ILD .OHMM     00 120 00 00         : RESD         - DEEP RESISTIVITY (DIL)
~PARAMETER INFORMATION
#MNEM.UNIT           DATA             DESCRIPTION OF MNEMONIC
#---------         -----------     ------------------------------
GL  .M        300.5                : gl           - GROUND LEVEL ELEVATION
EREF.M        300.5                : kb           - ELEVATION OF DEPTH REFERENCE
DATM.M        300.5                : datum        - DATUM ELEVATION
TDD .M        92.9                 : tdd          - TOTAL DEPTH DRILLER
RUN .         ONE                  : Run          - RUN NUMBER
ENG .         BILL                 : Engineer     - RECORDING ENGINEER
WIT .         JIM                  : Witness      - WITNESSED BY
MUD .         GEL                  : Mud_type     - MUD TYPE
MATR.         SANDSTONE            : Logunit      - NEUTRON MATRIX
TMAX.C        18                   : BHT          - MAXIMUM RECORDED TEMPERATURE
BHTD.M        92.9                 : BHTDEP       - MAXIMUM RECORDED TEMPERATURE
RMT .C        18                   : MDTP         - TEMPERATURE OF MUD
MUDD.KG/M     1020                 : MWT          - MUD DENSITY
NEUT.         1                    : NEUTRON      - NEUTRON TYPE
RESI.         0                    : RESIST       - RESISTIVITY TYPE
RM  .OHMM     6                    : RM           - RESISTIVITY OF MUD
RMC .OHMM     6                    : RMC          - RESISTIVITY OF MUD CAKE
RMF .OHMM     6                    : RMF          - RESISTIVITY OF MUD FILTRATE
SUFT.C        4                    : SUFT         - SURFACE TEMPERATURE
~A  DEPTH       GR     PHIN     PHID     RESD
   20.000   62.591    0.476    0.099    3.876
   20.250   58.587    0.479    0.107    3.495
   20.500   48.843    0.485    0.099    2.696
   20.750   51.245    0.487    0.098    3.880
   21.000   55.959    0.480    0.106    2.386
   21.250   72.841    0.478    0.102    1.975
   21.500   88.588    0.491    0.100    2.493
   21.750   86.918    0.491    0.101    1.970
   22.000   75.440    0.490    0.102    4.222
   22.250   63.383    0.496    0.101    3.144
   22.500   73.881    0.505    0.099    2.308
   22.750   73.969    0.492    0.094    3.794
   23.000   50.880    0.500    0.097    2.893
   23.250   61.978    0.493    0.100    3.122
   23.500   43.538    0.497    0.095    2.886
   23.750   38.999    0.507    0.095    4.633
   24.000   43.136    0.500    0.100    4.546
   24.250   50.163    0.500    0.117    4.099
   24.500   49.673    0.498    0.139    3.235
   24.750   41.665    0.487    0.197    2.113
   25.000   48.114    0.479    0.305    1.834
   25.250   56.899    0.467    0.313    3.401
   25.500   72.046    0.467    0.341    2.113
   25.750   65.194    0.467    0.356    2.423
   26.000   60.633    0.462    0.353    1.739
   26.250   63.657    0.460    0.349   92.030
   26.500   57.339    0.460    0.343  185.867
   26.750   68.437    0.459    0.323  116.885
   27.000   73.152    0.450    0.288   68.361
   27.250   83.093    0.446    0.297   45.624
   27.500   94.770    0.450    0.267   67.314
   27.750   83.848    0.455    0.297  222.176
   28.000   72.926    0.464    0.313  112.525
   28.250   69.544    0.474    0.325   70.763
   28.500   82.955    0.483    0.340   60.124
   28.750   55.818    0.470    0.339  291.394
   29.000   62.868    0.458    0.320  174.735
   29.250   69.896    0.465    0.312  105.907
   29.500   79.837    0.458    0.321   71.613
   29.750   81.104    0.460    0.315  136.120
   30.000   81.170    0.471    0.303   96.412
   30.250   97.473    0.490    0.296   69.187
   30.500   79.033    0.467    0.302   59.488
   30.750   90.131    0.466    0.291  141.910
   31.000   87.906    0.470    0.300   77.281
   31.250   71.778    0.469    0.319   46.342
   31.500   63.748    0.461    0.330  133.879
   31.750   60.944    0.468    0.322  137.921
   32.000   70.886    0.463    0.336   65.742
   32.250   54.759    0.462    0.352  134.362
   32.500   62.365    0.460    0.347  139.741
   32.750   69.415    0.460    0.351  413.919
   33.000   67.189    0.456    0.338  167.036
   33.250   52.797    0.451    0.330   89.782
   33.500   54.042    0.460    0.311   72.739
   33.750   65.719    0.465    0.324   56.060
   34.000   73.903    0.460    0.330   45.364
   34.250   74.013    0.452    0.324   90.428
   34.500   71.766    0.448    0.275  280.902
   34.750   88.069    0.456    0.293  156.655
   35.000   87.000    0.468    0.330   86.331
   35.250   58.728    0.469    0.339   68.218
   35.500   62.887    0.466    0.311   47.295
   35.750   66.423    0.465    0.299   55.467
   36.000   64.219    0.470    0.299  149.383
   36.250   63.707    0.465    0.324   90.542
   36.500   60.925    0.455    0.336   88.836
   36.750   52.873    0.458    0.337   64.513
   37.000   47.178    0.463    0.330  173.540
   37.250   57.697    0.465    0.325  127.685
   37.500   66.460    0.460    0.339  109.785
   37.750   50.911    0.454    0.354   95.411
   38.000   42.903    0.466    0.357   68.469
   38.250   42.435    0.476    0.357  379.119
   38.500   44.258    0.479    0.350  292.186
   38.750   47.237    0.479    0.347  212.187
   39.000   52.530    0.471    0.355  150.469
   39.250   54.353    0.457    0.360   85.019
   39.500   48.058    0.454    0.350  511.634
   39.750   47.567    0.444    0.336  321.366
   40.000   46.499    0.457    0.331  158.935
   40.250   68.029    0.467    0.325  210.689
   40.500   59.420    0.458    0.324  140.613
   40.750   68.205    0.458    0.328  301.028
   41.000   60.196    0.458    0.330  483.267
   41.250   51.009    0.463    0.320  187.962
   41.500   51.097    0.460    0.326  133.290
   41.750   43.066    0.464    0.342  385.531
   42.000   48.381    0.466    0.346  108.375
   42.250   49.048    0.455    0.358  249.470
   42.500   44.509    0.450    0.348  521.516
   42.750   46.332    0.462    0.347  251.859
   43.000   39.480    0.469    0.356  162.198
   43.250   36.654    0.469    0.369  102.001
   43.500   35.008    0.479    0.383  544.349
   43.750   36.252    0.474    0.387  624.883
   44.000   41.589    0.464    0.378  634.624
   44.250   45.703    0.455    0.371 1018.820
   44.500   53.910    0.459    0.361 1333.020
   44.750   47.614    0.455    0.363  753.196
   45.000   47.724    0.453    0.371  435.305
   45.250   55.331    0.457    0.348  210.225
   45.500   49.035    0.468    0.346  124.423
   45.750   53.193    0.479    0.339  610.235
   46.000   56.195    0.482    0.375  210.480
   46.250   46.986    0.475    0.398   91.221
   46.500   32.594    0.470    0.389  392.535
   46.750   33.304    0.475    0.382  313.515
   47.000   32.235    0.481    0.377  315.012
   47.250   29.966    0.477    0.344  407.287
   47.500   38.751    0.466    0.351  419.084
   47.750   45.200    0.465    0.358  242.495
   48.000   37.792    0.460    0.359  184.681
   48.250   39.615    0.456    0.364  166.528
   48.500   37.390    0.463    0.372  612.475
   48.750   35.165    0.455    0.376  296.139
   49.000   30.604    0.459    0.383  339.143
   49.250   26.044    0.465    0.387  402.979
   49.500   31.358    0.461    0.389  440.581
   49.750   25.663    0.460    0.398  562.903
   50.000   22.838    0.447    0.394  526.011
   50.250   29.887    0.457    0.376  588.937
   50.500   35.759    0.463    0.370  770.561
   50.750   34.134    0.466    0.377  639.318
   51.000   32.465    0.460    0.387  481.139
   51.250   29.083    0.454    0.386  366.866
   51.500   25.701    0.451    0.379  509.414
   51.750   24.054    0.446    0.383  650.847
   52.000   21.829    0.455    0.384  938.801
   52.250   18.425    0.452    0.373  657.081
   52.500   17.356    0.442    0.351  413.709
   52.750   23.828    0.445    0.355  289.561
   53.000   19.867    0.440    0.357 1354.180
   53.250   16.463    0.427    0.355 1192.380
   53.500   13.126    0.429    0.346 1597.650
   53.750   16.061    0.426    0.332  819.815
   54.000   23.689    0.435    0.326  573.801
   54.250   25.512    0.426    0.324  195.573
   54.500   17.504    0.432    0.347  840.569
   54.750   17.014    0.455    0.371 1048.700
   55.000   22.907    0.458    0.375  709.117
   55.250   23.573    0.449    0.367  774.362
   55.500   21.348    0.447    0.363  458.857
   55.750   19.122    0.439    0.358  265.193
   56.000   17.497    0.432    0.364 2315.660
   56.250   16.407    0.429    0.367 1475.420
   56.500   17.651    0.430    0.359 1328.820
   56.750   16.005    0.440    0.364 1076.580
   57.000   17.805    0.435    0.364  781.813
   57.250   21.942    0.437    0.365  462.720
   57.500   19.138    0.455    0.374  848.695
   57.750   22.740    0.441    0.336  526.778
   58.000   19.892    0.424    0.323  816.043
   58.250   18.245    0.411    0.318  644.830
   58.500   21.826    0.402    0.282  672.245
   58.750   20.157    0.373    0.284  779.075
   59.000   16.218    0.404    0.303 1149.440
   59.250   15.706    0.404    0.320 1271.730
   59.500   18.107    0.417    0.369 1066.480
   59.750   20.531    0.448    0.399 1732.600
   60.000   18.283    0.468    0.376 2240.130
   60.250   20.128    0.473    0.333 1327.410
   60.500   18.481    0.443    0.314  875.437
   60.750   19.148    0.427    0.334  374.926
   61.000   19.236    0.417    0.329  783.782
   61.250   17.611    0.424    0.315 1001.390
   61.500   20.612    0.412    0.314  727.213
   61.750   21.235    0.393    0.311  509.594
   62.000   20.166    0.370    0.298  563.811
   62.250   23.746    0.384    0.280  646.454
   62.500   26.125    0.401    0.279 1319.640
   62.750   25.057    0.405    0.276 1177.270
   63.000   26.301    0.398    0.273  864.133
   63.250   33.929    0.414    0.255  383.528
