~VERSION INFORMATION
 VERS.                 2.0:   CWLS LOG ASCII STANDARD -VERSION 2.0
 WRAP.                  NO:   ONE LINE PER DEPTH STEP
~WELL INFORMATION BLOCK
#MNEM.UNIT           DATA                    DESCRIPTION OF MNEMONIC
#---------    -------------------            -------------------------------
# Generated from Intellog Unique Number	CC_84_87/WELL/2335
NULL.         -999.25                        : NULL_VALUE
WELL.         SUNCOR CHEECHAM                : Well_name    - WELL
LOC .         11-32-084-06W4                 : Location     - LOCATION          
UWI .         AB/11-32-084-06W4/0            : Uwi          - UNIQUE WELL ID    
ENTR.         DW                             : Entered      - ENTERED BY        
SRVC.         SCHLUMBERGER                   : Scn          - SERVICE COMPANY   
DATE.         08 mar 82                      : Date         - LOG DATE
STRT.M        125                            : top_depth    - START DEPTH       
STOP.M        310.099                        : bot_depth    - STOP DEPTH        
STEP.M        0.3                            : increment    - STEP LENGTH       
~CURVE INFORMATION BLOCK
#MNEM UNIT       ERCB CURVE CODE    CURVE DESCRIPTION
#-----------   ------------------   ----------------------------------
DEPT.M        00 001 00 00         : DEPTH        - DEPTH                       
DPHI.V/V      00 890 00 00         : PHID         - DENSITY POROSITY (LIMESTONE)
NPHI.V/V      00 330 00 00         : PHIN         - NEUTRON POROSITY (LIMESTONE)
GR  .API      00 310 00 00         : GR           - GAMMA RAY                   
ILD .OHMM     00 120 00 00         : RESD         - DEEP RESISTIVITY (DIL)      
~PARAMETER INFORMATION       
#MNEM.UNIT           DATA             DESCRIPTION OF MNEMONIC
#---------         -----------     ------------------------------
GL  .M        486.3                : gl           - GROUND LEVEL ELEVATION      
EREF.M        489.4                : kb           - ELEVATION OF DEPTH REFERENCE
DATM.M        489.4                : datum        - DATUM ELEVATION             
TDD .M        314                  : tdd          - TOTAL DEPTH DRILLER         
RUN .         ONE                  : Run          - RUN NUMBER                  
ENG .         BILL                 : Engineer     - RECORDING ENGINEER          
WIT .         JIM                  : Witness      - WITNESSED BY                
MUD .         GEL                  : Mud_type     - MUD TYPE                    
MATR.         LIMESTONE            : Logunit      - NEUTRON MATRIX              
TMAX.C        20                   : BHT          - MAXIMUM RECORDED TEMPERATURE
BHTD.M        314                  : BHTDEP       - MAXIMUM RECORDED TEMPERATURE
MATR.         1                    : LOGUNIT      - NEUTRON MATRIX              
RMT .C        25                   : MDTP         - TEMPERATURE OF MUD          
NEUT.         1                    : NEUTRON      - NEUTRON TYPE                
RESI.         0                    : RESIST       - RESISTIVITY TYPE            
RMC .OHMM     0.25                 : RMC          - RESISTIVITY OF MUD CAKE     
RMF .OHMM     0.25                 : RMF          - RESISTIVITY OF MUD FILTRATE 
SUFT.C        15                   : SUFT         - SURFACE TEMPERATURE         
~A  DEPTH     PHID     PHIN       GR     RESD
# ...
  281.600    0.293    0.372   27.366    0.761
  281.900    0.302    0.372   25.550    0.776
  282.200    0.303    0.379   25.543    0.790
  282.500    0.303    0.395   29.149    0.806
  282.800    0.298    0.377   29.743    0.791
  283.100    0.291    0.393   26.118    0.762
  283.400    0.290    0.376   24.301    0.735
  283.700    0.292    0.355   23.693    0.695
  284.000    0.295    0.362   24.286    0.670
  284.300    0.300    0.372   23.073    0.658
  284.600    0.309    0.396   20.653    0.646
  284.900    0.320    0.393   21.852    0.658
  285.200    0.321    0.373   29.071    0.671
  285.500    0.307    0.361   37.493    0.710
  285.800    0.299    0.394   33.268    0.751
  286.100    0.306    0.403   30.852    0.765
  286.400    0.292    0.378   29.635    0.765
  286.700    0.306    0.353   26.016    0.765
  287.000    0.302    0.346   19.982    0.752
  287.300    0.294    0.365   20.576    0.738
  287.600    0.296    0.378   21.772    0.725
  287.900    0.312    0.393   20.560    0.686
  288.200    0.328    0.368   21.154    0.673
  288.500    0.331    0.359   26.565    0.673
  288.800    0.319    0.356   33.785    0.699
  289.100    0.295    0.366   42.208    0.753
  289.400    0.282    0.426   28.948    0.812
  289.700    0.300    0.400   21.710    0.827
  290.000    0.307    0.373   20.496    0.812
  290.300    0.308    0.381   22.296    0.769
  290.600    0.318    0.386   24.697    0.741
  290.900    0.311    0.392   26.495    0.714
  291.200    0.302    0.382   28.294    0.688
  291.500    0.304    0.381   29.488    0.663
  291.800    0.323    0.390   24.061    0.663
  292.100    0.328    0.379   25.858    0.664
  292.400    0.304    0.365   25.848    0.676
  292.700    0.305    0.363   25.238    0.715
  293.000    0.309    0.416   23.421    0.716
  293.300    0.315    0.396   21.607    0.703
  293.600    0.316    0.387   19.792    0.703
  293.900    0.310    0.417   19.180    0.703
  294.200    0.305    0.403   20.376    0.690
  294.500    0.307    0.367   22.774    0.678
  294.800    0.318    0.376   23.972    0.678
  295.100    0.318    0.378   22.760    0.678
  295.400    0.306    0.370   20.341    0.691
  295.700    0.306    0.363   19.126    0.691
  296.000    0.302    0.372   20.322    0.731
  296.300    0.289    0.362   22.723    0.788
  296.600    0.283    0.344   29.340    0.849
  296.900    0.275    0.380   44.390    0.950
  297.200    0.285    0.404   54.016    1.063
  297.500    0.311    0.386   60.032    1.234
  297.800    0.288    0.368   82.308    1.459
  298.100    0.262    0.378   81.697    1.759
  298.400    0.250    0.403   68.436    2.326
  298.700    0.242    0.419   66.019    2.553
  299.000    0.230    0.441   67.817    2.701
  299.300    0.216    0.434   83.469    2.702
  299.600    0.209    0.396   85.266    2.703
  299.900    0.216    0.401   65.382    2.557
  300.200    0.240    0.392   53.930    2.511
  300.500    0.256    0.382   53.319    2.465
  300.799    0.220    0.368   74.993    2.512
  301.099    0.170    0.343   70.165    2.658
  301.399    0.222    0.342   64.132    2.759
  301.699    0.252    0.355   64.126    2.865
  301.999    0.233    0.368   79.777    3.088
  302.299    0.170    0.382  101.450    3.088
  302.599    0.211    0.454   99.030    2.976
  302.899    0.345    0.538   97.217    2.816
  303.199    0.413    0.602  108.048    2.817
  303.499    0.394    0.641  120.687    2.871
  303.799    0.342    0.599  118.869    2.925
  304.099    0.199    0.510  116.453    3.273
  304.399    0.156    0.406  126.082    3.335
  304.699    0.170    0.435  121.255    3.336
  304.999    0.248    0.514  105.586    3.156
  305.299    0.353    0.607  101.965    3.041
  305.599    0.346    0.626  107.376    2.721
  305.899    0.269    0.586  117.002    2.622
  306.199    0.214    0.548  121.815    2.481
  306.499    0.273    0.536  128.430    2.529
  306.799    0.277    0.557  131.432    2.577
  307.099    0.180    0.474  130.823    2.777
  307.399    0.134    0.405  120.574    2.830
  307.699    0.129    0.353  124.180    2.938
  307.999    0.135    0.330  131.399    2.939
  308.299    0.175    0.359  128.379    2.941
  308.599    0.187    0.387  122.345    2.941
  308.899    0.161    0.380  125.950    2.998
  309.199    0.149    0.372  133.772    3.055
  309.499    0.155    0.370  134.967    3.231
  309.799    0.041    0.433  134.960    3.418
  310.099    0.004    0.439  134.347    3.615
