~VERSION INFORMATION
 VERS.                 2.0:   CWLS LOG ASCII STANDARD -VERSION 2.0
 WRAP.                  NO:   ONE LINE PER DEPTH STEP
~WELL INFORMATION BLOCK
#MNEM.UNIT           DATA                    DESCRIPTION OF MNEMONIC
#---------    -------------------            -------------------------------
# Generated from Intellog Unique Number	CN_91_93/WELL/3654
WELL.         12-15-093-11W4                 : Well_name    - WELL
LOC .         AB/12-15-093-11W4/0            : Location     - LOCATION
UWI .         AB/12-15-093-11W400            : Uwi          - UNIQUE WELL ID
ENTR.         JOETTE                         : Entered      - ENTERED BY
SRVC.         SCHLUMBERGER                   : Scn          - SERVICE COMPANY
DATE.         03/20/92                       : Date         - LOG DATE
STRT.M        0                              : top_depth    - START DEPTH
STOP.M        110                            : bot_depth    - STOP DEPTH
STEP.M        0.25                           : increment    - STEP LENGTH
 NULL. -999.2500:NULL Value
~CURVE INFORMATION BLOCK
#MNEM UNIT       ERCB CURVE CODE    CURVE DESCRIPTION
#-----------   ------------------   ----------------------------------
DEPT.M        00 001 00 00         : DEPTH        - DEPTH
GR  .API      00 310 00 00         : GR           - GAMMA RAY
NPHI.V/V      00 330 00 00         : PHIN         - NEUTRON POROSITY (SANDSTONE)
DPHI.V/V      00 890 00 00         : PHID         - DENSITY POROSITY (SANDSTONE)
ILD .OHMM     00 120 00 00         : RESD         - DEEP RESISTIVITY (DIL)
~PARAMETER INFORMATION
#MNEM.UNIT           DATA             DESCRIPTION OF MNEMONIC
#---------         -----------     ------------------------------
GL  .M        323.7                : gl           - GROUND LEVEL ELEVATION
EREF.M        323.7                : kb           - ELEVATION OF DEPTH REFERENCE
DATM.M        323.7                : datum        - DATUM ELEVATION
TDD .M        112.2                : tdd          - TOTAL DEPTH DRILLER
RUN .         ONE                  : Run          - RUN NUMBER
ENG .         BILL                 : Engineer     - RECORDING ENGINEER
WIT .         JIM                  : Witness      - WITNESSED BY
MUD .         GEL                  : Mud_type     - MUD TYPE
MATR.         SANDSTONE            : Logunit      - NEUTRON MATRIX
TMAX.C        8                    : BHT          - MAXIMUM RECORDED TEMPERATURE
BHTD.M        112.2                : BHTDEP       - MAXIMUM RECORDED TEMPERATURE
RMT .C        18                   : MDTP         - TEMPERATURE OF MUD
MUDD.KG/M     1100                 : MWT          - MUD DENSITY
NEUT.         1                    : NEUTRON      - NEUTRON TYPE
RESI.         0                    : RESIST       - RESISTIVITY TYPE
RM  .OHMM     6.4                  : RM           - RESISTIVITY OF MUD
RMC .OHMM     6.4                  : RMC          - RESISTIVITY OF MUD CAKE
RMF .OHMM     6.4                  : RMF          - RESISTIVITY OF MUD FILTRATE
SUFT.C        -15                  : SUFT         - SURFACE TEMPERATURE
~A  DEPTH       GR     PHIN     PHID     RESD
# ...
   87.000   84.656    0.470    0.274  116.597
   87.250   61.485    0.406    0.288   35.791
   87.500   74.692    0.426    0.246   23.814
   87.750   80.565    0.413    0.239   21.212
   88.000   71.476    0.424    0.240   29.771
   88.250   71.481    0.475    0.297   27.809
   88.500   50.071    0.403    0.321   94.939
   88.750   34.527    0.404    0.334  288.804
   89.000   38.053    0.397    0.334  257.257
   89.250   40.112    0.378    0.329  267.869
   89.500   61.534    0.388    0.298   42.866
   89.750   75.035    0.432    0.298   62.661
   90.000   70.934    0.388    0.265   30.513
   90.250   80.621    0.405    0.252   49.719
   90.500   83.560    0.412    0.262   33.991
   90.750   92.953    0.432    0.231   23.716
   91.000   62.154    0.448    0.272   33.739
   91.250   54.239    0.414    0.352  144.087
   91.500   58.058    0.417    0.291  183.908
   91.750   70.679    0.385    0.236   15.657
   92.000   88.287    0.423    0.238   16.638
   92.250   81.838    0.420    0.239   18.415
   92.500   88.591    0.448    0.236   25.845
   92.750   80.676    0.444    0.229   36.768
   93.000   79.508    0.448    0.230   23.015
   93.250   89.781    0.418    0.230   15.522
   93.500   85.093    0.468    0.237   28.193
   93.750   71.897    0.385    0.243   21.927
   94.000   83.050    0.427    0.243   23.142
   94.250   70.441    0.396    0.263   21.038
   94.500   61.059    0.394    0.293   37.955
   94.750   68.398    0.400    0.294   27.394
   95.000   79.846    0.399    0.264   20.455
   95.250   73.397    0.444    0.240   23.263
   95.500   78.096    0.445    0.235   23.733
   95.750   78.982    0.458    0.256   36.136
   96.000   70.772    0.478    0.277  127.623
   96.250   72.539    0.401    0.257   19.476
   96.500   73.718    0.439    0.219   22.758
   96.750   51.427    0.466    0.283   35.846
   97.000   77.249    0.383    0.281  139.218
   97.250   74.027    0.380    0.250   31.704
   97.500   66.405    0.448    0.298   35.812
   97.750   60.837    0.439    0.317  223.643
   98.000   25.637    0.420    0.338  264.912
   98.250   24.762    0.450    0.347  379.430
   98.500   27.996    0.459    0.340  384.516
   98.750   31.228    0.451    0.337  384.379
   99.000   30.060    0.414    0.321  379.089
   99.250   30.066    0.377    0.308  328.637
   99.500   23.910    0.355    0.311  296.738
   99.750   36.237    0.356    0.322  288.700
  100.000   43.284    0.397    0.282   22.352
  100.250   54.731    0.404    0.256   15.490
  100.500   84.368    0.423    0.253   15.485
  100.750   95.521    0.437    0.213   11.407
  101.000   96.994    0.404    0.214   20.439
  101.250   99.640    0.412    0.203   15.056
  101.500  131.037    0.399    0.189   11.396
  101.750  109.919    0.413    0.206   14.348
  102.000   93.495    0.413    0.222   15.144
  102.250   97.902    0.414    0.247   18.811
  102.500   67.689    0.380    0.293   16.418
  102.750   52.146    0.448    0.293   39.655
  103.000   37.189    0.446    0.308  127.360
  103.250   27.514    0.400    0.307  187.441
  103.500   41.308    0.358    0.287   42.398
  103.750   50.114    0.321    0.222   21.359
  104.000   45.132    0.331    0.227   18.143
  104.250   43.378    0.411    0.308   16.494
  104.500   46.024    0.431    0.303   17.290
  104.750   27.254    0.425    0.322   24.935
  105.000   23.445    0.432    0.307   31.823
  105.250   22.278    0.383    0.196   23.127
  105.500   21.990    0.356    0.170   20.323
  105.750   26.102    0.299    0.098   19.639
  106.000   32.562    0.303    0.066   17.375
  106.250   25.233    0.256    0.024   23.573
  106.500   21.131    0.132    0.004   43.106
  106.750   26.417    0.128    0.040   54.642
  107.000   20.262    0.108    0.034   53.165
  107.250   20.855    0.104    0.078   30.674
  107.500   20.566    0.097    0.060   82.025
  107.750   15.585    0.076    0.057   47.327
  108.000   22.925    0.124    0.077   30.855
  108.250   30.265    0.123    0.025   24.824
  108.500   36.137    0.120    0.010   31.469
  108.750   34.383    0.117   -0.006   34.360
  109.000   28.814    0.108    0.052   60.736
  109.250   26.472    0.104    0.089   45.662
  109.500   27.358    0.099    0.052   46.903
  109.750   32.645    0.095    0.039   42.063
  110.000   26.783    0.093    0.053   37.724
