~VERSION INFORMATION
 VERS.                 2.0:   CWLS LOG ASCII STANDARD -VERSION 2.0
 WRAP.                  NO:   ONE LINE PER DEPTH STEP
~WELL INFORMATION BLOCK
#MNEM.UNIT           DATA                    DESCRIPTION OF MNEMONIC
#---------    -------------------            -------------------------------
# Generated from Intellog Unique Number	CN_94_101/WELL/3246
WELL.         10-18-096-10W4                 : Well_name    - WELL
LOC .         AB/10-18-096-10W4/0            : Location     - LOCATION
UWI .         AB/10-18-096-10W400            : Uwi          - UNIQUE WELL ID
ENTR.         JOETTE                         : Entered      - ENTERED BY
SRVC.         SCHLUMBERGER                   : Scn          - SERVICE COMPANY
DATE.         07/20/92                       : Date         - LOG DATE
STRT.M        0                              : top_depth    - START DEPTH
STOP.M        115.25                         : bot_depth    - STOP DEPTH
STEP.M        0.25                           : increment    - STEP LENGTH
 NULL. -999.2500:NULL Value
~CURVE INFORMATION BLOCK
#MNEM UNIT       ERCB CURVE CODE    CURVE DESCRIPTION
#-----------   ------------------   ----------------------------------
DEPT.M        00 001 00 00         : DEPTH        - DEPTH
ILD .OHMM     00 120 00 00         : RESD         - DEEP RESISTIVITY (DIL)
GR  .API      00 310 00 00         : GR           - GAMMA RAY
NPHI.V/V      00 330 00 00         : PHIN         - NEUTRON POROSITY (SANDSTONE)
DPHI.V/V      00 890 00 00         : PHID         - DENSITY POROSITY (SANDSTONE)
~PARAMETER INFORMATION
#MNEM.UNIT           DATA             DESCRIPTION OF MNEMONIC
#---------         -----------     ------------------------------
GL  .M        0                    : gl           - GROUND LEVEL ELEVATION
EREF.M        0                    : kb           - ELEVATION OF DEPTH REFERENCE
DATM.M        0                    : datum        - DATUM ELEVATION
TDD .M        119.5                : tdd          - TOTAL DEPTH DRILLER
RUN .         ONE                  : Run          - RUN NUMBER
ENG .         BILL                 : Engineer     - RECORDING ENGINEER
WIT .         JIM                  : Witness      - WITNESSED BY
MUD .         GEL                  : Mud_type     - MUD TYPE
MATR.         SANDSTONE            : Logunit      - NEUTRON MATRIX
TMAX.C        0                    : BHT          - MAXIMUM RECORDED TEMPERATURE
BHTD.M        119.5                : BHTDEP       - MAXIMUM RECORDED TEMPERATURE
RMT .C        0                    : MDTP         - TEMPERATURE OF MUD
MUDD.KG/M     0                    : MWT          - MUD DENSITY
NEUT.         1                    : NEUTRON      - NEUTRON TYPE
RESI.         0                    : RESIST       - RESISTIVITY TYPE
RM  .OHMM     1.84                 : RM           - RESISTIVITY OF MUD
RMC .OHMM     1.84                 : RMC          - RESISTIVITY OF MUD CAKE
RMF .OHMM     1.84                 : RMF          - RESISTIVITY OF MUD FILTRATE
SUFT.C        4                    : SUFT         - SURFACE TEMPERATURE
~A  DEPTH     RESD       GR     PHIN     PHID
# ...
   87.000  109.427   26.856    0.327    0.249
   87.250   36.308   24.236    0.358    0.256
   87.500   85.612   15.720    0.370    0.273
   87.750  219.155   18.996    0.384    0.302
   88.000  183.869   22.271    0.390    0.315
   88.250  186.145   17.686    0.379    0.309
   88.500   79.978   16.375    0.387    0.321
   88.750   56.258   26.201    0.404    0.309
   89.000   53.707   36.681    0.422    0.291
   89.250   32.057   53.712    0.455    0.255
   89.500   20.530   81.878    0.469    0.240
   89.750   16.051   63.537    0.516    0.263
   90.000   16.446   45.197    0.504    0.275
   90.250   18.721   30.786    0.437    0.287
   90.500   27.274   30.131    0.390    0.297
   90.750   34.919   30.786    0.378    0.270
   91.000   32.182   34.716    0.382    0.248
   91.250   57.249   47.162    0.436    0.240
   91.500   28.319   60.917    0.441    0.246
   91.750   30.761   65.502    0.411    0.246
   92.000   21.638   38.646    0.395    0.293
   92.250   24.351   31.441    0.391    0.299
   92.500   24.652   22.271    0.395    0.321
   92.750   23.534   19.651    0.399    0.319
   93.000   21.689   22.926    0.395    0.320
   93.250   20.226   24.891    0.391    0.319
   93.500   19.083   28.166    0.384    0.314
   93.750   17.382   23.581    0.388    0.312
   94.000   15.648   22.926    0.397    0.323
   94.250   14.591   25.546    0.390    0.334
   94.500   14.602   26.856    0.387    0.325
   94.750   14.439   26.201    0.386    0.317
   95.000   13.947   15.720    0.389    0.315
   95.250   13.953   16.375    0.381    0.332
   95.500   13.798   20.306    0.391    0.335
   95.750   13.645   22.926    0.384    0.319
   96.000   13.652   20.961    0.385    0.317
   96.250   14.317   22.271    0.389    0.310
   96.500   14.665   20.961    0.387    0.314
   96.750   14.677   23.581    0.377    0.309
   97.000   15.571   26.856    0.377    0.304
   97.250   15.220   26.856    0.396    0.299
   97.500   15.051   18.341    0.379    0.293
   97.750   14.536   20.961    0.380    0.288
   98.000   14.207   20.306    0.381    0.291
   98.250   15.074   17.031    0.374    0.294
   98.500   15.441   19.651    0.370    0.297
   98.750   15.091   23.581    0.376    0.299
   99.000   14.923   23.581    0.381    0.299
   99.250   14.757   11.135    0.381    0.296
   99.500   13.928   11.135    0.380    0.284
   99.750   13.931   17.686    0.390    0.280
  100.000   14.272   16.375    0.383    0.302
  100.250   14.449   22.926    0.370    0.310
  100.500   14.122   30.786    0.380    0.306
  100.750   14.636   20.306    0.384    0.311
  101.000   13.648   25.546    0.380    0.310
  101.250   13.341   32.751    0.384    0.312
  101.500   13.988   36.681    0.387    0.310
  101.750   15.742   39.301    0.405    0.305
  102.000   16.313   49.782    0.408    0.297
  102.250   16.515   34.716    0.401    0.297
  102.500   16.528   36.681    0.428    0.311
  102.750   15.413   43.886    0.417    0.313
  103.000   15.063   62.882    0.399    0.280
  103.250   15.250   74.017    0.396    0.230
  103.500   16.372   45.852    0.400    0.273
  103.750   17.369   43.231    0.406    0.301
  104.000   18.002   36.681    0.419    0.306
  104.250   16.985   39.956    0.402    0.313
  104.500   16.600   39.301    0.394    0.323
  104.750   17.006   33.406    0.395    0.323
  105.000   17.420   26.201    0.406    0.322
  105.250   17.025   20.961    0.409    0.319
  105.500   15.880   24.891    0.397    0.309
  105.750   16.073   30.786    0.389    0.303
  106.000   16.658   28.821    0.379    0.293
  106.250   16.667   37.991    0.390    0.291
  106.500   15.542   45.852    0.382    0.291
  106.750   15.372   60.262    0.356    0.290
  107.000   17.092   75.328    0.356    0.267
  107.250   17.926   58.952    0.360    0.258
  107.500   17.113   49.782    0.371    0.258
  107.750   16.145   30.786    0.382    0.256
  108.000   16.344   34.061    0.382    0.269
  108.250   17.142   37.336    0.365    0.276
  108.500   17.152   42.576    0.356    0.253
  108.750   18.201   41.266    0.369    0.273
  109.000   17.171   28.166    0.367    0.280
  109.250   16.392   32.096    0.371    0.269
  109.500   16.021   29.476    0.379    0.262
  109.750   15.843   33.406    0.361    0.244
  110.000   16.810   33.406    0.354    0.242
  110.250   17.219   30.131    0.364    0.241
  110.500   16.438   25.546    0.371    0.276
  110.750   15.878   24.891    0.374    0.287
  111.000   15.887   25.546    0.379    0.299
  111.250   15.710   26.856    0.382    0.307
  111.500   15.356   30.786    0.377    0.307
  111.750   15.008   37.336    0.406    0.309
  112.000   14.328   34.061    0.388    0.308
  112.250   13.840   30.131    0.382    0.305
  112.500   12.907   22.926    0.383    0.315
  112.750   12.320   22.271    0.398    0.323
  113.000   11.091   26.201    0.388    0.329
  113.250    9.526   25.546    0.385    0.265
  113.500    3.392   20.306    0.409    0.185
  113.750    4.000   19.651    0.441    0.063
  114.000    5.560   21.616    0.425    0.065
  114.250    6.792   24.236    0.426    0.075
  114.500    9.331  106.114    0.435    0.080
  114.750    8.302   89.083    0.415    0.047
  115.000   10.755   67.467    0.372    0.048
  115.250   14.436   73.362    0.330    0.058
